,addressline1,addressline2,addressline3,addressline4,businessname,businesstype,businesstypeid,confidenceinmanagement,extractdate,fhrsid,hygiene,itemcount,latitude,localauthoritybusinessid,localauthoritycode,localauthorityemailaddress,localauthorityname,localauthoritywebsite,longitude,postcode,ratingdate,ratingkey,ratingvalue,returncode,schemetype,structural
42726,,,,,1502 Chocolates,Other catering premises,7841,10,,721741,0,,,0000069/FOOD,062,envhealth@ambervalley.gov.uk,Amber Valley,http://www.ambervalley.gov.uk,,,2014-11-07,fhrs_4_en-GB,4,,FHRS,0
42727,Cotes Park Industrial Estate Clover Nook Road Somercotes Alfreton Derbyshire,,,,A G Parfett And Sons,Distributors/Transporters,7,10,,671,10,,53.09038400000000,0001727/FH,062,envhealth@ambervalley.gov.uk,Amber Valley,http://www.ambervalley.gov.uk,-1.35862900000000,DE55 4RF,2014-06-05,fhrs_3_en-GB,3,,FHRS,10
42728,Lane Head Farm Belper Road Alderwasley Belper Derbyshire,,,,A Pigs Tale,Retailers - other,4613,5,,22124,5,,53.07695300000000,07/00126/FH,062,envhealth@ambervalley.gov.uk,Amber Valley,http://www.ambervalley.gov.uk,-1.54374600000000,DE56 2RF,2013-03-15,fhrs_5_en-GB,5,,FHRS,5
42729,Stall 3 Alfreton Indoor Market Hall Institute Lane Alfreton Derbyshire,,,,A Stoppard And Son Cooked Meat Stall,Retailers - other,4613,5,,7482,5,,53.09688600000000,03/00040/FH,062,envhealth@ambervalley.gov.uk,Amber Valley,http://www.ambervalley.gov.uk,-1.38813200000000,DE55 7BQ,2013-03-21,fhrs_5_en-GB,5,,FHRS,0
42730,,,,,A.I.M Commercial Services (Home Caterer),Other catering premises,7841,5,,715556,0,,,0000045/FH,062,envhealth@ambervalley.gov.uk,Amber Valley,http://www.ambervalley.gov.uk,,,2014-11-06,fhrs_5_en-GB,5,,FHRS,0
42731,Thorntons Park Staff Canteen Thorntons Park Wimsey Way Somercotes Alfreton Derbyshire,,,,Abm Catering,Restaurant/Cafe/Canteen,1,5,,717,5,,53.08717800000000,0002256/FH,062,envhealth@ambervalley.gov.uk,Amber Valley,http://www.ambervalley.gov.uk,-1.38831400000000,DE55 4XJ,2013-10-30,fhrs_5_en-GB,5,,FHRS,0
42732,1st Floor Knightsbridge Court Nottingham Road Ripley Derbyshire,,,,Acorn Training,Restaurant/Cafe/Canteen,1,0,,33701,5,,53.05084300000000,10/00060/FH,062,envhealth@ambervalley.gov.uk,Amber Valley,http://www.ambervalley.gov.uk,-1.40404500000000,DE5 3LA,2013-07-18,fhrs_5_en-GB,5,,FHRS,0
42733,Field Lane Belper Derbyshire,,,,Ada Belfield Residential Home,Hospitals/Childcare/Caring Premises,5,0,,1089,5,,53.02540900000000,0008209/FH,062,envhealth@ambervalley.gov.uk,Amber Valley,http://www.ambervalley.gov.uk,-1.48422000000000,DE56 1DE,2014-07-16,fhrs_5_en-GB,5,,FHRS,5
42734,Lindum 2C Greenhill Lane Riddings Alfreton Derbyshire,,,,AJA Litebites,Other catering premises,7841,5,,715555,5,,53.07203600000000,0000044/FH,062,envhealth@ambervalley.gov.uk,Amber Valley,http://www.ambervalley.gov.uk,-1.37014000000000,DE55 4EX,2014-11-05,fhrs_5_en-GB,5,,FHRS,5
42735,50 Peak Avenue Riddings Alfreton Derbyshire,,,,Alan's Ice Cream,Mobile caterer,7846,0,,688266,0,,53.07177000000000,0000052/FOOD,062,envhealth@ambervalley.gov.uk,Amber Valley,http://www.ambervalley.gov.uk,-1.37598000000000,DE55 4AR,2014-06-30,fhrs_5_en-GB,5,,FHRS,5
42736,11 Albion Street Ripley Derbyshire,,,,Albion News,Retailers - other,4613,10,,1159,5,,53.04860300000000,0009203/FH,062,envhealth@ambervalley.gov.uk,Amber Valley,http://www.ambervalley.gov.uk,-1.40012300000000,DE5 3ET,2013-02-21,fhrs_4_en-GB,4,,FHRS,5
42737,Daltons Close Langley Mill Heanor Derbyshire,,,,Aldercar Community Language College + Post 16 Phoenix Centre,School/college/university,7845,5,,925,5,,53.02546300000000,0005342/FOOD,062,envhealth@ambervalley.gov.uk,Amber Valley,http://www.ambervalley.gov.uk,-1.34195400000000,NG16 4HL,2014-05-09,fhrs_5_en-GB,5,,FHRS,5
42738,Daltons Close Langley Mill Nottingham,,,,Aldercar Infant   Nursery,School/college/university,7845,0,,926,5,,53.02594100000000,0005443/FOOD,062,envhealth@ambervalley.gov.uk,Amber Valley,http://www.ambervalley.gov.uk,-1.33898000000000,NG16 4GP,2013-10-07,fhrs_5_en-GB,5,,FHRS,5
42739,115 Upper Dunstead Road Langley Mill Heanor Derbyshire,,,,Aldercar Stores,Retailers - other,4613,0,,942,0,,53.02336800000000,0005680/FH,062,envhealth@ambervalley.gov.uk,Amber Valley,http://www.ambervalley.gov.uk,-1.33700600000000,NG16 4FJ,2013-04-03,fhrs_5_en-GB,5,,FHRS,0
42740,Higg Lane Alderwasley Belper Derbyshire,,,,Alderwasley Hall School,School/college/university,7845,0,,745,5,,53.07612700000000,0002698/FOOD,062,envhealth@ambervalley.gov.uk,Amber Valley,http://www.ambervalley.gov.uk,-1.51430400000000,DE56 2SR,2013-03-18,fhrs_5_en-GB,5,,FHRS,5
42741,Nottingham Road Somercotes Alfreton Derbyshire,,,,Aldi Store,Retailers - supermarkets/hypermarkets,7840,0,,702,0,,53.08471700000000,0001994/FH,062,envhealth@ambervalley.gov.uk,Amber Valley,http://www.ambervalley.gov.uk,-1.37486700000000,DE55 4JN,2014-08-20,fhrs_5_en-GB,5,,FHRS,5
42742,High Street Heanor Derbyshire D,,,,Aldi Stores,Retailers - supermarkets/hypermarkets,7840,0,,7560,5,,53.01560500000000,03/00073/FH,062,envhealth@ambervalley.gov.uk,Amber Valley,http://www.ambervalley.gov.uk,-1.35908200000000,DE75 7EX,2013-09-16,fhrs_5_en-GB,5,,FHRS,0
42743,Heanor Road Loscoe Heanor Derbyshire,,,,Alfred Jones,Retailers - other,4613,,,997,,,53.02111500000000,0006931/FH,062,envhealth@ambervalley.gov.uk,Amber Valley,http://www.ambervalley.gov.uk,-1.36563400000000,DE75 7JT,2013-07-10,fhrs_2_en-GB,2,,FHRS,
42744,Alfreton Park Alfreton Derbyshire,,,,Alfreton Cricket Club,Other catering premises,7841,5,,552,5,,53.09486000000000,0000030/FH,062,envhealth@ambervalley.gov.uk,Amber Valley,http://www.ambervalley.gov.uk,-1.39634400000000,DE55 7AL,2014-05-16,fhrs_5_en-GB,5,,FHRS,5
42745,Alfreton Genesis Enterprise & Business Incubator King Street Alfreton Derbyshire,,,,Alfreton Genesis Centre,Restaurant/Cafe/Canteen,1,10,,7497,10,,53.09676900000000,03/00049/FH,062,envhealth@ambervalley.gov.uk,Amber Valley,http://www.ambervalley.gov.uk,-1.39162800000000,DE55 7DQ,2014-06-11,fhrs_3_en-GB,3,,FHRS,5
42746,Grange Street Alfreton Derbyshire,,,,Alfreton Grange Arts College,School/college/university,7845,0,,566,0,,53.09440300000000,0000314/FOOD,062,envhealth@ambervalley.gov.uk,Amber Valley,http://www.ambervalley.gov.uk,-1.38603100000000,DE55 7JA,2014-04-30,fhrs_5_en-GB,5,,FHRS,5
42747,Church Street Alfreton Derbyshire,,,,Alfreton Hall,Restaurant/Cafe/Canteen,1,5,,21371,0,,53.09774100000000,07/00014/FH,062,envhealth@ambervalley.gov.uk,Amber Valley,http://www.ambervalley.gov.uk,-1.39189800000000,DE55 7AH,2014-02-18,fhrs_5_en-GB,5,,FHRS,5
42748,Coffee Shop Rooms 6 And 15 Alfreton House High Street Alfreton Derbyshire,,,,Alfreton House Tea Rooms,Restaurant/Cafe/Canteen,1,0,,581,5,,53.09741800000000,0000447/FH,062,envhealth@ambervalley.gov.uk,Amber Valley,http://www.ambervalley.gov.uk,-1.38497300000000,DE55 7HH,2013-09-05,fhrs_5_en-GB,5,,FHRS,0
42749,Church Street Alfreton Derbyshire,,,,Alfreton Leisure Centre,Restaurant/Cafe/Canteen,1,5,,9767,0,,53.09692000000000,04/00060/FOOD,062,envhealth@ambervalley.gov.uk,Amber Valley,http://www.ambervalley.gov.uk,-1.39314900000000,DE55 7BD,2015-02-04,fhrs_5_en-GB,5,,FHRS,0
42750,43 Nottingham Road Alfreton Derbyshire,,,,Alfreton News,Retailers - other,4613,10,,616,10,,53.09717000000000,0000720/FH,062,envhealth@ambervalley.gov.uk,Amber Valley,http://www.ambervalley.gov.uk,-1.38219900000000,DE55 7HL,2014-08-18,fhrs_3_en-GB,3,,FHRS,5
42751,Grange Street Alfreton Derbyshire,,,,Alfreton Nursery School   Childrens Centre,Hospitals/Childcare/Caring Premises,5,,,565,,,53.09440300000000,0000310/FH,062,envhealth@ambervalley.gov.uk,Amber Valley,http://www.ambervalley.gov.uk,-1.38603100000000,DE55 7JA,2014-01-23,fhrs_exempt_en-GB,Exempt,,FHRS,
42752,Alfreton Park Access Road Alfreton Derbyshire,,,,Alfreton Park School,School/college/university,7845,0,,15035,0,,53.09486000000000,05/00090/FOOD,062,envhealth@ambervalley.gov.uk,Amber Valley,http://www.ambervalley.gov.uk,-1.39634400000000,DE55 7AL,2014-05-09,fhrs_5_en-GB,5,,FHRS,5
42753,55-57 High Street Alfreton Derbyshire,,,,Alfreton Snooker Hall,Pub/bar/nightclub,7843,20,,572,10,,53.09765500000000,0000387/FH,062,envhealth@ambervalley.gov.uk,Amber Valley,http://www.ambervalley.gov.uk,-1.38924100000000,DE55 7DR,2013-11-08,fhrs_1_en-GB,1,,FHRS,15
42754,92 - 98 Mansfield Road Alfreton Derbyshire,,,,Alfreton Stores,Retailers - other,4613,10,,25144,5,,53.09881000000000,08/00048/FH,062,envhealth@ambervalley.gov.uk,Amber Valley,http://www.ambervalley.gov.uk,-1.37779900000000,DE55 7JN,2013-08-19,fhrs_4_en-GB,4,,FHRS,0
42755,North Street Alfreton Derbyshire,,,,Alfreton Town Football Club Hospitality,Pub/bar/nightclub,7843,0,,1312,5,,53.09381300000000,0011453/FH,062,envhealth@ambervalley.gov.uk,Amber Valley,http://www.ambervalley.gov.uk,-1.37978300000000,DE55 7FZ,2014-08-04,fhrs_5_en-GB,5,,FHRS,0
42756,Alfreton Town Supporters Social Club North Street Alfreton Derbyshire,,,,Alfreton Town Supporters Social Club,Pub/bar/nightclub,7843,5,,560,5,,53.09381300000000,0000220/FH,062,envhealth@ambervalley.gov.uk,Amber Valley,http://www.ambervalley.gov.uk,-1.37978300000000,DE55 7FZ,2014-03-06,fhrs_5_en-GB,5,,FHRS,0
42757,Gregorys Way White Moor Belper Derbyshire,,,,Alton Manor Day Nursery,Hospitals/Childcare/Caring Premises,5,0,,1090,0,,53.03065900000000,0008263/FH,062,envhealth@ambervalley.gov.uk,Amber Valley,http://www.ambervalley.gov.uk,-1.46191000000000,DE56 0HS,2014-01-03,fhrs_5_en-GB,5,,FHRS,5
42758,Mobile Catering Unit Cotes Park Lane Somercotes Alfreton Derbyshire,,,,Amanda's Catering Van,Mobile caterer,7846,,,18190,,,,06/00085/FH,062,envhealth@ambervalley.gov.uk,Amber Valley,http://www.ambervalley.gov.uk,,,2014-09-01,fhrs_3_en-GB,3,,FHRS,
42759,,,,,Amazing Bakes,Other catering premises,7841,5,,584392,0,,,0000029/FOOD,062,envhealth@ambervalley.gov.uk,Amber Valley,http://www.ambervalley.gov.uk,,,2013-09-11,fhrs_5_en-GB,5,,FHRS,0
42760,Lower Somercotes Somercotes Alfreton Derbyshire,,,,Amber Valley Rugby Club,Pub/bar/nightclub,7843,10,,680,5,,53.07522200000000,0001842/FH,062,envhealth@ambervalley.gov.uk,Amber Valley,http://www.ambervalley.gov.uk,-1.35751100000000,DE55 4NQ,2011-10-26,fhrs_4_en-GB,4,,FHRS,0
42761,Unit 1 First Floor Rear 157 Nottingham Road Somercotes Alfreton Derbyshire,,,,Amber Valley Training,Restaurant/Cafe/Canteen,1,10,,33726,5,,53.08564900000000,10/00062/FH,062,envhealth@ambervalley.gov.uk,Amber Valley,http://www.ambervalley.gov.uk,-1.37427100000000,DE55 4HQ,2013-07-29,fhrs_4_en-GB,4,,FHRS,5
42762,51 Brook Street Heage Belper Derbyshire,,,,Amber Valley Wines,Distributors/Transporters,7,0,,34012,0,,53.04807000000000,10/00082/FOOD,062,envhealth@ambervalley.gov.uk,Amber Valley,http://www.ambervalley.gov.uk,-1.44592600000000,DE56 2AG,2015-02-03,fhrs_5_en-GB,5,,FHRS,5
42763,23-27 Church Street Ripley Derbyshire,,,,Amber Value,Retailers - other,4613,,,1175,,,53.05109400000000,0009473/HS,062,envhealth@ambervalley.gov.uk,Amber Valley,http://www.ambervalley.gov.uk,-1.40574200000000,DE5 3BU,2014-08-12,fhrs_exempt_en-GB,Exempt,,FHRS,
42764,Toadmoor Lane Ambergate Belper Derbyshire,,,,Ambergate Primary School,School/college/university,7845,5,,1286,0,,53.05617300000000,0010960/FOOD,062,envhealth@ambervalley.gov.uk,Amber Valley,http://www.ambervalley.gov.uk,-1.48070500000000,DE56 2GN,2014-06-09,fhrs_5_en-GB,5,,FHRS,5
42765,Toadmoor Lane Ambergate Belper Derbyshire,,,,Ambergate Traditional Chip Shop,Takeaway/sandwich shop,7844,10,,198201,0,,53.04611500000000,0010961/FH,062,envhealth@ambervalley.gov.uk,Amber Valley,http://www.ambervalley.gov.uk,-1.40159800000000,DE5 2GN,2014-10-21,fhrs_4_en-GB,4,,FHRS,0
42766,Long Close Cemetery Lane Ripley Derbyshire,,,,Ambervale Resource Centre,Hospitals/Childcare/Caring Premises,5,0,,1185,5,,53.04500200000000,0009557/FH,062,envhealth@ambervalley.gov.uk,Amber Valley,http://www.ambervalley.gov.uk,-1.40437900000000,DE5 3HY,2014-07-08,fhrs_5_en-GB,5,,FHRS,0
42767,Chesterfield Road Oakerthorpe Alfreton Derbyshire,,,,Anchor Inn,Restaurant/Cafe/Canteen,1,5,,912,5,,53.09135900000000,0005047/FH,062,envhealth@ambervalley.gov.uk,Amber Valley,http://www.ambervalley.gov.uk,-1.42089600000000,DE55 7LP,2013-04-24,fhrs_5_en-GB,5,,FHRS,5
42768,10 King Street Duffield Belper Derbyshire,,,,Andrew Coates Traditional Butchers,Manufacturers/packers,7839,5,,797,0,,52.98909000000000,0003543/FH,062,envhealth@ambervalley.gov.uk,Amber Valley,http://www.ambervalley.gov.uk,-1.48997000000000,DE56 4EU,2014-08-27,fhrs_5_en-GB,5,,FHRS,5
42769,18 High Street Alfreton Derbyshire,,,,Andrews Fish Bar,Takeaway/sandwich shop,7844,5,,568,0,,53.09742200000000,0000361/FH,062,envhealth@ambervalley.gov.uk,Amber Valley,http://www.ambervalley.gov.uk,-1.38928900000000,DE55 7BN,2014-02-13,fhrs_5_en-GB,5,,FHRS,5
42770,Mobile Catering Unit Nottingham Road Somercotes Alfreton Derbyshire,,,,Angelas Kitchen,Mobile caterer,7846,0,,704,5,,53.08223300000000,0001996/FH,062,envhealth@ambervalley.gov.uk,Amber Valley,http://www.ambervalley.gov.uk,-1.37254400000000,DE55 4JJ,2013-07-03,fhrs_5_en-GB,5,,FHRS,5
42771,Unit 2 Acorn Centre Station Road Langley Mill Nottingham,,,,Angelo's Chippery,Takeaway/sandwich shop,7844,5,,1536,5,,53.01952400000000,0027211/FH,062,envhealth@ambervalley.gov.uk,Amber Valley,http://www.ambervalley.gov.uk,-1.32971600000000,NG16 4AF,2013-10-23,fhrs_5_en-GB,5,,FHRS,5
42772,162 Ashbourne Road Turnditch Belper Derbyshire,,,,Anthony Andrews Butchers,Retailers - other,4613,5,,9503,5,,53.01599500000000,04/00021/HS,062,envhealth@ambervalley.gov.uk,Amber Valley,http://www.ambervalley.gov.uk,-1.55722300000000,DE56 2LH,2014-03-04,fhrs_5_en-GB,5,,FHRS,5
42773,Anvil Club Casson Street Ironville Derbyshire,,,,Anvil Club,Pub/bar/nightclub,7843,10,,22073,5,,53.06222200000000,07/00114/FH,062,envhealth@ambervalley.gov.uk,Amber Valley,http://www.ambervalley.gov.uk,-1.35219800000000,NG16 5NN,2014-08-13,fhrs_4_en-GB,4,,FHRS,0
42774,Central Road Alfreton Derbyshire,,,,Argos,Retailers - other,4613,,,7677,,,53.09738900000000,03/00140/FH,062,envhealth@ambervalley.gov.uk,Amber Valley,http://www.ambervalley.gov.uk,-1.38640700000000,DE55 7BH,2014-03-31,fhrs_exempt_en-GB,Exempt,,FHRS,
42775,Unit 3 Heanor Retail Park Heanor Derbyshire,,,,Argos,Retailers - other,4613,,,7669,,,53.01560500000000,03/00137/HS,062,envhealth@ambervalley.gov.uk,Amber Valley,http://www.ambervalley.gov.uk,-1.35908200000000,DE75 7EX,2014-03-31,fhrs_exempt_en-GB,Exempt,,FHRS,
42776,Arkwrights Bar 6 Campbell Street Belper Derbyshire,,,,Arkwrights Bar,Pub/bar/nightclub,7843,0,,611164,0,,53.02232900000000,0000021/FH,062,envhealth@ambervalley.gov.uk,Amber Valley,http://www.ambervalley.gov.uk,-1.48297400000000,DE56 1AP,2013-11-22,fhrs_5_en-GB,5,,FHRS,0
42777,Station Road Langley Mill Derbyshire,,,,Asda Superstore,Retailers - supermarkets/hypermarkets,7840,0,,34117,5,,53.02020100000000,10/00090/FH,062,envhealth@ambervalley.gov.uk,Amber Valley,http://www.ambervalley.gov.uk,-1.33015300000000,NG16 4LH,2014-10-28,fhrs_5_en-GB,5,,FHRS,5
42778,Chesterfield Road Alfreton Derbyshire,,,,Ash Lea House,Hospitals/Childcare/Caring Premises,5,0,,557,5,,53.09890400000000,0000167/FH,062,envhealth@ambervalley.gov.uk,Amber Valley,http://www.ambervalley.gov.uk,-1.39074600000000,DE55 7DT,2013-05-03,fhrs_5_en-GB,5,,FHRS,5
42779,Ashfields House 34 Mansfield Road Heanor Derbyshire,,,,Ashfields Residential Home,Hospitals/Childcare/Caring Premises,5,0,,999,5,,53.01632900000000,0006959/FH,062,envhealth@ambervalley.gov.uk,Amber Valley,http://www.ambervalley.gov.uk,-1.34502900000000,DE75 7AQ,2013-12-05,fhrs_5_en-GB,5,,FHRS,5
42780,Watchorn Lane Alfreton Derbyshire,,,,Ashwood Inn,Pub/bar/nightclub,7843,5,,559,10,,53.08981300000000,0000196/FH,062,envhealth@ambervalley.gov.uk,Amber Valley,http://www.ambervalley.gov.uk,-1.39375700000000,DE55 7AT,2014-01-09,fhrs_3_en-GB,3,,FHRS,10
42781,,,,,Astral House,Mobile caterer,7846,0,,451796,0,,,12/00079/FH,062,envhealth@ambervalley.gov.uk,Amber Valley,http://www.ambervalley.gov.uk,,,2014-09-22,fhrs_5_en-GB,5,,FHRS,0
42782,Unit 10 Salcombe Road Alfreton Derbyshire,,,,Atlas Workout Warehouse,Retailers - other,4613,,,17517,,,53.10182000000000,06/00005/HS,062,envhealth@ambervalley.gov.uk,Amber Valley,http://www.ambervalley.gov.uk,-1.37249900000000,DE55 7RG,2014-08-27,fhrs_exempt_en-GB,Exempt,,FHRS,
42783,Tesco Stores Hall Street Alfreton Derbyshire,,,,Avenance,Restaurant/Cafe/Canteen,1,5,,10087,0,,53.09688600000000,04/00121/FH,062,envhealth@ambervalley.gov.uk,Amber Valley,http://www.ambervalley.gov.uk,-1.38813200000000,DE55 7BQ,2014-01-06,fhrs_5_en-GB,5,,FHRS,5
42784,Tesco Stores High Street Heanor Derbyshire,,,,Avenance,Restaurant/Cafe/Canteen,1,0,,1537,0,,53.01560500000000,0027324/FH,062,envhealth@ambervalley.gov.uk,Amber Valley,http://www.ambervalley.gov.uk,-1.35908200000000,DE75 7EX,2014-01-03,fhrs_5_en-GB,5,,FHRS,5
42785,Central Road Alfreton Derbyshire,,,,B & M Retail Limited (T/A B   M Bargains),Retailers - other,4613,5,,555,5,,53.09738900000000,0000135/FH,062,envhealth@ambervalley.gov.uk,Amber Valley,http://www.ambervalley.gov.uk,-1.38640700000000,DE55 7BH,2014-08-13,fhrs_5_en-GB,5,,FHRS,5
42786,Chapel Street Belper Derbyshire,,,,B & M Retail Limited (T/A B   M Bargains),Retailers - other,4613,5,,547867,5,,53.02199400000000,0007923/HS,062,envhealth@ambervalley.gov.uk,Amber Valley,http://www.ambervalley.gov.uk,-1.48430500000000,DE56 1AR,2013-08-06,fhrs_5_en-GB,5,,FHRS,5
42787,Derby Road Belper Derbyshire,,,,Babington Hospital,Hospitals/Childcare/Caring Premises,5,0,,1082,0,,53.01895400000000,0008091/FOOD,062,envhealth@ambervalley.gov.uk,Amber Valley,http://www.ambervalley.gov.uk,-1.48619000000000,DE56 1WH,2013-08-29,fhrs_5_en-GB,5,,FHRS,5
42788,35 Birchwood Lane Somercotes Alfreton Derbyshire,,,,Bailey's Stores,Retailers - other,4613,5,,667,0,,53.08124600000000,0001618/FH,062,envhealth@ambervalley.gov.uk,Amber Valley,http://www.ambervalley.gov.uk,-1.36430300000000,DE55 4ND,2013-01-22,fhrs_5_en-GB,5,,FHRS,0
42789,22 George Street Riddings Alfreton Derbyshire,,,,Bains Supermarket,Retailers - other,4613,5,,649,0,,53.06912800000000,0001269/FH,062,envhealth@ambervalley.gov.uk,Amber Valley,http://www.ambervalley.gov.uk,-1.36603400000000,DE55 4AU,2015-02-05,fhrs_5_en-GB,5,,FHRS,5
42790,78 High Street Alfreton Derbyshire,,,,Bakery,Manufacturers/packers,7839,0,,22186,0,,53.09742700000000,07/00139/FH,062,envhealth@ambervalley.gov.uk,Amber Valley,http://www.ambervalley.gov.uk,-1.38672000000000,DE55 7BE,2013-06-26,fhrs_5_en-GB,5,,FHRS,5
42791,Wilmot Street Heanor Derbyshire,,,,Banana Moon Day Nursery,School/college/university,7845,5,,45399,5,,53.01073400000000,11/00005/FH,062,envhealth@ambervalley.gov.uk,Amber Valley,http://www.ambervalley.gov.uk,-1.35435500000000,DE75 7EF,2014-05-08,fhrs_5_en-GB,5,,FHRS,0
42792,Duffield Bank Duffield Derbyshire,,,,Bankwood Nursing Home - HC-One,Hospitals/Childcare/Caring Premises,5,0,,793,5,,53.11853408813480,0003442/FH,062,envhealth@ambervalley.gov.uk,Amber Valley,http://www.ambervalley.gov.uk,-1.60029995441437,DE56 4BG,2014-07-16,fhrs_5_en-GB,5,,FHRS,5
42793,56 Bridge Street Belper Derbyshire,,,,Barakah,Restaurant/Cafe/Canteen,1,10,,636799,10,,53.02614100000000,0007792/HS,062,envhealth@ambervalley.gov.uk,Amber Valley,http://www.ambervalley.gov.uk,-1.48507600000000,DE56 1AZ,2014-03-06,fhrs_4_en-GB,4,,FHRS,0
42794,15B King Street Belper Derbyshire,,,,Bargain Booze,Retailers - other,4613,0,,27970,0,,53.02329400000000,08414/FH,062,envhealth@ambervalley.gov.uk,Amber Valley,http://www.ambervalley.gov.uk,-1.48364900000000,DE56 1PW,2012-12-05,fhrs_5_en-GB,5,,FHRS,0
42795,18 Oxford Street Ripley Derbyshire,,,,Bargain Booze,Retailers - other,4613,0,,1242,0,,53.04980100000000,0010281/FH,062,envhealth@ambervalley.gov.uk,Amber Valley,http://www.ambervalley.gov.uk,-1.40595400000000,DE5 3AL,2014-10-27,fhrs_5_en-GB,5,,FHRS,0
42796,32 Market Place Heanor Derbyshire,,,,Bargain Booze,Retailers - other,4613,10,,1004,0,,53.01323900000000,0006992/HS,062,envhealth@ambervalley.gov.uk,Amber Valley,http://www.ambervalley.gov.uk,-1.35366200000000,DE75 7EG,2014-06-16,fhrs_4_en-GB,4,,FHRS,10
42797,21 Cromford Road Langley Mill Derbyshire,,,,Basilia,Restaurant/Cafe/Canteen,1,0,,482614,0,,53.02060200000000,12/00104/FH,062,envhealth@ambervalley.gov.uk,Amber Valley,http://www.ambervalley.gov.uk,-1.32795500000000,NG16 4ED,2014-01-21,fhrs_5_en-GB,5,,FHRS,0
42798,39 Market Street Heanor Derbyshire,,,,Bay Leaf,Restaurant/Cafe/Canteen,1,10,,28879,10,,53.01407500000000,09/00033/FH,062,envhealth@ambervalley.gov.uk,Amber Valley,http://www.ambervalley.gov.uk,-1.35534800000000,DE75 7NR,2013-11-14,fhrs_3_en-GB,3,,FHRS,10
42799,Belper Road/ Wirksworth Road Alderwasley Belper Derbyshire,,,,Bear Inn And Hotel,Pub/bar/nightclub,7843,10,,744,10,,53.06724500000000,0002697/FH,062,envhealth@ambervalley.gov.uk,Amber Valley,http://www.ambervalley.gov.uk,-1.52983500000000,DE56 2RD,2014-02-05,fhrs_3_en-GB,3,,FHRS,10
42800,52 King Street Belper Derbyshire,,,,Beaurepaire Patisserie,Restaurant/Cafe/Canteen,1,5,,623321,5,,53.02308000000000,0008454/FH,062,envhealth@ambervalley.gov.uk,Amber Valley,http://www.ambervalley.gov.uk,-1.48198200000000,DE56 1PL,2014-01-09,fhrs_5_en-GB,5,,FHRS,5
42801,31 Market Place Heanor Derbyshire,,,,Becketts,Retailers - other,4613,0,,1003,5,,53.01323900000000,0006989/FH,062,envhealth@ambervalley.gov.uk,Amber Valley,http://www.ambervalley.gov.uk,-1.35366200000000,DE75 7EG,2014-07-18,fhrs_5_en-GB,5,,FHRS,5
42802,Woodlinkin Lay-by Cromford Road Langley Mill Nottingham,,,,Becky's Cafe,Mobile caterer,7846,0,,944,0,,53.02781700000000,0005692/FH,062,envhealth@ambervalley.gov.uk,Amber Valley,http://www.ambervalley.gov.uk,-1.34346300000000,,2013-08-21,fhrs_5_en-GB,5,,FHRS,5
42803,Park Farm Park Lane South Wingfield Alfreton Derbyshire,,,,Bed And Breakfast,Hotel/bed & breakfast/guest house,7842,0,,18066,0,,53.08328000000000,06/00065/FOOD,062,envhealth@ambervalley.gov.uk,Amber Valley,http://www.ambervalley.gov.uk,-1.44769800000000,DE55 7LR,2013-06-10,fhrs_5_en-GB,5,,FHRS,0
42804,151 Peasehill Ripley Derbyshire,,,,Beehive Inn,Pub/bar/nightclub,7843,5,,1253,5,,53.04289000000000,0010392/FH,062,envhealth@ambervalley.gov.uk,Amber Valley,http://www.ambervalley.gov.uk,-1.39565300000000,DE5 3JN,2012-02-22,fhrs_5_en-GB,5,,FHRS,5
42805,35 Main Road Smalley Ilkeston Derbyshire,,,,Bell Inn,Pub/bar/nightclub,7843,5,,888,5,,52.99650600000000,0004857/FH,062,envhealth@ambervalley.gov.uk,Amber Valley,http://www.ambervalley.gov.uk,-1.39400600000000,DE7 6EF,2015-01-08,fhrs_5_en-GB,5,,FHRS,5
42806,Mobile Unit Clover Nook Road Somercotes Alfreton Derbyshire,,,,Bella's Baps,Mobile caterer,7846,5,,25029,10,,53.09038400000000,08/00037/FH,062,envhealth@ambervalley.gov.uk,Amber Valley,http://www.ambervalley.gov.uk,-1.35862900000000,DE55 4RF,2014-01-17,fhrs_4_en-GB,4,,FHRS,0
42807,Sandyford Lane Alderwasley Belper Derbyshire,,,,Belper Amateurs Cricket Club,Pub/bar/nightclub,7843,5,,746,5,,53.05376500000000,0002699/FH,062,envhealth@ambervalley.gov.uk,Amber Valley,http://www.ambervalley.gov.uk,-1.51740500000000,DE56 2DP,2014-08-20,fhrs_5_en-GB,5,,FHRS,0
42808,15 Market Place Belper Derbyshire,,,,Belper Balti,Takeaway/sandwich shop,7844,10,,17918,10,,53.02331900000000,06/00046/FH,062,envhealth@ambervalley.gov.uk,Amber Valley,http://www.ambervalley.gov.uk,-1.47895200000000,DE56 1FZ,2013-08-19,fhrs_3_en-GB,3,,FHRS,10
42809,Chapel Street Belper Derbyshire,,,,Belper Central Methodist Church,Other catering premises,7841,0,,1057,0,,53.02199400000000,0007932/FH,062,envhealth@ambervalley.gov.uk,Amber Valley,http://www.ambervalley.gov.uk,-1.48430500000000,DE56 1AR,2014-10-06,fhrs_5_en-GB,5,,FHRS,0
42810,Alder Road Belper Derbyshire,,,,Belper Childrens Centre,Hospitals/Childcare/Caring Premises,5,5,,25298,5,,53.02009900000000,08/00065/FOOD,062,envhealth@ambervalley.gov.uk,Amber Valley,http://www.ambervalley.gov.uk,-1.47240200000000,DE56 1LP,2014-10-29,fhrs_5_en-GB,5,,FHRS,0
42811,16 Chapel Street Belper Derbyshire,,,,Belper Cottage Project,Other catering premises,7841,5,,1055,5,,53.02199400000000,0007924/FH,062,envhealth@ambervalley.gov.uk,Amber Valley,http://www.ambervalley.gov.uk,-1.48430500000000,DE56 1AR,2014-06-24,fhrs_5_en-GB,5,,FHRS,5
42812,Long Row Belper Derbyshire,,,,Belper Long Row Primary School,School/college/university,7845,5,,1126,5,,53.02721600000000,0008597/FOOD,062,envhealth@ambervalley.gov.uk,Amber Valley,http://www.ambervalley.gov.uk,-1.48415400000000,DE56 1DR,2013-12-18,fhrs_5_en-GB,5,,FHRS,5
42813,Masonic Hall Campbell Street Belper Derbyshire,,,,Belper Masonic Hall,Pub/bar/nightclub,7843,0,,1051,5,,53.02232900000000,0007880/FH,062,envhealth@ambervalley.gov.uk,Amber Valley,http://www.ambervalley.gov.uk,-1.48297400000000,DE56 1AP,2014-11-19,fhrs_5_en-GB,5,,FHRS,5
42814,39 Bridge Street Belper Derbyshire,,,,Belper Party And Cakes,Retailers - other,4613,5,,18229,5,,53.02411800000000,06/00090/HS,062,envhealth@ambervalley.gov.uk,Amber Valley,http://www.ambervalley.gov.uk,-1.48505500000000,DE56 1AY,2012-05-24,fhrs_5_en-GB,5,,FHRS,5
42815,Kilbourne Road Belper Derbyshire,,,,Belper Pottery Primary School,School/college/university,7845,0,,1101,0,,53.02733200000000,0008399/FOOD,062,envhealth@ambervalley.gov.uk,Amber Valley,http://www.ambervalley.gov.uk,-1.46362100000000,DE56 1HA,2014-09-24,fhrs_5_en-GB,5,,FHRS,0
42816,Strutts Field Derby Road Belper Derbyshire,,,,Belper Rugby Union Club,Pub/bar/nightclub,7843,5,,1080,5,,53.01715800000000,0008089/FH,062,envhealth@ambervalley.gov.uk,Amber Valley,http://www.ambervalley.gov.uk,-1.48445200000000,DE56 1UU,2013-03-11,fhrs_5_en-GB,5,,FHRS,5
42817,Belper High School Kilbourne Road Belper Derbyshire,,,,Belper School And Sixth Form Centre,School/college/university,7845,,,1102,,,53.02570400000000,0008400/FOOD,062,envhealth@ambervalley.gov.uk,Amber Valley,http://www.ambervalley.gov.uk,-1.45960100000000,DE56 1RZ,2014-06-06,fhrs_5_en-GB,5,,FHRS,
42818,Belper Leisure Centre Kilbourne Road Belper Derbyshire,,,,Belper Sports Centre Services,Pub/bar/nightclub,7843,5,,1100,0,,53.02570400000000,0008398/FH,062,envhealth@ambervalley.gov.uk,Amber Valley,http://www.ambervalley.gov.uk,-1.45960100000000,DE56 1RZ,2014-03-03,fhrs_5_en-GB,5,,FHRS,5
42819,Belper Views 50 Holbrook Road Cowhill Belper Derbyshire,,,,Belper Views Residential Care Home,Hospitals/Childcare/Caring Premises,5,5,,1313,0,,53.01583500000000,0011512/FH,062,envhealth@ambervalley.gov.uk,Amber Valley,http://www.ambervalley.gov.uk,-1.47786500000000,DE56 1PB,2015-01-16,fhrs_4_en-GB,4,,FHRS,10
42820,4 Market Place Belper Derbyshire,,,,Bengal Blues,Restaurant/Cafe/Canteen,1,10,,5688,5,,53.02331900000000,02/00044/FH,062,envhealth@ambervalley.gov.uk,Amber Valley,http://www.ambervalley.gov.uk,-1.47895200000000,DE56 1FZ,2013-10-31,fhrs_4_en-GB,4,,FHRS,5
42821,121 High Street Alfreton Derbyshire,,,,Birds,Retailers - other,4613,0,,580,0,,53.09778700000000,0000439/FH,062,envhealth@ambervalley.gov.uk,Amber Valley,http://www.ambervalley.gov.uk,-1.38687900000000,DE55 7DP,2014-11-05,fhrs_5_en-GB,5,,FHRS,0
42822,17 Market Place Heanor Derbyshire,,,,Birds,Retailers - other,4613,0,,377417,0,,53.01378400000000,12/00051/FOOD,062,envhealth@ambervalley.gov.uk,Amber Valley,http://www.ambervalley.gov.uk,-1.35310200000000,DE75 7AA,2013-10-02,fhrs_5_en-GB,5,,FHRS,5
42823,3 - 5 Oxford Street Ripley Derbyshire,,,,Birds,Retailers - other,4613,0,,1239,0,,53.04951300000000,0010267/FH,062,envhealth@ambervalley.gov.uk,Amber Valley,http://www.ambervalley.gov.uk,-1.40589800000000,DE5 3AG,2014-02-03,fhrs_5_en-GB,5,,FHRS,0
42824,31 King Street Belper Derbyshire,,,,Birds,Retailers - other,4613,0,,1112,0,,53.02340300000000,0008431/FH,062,envhealth@ambervalley.gov.uk,Amber Valley,http://www.ambervalley.gov.uk,-1.48185800000000,DE56 1PX,2014-01-13,fhrs_5_en-GB,5,,FHRS,5
42825,Old Road Heage Belper Derbyshire,,,,Black Boy Inn,Pub/bar/nightclub,7843,10,,1268,10,,53.04531400000000,0010757/FH,062,envhealth@ambervalley.gov.uk,Amber Valley,http://www.ambervalley.gov.uk,-1.45057000000000,DE56 2BN,2014-10-22,fhrs_3_en-GB,3,,FHRS,5
42826,2 Kilburn Lane Openwoodgate Belper Derbyshire,,,,Black Bulls Head,Pub/bar/nightclub,7843,5,,1146,0,,53.02113600000000,0008854/FH,062,envhealth@ambervalley.gov.uk,Amber Valley,http://www.ambervalley.gov.uk,-1.44937200000000,DE56 0SF,2012-03-01,fhrs_5_en-GB,5,,FHRS,0
42827,6 Bowns Hill Crich Matlock Derbyshire,,,,Black Swan,Pub/bar/nightclub,7843,10,,750,15,,53.08548600000000,0002820/FH,062,envhealth@ambervalley.gov.uk,Amber Valley,http://www.ambervalley.gov.uk,-1.47847100000000,DE4 5DG,2014-07-28,fhrs_2_en-GB,2,,FHRS,15
42828,44 Market Place Belper Derbyshire,,,,Black Swan/Vanilla,Pub/bar/nightclub,7843,5,,1135,0,,53.02331900000000,0008676/FH,062,envhealth@ambervalley.gov.uk,Amber Valley,http://www.ambervalley.gov.uk,-1.47895200000000,DE56 1FZ,2014-02-13,fhrs_5_en-GB,5,,FHRS,5
42829,Ashbourne Road Blackbrook Belper Derbyshire,,,,Blackbrook House And Deli,Restaurant/Cafe/Canteen,1,5,,818,5,,53.02661100000000,0003759/FH,062,envhealth@ambervalley.gov.uk,Amber Valley,http://www.ambervalley.gov.uk,-1.50679400000000,DE56 2DB,2014-04-15,fhrs_5_en-GB,5,,FHRS,5
42830,38 Nottingham Road Ripley Derbyshire,,,,Blend Youth Project,Restaurant/Cafe/Canteen,1,0,,1232,0,,53.05067000000000,0010177/HS,062,envhealth@ambervalley.gov.uk,Amber Valley,http://www.ambervalley.gov.uk,-1.40373400000000,DE5 3DJ,2013-05-21,fhrs_5_en-GB,5,,FHRS,0
42831,23 Church Lane South Wingfield Alfreton Derbyshire,,,,Blue Bell Inn,Pub/bar/nightclub,7843,5,,898,0,,53.09592800000000,0004991/FH,062,envhealth@ambervalley.gov.uk,Amber Valley,http://www.ambervalley.gov.uk,-1.43633600000000,DE55 7NJ,2013-02-12,fhrs_5_en-GB,5,,FHRS,5
42832,30 High Street Alfreton Derbyshire,,,,Blue Bell Inn,Pub/bar/nightclub,7843,5,,569,5,,53.09721100000000,0000371/FH,062,envhealth@ambervalley.gov.uk,Amber Valley,http://www.ambervalley.gov.uk,-1.38856000000000,DE55 7BL,2014-04-15,fhrs_5_en-GB,5,,FHRS,0
42833,32 Nottingham Road Alfreton Derbyshire,,,,Blueys Bar And Bistro At Hudson Bay,Restaurant/Cafe/Canteen,1,5,,200686,10,,53.09717000000000,0000713/FH,062,envhealth@ambervalley.gov.uk,Amber Valley,http://www.ambervalley.gov.uk,-1.38219900000000,DE55 7HL,2013-09-18,fhrs_4_en-GB,4,,FHRS,5
42834,The Green Swanwick Alfreton Derbyshire,,,,Boot & Slipper,Pub/bar/nightclub,7843,10,,732,0,,53.07526300000000,0002473/FH,062,envhealth@ambervalley.gov.uk,Amber Valley,http://www.ambervalley.gov.uk,-1.39972300000000,DE55 1BL,2012-02-16,fhrs_4_en-GB,4,,FHRS,0
42835,70 Derby Road Swanwick Alfreton Derbyshire,,,,Booths,Retailers - other,4613,5,,721,10,,53.07592300000000,0002295/FH,062,envhealth@ambervalley.gov.uk,Amber Valley,http://www.ambervalley.gov.uk,-1.39872800000000,DE55 1AB,2014-10-29,fhrs_3_en-GB,3,,FHRS,10
42836,12 King Street Belper Derbyshire,,,,Boots,Retailers - other,4613,,,1107,,,53.02296100000000,0008412/FH,062,envhealth@ambervalley.gov.uk,Amber Valley,http://www.ambervalley.gov.uk,-1.48350400000000,DE56 1PS,2014-05-27,fhrs_exempt_en-GB,Exempt,,FHRS,
42837,24 Market Place Heanor Derbyshire,,,,Boots,Retailers - other,4613,,,1002,,,53.01378400000000,0006982/FH,062,envhealth@ambervalley.gov.uk,Amber Valley,http://www.ambervalley.gov.uk,-1.35310200000000,DE75 7AA,2012-03-12,fhrs_exempt_en-GB,Exempt,,FHRS,
42838,3 High Street Ripley Derbyshire,,,,Boots,Retailers - other,4613,0,,1200,0,,53.04944200000000,0009893/FH,062,envhealth@ambervalley.gov.uk,Amber Valley,http://www.ambervalley.gov.uk,-1.40616800000000,DE5 3AA,2013-06-07,fhrs_5_en-GB,5,,FHRS,0
42839,36 High Street Alfreton Derbyshire,,,,Boot's,Retailers - other,4613,0,,570,0,,53.09721100000000,0000376/FH,062,envhealth@ambervalley.gov.uk,Amber Valley,http://www.ambervalley.gov.uk,-1.38856000000000,DE55 7BL,2012-12-07,fhrs_5_en-GB,5,,FHRS,0
42840,Bournes Restaurant Denby Pottery Visitors Centre Derby Road Denby Ripley Derbyshire,,,,Bournes Restaurant And Staff Canteen,Restaurant/Cafe/Canteen,1,0,,773,5,,53.02236000000000,0003103/FH,062,envhealth@ambervalley.gov.uk,Amber Valley,http://www.ambervalley.gov.uk,-1.41391900000000,DE5 8NX,2014-01-09,fhrs_5_en-GB,5,,FHRS,0
42841,,,,,Bridge Hill House,Hotel/bed & breakfast/guest house,7842,0,,721742,0,,,0000070/FOOD,062,envhealth@ambervalley.gov.uk,Amber Valley,http://www.ambervalley.gov.uk,,,2014-10-22,fhrs_5_en-GB,5,,FHRS,0
42842,Duffield Bank Duffield Belper Derbyshire,,,,Bridge Inn,Pub/bar/nightclub,7843,5,,800,5,,52.98620000000000,0003559/FH,062,envhealth@ambervalley.gov.uk,Amber Valley,http://www.ambervalley.gov.uk,-1.47644900000000,DE56 4BG,2014-01-07,fhrs_5_en-GB,5,,FHRS,5
42843,17 Denby Common Denby Ripley Derbyshire,,,,Bulls Head Inn,Pub/bar/nightclub,7843,0,,771,5,,53.02015300000000,0003081/FH,062,envhealth@ambervalley.gov.uk,Amber Valley,http://www.ambervalley.gov.uk,-1.39142400000000,DE5 8PW,2014-02-25,fhrs_5_en-GB,5,,FHRS,5
42844,Belper Lane End Belper Derbyshire,,,,Bulls Head Inn,Pub/bar/nightclub,7843,10,,10122,5,,53.04100400000000,04/00128/FH,062,envhealth@ambervalley.gov.uk,Amber Valley,http://www.ambervalley.gov.uk,-1.50299000000000,DE56 2DL,2014-10-29,fhrs_3_en-GB,3,,FHRS,10
42845,Old Swanwick Colliery Road Swanwick Alfreton Derbyshire,,,,Burger King,Other catering premises,7841,,,621595,,,53.08744500000000,0025216/FH,062,envhealth@ambervalley.gov.uk,Amber Valley,http://www.ambervalley.gov.uk,-1.39483500000000,DE55 1HJ,2014-04-28,fhrs_4_en-GB,4,,FHRS,
42846,127 Hands Road Newlands Heanor Derbyshire,,,,Butchers Arms,Pub/bar/nightclub,7843,5,,466427,5,,53.01252900000000,0006627/FH,062,envhealth@ambervalley.gov.uk,Amber Valley,http://www.ambervalley.gov.uk,-1.34392400000000,DE75 7HB,2014-11-06,fhrs_4_en-GB,4,,FHRS,10
42847,Chesterfield Road Oakerthorpe Alfreton Derbyshire,,,,Butchers Arms,Restaurant/Cafe/Canteen,1,10,,910,5,,53.09985200000000,0005033/FH,062,envhealth@ambervalley.gov.uk,Amber Valley,http://www.ambervalley.gov.uk,-1.42054300000000,DE55 7LN,2014-10-29,fhrs_3_en-GB,3,,FHRS,10
42848,Butterley Grange Derby Road Butterley Ripley Derbyshire,,,,Butterley Grange Mansion,Restaurant/Cafe/Canteen,1,5,,482616,5,,53.06427100000000,12/00108/FH,062,envhealth@ambervalley.gov.uk,Amber Valley,http://www.ambervalley.gov.uk,-1.39654700000000,DE5 3QY,2014-10-24,fhrs_5_en-GB,5,,FHRS,0
42849,25 Butterley Hill Ripley Derbyshire,,,,Butterley Hill Lodge,Pub/bar/nightclub,7843,0,,1163,5,,53.05383400000000,0009315/FH,062,envhealth@ambervalley.gov.uk,Amber Valley,http://www.ambervalley.gov.uk,-1.40536100000000,DE5 3LT,2014-11-07,fhrs_5_en-GB,5,,FHRS,0
42850,Coach Road Butterley Ripley Derbyshire,,,,Butterley House Residential Home,Hospitals/Childcare/Caring Premises,5,5,,1178,5,,53.05842600000000,0009511/FH,062,envhealth@ambervalley.gov.uk,Amber Valley,http://www.ambervalley.gov.uk,-1.39087000000000,DE5 3QU,2014-09-30,fhrs_5_en-GB,5,,FHRS,5
42851,Butterley Park Nottingham Road Ripley Derbyshire,,,,Butterley Park Brewers Fayre,Restaurant/Cafe/Canteen,1,5,,1237,5,,53.05468000000000,0010234/FH,062,envhealth@ambervalley.gov.uk,Amber Valley,http://www.ambervalley.gov.uk,-1.39839700000000,DE5 3AD,2014-07-24,fhrs_4_en-GB,4,,FHRS,10
42852,3 Alfreton Road Codnor Ripley Derbyshire,,,,C N Wright,Manufacturers/packers,7839,0,,5706,0,,53.04435300000000,02/00085/FOOD,062,envhealth@ambervalley.gov.uk,Amber Valley,http://www.ambervalley.gov.uk,-1.37430300000000,DE5 9QY,2014-04-29,fhrs_5_en-GB,5,,FHRS,0
42853,The Park Kiosk Heanor Park Hands Road Heanor Derbyshire,,,,Cabin In The Park,Other catering premises,7841,5,,46115,5,,53.01319600000000,11/00047/FH,062,envhealth@ambervalley.gov.uk,Amber Valley,http://www.ambervalley.gov.uk,-1.34910100000000,DE75 7HA,2013-07-11,fhrs_5_en-GB,5,,FHRS,0
42854,De Bradelei House Chapel Street Belper Derbyshire,,,,Cafe De Bradelei House,Restaurant/Cafe/Canteen,1,0,,1391,0,,53.02199400000000,0016086/FH,062,envhealth@ambervalley.gov.uk,Amber Valley,http://www.ambervalley.gov.uk,-1.48430500000000,DE56 1AR,2013-04-29,fhrs_5_en-GB,5,,FHRS,5
42855,51 Oxford Street Ripley Derbyshire,,,,Cafe Delight,Restaurant/Cafe/Canteen,1,,,1249,,,53.04979400000000,0010315/FH,062,envhealth@ambervalley.gov.uk,Amber Valley,http://www.ambervalley.gov.uk,-1.40458100000000,DE5 3AH,2014-05-07,fhrs_5_en-GB,5,,FHRS,
42856,Old School House Green Lane Belper Derbyshire,,,,Cafe Nonno's,Restaurant/Cafe/Canteen,1,5,,369163,10,,53.02484300000000,0008282/HS,062,envhealth@ambervalley.gov.uk,Amber Valley,http://www.ambervalley.gov.uk,-1.48003700000000,DE56 1BY,2014-11-05,fhrs_4_en-GB,4,,FHRS,5
42857,28 Nottingham Road Ripley Derbyshire,,,,Cafe Rossa,Restaurant/Cafe/Canteen,1,0,,1230,0,,53.05067000000000,0010171/HS,062,envhealth@ambervalley.gov.uk,Amber Valley,http://www.ambervalley.gov.uk,-1.40373400000000,DE5 3DJ,2015-01-16,fhrs_5_en-GB,5,,FHRS,0
42858,,,,,Cafe2U,Mobile caterer,7846,5,,28799,5,,,09/00027/FH,062,envhealth@ambervalley.gov.uk,Amber Valley,http://www.ambervalley.gov.uk,,,2012-05-14,fhrs_5_en-GB,5,,FHRS,5
42859,14B Adale Road Smalley Ilkeston Derbyshire,,,,Cakes For Special Occasions,Other catering premises,7841,,,281013,,,53.00912600000000,12/00033/FOOD,062,envhealth@ambervalley.gov.uk,Amber Valley,http://www.ambervalley.gov.uk,-1.37640700000000,DE7 6DZ,2012-03-30,fhrs_5_en-GB,5,,FHRS,
42860,,,,,Cakes On Broadway,Other catering premises,7841,5,,516610,0,,,0000005/FOOD,062,envhealth@ambervalley.gov.uk,Amber Valley,http://www.ambervalley.gov.uk,,,2013-02-26,fhrs_5_en-GB,5,,FHRS,0
42861,,,,,Cakey Bakey Art,Other catering premises,7841,5,,281015,0,,,12/00040/FOOD,062,envhealth@ambervalley.gov.uk,Amber Valley,http://www.ambervalley.gov.uk,,,2012-03-29,fhrs_5_en-GB,5,,FHRS,0
42862,30 Bullbridge Hill Ambergate  Belper Derbyshire,,,,Canal Inn,Pub/bar/nightclub,7843,10,,1279,15,,53.06691000000000,0010851/FH,062,envhealth@ambervalley.gov.uk,Amber Valley,http://www.ambervalley.gov.uk,-1.46726400000000,DE56 2EW,2014-11-14,fhrs_2_en-GB,2,,FHRS,15
42863,22 King Street Belper Derbyshire,,,,Card Factory,Retailers - other,4613,,,231356,,,53.02296100000000,0008420/HS,062,envhealth@ambervalley.gov.uk,Amber Valley,http://www.ambervalley.gov.uk,-1.48350400000000,DE56 1PS,2012-03-13,fhrs_exempt_en-GB,Exempt,,FHRS,
42864,22 Oxford Street Ripley Derbyshire,,,,Card Factory,Retailers - other,4613,,,231354,,,53.04980100000000,0010284/HS,062,envhealth@ambervalley.gov.uk,Amber Valley,http://www.ambervalley.gov.uk,-1.40595400000000,DE5 3AL,2012-03-13,fhrs_exempt_en-GB,Exempt,,FHRS,
42865,7 Institute Lane Alfreton Derbyshire,,,,Card Factory,Retailers - other,4613,,,574039,,,53.09680400000000,06/00116/HS,062,envhealth@ambervalley.gov.uk,Amber Valley,http://www.ambervalley.gov.uk,-1.38804300000000,DE55 7BQ,2013-07-18,fhrs_exempt_en-GB,Exempt,,FHRS,
42866,15 Oxford Street Ripley Derbyshire,,,,Card Zone,Retailers - other,4613,5,,1241,5,,53.04951300000000,0010276/FH,062,envhealth@ambervalley.gov.uk,Amber Valley,http://www.ambervalley.gov.uk,-1.40589800000000,DE5 3AG,2012-06-15,fhrs_5_en-GB,5,,FHRS,5
42867,,,,,Carnival Cart Catering,Other catering premises,7841,0,,643724,0,,,0000041/FOOD,062,envhealth@ambervalley.gov.uk,Amber Valley,http://www.ambervalley.gov.uk,,,2014-03-28,fhrs_5_en-GB,5,,FHRS,0
42868,1 Salcombe Road Alfreton Derbyshire,,,,Carol's Cafe,Restaurant/Cafe/Canteen,1,5,,10100,5,,53.09893300000000,04/00124/FH,062,envhealth@ambervalley.gov.uk,Amber Valley,http://www.ambervalley.gov.uk,-1.37212200000000,DE55 7JQ,2013-05-24,fhrs_5_en-GB,5,,FHRS,5
42869,100 Main Street Horsley Woodhouse Ilkeston Derbyshire,,,,Carolyn's Pantry,Takeaway/sandwich shop,7844,5,,840,5,,53.00004400000000,0004053/FH,062,envhealth@ambervalley.gov.uk,Amber Valley,http://www.ambervalley.gov.uk,-1.41477200000000,DE7 6AU,2013-07-02,fhrs_5_en-GB,5,,FHRS,0
42870,Carvery And Grill Lydford Road Alfreton Derbyshire,,,,Carvery And Grill,Mobile caterer,7846,0,,451797,0,,53.10245600000000,12/00082/FH,062,envhealth@ambervalley.gov.uk,Amber Valley,http://www.ambervalley.gov.uk,-1.37883700000000,DE55 7RQ,2014-03-26,fhrs_5_en-GB,5,,FHRS,0
42871,Potters Hill Wheatcroft Matlock Derbyshire,,,,Catered Cottage Rose Cottage,Other catering premises,7841,5,,15226,5,,53.10397200000000,05/00138/FH,062,envhealth@ambervalley.gov.uk,Amber Valley,http://www.ambervalley.gov.uk,-1.47546900000000,DE4 5PH,2012-10-23,fhrs_5_en-GB,5,,FHRS,5
42872,38 Glasshouse Hill Codnor Ripley Derbyshire,,,,Ce Bella Bar & Restaurant,Restaurant/Cafe/Canteen,1,5,,17540,0,,53.04527900000000,06/00007/FH,062,envhealth@ambervalley.gov.uk,Amber Valley,http://www.ambervalley.gov.uk,-1.37604900000000,DE5 9QT,2014-05-06,fhrs_4_en-GB,4,,FHRS,10
42873,1 Derby Road Ripley Derbyshire,,,,Central England Co-operative,Retailers - supermarkets/hypermarkets,7840,5,,1182,5,,53.04841700000000,0009531/FH,062,envhealth@ambervalley.gov.uk,Amber Valley,http://www.ambervalley.gov.uk,-1.40610700000000,DE5 3EA,2014-02-17,fhrs_5_en-GB,5,,FHRS,5
42874,1 Swanwick Road Leabrooks Alfreton Derbyshire,,,,Central England Co-operative,Retailers - supermarkets/hypermarkets,7840,0,,1305,0,,53.07534700000000,0011069/FH,062,envhealth@ambervalley.gov.uk,Amber Valley,http://www.ambervalley.gov.uk,-1.37597300000000,DE55 1LJ,2013-04-23,fhrs_5_en-GB,5,,FHRS,5
42875,111 Station Road Langley Mill Heanor Derbyshire,,,,Central England Co-operative,Retailers - supermarkets/hypermarkets,7840,0,,930,0,,53.01832900000000,0005596/FH,062,envhealth@ambervalley.gov.uk,Amber Valley,http://www.ambervalley.gov.uk,-1.33460900000000,NG16 4DU,2014-05-12,fhrs_5_en-GB,5,,FHRS,5
42876,39 Maple Avenue Ripley Derbyshire,,,,Central England Co-operative,Retailers - supermarkets/hypermarkets,7840,,,1221,,,53.04575900000000,0010054/FH,062,envhealth@ambervalley.gov.uk,Amber Valley,http://www.ambervalley.gov.uk,-1.41209500000000,DE5 3PY,2014-12-01,fhrs_5_en-GB,5,,FHRS,
42877,40 - 42 Town Street Duffield Belper Derbyshire,,,,Central England Co-operative,Retailers - supermarkets/hypermarkets,7840,5,,813,0,,52.98590900000000,0003698/FH,062,envhealth@ambervalley.gov.uk,Amber Valley,http://www.ambervalley.gov.uk,-1.48801200000000,DE56 4GD,2012-04-27,fhrs_5_en-GB,5,,FHRS,5
42878,89 Nottingham Road Alfreton Derbyshire,,,,Central England Co-operative,Retailers - supermarkets/hypermarkets,7840,0,,5717,0,,53.10691500000000,02/00098/HSE,062,envhealth@ambervalley.gov.uk,Amber Valley,http://www.ambervalley.gov.uk,-1.39114000000000,DE55 7GP,2014-02-12,fhrs_5_en-GB,5,,FHRS,0
42879,Hartshay Service Station Hartshay Hill Ripley Derbyshire,,,,Central England Co-operative,Retailers - other,4613,5,,1196,10,,53.05326300000000,0009818/FH,062,envhealth@ambervalley.gov.uk,Amber Valley,http://www.ambervalley.gov.uk,-1.41342500000000,DE5 3GU,2012-12-03,fhrs_4_en-GB,4,,FHRS,0
42880,Market Place Somercotes Hill Somercotes Alfreton Derbyshire,,,,Central England Co-operative,Retailers - supermarkets/hypermarkets,7840,,,691,,,53.07893000000000,0001910/FH,062,envhealth@ambervalley.gov.uk,Amber Valley,http://www.ambervalley.gov.uk,-1.36836800000000,DE55 4HT,2014-11-24,fhrs_5_en-GB,5,,FHRS,
42881,Strutt Street Belper Derbyshire,,,,Central England Co-operative,Retailers - supermarkets/hypermarkets,7840,5,,1155,10,,53.02286000000000,0009044/FH,062,envhealth@ambervalley.gov.uk,Amber Valley,http://www.ambervalley.gov.uk,-1.48095500000000,DE56 1UN,2014-03-25,fhrs_4_en-GB,4,,FHRS,5
42882,Chatsworth Catering Concessions Lydford Road Alfreton Derbyshire,,,,Chatsworth Catering Concessions,Other catering premises,7841,0,,451799,0,,53.10245600000000,12/00084/FH,062,envhealth@ambervalley.gov.uk,Amber Valley,http://www.ambervalley.gov.uk,-1.37883700000000,DE55 7RQ,2014-03-26,fhrs_5_en-GB,5,,FHRS,0
42883,Severn Square Alfreton Derbyshire,,,,Chatterbox Cafe,Restaurant/Cafe/Canteen,1,,,591,,,53.09688600000000,0000497/FH,062,envhealth@ambervalley.gov.uk,Amber Valley,http://www.ambervalley.gov.uk,-1.38813200000000,DE55 7BQ,2014-03-12,fhrs_5_en-GB,5,,FHRS,
42884,Chevin Road Belper Derbyshire,,,,Chevin Green Farm,Hotel/bed & breakfast/guest house,7842,0,,1063,0,,53.01777500000000,0007988/FOOD,062,envhealth@ambervalley.gov.uk,Amber Valley,http://www.ambervalley.gov.uk,-1.49209200000000,DE56 2UN,2013-09-18,fhrs_5_en-GB,5,,FHRS,0
42885,115 Station Road Langley Mill Heanor Derbyshire,,,,China Ma Ma,Takeaway/sandwich shop,7844,5,,932,10,,53.01832900000000,0005598/FH,062,envhealth@ambervalley.gov.uk,Amber Valley,http://www.ambervalley.gov.uk,-1.33460900000000,NG16 4DU,2014-07-24,fhrs_4_en-GB,4,,FHRS,5
42886,93 Derby Road Heanor Derbyshire,,,,China Palace,Takeaway/sandwich shop,7844,10,,980,10,,53.01308100000000,0006397/FH,062,envhealth@ambervalley.gov.uk,Amber Valley,http://www.ambervalley.gov.uk,-1.36105700000000,DE75 7QJ,2014-10-29,fhrs_3_en-GB,3,,FHRS,5
42887,213 Park Road Heage Belper Derbyshire,,,,Chippy At Heage,Takeaway/sandwich shop,7844,10,,25054,0,,53.04219800000000,08/00040/FH,062,envhealth@ambervalley.gov.uk,Amber Valley,http://www.ambervalley.gov.uk,-1.44755200000000,DE56 2AB,2014-04-01,fhrs_4_en-GB,4,,FHRS,5
42888,,,,,Chris' Cakes,Other catering premises,7841,5,,33529,5,,,10/00049/FOOD,062,envhealth@ambervalley.gov.uk,Amber Valley,http://www.ambervalley.gov.uk,,,2013-06-04,fhrs_5_en-GB,5,,FHRS,0
42889,Firs Avenue Alfreton Derbyshire,,,,Christ The King Roman Catholic School,School/college/university,7845,5,,562,0,,53.10096300000000,0000270/FOOD,062,envhealth@ambervalley.gov.uk,Amber Valley,http://www.ambervalley.gov.uk,-1.38399600000000,DE55 7EN,2013-11-14,fhrs_5_en-GB,5,,FHRS,5
42890,Riverside Centre Bridge Foot Belper Derbyshire,,,,Chucklebutties,Restaurant/Cafe/Canteen,1,10,,14588,5,,53.02909300000000,05/00024/FH,062,envhealth@ambervalley.gov.uk,Amber Valley,http://www.ambervalley.gov.uk,-1.48581600000000,DE56 1YD,2014-11-21,fhrs_4_en-GB,4,,FHRS,5
42891,,,,,Cindibee Cakes,Other catering premises,7841,5,,494255,0,,,13/00001/FOOD,062,envhealth@ambervalley.gov.uk,Amber Valley,http://www.ambervalley.gov.uk,,,2013-01-08,fhrs_5_en-GB,5,,FHRS,0
42892,,,,,Clarkes Of Ripley,Other catering premises,7841,5,,15231,0,,,05/00139/FH,062,envhealth@ambervalley.gov.uk,Amber Valley,http://www.ambervalley.gov.uk,,,2013-02-19,fhrs_5_en-GB,5,,FHRS,0
42893,116 Nottingham Road Ripley Derbyshire,,,,Classic Canton,Takeaway/sandwich shop,7844,5,,17752,5,,53.05167900000000,06/00027/FH,062,envhealth@ambervalley.gov.uk,Amber Valley,http://www.ambervalley.gov.uk,-1.39699200000000,DE5 3AX,2014-10-30,fhrs_4_en-GB,4,,FHRS,10
42894,98 Nottingham Road Somercotes Alfreton Derbyshire,,,,Classic Canton,Takeaway/sandwich shop,7844,5,,696,10,,53.08070900000000,0001951/FH,062,envhealth@ambervalley.gov.uk,Amber Valley,http://www.ambervalley.gov.uk,-1.36996900000000,DE55 4LY,2013-10-15,fhrs_4_en-GB,4,,FHRS,5
42895,Town End Crich Matlock Derbyshire,,,,Cliff Inn,Pub/bar/nightclub,7843,5,,748,5,,53.09035800000000,0002798/FH,062,envhealth@ambervalley.gov.uk,Amber Valley,http://www.ambervalley.gov.uk,-1.48668400000000,DE4 5DP,2014-09-24,fhrs_4_en-GB,4,,FHRS,10
42896,Wakebridge Matlock Derbyshire,,,,Cliffside House,Hotel/bed & breakfast/guest house,7842,5,,33509,5,,53.09502792358400,10/00048/FOOD,062,envhealth@ambervalley.gov.uk,Amber Valley,http://www.ambervalley.gov.uk,-1.49385654926300,DE4 5HD,2013-05-13,fhrs_5_en-GB,5,,FHRS,0
42897,Cinder Bank Ironville Nottingham,,,,Clowns Childrens Centre,Hospitals/Childcare/Caring Premises,5,5,,9761,5,,53.06336300000000,04/00059/FH,062,envhealth@ambervalley.gov.uk,Amber Valley,http://www.ambervalley.gov.uk,-1.34883800000000,NG16 5NB,2014-02-10,fhrs_5_en-GB,5,,FHRS,5
42898,12 Cromford Road Ripley Derbyshire,,,,Clowns Day Nursery,Hospitals/Childcare/Caring Premises,5,0,,1179,5,,53.05136400000000,0009516/FH,062,envhealth@ambervalley.gov.uk,Amber Valley,http://www.ambervalley.gov.uk,-1.41122800000000,DE5 3FP,2014-05-29,fhrs_5_en-GB,5,,FHRS,5
42899,Lesley Crescent Butterley Park Ripley Derbyshire,,,,Clowns Day Nursery,Hospitals/Childcare/Caring Premises,5,5,,1539,10,,53.05468000000000,0027383/FH,062,envhealth@ambervalley.gov.uk,Amber Valley,http://www.ambervalley.gov.uk,-1.39839700000000,DE5 3AD,2014-12-09,fhrs_4_en-GB,4,,FHRS,5
42900,47 Church Street Horsley Derby Derbyshire,,,,Coach And Horses,Pub/bar/nightclub,7843,0,,831,0,,52.99632500000000,0003931/FH,062,envhealth@ambervalley.gov.uk,Amber Valley,http://www.ambervalley.gov.uk,-1.43577100000000,DE21 5BQ,2014-08-28,fhrs_5_en-GB,5,,FHRS,5
42901,Milford Coach House Derby Road Milford Belper Derbyshire,,,,Coach House Nursing Home,Hospitals/Childcare/Caring Premises,5,5,,1085,5,,53.00176400000000,0008104/FH,062,envhealth@ambervalley.gov.uk,Amber Valley,http://www.ambervalley.gov.uk,-1.48126800000000,DE56 0QF,2014-11-25,fhrs_5_en-GB,5,,FHRS,5
42902,30 Church Street Ripley Derbyshire,,,,Cock Hotel/Association,Pub/bar/nightclub,7843,5,,1176,0,,53.05109400000000,0009486/FH,062,envhealth@ambervalley.gov.uk,Amber Valley,http://www.ambervalley.gov.uk,-1.40574200000000,DE5 3BU,2015-01-16,fhrs_5_en-GB,5,,FHRS,0
42903,,,,,Cocoa-Bake,Other catering premises,7841,10,,679884,10,,,0000038/FH,062,envhealth@ambervalley.gov.uk,Amber Valley,http://www.ambervalley.gov.uk,,,2014-07-01,fhrs_3_en-GB,3,,FHRS,5
42904,60 Glasshouse Hill Codnor Gate Ripley Derbyshire,,,,Codnor Booze   News,Retailers - other,4613,5,,948,0,,53.04527900000000,0005791/FH,062,envhealth@ambervalley.gov.uk,Amber Valley,http://www.ambervalley.gov.uk,-1.37604900000000,DE5 9QT,2012-04-26,fhrs_5_en-GB,5,,FHRS,5
42905,Nottingham Road Codnor Ripley Derbyshire,,,,Codnor Castle Inn,Restaurant/Cafe/Canteen,1,5,,969,5,,53.03830600000000,0006002/FH,062,envhealth@ambervalley.gov.uk,Amber Valley,http://www.ambervalley.gov.uk,-1.36477100000000,DE5 9RL,2013-08-30,fhrs_5_en-GB,5,,FHRS,0
42906,Whitegates Codnor Ripley Derbyshire,,,,Codnor Community Primary School Church Of England Controlled,School/college/university,7845,5,,970,5,,53.04316000000000,0006038/FOOD,062,envhealth@ambervalley.gov.uk,Amber Valley,http://www.ambervalley.gov.uk,-1.37658700000000,DE5 9QD,2014-11-27,fhrs_5_en-GB,5,,FHRS,5
42907,Unit 2 45 High Street Codnor Ripley Derbyshire,,,,Codnor Fish Bar,Takeaway/sandwich shop,7844,10,,28597,10,,53.04547100000000,09/00011/FH,062,envhealth@ambervalley.gov.uk,Amber Valley,http://www.ambervalley.gov.uk,-1.37662800000000,DE5 9QS,2014-06-24,fhrs_2_en-GB,2,,FHRS,15
42908,Codnor Park And Ironville Club Monument Lane Codnor Park Ironville Derbyshire,,,,Codnor Park   Ironville Club,Pub/bar/nightclub,7843,0,,633,0,,53.05829400000000,0001103/FH,062,envhealth@ambervalley.gov.uk,Amber Valley,http://www.ambervalley.gov.uk,-1.35061500000000,NG16 5PJ,2013-03-11,fhrs_5_en-GB,5,,FHRS,5
42909,Glasshouse Hill Codnor Gate Ripley Derbyshire,,,,Codnor Park Residential Home,Hospitals/Childcare/Caring Premises,5,0,,1393,0,,53.04527900000000,0016533/FH,062,envhealth@ambervalley.gov.uk,Amber Valley,http://www.ambervalley.gov.uk,-1.37604900000000,DE5 9QT,2014-07-08,fhrs_5_en-GB,5,,FHRS,5
42910,19 Market Place Codnor Ripley Derbyshire,,,,Codnor Tandoori,Takeaway/sandwich shop,7844,10,,956,10,,53.04217300000000,0005931/FH,062,envhealth@ambervalley.gov.uk,Amber Valley,http://www.ambervalley.gov.uk,-1.37525900000000,DE5 9QA,2013-10-08,fhrs_3_en-GB,3,,FHRS,10
42911,Asda Ltd Restaurant Station Road Langley Mill Derbyshire,,,,Compass (Asda Cafe),Restaurant/Cafe/Canteen,1,5,,34340,5,,53.02020100000000,10/00109/FH,062,envhealth@ambervalley.gov.uk,Amber Valley,http://www.ambervalley.gov.uk,-1.33015300000000,NG16 4LH,2014-10-28,fhrs_5_en-GB,5,,FHRS,5
42912,School Lane Crich Matlock Derbyshire,,,,Comrades Club,Pub/bar/nightclub,7843,10,,751,5,,53.08398100000000,0002823/FH,062,envhealth@ambervalley.gov.uk,Amber Valley,http://www.ambervalley.gov.uk,-1.47763800000000,DE4 5DF,2014-06-04,fhrs_4_en-GB,4,,FHRS,5
42913,23 Market Place Belper Derbyshire,,,,Continental Food Bar,Takeaway/sandwich shop,7844,10,,1133,10,,53.02331900000000,0008665/FH,062,envhealth@ambervalley.gov.uk,Amber Valley,http://www.ambervalley.gov.uk,-1.47895200000000,DE56 1FZ,2014-08-26,fhrs_3_en-GB,3,,FHRS,10
42914,Derby Road Belper Derbyshire,,,,Coombs Catering Partnership,Restaurant/Cafe/Canteen,1,0,,1078,0,,53.01244800000000,0008080/FH,062,envhealth@ambervalley.gov.uk,Amber Valley,http://www.ambervalley.gov.uk,-1.48237700000000,DE56 1WL,2015-01-12,fhrs_4_en-GB,4,,FHRS,10
42915,Roper Avenue Heanor Derbyshire,,,,Coppice Primary School And Nursery,School/college/university,7845,5,,1025,0,,53.00653800000000,0007335/FOOD,062,envhealth@ambervalley.gov.uk,Amber Valley,http://www.ambervalley.gov.uk,-1.35300200000000,DE75 7BZ,2013-01-30,fhrs_5_en-GB,5,,FHRS,5
42916,Rodgers Lane Alfreton Derbyshire,,,,Copthorne Infant School,School/college/university,7845,0,,624,5,,53.10059000000000,0000885/FOOD,062,envhealth@ambervalley.gov.uk,Amber Valley,http://www.ambervalley.gov.uk,-1.38476300000000,DE55 7FF,2013-11-27,fhrs_5_en-GB,5,,FHRS,0
42917,Thorpes Road Heanor Derbyshire,,,,Corfield Church Of England Infant School,School/college/university,7845,0,,1027,0,,53.01147400000000,0007460/FOOD,062,envhealth@ambervalley.gov.uk,Amber Valley,http://www.ambervalley.gov.uk,-1.36146800000000,DE75 7GQ,2014-09-11,fhrs_5_en-GB,5,,FHRS,0
42918,55 Derby Road Heanor Derbyshire,,,,Coronation Social Club,Pub/bar/nightclub,7843,0,,979,0,,53.01308100000000,0006387/FH,062,envhealth@ambervalley.gov.uk,Amber Valley,http://www.ambervalley.gov.uk,-1.36105700000000,DE75 7QJ,2014-03-31,fhrs_5_en-GB,5,,FHRS,5
42919,69 - 71 High Street Alfreton Derbyshire,,,,Costa Coffee,Restaurant/Cafe/Canteen,1,10,,699250,5,,53.09775100000000,05/00041/HS,062,envhealth@ambervalley.gov.uk,Amber Valley,http://www.ambervalley.gov.uk,-1.38676000000000,DE55 7DP,2014-08-26,fhrs_2_en-GB,2,,FHRS,15
42920,38 Market Place Heanor Derbyshire,,,,Costcutter,Retailers - supermarkets/hypermarkets,7840,0,,46866,5,,53.01323900000000,11/00090/FH,062,envhealth@ambervalley.gov.uk,Amber Valley,http://www.ambervalley.gov.uk,-1.35366200000000,DE75 7EG,2013-04-09,fhrs_5_en-GB,5,,FHRS,5
42921,Market Place Crich Matlock Derbyshire,,,,Costcutter,Retailers - other,4613,0,,753,0,,53.08405200000000,0002830/FH,062,envhealth@ambervalley.gov.uk,Amber Valley,http://www.ambervalley.gov.uk,-1.47950300000000,DE4 5DD,2012-08-06,fhrs_5_en-GB,5,,FHRS,0
42922,Old Swanwick Colliery Road Derby Rd Swanwick Alfreton Derbyshire,,,,Costcutters Service Station,Retailers - other,4613,10,,1484,5,,53.08744500000000,0024266/HS,062,envhealth@ambervalley.gov.uk,Amber Valley,http://www.ambervalley.gov.uk,-1.39483500000000,DE55 1HJ,2014-10-09,fhrs_3_en-GB,3,,FHRS,10
42923,Nottingham Road Somercotes Alfreton Derbyshire,,,,Cotes Park Inn,Pub/bar/nightclub,7843,10,,699,10,,53.08564900000000,0001986/FH,062,envhealth@ambervalley.gov.uk,Amber Valley,http://www.ambervalley.gov.uk,-1.37427100000000,DE55 4HQ,2014-03-20,fhrs_3_en-GB,3,,FHRS,10
42924,,,,,Cottage Conserves,Other catering premises,7841,5,,547864,5,,,0000006/FOOD,062,envhealth@ambervalley.gov.uk,Amber Valley,http://www.ambervalley.gov.uk,,,2013-04-12,fhrs_5_en-GB,5,,FHRS,0
42925,,,,,Country Cooks,Other catering premises,7841,0,,1495,0,,,0025364/FOOD,062,envhealth@ambervalley.gov.uk,Amber Valley,http://www.ambervalley.gov.uk,,,2013-03-06,fhrs_5_en-GB,5,,FHRS,0
42926,Cowhouse Dairy Direct Sales Ashbourne Road Cowers Lane Belper Derbyshire,,,,Cowhouse Dairy Direct Sales,Retailers - other,4613,0,,574038,0,,53.02055600000000,0000025/FOOD,062,envhealth@ambervalley.gov.uk,Amber Valley,http://www.ambervalley.gov.uk,-1.53913800000000,DE56 2LF,2014-08-11,fhrs_5_en-GB,5,,FHRS,0
42927,Alfreton Road Coxbench Derby Derbyshire,,,,Coxbench Hall Residential Care Home,Hospitals/Childcare/Caring Premises,5,0,,820,5,,52.98850900000000,0003782/FH,062,envhealth@ambervalley.gov.uk,Amber Valley,http://www.ambervalley.gov.uk,-1.45033700000000,DE21 5BB,2014-03-26,fhrs_5_en-GB,5,,FHRS,5
42928,1 New Street Ripley Derbyshire,,,,Crest Of The Wave,Restaurant/Cafe/Canteen,1,10,,1226,5,,53.05030300000000,0010133/FH,062,envhealth@ambervalley.gov.uk,Amber Valley,http://www.ambervalley.gov.uk,-1.40397800000000,DE5 3BN,2015-01-22,fhrs_4_en-GB,4,,FHRS,5
42929,35 Market Place Heanor Derbyshire,,,,Crest Of The Wave,Takeaway/sandwich shop,7844,0,,1006,5,,53.01323900000000,0006995/FH,062,envhealth@ambervalley.gov.uk,Amber Valley,http://www.ambervalley.gov.uk,-1.35366200000000,DE75 7EG,2013-08-28,fhrs_5_en-GB,5,,FHRS,0
42930,Market Place Crich Matlock Derbyshire,,,,Crich Butchers,Manufacturers/packers,7839,10,,754,5,,53.08405200000000,0002831/FH,062,envhealth@ambervalley.gov.uk,Amber Valley,http://www.ambervalley.gov.uk,-1.47950300000000,DE4 5DD,2014-08-05,fhrs_4_en-GB,4,,FHRS,5
42931,School Lane Crich Matlock Derbyshire,,,,Crich County Junior School,School/college/university,7845,0,,758,0,,53.08398100000000,0002866/FOOD,062,envhealth@ambervalley.gov.uk,Amber Valley,http://www.ambervalley.gov.uk,-1.47763800000000,DE4 5DF,2015-02-02,fhrs_5_en-GB,5,,FHRS,0
42932,Glebe Field Close Crich Matlock Derbyshire,,,,Crich Glebe Field Centre,Other catering premises,7841,5,,1354,5,,53.08455000000000,0014029/FH,062,envhealth@ambervalley.gov.uk,Amber Valley,http://www.ambervalley.gov.uk,-1.48240900000000,DE4 5EU,2014-08-18,fhrs_5_en-GB,5,,FHRS,5
42933,Glebe Holiday Club Glebe Field Centre Glebe Field Close Crich Matlock Derbyshire,,,,Crich Pre School,Hospitals/Childcare/Caring Premises,5,0,,9963,5,,53.08455000000000,04/00094/HS,062,envhealth@ambervalley.gov.uk,Amber Valley,http://www.ambervalley.gov.uk,-1.48240900000000,DE4 5EU,2014-02-07,fhrs_5_en-GB,5,,FHRS,0
42934,Crich Tramway Village Matlock Road Crich Matlock Derbyshire,,,,Crich Tramway Village,Restaurant/Cafe/Canteen,1,5,,749,5,,53.09035800000000,0002799/FH,062,envhealth@ambervalley.gov.uk,Amber Valley,http://www.ambervalley.gov.uk,-1.48668400000000,DE4 5DP,2013-08-12,fhrs_5_en-GB,5,,FHRS,5
42935,Crich Wesley Methodist Church Chapel Lane Crich Matlock Derbyshire,,,,Crich Wesley Methodist Church,Restaurant/Cafe/Canteen,1,5,,231347,0,,53.07947300000000,12/00036/FH,062,envhealth@ambervalley.gov.uk,Amber Valley,http://www.ambervalley.gov.uk,-1.47869300000000,DE4 5BU,2014-03-06,fhrs_5_en-GB,5,,FHRS,0
42936,133 Heage Road Ripley Derbyshire,,,,Critchlow's General Store,Retailers - other,4613,5,,1197,5,,53.05062700000000,0009844/HS,062,envhealth@ambervalley.gov.uk,Amber Valley,http://www.ambervalley.gov.uk,-1.41856300000000,DE5 3GG,2013-03-05,fhrs_5_en-GB,5,,FHRS,5
42937,The Croft Slack Lane Ripley Derbyshire,,,,Croft Day Centre,Restaurant/Cafe/Canteen,1,0,,1170,0,,53.04885500000000,0009435/FH,062,envhealth@ambervalley.gov.uk,Amber Valley,http://www.ambervalley.gov.uk,-1.40929300000000,DE5 3HF,2013-03-12,fhrs_5_en-GB,5,,FHRS,0
42938,Farnah House Farm Wirksworth Road Duffield Belper Derbyshire,,,,Croots Farm Shop And Oil Manufacture,Retailers - other,4613,5,,28504,5,,52.99466100000000,09/00004/FH,062,envhealth@ambervalley.gov.uk,Amber Valley,http://www.ambervalley.gov.uk,-1.51962800000000,DE56 4AQ,2014-01-22,fhrs_5_en-GB,5,,FHRS,5
42939,35 Market Place Belper Derbyshire,,,,Cross Keys,Pub/bar/nightclub,7843,0,,1137,0,,53.02331900000000,0008678/FH,062,envhealth@ambervalley.gov.uk,Amber Valley,http://www.ambervalley.gov.uk,-1.47895200000000,DE56 1FZ,2013-03-12,fhrs_5_en-GB,5,,FHRS,5
42940,Derby Road Swanwick Alfreton Derbyshire,,,,Cross Keys,Pub/bar/nightclub,7843,5,,725,5,,53.07863500000000,0002313/FH,062,envhealth@ambervalley.gov.uk,Amber Valley,http://www.ambervalley.gov.uk,-1.39827200000000,DE55 1BG,2013-11-08,fhrs_5_en-GB,5,,FHRS,5
42941,Cross Keys Inn 162 Ashbourne Road Turnditch Belper Derbyshire,,,,Cross Keys Turnditch Inn Ltd,Pub/bar/nightclub,7843,5,,446074,5,,53.01599500000000,06/00062/FH,062,envhealth@ambervalley.gov.uk,Amber Valley,http://www.ambervalley.gov.uk,-1.55722300000000,DE56 2LH,2014-03-04,fhrs_5_en-GB,5,,FHRS,5
42942,6 Church Street Heanor Derbyshire,,,,Crown Inn,Restaurant/Cafe/Canteen,1,5,,7360,10,,53.01365900000000,03/00003/FH,062,envhealth@ambervalley.gov.uk,Amber Valley,http://www.ambervalley.gov.uk,-1.35006300000000,DE75 7AH,2015-01-23,fhrs_4_en-GB,4,,FHRS,5
42943,73 Sleetmoor Lane Somercotes Alfreton Derbyshire,,,,Crown Inn,Pub/bar/nightclub,7843,0,,709,0,,53.08076400000000,0002108/FH,062,envhealth@ambervalley.gov.uk,Amber Valley,http://www.ambervalley.gov.uk,-1.37702900000000,DE55 1RE,2013-10-30,fhrs_5_en-GB,5,,FHRS,0
42944,5 Holly Grove Swanwick Alfreton Derbyshire,,,,Cupcake Divine,Other catering premises,7841,5,,30324,5,,53.07959000000000,09/00178/FOOD,062,envhealth@ambervalley.gov.uk,Amber Valley,http://www.ambervalley.gov.uk,-1.38979500000000,DE55 1RX,2012-11-02,fhrs_5_en-GB,5,,FHRS,5
42945,41 Derby Road Lower Kilburn Belper Derbyshire,,,,Cutlers Store,Retailers - other,4613,0,,834,0,,53.00337100000000,0003987/FH,062,envhealth@ambervalley.gov.uk,Amber Valley,http://www.ambervalley.gov.uk,-1.44316000000000,DE56 0NG,2014-03-14,fhrs_5_en-GB,5,,FHRS,0
42946,Stall 59 Alfreton Indoor Market Hall Institute Lane Alfreton Derbyshire,,,,D And J Rollo,Retailers - other,4613,0,,129357,5,,53.09688600000000,60000492/FH,062,envhealth@ambervalley.gov.uk,Amber Valley,http://www.ambervalley.gov.uk,-1.38813200000000,DE55 7BQ,2014-03-06,fhrs_5_en-GB,5,,FHRS,0
42947,3 Market Place Codnor Ripley Derbyshire,,,,D E Marshall Post Office,Retailers - other,4613,,,954,,,53.04167100000000,0005923/HS,062,envhealth@ambervalley.gov.uk,Amber Valley,http://www.ambervalley.gov.uk,-1.37537000000000,DE5 9RE,2013-04-16,fhrs_exempt_en-GB,Exempt,,FHRS,
42948,,,,,D. Wilson Catering (Ice Cream),Mobile caterer,7846,10,,33943,5,,,10/00077/FH,062,envhealth@ambervalley.gov.uk,Amber Valley,http://www.ambervalley.gov.uk,,,2014-02-13,fhrs_4_en-GB,4,,FHRS,5
42949,Dannah Farm Bomans Lane Shottle Belper Derbyshire,,,,Dannah Farm County House,Hotel/bed & breakfast/guest house,7842,0,,882,5,,53.05252000000000,0004761/FH,062,envhealth@ambervalley.gov.uk,Amber Valley,http://www.ambervalley.gov.uk,-1.54108000000000,DE56 2DR,2012-02-10,fhrs_5_en-GB,5,,FHRS,0
42950,Orange Street Alfreton Derbyshire,,,,David Nieper,Restaurant/Cafe/Canteen,1,5,,618,10,,53.09564600000000,0000757/HSE,062,envhealth@ambervalley.gov.uk,Amber Valley,http://www.ambervalley.gov.uk,-1.38128000000000,DE55 7LE,2014-10-14,fhrs_4_en-GB,4,,FHRS,5
42951,6A Eagle Street Heage Belper Derbyshire,,,,Delicious Designs,Restaurant/Cafe/Canteen,1,5,,470804,0,,53.05074200000000,07/00015/HS,062,envhealth@ambervalley.gov.uk,Amber Valley,http://www.ambervalley.gov.uk,-1.44830800000000,DE56 2AJ,2012-11-22,fhrs_5_en-GB,5,,FHRS,0
42952,Office 9  Derby Road Industrial Estate Derby Road Heanor Derbyshire,,,,Delish Cafe,Restaurant/Cafe/Canteen,1,5,,636544,10,,53.01386600000000,0000037/FOOD,062,envhealth@ambervalley.gov.uk,Amber Valley,http://www.ambervalley.gov.uk,-1.35822800000000,DE75 7QN,2014-02-24,fhrs_3_en-GB,3,,FHRS,10
42953,,,,,Delishas,Other catering premises,7841,5,,15201,0,,,05/00132/FH,062,envhealth@ambervalley.gov.uk,Amber Valley,http://www.ambervalley.gov.uk,,,2012-02-21,fhrs_5_en-GB,5,,FHRS,0
42954,5 Chapel Walk Alfreton Derbyshire,,,,Delisserie,Other catering premises,7841,5,,633051,5,,53.09674600000000,0000139/HS,062,envhealth@ambervalley.gov.uk,Amber Valley,http://www.ambervalley.gov.uk,-1.38716300000000,DE55 7BJ,2014-02-05,fhrs_5_en-GB,5,,FHRS,5
42955,Denby Cricket Club High Bank Denby Village Ripley Derbyshire,,,,Denby Cricket Club,Pub/bar/nightclub,7843,5,,770,5,,53.01757800000000,0003056/FH,062,envhealth@ambervalley.gov.uk,Amber Valley,http://www.ambervalley.gov.uk,-1.39596200000000,DE5 8PL,2014-10-20,fhrs_5_en-GB,5,,FHRS,0
42956,Church Street Denby Village Ripley Derbyshire,,,,Denby Free Church Of England Junior And Infant School,School/college/university,7845,5,,769,5,,53.01377400000000,0003042/FOOD,062,envhealth@ambervalley.gov.uk,Amber Valley,http://www.ambervalley.gov.uk,-1.41002600000000,DE5 8PH,2013-11-29,fhrs_5_en-GB,5,,FHRS,0
42957,55 Church Street Denby Ripley Derbyshire,,,,Denby Lodge,Pub/bar/nightclub,7843,10,,768,10,,53.01377400000000,0003041/FH,062,envhealth@ambervalley.gov.uk,Amber Valley,http://www.ambervalley.gov.uk,-1.41002600000000,DE5 8PH,2014-02-03,fhrs_3_en-GB,3,,FHRS,10
42958,37 High Street Heanor Derbyshire,,,,Derby Arms,Pub/bar/nightclub,7843,0,,990,0,,53.01560500000000,0006699/FH,062,envhealth@ambervalley.gov.uk,Amber Valley,http://www.ambervalley.gov.uk,-1.35908200000000,DE75 7EX,2014-01-03,fhrs_5_en-GB,5,,FHRS,0
42959,Derby Lodge Shipley Country Park The Field Shipley Derbyshire,,,,Derby Lodge Cafe,Restaurant/Cafe/Canteen,1,10,,21492,10,,52.99391800000000,07/00029/FH,062,envhealth@ambervalley.gov.uk,Amber Valley,http://www.ambervalley.gov.uk,-1.35147700000000,DE75 7JJ,2014-08-04,fhrs_3_en-GB,3,,FHRS,10
42960,Lodge Farm Lodge Lane Kirk Langley Ashbourne Derbyshire,,,,Derbyshire Dales Organic,Retailers - other,4613,,,7727,,,52.95452000000000,03/00183/FOOD,062,envhealth@ambervalley.gov.uk,Amber Valley,http://www.ambervalley.gov.uk,-1.56277700000000,DE6 4NX,2012-03-12,fhrs_5_en-GB,5,,FHRS,
42961,241 Somercotes Hill Somercotes Alfreton Derbyshire,,,,Devonshire Arms,Pub/bar/nightclub,7843,0,,714,0,,53.07911000000000,0002165/FH,062,envhealth@ambervalley.gov.uk,Amber Valley,http://www.ambervalley.gov.uk,-1.36676800000000,DE55 4HX,2012-02-21,fhrs_5_en-GB,5,,FHRS,5
42962,Heanor Antiques Centre 1 - 3 Ilkeston Road Heanor Derbyshire,,,,DH Lawrence Cafe,Restaurant/Cafe/Canteen,1,10,,874,10,,53.01313500000000,0004692/HS,062,envhealth@ambervalley.gov.uk,Amber Valley,http://www.ambervalley.gov.uk,-1.35114400000000,DE75 7AG,2013-08-28,fhrs_4_en-GB,4,,FHRS,0
42963,,,,,Dialasnax - Wimsey Way Somercotes,Mobile caterer,7846,10,,28491,15,,,09/00003/FH,062,envhealth@ambervalley.gov.uk,Amber Valley,http://www.ambervalley.gov.uk,,,2015-01-20,fhrs_2_en-GB,2,,FHRS,5
42964,Access 26 Business Park 3663 Enterprise Way Langley Mill Derbyshire,,,,Dine Contract Catering Limited,Other catering premises,7841,10,,46355,15,,53.01753900000000,11/00060/FH,062,envhealth@ambervalley.gov.uk,Amber Valley,http://www.ambervalley.gov.uk,-1.32359000000000,NG16 4HY,2014-07-16,fhrs_2_en-GB,2,,FHRS,5
42965,46 Nottingham Road Ripley Derbyshire,,,,Dinos,Takeaway/sandwich shop,7844,5,,15182,5,,53.05067000000000,05/00128/FH,062,envhealth@ambervalley.gov.uk,Amber Valley,http://www.ambervalley.gov.uk,-1.40373400000000,DE5 3DJ,2013-02-19,fhrs_5_en-GB,5,,FHRS,5
42966,Do Me A Flavour Goods Road Belper Derbyshire,,,,Do Me A Flavour,Mobile caterer,7846,10,,636797,10,,,0000039/FOOD,062,envhealth@ambervalley.gov.uk,Amber Valley,http://www.ambervalley.gov.uk,,,2014-03-18,fhrs_4_en-GB,4,,FHRS,0
42967,94 Main Road Pye Bridge Alfreton Derbyshire,,,,Dog & Doublet,Pub/bar/nightclub,7843,0,,685,0,,53.07178200000000,0001893/FH,062,envhealth@ambervalley.gov.uk,Amber Valley,http://www.ambervalley.gov.uk,-1.34324800000000,DE55 4NY,2014-03-14,fhrs_5_en-GB,5,,FHRS,0
42968,Main Road Pentrich Ripley Derbyshire,,,,Dog Inn,Pub/bar/nightclub,7843,5,,868,0,,53.06770200000000,0004521/FH,062,envhealth@ambervalley.gov.uk,Amber Valley,http://www.ambervalley.gov.uk,-1.41958700000000,DE5 3RE,2014-10-23,fhrs_4_en-GB,4,,FHRS,10
42969,119 High Street Alfreton Derbyshire,,,,Dominos Pizza,Takeaway/sandwich shop,7844,5,,25177,5,,53.09778700000000,08/00052/FH,062,envhealth@ambervalley.gov.uk,Amber Valley,http://www.ambervalley.gov.uk,-1.38687900000000,DE55 7DP,2013-05-24,fhrs_5_en-GB,5,,FHRS,5
42970,55D (Unit 3A) King Street Belper Derbyshire,,,,Dominos Pizza,Takeaway/sandwich shop,7844,5,,25095,5,,53.02341800000000,08/00044/FH,062,envhealth@ambervalley.gov.uk,Amber Valley,http://www.ambervalley.gov.uk,-1.48105300000000,DE56 1PZ,2014-09-05,fhrs_5_en-GB,5,,FHRS,5
42971,Unit 4 38 Market Place Heanor Derbyshire,,,,Dominos Pizza,Takeaway/sandwich shop,7844,5,,21326,5,,53.01323900000000,07/00009/FH,062,envhealth@ambervalley.gov.uk,Amber Valley,http://www.ambervalley.gov.uk,-1.35366200000000,DE75 7EG,2013-07-05,fhrs_5_en-GB,5,,FHRS,5
42972,Shottle Hall  White Lane Shottle Belper Derbyshire,,,,Dovedale Catering,Restaurant/Cafe/Canteen,1,5,,34027,5,,53.02547100000000,10/00083/FH,062,envhealth@ambervalley.gov.uk,Amber Valley,http://www.ambervalley.gov.uk,-1.54090400000000,DE56 2EB,2013-09-20,fhrs_5_en-GB,5,,FHRS,5
42973,29 New Zealand Lane Duffield Belper Derbyshire,,,,Duffield Balti,Takeaway/sandwich shop,7844,10,,785,10,,52.98300500000000,0003348/FH,062,envhealth@ambervalley.gov.uk,Amber Valley,http://www.ambervalley.gov.uk,-1.49434700000000,DE56 4BZ,2014-09-30,fhrs_3_en-GB,3,,FHRS,10
42974,13 Town Street Duffield Belper Derbyshire,,,,Duffield Club,Pub/bar/nightclub,7843,0,,804,0,,52.98696100000000,0003671/FH,062,envhealth@ambervalley.gov.uk,Amber Valley,http://www.ambervalley.gov.uk,-1.48811900000000,DE56 4EH,2013-08-23,fhrs_5_en-GB,5,,FHRS,5
42975,,,,,Duffield Loaf,Other catering premises,7841,0,,212837,0,,,12/00021/FOOD,062,envhealth@ambervalley.gov.uk,Amber Valley,http://www.ambervalley.gov.uk,,,2012-03-02,fhrs_5_en-GB,5,,FHRS,0
42976,Masonic Hall 33 King Street Duffield Belper Derbyshire,,,,Duffield Masonic Lodge (Incorporating Kath Birkett Catering),Other catering premises,7841,5,,799,5,,52.98909000000000,0003551/FH,062,envhealth@ambervalley.gov.uk,Amber Valley,http://www.ambervalley.gov.uk,-1.48997000000000,DE56 4EU,2013-08-23,fhrs_5_en-GB,5,,FHRS,5
42977,Park Road Duffield Belper Derbyshire,,,,Duffield Meadows Primary School,School/college/university,7845,5,,802,0,,52.98632200000000,0003622/FOOD,062,envhealth@ambervalley.gov.uk,Amber Valley,http://www.ambervalley.gov.uk,-1.49837500000000,DE56 4GT,2013-11-26,fhrs_5_en-GB,5,,FHRS,5
42978,38 Town Street Duffield Belper Derbyshire,,,,Duffield News,Retailers - other,4613,,,811,,,52.98590900000000,0003688/FH,062,envhealth@ambervalley.gov.uk,Amber Valley,http://www.ambervalley.gov.uk,-1.48801200000000,DE56 4GD,2013-09-20,fhrs_exempt_en-GB,Exempt,,FHRS,
42979,Church Drive Duffield Belper Derbyshire,,,,Duffield Parish Hall,Other catering premises,7841,0,,789,0,,52.98092500000000,0003395/FH,062,envhealth@ambervalley.gov.uk,Amber Valley,http://www.ambervalley.gov.uk,-1.48083200000000,DE56 4BA,2014-10-04,fhrs_5_en-GB,5,,FHRS,0
42980,19 New Zealand Lane Duffield Belper Derbyshire,,,,Duffield Service Station,Retailers - other,4613,5,,787,5,,52.98300500000000,0003354/HE,062,envhealth@ambervalley.gov.uk,Amber Valley,http://www.ambervalley.gov.uk,-1.49434700000000,DE56 4BZ,2013-04-09,fhrs_5_en-GB,5,,FHRS,0
42981,23 Town Street Duffield Belper Derbyshire,,,,Duffield Squash And Tennis Club,Pub/bar/nightclub,7843,0,,807,0,,52.98696100000000,0003681/FH,062,envhealth@ambervalley.gov.uk,Amber Valley,http://www.ambervalley.gov.uk,-1.48811900000000,DE56 4EH,2013-09-04,fhrs_5_en-GB,5,,FHRS,0
42982,38 Street Lane Denby Ripley Derbyshire,,,,Durham Ox,Pub/bar/nightclub,7843,,,775,,,53.03218500000000,0003160/FH,062,envhealth@ambervalley.gov.uk,Amber Valley,http://www.ambervalley.gov.uk,-1.42674400000000,DE5 8NE,2013-12-10,fhrs_4_en-GB,4,,FHRS,
42983,Brook House Farm Wirksworth Road Duffield Belper Derbyshire,,,,Ecclesbourne Plant Centre,Restaurant/Cafe/Canteen,1,5,,816,10,,52.99466100000000,0003724/FH,062,envhealth@ambervalley.gov.uk,Amber Valley,http://www.ambervalley.gov.uk,-1.51962800000000,DE56 4AQ,2014-01-14,fhrs_3_en-GB,3,,FHRS,10
42984,Wirksworth Road Duffield Belper Derbyshire,,,,Ecclesbourne School,School/college/university,7845,5,,815,0,,52.98580500000000,0003723/FOOD,062,envhealth@ambervalley.gov.uk,Amber Valley,http://www.ambervalley.gov.uk,-1.49103700000000,DE56 4GS,2014-06-10,fhrs_5_en-GB,5,,FHRS,5
42985,40 High Street Loscoe Heanor Derbyshire,,,,Eclipse Inn,Pub/bar/nightclub,7843,10,,987,10,,53.02682200000000,0006662/FH,062,envhealth@ambervalley.gov.uk,Amber Valley,http://www.ambervalley.gov.uk,-1.37223000000000,DE75 7LF,2013-01-31,fhrs_3_en-GB,3,,FHRS,10
42986,84 Bridge Street Belper Derbyshire,,,,Elaichi,Restaurant/Cafe/Canteen,1,10,,1044,10,,53.02632100000000,0007806/FH,062,envhealth@ambervalley.gov.uk,Amber Valley,http://www.ambervalley.gov.uk,-1.48513300000000,DE56 1AZ,2014-08-26,fhrs_3_en-GB,3,,FHRS,5
42987,17 Town Street Duffield Belper Derbyshire,,,,Eleven,Restaurant/Cafe/Canteen,1,5,,679885,0,,52.98704200000000,0003676/HS,062,envhealth@ambervalley.gov.uk,Amber Valley,http://www.ambervalley.gov.uk,-1.48808800000000,DE56 4EH,2014-06-26,fhrs_5_en-GB,5,,FHRS,5
42988,Guilford Europe Ltd Cotes Park Lane Somercotes Alfreton Derbyshire,,,,Elior,Restaurant/Cafe/Canteen,1,,,670,,,53.08821100000000,0001725/FHE,062,envhealth@ambervalley.gov.uk,Amber Valley,http://www.ambervalley.gov.uk,-1.36572400000000,DE55 4NJ,2014-10-02,fhrs_5_en-GB,5,,FHRS,
42989,Deb Ltd Denby Hall Way Denby Derbyshire,,,,Elior Catering,Restaurant/Cafe/Canteen,1,5,,28945,5,,53.02657800000000,09/00039/FH,062,envhealth@ambervalley.gov.uk,Amber Valley,http://www.ambervalley.gov.uk,-1.41436900000000,DE5 8JZ,2015-02-05,fhrs_5_en-GB,5,,FHRS,5
42990,Forbo Flooring Systems AVBC Unit 32 High Holborn Road Codnor Gate Ripley Derbyshire,,,,Elior UK,Restaurant/Cafe/Canteen,1,5,,947,10,,53.04876400000000,0005739/FH,062,envhealth@ambervalley.gov.uk,Amber Valley,http://www.ambervalley.gov.uk,-1.38060800000000,DE5 3NW,2014-01-07,fhrs_3_en-GB,3,,FHRS,10
42991,32 Chapel Street Duffield Belper Derbyshire,,,,Emmanuel Community Church,Pub/bar/nightclub,7843,0,,788,0,,52.98752200000000,0003371/FH,062,envhealth@ambervalley.gov.uk,Amber Valley,http://www.ambervalley.gov.uk,-1.48690500000000,DE56 4EQ,2013-08-05,fhrs_5_en-GB,5,,FHRS,5
42992,94 Nottingham Road Ripley Derbyshire,,,,Emmas Cakes,Retailers - other,4613,0,,1235,5,,53.05167900000000,0010195/HS,062,envhealth@ambervalley.gov.uk,Amber Valley,http://www.ambervalley.gov.uk,-1.39699200000000,DE5 3AX,2014-07-24,fhrs_5_en-GB,5,,FHRS,5
42993,,,,,Emma's Super Whippy,Mobile caterer,7846,0,,33783,0,,,10/00066/FH,062,envhealth@ambervalley.gov.uk,Amber Valley,http://www.ambervalley.gov.uk,,,2013-08-02,fhrs_5_en-GB,5,,FHRS,0
42994,Unit 3 Sitwell Business Centre Heage Road Industrial Estate Ripley Derbyshire,,,,Exotic Meats,Retailers - other,4613,5,,281011,0,,53.04850700000000,08/00030/HS,062,envhealth@ambervalley.gov.uk,Amber Valley,http://www.ambervalley.gov.uk,-1.42072500000000,DE5 3GH,2013-12-19,fhrs_5_en-GB,5,,FHRS,0
42995,44 Nottingham Road Ripley Derbyshire,,,,Family House,Takeaway/sandwich shop,7844,,,1233,,,53.05067000000000,0010181/FH,062,envhealth@ambervalley.gov.uk,Amber Valley,http://www.ambervalley.gov.uk,-1.40373400000000,DE5 3DJ,2014-11-26,fhrs_5_en-GB,5,,FHRS,
42996,73-75 High Street Alfreton Derbyshire,,,,Farm Foods,Retailers - supermarkets/hypermarkets,7840,5,,209088,0,,53.09778700000000,0000401/FH,062,envhealth@ambervalley.gov.uk,Amber Valley,http://www.ambervalley.gov.uk,-1.38687900000000,DE55 7DP,2012-02-29,fhrs_5_en-GB,5,,FHRS,0
42997,Units 5 And 6 Acorn Centre Station Road Langley Mill Heanor Langley Mill Derbyshire,,,,Farm Foods,Retailers - supermarkets/hypermarkets,7840,0,,1491,0,,53.01952400000000,0024747/FH,062,envhealth@ambervalley.gov.uk,Amber Valley,http://www.ambervalley.gov.uk,-1.32971600000000,NG16 4AF,2012-10-29,fhrs_5_en-GB,5,,FHRS,0
42998,24 Oxford Street Ripley Derbyshire,,,,Farm Foods Ltd,Retailers - supermarkets/hypermarkets,7840,5,,1243,0,,53.04980100000000,0010286/FH,062,envhealth@ambervalley.gov.uk,Amber Valley,http://www.ambervalley.gov.uk,-1.40595400000000,DE5 3AL,2012-06-25,fhrs_4_en-GB,4,,FHRS,10
42999,Farmhouse Kitchen 6 Campbell Street Belper Derbyshire,,,,Farmhouse Kitchen,Restaurant/Cafe/Canteen,1,5,,611165,0,,53.02232900000000,0000022/FH,062,envhealth@ambervalley.gov.uk,Amber Valley,http://www.ambervalley.gov.uk,-1.48297400000000,DE56 1AP,2013-11-22,fhrs_5_en-GB,5,,FHRS,0
43000,,,,,Farmhouse Kitchen,Mobile caterer,7846,5,,7747,5,,,03/00198/FH,062,envhealth@ambervalley.gov.uk,Amber Valley,http://www.ambervalley.gov.uk,,,2013-10-15,fhrs_4_en-GB,4,,FHRS,10
43001,14 Market Street Heanor Derbyshire,,,,Fellas,Takeaway/sandwich shop,7844,5,,1015,0,,53.01407500000000,0007031/FH,062,envhealth@ambervalley.gov.uk,Amber Valley,http://www.ambervalley.gov.uk,-1.35534800000000,DE75 7NR,2014-06-12,fhrs_4_en-GB,4,,FHRS,10
43002,90 Glasshouse Hill Codnor Gate Ripley Derbyshire,,,,Firs Nursing Home,Hospitals/Childcare/Caring Premises,5,0,,7404,0,,53.04527900000000,03/00014/FOOD,062,envhealth@ambervalley.gov.uk,Amber Valley,http://www.ambervalley.gov.uk,-1.37604900000000,DE5 9QT,2014-07-01,fhrs_5_en-GB,5,,FHRS,5
43003,2 High Street Ripley Derbyshire,,,,First Class Pizza,Takeaway/sandwich shop,7844,5,,1199,0,,53.04942000000000,0009892/FH,062,envhealth@ambervalley.gov.uk,Amber Valley,http://www.ambervalley.gov.uk,-1.40706300000000,DE5 3HH,2014-01-22,fhrs_5_en-GB,5,,FHRS,5
43004,126 Main Street Horsley Woodhouse Ilkeston Derbyshire,,,,Fish And Chip Shop,Takeaway/sandwich shop,7844,0,,841,5,,53.00086900000000,0004055/FH,062,envhealth@ambervalley.gov.uk,Amber Valley,http://www.ambervalley.gov.uk,-1.41803900000000,DE7 6AW,2014-07-30,fhrs_5_en-GB,5,,FHRS,5
43005,Stall 4 Alfreton Indoor Market Hall Institute Lane Alfreton Derbyshire,,,,Fish Monger,Retailers - other,4613,5,,1545,5,,53.09688600000000,0027980/FH,062,envhealth@ambervalley.gov.uk,Amber Valley,http://www.ambervalley.gov.uk,-1.38813200000000,DE55 7BQ,2012-05-17,fhrs_5_en-GB,5,,FHRS,5
43006,Broadholme Lane Broadholme Belper Derbyshire,,,,Fishermans Rest,Pub/bar/nightclub,7843,0,,1050,5,,53.03971600000000,0007850/FH,062,envhealth@ambervalley.gov.uk,Amber Valley,http://www.ambervalley.gov.uk,-1.47926200000000,DE56 2JF,2014-11-28,fhrs_5_en-GB,5,,FHRS,5
43007,32 Market Place Belper Derbyshire,,,,Fishers Convenience Store,Retailers - other,4613,10,,1134,10,,53.02331900000000,0008672/FH,062,envhealth@ambervalley.gov.uk,Amber Valley,http://www.ambervalley.gov.uk,-1.47895200000000,DE56 1FZ,2015-01-21,fhrs_3_en-GB,3,,FHRS,10
43008,The Fit Pit East Mill Bridge Foot Belper Derbyshire,,,,Fit Pit And Pit Stop Cafe,Restaurant/Cafe/Canteen,1,5,,352446,5,,53.02998000000000,07/00057/HS,062,envhealth@ambervalley.gov.uk,Amber Valley,http://www.ambervalley.gov.uk,-1.48719200000000,DE56 2UA,2013-09-18,fhrs_5_en-GB,5,,FHRS,5
43009,1B Market Street Heanor Derbyshire,,,,Five A Day,Retailers - other,4613,0,,409201,0,,53.01407500000000,03/00134/HS,062,envhealth@ambervalley.gov.uk,Amber Valley,http://www.ambervalley.gov.uk,-1.35534800000000,DE75 7NR,2014-05-12,fhrs_5_en-GB,5,,FHRS,5
43010,,,,,Fizigig Cakery,Other catering premises,7841,,,410456,,,,12/00062/FOOD,062,envhealth@ambervalley.gov.uk,Amber Valley,http://www.ambervalley.gov.uk,,,2014-07-10,fhrs_5_en-GB,5,,FHRS,
43011,Mill Lane Holloway Matlock Derbyshire,,,,Florence Nightingale Memorial Hall (Holloway Playgroup),Other catering premises,7841,5,,783,5,,53.10304300000000,0003296/FH,062,envhealth@ambervalley.gov.uk,Amber Valley,http://www.ambervalley.gov.uk,-1.51718200000000,DE4 5AQ,2013-10-16,fhrs_5_en-GB,5,,FHRS,5
43012,27B Greenhill Lane Riddings Alfreton Derbyshire,,,,Foo Lin Chinese,Takeaway/sandwich shop,7844,10,,654,5,,53.07007900000000,0001317/FH,062,envhealth@ambervalley.gov.uk,Amber Valley,http://www.ambervalley.gov.uk,-1.36900500000000,DE55 4AS,2014-10-14,fhrs_4_en-GB,4,,FHRS,5
43013,Unit 1 Hollands Fairground Rides Hall Road Langley Mill Derbyshire,,,,Food Factory,Mobile caterer,7846,0,,33864,5,,53.02571300000000,10/00071/FH,062,envhealth@ambervalley.gov.uk,Amber Valley,http://www.ambervalley.gov.uk,-1.32886000000000,NG16 4HP,2014-02-12,fhrs_5_en-GB,5,,FHRS,0
43014,20H Brook Street Heage Belper Derbyshire,,,,Food Temptation,Mobile caterer,7846,5,,28695,0,,53.04807000000000,09/00019/FH,062,envhealth@ambervalley.gov.uk,Amber Valley,http://www.ambervalley.gov.uk,-1.44592600000000,DE56 2AG,2013-11-22,fhrs_5_en-GB,5,,FHRS,5
43015,9 Market Street Heanor Derbyshire,,,,FooDelicious,Retailers - other,4613,,,1014,,,53.01407500000000,0007025/FH,062,envhealth@ambervalley.gov.uk,Amber Valley,http://www.ambervalley.gov.uk,-1.35534800000000,DE75 7NR,2014-10-29,fhrs_2_en-GB,2,,FHRS,
43016,Alfreton Road Coxbench Derby Derbyshire,,,,Fox   Hounds Restaurant,Pub/bar/nightclub,7843,10,,819,5,,52.98442600000000,0003781/FH,062,envhealth@ambervalley.gov.uk,Amber Valley,http://www.ambervalley.gov.uk,-1.44982300000000,DE21 5BA,2014-01-23,fhrs_4_en-GB,4,,FHRS,0
43017,Church Farm Hazelwood Hill Hazelwood Belper Derbyshire,,,,Franjoy Dairy,Manufacturers/packers,7839,20,,200685,10,,53.00625000000000,10/00099/FOOD,062,envhealth@ambervalley.gov.uk,Amber Valley,http://www.ambervalley.gov.uk,-1.50888900000000,DE56 4AD,2014-10-13,fhrs_1_en-GB,1,,FHRS,10
43018,20 Market Place Codnor Ripley Derbyshire,,,,French Horn,Pub/bar/nightclub,7843,5,,959,5,,53.04014500000000,0005989/FH,062,envhealth@ambervalley.gov.uk,Amber Valley,http://www.ambervalley.gov.uk,-1.37248400000000,DE5 9RH,2014-11-06,fhrs_5_en-GB,5,,FHRS,5
43019,16 King Street Belper Derbyshire,,,,Fresh & Fruity,Retailers - other,4613,5,,1108,5,,53.02296100000000,0008415/FH,062,envhealth@ambervalley.gov.uk,Amber Valley,http://www.ambervalley.gov.uk,-1.48350400000000,DE56 1PS,2015-01-26,fhrs_5_en-GB,5,,FHRS,5
43020,23 Strutt Street Belper Derbyshire,,,,Fresh Basil,Retailers - other,4613,0,,14975,5,,53.02286000000000,05/00079/FH,062,envhealth@ambervalley.gov.uk,Amber Valley,http://www.ambervalley.gov.uk,-1.48095500000000,DE56 1UN,2013-02-07,fhrs_5_en-GB,5,,FHRS,5
43021,7 Market Place Belper Derbyshire,,,,Fresh Bite,Takeaway/sandwich shop,7844,5,,1332,10,,53.02331900000000,0013624/FH,062,envhealth@ambervalley.gov.uk,Amber Valley,http://www.ambervalley.gov.uk,-1.47895200000000,DE56 1FZ,2013-10-16,fhrs_4_en-GB,4,,FHRS,5
43022,61 King Street Belper Derbyshire,,,,Fresh Ground,Restaurant/Cafe/Canteen,1,,,1120,,,53.02350100000000,0008464/FH,062,envhealth@ambervalley.gov.uk,Amber Valley,http://www.ambervalley.gov.uk,-1.47942700000000,DE56 1QA,2014-02-04,fhrs_5_en-GB,5,,FHRS,
43023,Church Street Fritchley Belper Derbyshire,,,,Fritchley C Of E Primary School,School/college/university,7845,0,,762,0,,53.07261900000000,0002934/FOOD,062,envhealth@ambervalley.gov.uk,Amber Valley,http://www.ambervalley.gov.uk,-1.46965600000000,DE56 2FQ,2013-09-11,fhrs_5_en-GB,5,,FHRS,0
43024,2 Market Street Heanor Derbyshire,,,,Frosts,Retailers - other,4613,0,,18470,0,,53.01407500000000,06/00136/FH,062,envhealth@ambervalley.gov.uk,Amber Valley,http://www.ambervalley.gov.uk,-1.35534800000000,DE75 7NR,2013-01-15,fhrs_5_en-GB,5,,FHRS,0
43025,19 Mansfield Road Alfreton Derbyshire,,,,Frydays Fish And Chip Ltd,Takeaway/sandwich shop,7844,5,,603,0,,53.09843800000000,0000586/FH,062,envhealth@ambervalley.gov.uk,Amber Valley,http://www.ambervalley.gov.uk,-1.38068700000000,DE55 7JJ,2014-09-19,fhrs_5_en-GB,5,,FHRS,0
43026,35 Gregorys Way Belper Derbyshire,,,,Full House,Takeaway/sandwich shop,7844,10,,1092,10,,53.03065900000000,0008265/FH,062,envhealth@ambervalley.gov.uk,Amber Valley,http://www.ambervalley.gov.uk,-1.46191000000000,DE56 0HS,2014-03-06,fhrs_3_en-GB,3,,FHRS,10
43027,99 Chestnut Avenue Cowhill Belper Derbyshire,,,,Full Moon,Takeaway/sandwich shop,7844,5,,1062,0,,53.01785900000000,0007973/FH,062,envhealth@ambervalley.gov.uk,Amber Valley,http://www.ambervalley.gov.uk,-1.47414300000000,DE56 1LW,2013-02-21,fhrs_5_en-GB,5,,FHRS,0
43028,Stall 5 Alfreton Indoor Market Hall Institute Lane Alfreton Derbyshire,,,,G Hartshorne,Retailers - other,4613,0,,589,0,,53.09680400000000,0000491/FH,062,envhealth@ambervalley.gov.uk,Amber Valley,http://www.ambervalley.gov.uk,-1.38804300000000,DE55 7BQ,2014-03-28,fhrs_5_en-GB,5,,FHRS,0
43029,68 King Street Belper Derbyshire,,,,G O Cooper & Son,Manufacturers/packers,7839,,,1122,,,53.02341800000000,0008477/FH,062,envhealth@ambervalley.gov.uk,Amber Valley,http://www.ambervalley.gov.uk,-1.48105300000000,DE56 1PZ,2014-09-29,fhrs_5_en-GB,5,,FHRS,
43030,11 Over Lane Openwoodgate Belper Derbyshire,,,,GB Maycock,Manufacturers/packers,7839,10,,1147,10,,53.02294400000000,0008868/FH,062,envhealth@ambervalley.gov.uk,Amber Valley,http://www.ambervalley.gov.uk,-1.44972100000000,DE56 0HW,2013-09-24,fhrs_3_en-GB,3,,FHRS,10
43031,11 Hayfield Close Belper Derbyshire,,,,General Store,Retailers - other,4613,,,507162,,,53.03046300000000,0008287/FH,062,envhealth@ambervalley.gov.uk,Amber Valley,http://www.ambervalley.gov.uk,-1.46839900000000,DE56 1FA,2013-11-05,fhrs_1_en-GB,1,,FHRS,
43032,15 Whitemoor Lane Belper Derbyshire,,,,Geoff's General Store,Retailers - other,4613,10,,1157,10,,53.02798100000000,0009125/FH,062,envhealth@ambervalley.gov.uk,Amber Valley,http://www.ambervalley.gov.uk,-1.46003500000000,DE56 0HB,2013-01-10,fhrs_3_en-GB,3,,FHRS,10
43033,117-119 Bridge Street Belper Derbyshire,,,,George And Dragon,Pub/bar/nightclub,7843,0,,1045,0,,53.02626100000000,0007817/FH,062,envhealth@ambervalley.gov.uk,Amber Valley,http://www.ambervalley.gov.uk,-1.48573000000000,DE56 1BA,2014-12-08,fhrs_5_en-GB,5,,FHRS,5
43034,20 Lowes Hill Ripley Derbyshire,,,,George Inn,Pub/bar/nightclub,7843,0,,1218,0,,53.05691100000000,0010023/FH,062,envhealth@ambervalley.gov.uk,Amber Valley,http://www.ambervalley.gov.uk,-1.40782600000000,DE5 3DW,2014-07-04,fhrs_5_en-GB,5,,FHRS,5
43035,Main Road Lower Hartshay Ripley Derbyshire,,,,George Inn,Pub/bar/nightclub,7843,5,,1219,5,,53.05862900000000,0010041/FH,062,envhealth@ambervalley.gov.uk,Amber Valley,http://www.ambervalley.gov.uk,-1.42815400000000,DE5 3RP,2013-10-31,fhrs_5_en-GB,5,,FHRS,0
43036,18 Bridge Street Belper Derbyshire,,,,Georges Tradition Limited,Takeaway/sandwich shop,7844,5,,1036,5,,53.02423300000000,0007769/FH,062,envhealth@ambervalley.gov.uk,Amber Valley,http://www.ambervalley.gov.uk,-1.48456200000000,DE56 1AX,2014-01-09,fhrs_5_en-GB,5,,FHRS,5
43037,246 Nottingham Road Langley Mill Nottingham,,,,Georges Tradition/The Thorn Tree Inn,Restaurant/Cafe/Canteen,1,10,,943,15,,53.03628400000000,0005689/FH,062,envhealth@ambervalley.gov.uk,Amber Valley,http://www.ambervalley.gov.uk,-1.36144500000000,NG16 4HG,2014-02-18,fhrs_2_en-GB,2,,FHRS,10
43038,Gillivon Tea Rooms 99 - 101 Bridge Street Belper Derbyshire,,,,Gillivon Tea Rooms,Restaurant/Cafe/Canteen,1,0,,715557,5,,53.02411800000000,0007808/FH,062,envhealth@ambervalley.gov.uk,Amber Valley,http://www.ambervalley.gov.uk,-1.48505500000000,DE56 1AY,2014-11-04,fhrs_5_en-GB,5,,FHRS,0
43039,Wellington Street Ripley Derbyshire,,,,Gills Kebab House,Takeaway/sandwich shop,7844,5,,1265,5,,53.04910400000000,0010611/FH,062,envhealth@ambervalley.gov.uk,Amber Valley,http://www.ambervalley.gov.uk,-1.40317400000000,DE5 3EH,2014-08-14,fhrs_5_en-GB,5,,FHRS,5
43040,Literary Coffee 41B Gregorys Way Belper Derbyshire,,,,Godfreys,Restaurant/Cafe/Canteen,1,,,621592,,,53.03065900000000,0000011/FH,062,envhealth@ambervalley.gov.uk,Amber Valley,http://www.ambervalley.gov.uk,-1.46191000000000,DE56 0HS,2014-05-22,fhrs_5_en-GB,5,,FHRS,
43041,16 Town Street Duffield Belper Derbyshire,,,,Godfreys Coffee Shop,Restaurant/Cafe/Canteen,1,5,,805,5,,52.98696100000000,0003675/FH,062,envhealth@ambervalley.gov.uk,Amber Valley,http://www.ambervalley.gov.uk,-1.48811900000000,DE56 4EH,2014-11-11,fhrs_5_en-GB,5,,FHRS,5
43042,106 Kilbourne Road Belper Derbyshire,,,,Golden Gate Takeaway,Takeaway/sandwich shop,7844,,,1097,,,53.02462400000000,0008385/FH,062,envhealth@ambervalley.gov.uk,Amber Valley,http://www.ambervalley.gov.uk,-1.45730300000000,DE56 1SA,2014-07-01,fhrs_5_en-GB,5,,FHRS,
43043,Golden Valley Riddings Alfreton Derbyshire,,,,Golden Valley Camping And Caravan Park,Restaurant/Cafe/Canteen,1,0,,17830,0,,53.05649200000000,06/00037/FH,062,envhealth@ambervalley.gov.uk,Amber Valley,http://www.ambervalley.gov.uk,-1.36826300000000,DE55 4ES,2013-03-27,fhrs_5_en-GB,5,,FHRS,5
43044,19 Church Street Ripley Derbyshire,,,,Good Food Inn,Takeaway/sandwich shop,7844,5,,15159,10,,53.05109400000000,05/00120/FH,062,envhealth@ambervalley.gov.uk,Amber Valley,http://www.ambervalley.gov.uk,-1.40574200000000,DE5 3BU,2014-08-15,fhrs_4_en-GB,4,,FHRS,5
43045,The Grange Marshall Street Alfreton Derbyshire,,,,Grange Private Day Nursery,Hospitals/Childcare/Caring Premises,5,,,612,,,53.09492300000000,0000632/FH,062,envhealth@ambervalley.gov.uk,Amber Valley,http://www.ambervalley.gov.uk,-1.38754700000000,DE55 7BW,2014-10-01,fhrs_5_en-GB,5,,FHRS,
43046,66 High Street Belper Derbyshire,,,,Grapes Inn Public House,Pub/bar/nightclub,7843,5,,1094,5,,53.02479800000000,0008309/FH,062,envhealth@ambervalley.gov.uk,Amber Valley,http://www.ambervalley.gov.uk,-1.47593800000000,DE56 1GF,2012-09-26,fhrs_5_en-GB,5,,FHRS,0
43047,134 Derby Road Langley Mill Derbyshire,,,,Great Northern Inn,Pub/bar/nightclub,7843,5,,1364,5,,53.02002100000000,0014689/FH,062,envhealth@ambervalley.gov.uk,Amber Valley,http://www.ambervalley.gov.uk,-1.32383500000000,NG16 4AA,2013-06-18,fhrs_5_en-GB,5,,FHRS,5
43048,Unit 4 41 Maple Avenue Ripley Derbyshire,,,,Green Forest,Takeaway/sandwich shop,7844,,,7371,,,53.04575900000000,03/00005/FH,062,envhealth@ambervalley.gov.uk,Amber Valley,http://www.ambervalley.gov.uk,-1.41209500000000,DE5 3PY,2014-02-10,fhrs_5_en-GB,5,,FHRS,
43049,42 Wingfield Road Alfreton Derbyshire,,,,Green Gables,Hospitals/Childcare/Caring Premises,5,10,,627,5,,53.09226000000000,0000956/FH,062,envhealth@ambervalley.gov.uk,Amber Valley,http://www.ambervalley.gov.uk,-1.39956100000000,DE55 7AN,2014-10-10,fhrs_4_en-GB,4,,FHRS,5
43050,Greenhill Lane Riddings Alfreton Derbyshire,,,,Greenhill Tavern,Pub/bar/nightclub,7843,0,,657,0,,53.07007900000000,0001335/FH,062,envhealth@ambervalley.gov.uk,Amber Valley,http://www.ambervalley.gov.uk,-1.36900500000000,DE55 4AS,2014-10-29,fhrs_5_en-GB,5,,FHRS,5
43051,28 Oxford Street Ripley Derbyshire,,,,Greggs,Retailers - other,4613,0,,21609,0,,53.05005400000000,07/00042/FH,062,envhealth@ambervalley.gov.uk,Amber Valley,http://www.ambervalley.gov.uk,-1.40447300000000,DE5 3AP,2013-06-07,fhrs_5_en-GB,5,,FHRS,0
43052,40 King Street Belper Derbyshire,,,,Greggs,Retailers - other,4613,5,,9797,5,,53.02308000000000,04/00065/HS,062,envhealth@ambervalley.gov.uk,Amber Valley,http://www.ambervalley.gov.uk,-1.48198200000000,DE56 1PL,2013-04-03,fhrs_5_en-GB,5,,FHRS,5
43053,5 Market Street Heanor Derbyshire,,,,Greggs,Retailers - other,4613,5,,15259,5,,53.01407500000000,05/00149/FH,062,envhealth@ambervalley.gov.uk,Amber Valley,http://www.ambervalley.gov.uk,-1.35534800000000,DE75 7NR,2013-12-11,fhrs_5_en-GB,5,,FHRS,0
43054,1A Institute Lane Alfreton Derbyshire,,,,Greggs Plc,Retailers - other,4613,5,,583,0,,53.09688600000000,0000463/FH,062,envhealth@ambervalley.gov.uk,Amber Valley,http://www.ambervalley.gov.uk,-1.38813200000000,DE55 7BQ,2014-07-02,fhrs_5_en-GB,5,,FHRS,5
43055,17 Whitemoor Lane Belper Derbyshire,,,,Greyhound Inn,Pub/bar/nightclub,7843,5,,1158,5,,53.02798100000000,0009139/FH,062,envhealth@ambervalley.gov.uk,Amber Valley,http://www.ambervalley.gov.uk,-1.46003500000000,DE56 0HB,2014-03-05,fhrs_5_en-GB,5,,FHRS,5
43056,Griffiths Laboratories Staff Canteen Cotes Park Lane Somercotes Alfreton Derbyshire,,,,Griffith Laboratories,Restaurant/Cafe/Canteen,1,5,,669,0,,53.08821100000000,0001722/FH,062,envhealth@ambervalley.gov.uk,Amber Valley,http://www.ambervalley.gov.uk,-1.36572400000000,DE55 4NJ,2014-10-22,fhrs_5_en-GB,5,,FHRS,5
43057,31 Oxford Street Ripley Derbyshire,,,,Gummers,Retailers - other,4613,0,,18291,0,,53.04979400000000,06/00099/HS,062,envhealth@ambervalley.gov.uk,Amber Valley,http://www.ambervalley.gov.uk,-1.40458100000000,DE5 3AH,2014-08-14,fhrs_5_en-GB,5,,FHRS,5
43058,8 King Street Belper Derbyshire,,,,Hacketts Bar,Pub/bar/nightclub,7843,0,,1106,0,,53.02296100000000,0008409/FH,062,envhealth@ambervalley.gov.uk,Amber Valley,http://www.ambervalley.gov.uk,-1.48350400000000,DE56 1PS,2014-11-28,fhrs_5_en-GB,5,,FHRS,0
43059,34 Ashbourne Road Shottle Gate Belper Derbyshire,,,,Hanging Gate,Pub/bar/nightclub,7843,5,,883,5,,53.02215500000000,0004762/FH,062,envhealth@ambervalley.gov.uk,Amber Valley,http://www.ambervalley.gov.uk,-1.52310900000000,DE56 2LE,2013-08-12,fhrs_5_en-GB,5,,FHRS,5
43060,3 Red Lion Square Heanor Derbyshire,,,,Happy Chef,Takeaway/sandwich shop,7844,10,,1021,10,,53.01418100000000,0007283/FH,062,envhealth@ambervalley.gov.uk,Amber Valley,http://www.ambervalley.gov.uk,-1.35667300000000,DE75 7PA,2014-02-26,fhrs_3_en-GB,3,,FHRS,10
43061,7 Breach Road Marlpool Heanor Derbyshire,,,,Happy Hill,Takeaway/sandwich shop,7844,10,,971,10,,53.00805900000000,0006162/FH,062,envhealth@ambervalley.gov.uk,Amber Valley,http://www.ambervalley.gov.uk,-1.34356000000000,DE75 7NJ,2013-10-23,fhrs_2_en-GB,2,,FHRS,15
43062,,,,,Hawk Catering,Mobile caterer,7846,10,,28635,10,,,09/00014/HS,062,envhealth@ambervalley.gov.uk,Amber Valley,http://www.ambervalley.gov.uk,,,2013-10-25,fhrs_4_en-GB,4,,FHRS,0
43063,101 Mansfield Road Alfreton Derbyshire,,,,Hayers Minimart,Retailers - other,4613,10,,609,0,,53.09859100000000,0000603/FH,062,envhealth@ambervalley.gov.uk,Amber Valley,http://www.ambervalley.gov.uk,-1.37550300000000,DE55 7JP,2015-01-22,fhrs_4_en-GB,4,,FHRS,0
43064,181 Nottingham Road Somercotes Alfreton Derbyshire,,,,Hayes Bakery,Retailers - other,4613,5,,698,5,,53.08070600000000,0001963/FH,062,envhealth@ambervalley.gov.uk,Amber Valley,http://www.ambervalley.gov.uk,-1.36931200000000,DE55 4JG,2015-01-09,fhrs_5_en-GB,5,,FHRS,5
43065,Hayes Lane Swanwick Alfreton Derbyshire,,,,Hayes Conference Centre,Pub/bar/nightclub,7843,5,,741,5,,53.07212200000000,0002642/FH,062,envhealth@ambervalley.gov.uk,Amber Valley,http://www.ambervalley.gov.uk,-1.39015400000000,DE55 1AT,2014-07-22,fhrs_5_en-GB,5,,FHRS,5
43066,Heage Out Of School Club School Lane Heage Belper Derbyshire,,,,Heage Out Of School Club,Hospitals/Childcare/Caring Premises,5,0,,14463,0,,53.05127900000000,05/00005/FOOD,062,envhealth@ambervalley.gov.uk,Amber Valley,http://www.ambervalley.gov.uk,-1.45173300000000,DE56 2AL,2012-12-13,fhrs_5_en-GB,5,,FHRS,0
43067,School Lane Heage Belper Derbyshire,,,,Heage Primary School,School/college/university,7845,5,,1274,5,,53.05127900000000,0010810/FOOD,062,envhealth@ambervalley.gov.uk,Amber Valley,http://www.ambervalley.gov.uk,-1.45173300000000,DE56 2AL,2014-03-04,fhrs_5_en-GB,5,,FHRS,0
43068,Chesterfield Road Heage Belper Derbyshire,,,,Heage Windmill,Manufacturers/packers,7839,5,,7500,5,,53.05628800000000,03/00050/FH,062,envhealth@ambervalley.gov.uk,Amber Valley,http://www.ambervalley.gov.uk,-1.44828200000000,DE56 2BH,2013-08-14,fhrs_5_en-GB,5,,FHRS,5
43069,Roper Avenue Heanor Derbyshire,,,,Heanor Children's Centre,Hospitals/Childcare/Caring Premises,5,0,,25339,0,,53.00653800000000,08/00071/FOOD,062,envhealth@ambervalley.gov.uk,Amber Valley,http://www.ambervalley.gov.uk,-1.35300200000000,DE75 7BZ,2013-02-26,fhrs_5_en-GB,5,,FHRS,0
43070,2 Church Street Heanor Derbyshire,,,,Heanor Conservative Club,Pub/bar/nightclub,7843,20,,976,0,,53.01365900000000,0006277/FH,062,envhealth@ambervalley.gov.uk,Amber Valley,http://www.ambervalley.gov.uk,-1.35006300000000,DE75 7AH,2014-09-10,fhrs_1_en-GB,1,,FHRS,10
43071,Heanor Convenience Store Unit 4 - 5 Holbrook Street Heanor Derbyshire,,,,Heanor Convenience Store,Retailers - supermarkets/hypermarkets,7840,0,,688265,5,,53.01542500000000,0000051/FOOD,062,envhealth@ambervalley.gov.uk,Amber Valley,http://www.ambervalley.gov.uk,-1.34253900000000,DE75 7AY,2014-07-07,fhrs_5_en-GB,5,,FHRS,5
43072,15 Loscoe Road Heanor Derbyshire,,,,Heanor Fish Bar,Takeaway/sandwich shop,7844,,,994,,,53.01714300000000,0006904/FH,062,envhealth@ambervalley.gov.uk,Amber Valley,http://www.ambervalley.gov.uk,-1.36098200000000,DE75 7FF,2014-07-09,fhrs_5_en-GB,5,,FHRS,
43073,Kirkley Drive Heanor Derbyshire,,,,Heanor Gate Science College,School/college/university,7845,5,,1026,5,,53.01104800000000,0007379/FOOD,062,envhealth@ambervalley.gov.uk,Amber Valley,http://www.ambervalley.gov.uk,-1.37095400000000,DE75 7RA,2015-01-27,fhrs_5_en-GB,5,,FHRS,5
43074,12 Red Lion Square Heanor Derbyshire,,,,Heanor Labour Club,Pub/bar/nightclub,7843,0,,1022,0,,53.01418100000000,0007291/FH,062,envhealth@ambervalley.gov.uk,Amber Valley,http://www.ambervalley.gov.uk,-1.35667300000000,DE75 7PA,2012-09-14,fhrs_5_en-GB,5,,FHRS,0
43075,Laceyfields Road Heanor Derbyshire,,,,Heanor Langley Infant School,School/college/university,7845,0,,992,0,,53.01202800000000,0006845/FOOD,062,envhealth@ambervalley.gov.uk,Amber Valley,http://www.ambervalley.gov.uk,-1.33628600000000,DE75 7HJ,2013-04-24,fhrs_5_en-GB,5,,FHRS,0
43076,50 Ilkeston Road Marlpool Heanor Derbyshire,,,,Heanor Miners Welfare,Pub/bar/nightclub,7843,5,,879,0,,53.01031400000000,0004720/FH,062,envhealth@ambervalley.gov.uk,Amber Valley,http://www.ambervalley.gov.uk,-1.34974100000000,DE75 7DT,2013-11-21,fhrs_5_en-GB,5,,FHRS,0
43077,Mayfield Avenue Heanor Derbyshire,,,,Heanor Town Cricket Club,Pub/bar/nightclub,7843,5,,610,5,,53.01063800000000,00006085/FH,062,envhealth@ambervalley.gov.uk,Amber Valley,http://www.ambervalley.gov.uk,-1.35809700000000,DE75 7EN,2012-02-28,fhrs_5_en-GB,5,,FHRS,0
43078,Heanor Town Football Tea Bar Mayfield Avenue Heanor Derbyshire,,,,Heanor Town Football Tea Bar,Restaurant/Cafe/Canteen,1,5,,470806,0,,53.01063800000000,12/00098/FOOD,062,envhealth@ambervalley.gov.uk,Amber Valley,http://www.ambervalley.gov.uk,-1.35809700000000,DE75 7EN,2014-11-05,fhrs_5_en-GB,5,,FHRS,5
43079,1 - 3 White Gates Codnor Ripley Derbyshire,,,,Hellinside B  B,Hotel/bed & breakfast/guest house,7842,5,,18243,0,,53.04316000000000,06/00092/FOOD,062,envhealth@ambervalley.gov.uk,Amber Valley,http://www.ambervalley.gov.uk,-1.37658700000000,DE5 9QD,2012-12-18,fhrs_5_en-GB,5,,FHRS,0
43080,Herbert Strutt Primary School Thornhill Avenue Belper Derbyshire,,,,Herbert Strutt Primary School,School/college/university,7845,5,,25324,0,,53.01719000000000,08/00069/FOOD,062,envhealth@ambervalley.gov.uk,Amber Valley,http://www.ambervalley.gov.uk,-1.46914300000000,DE56 1SH,2013-11-15,fhrs_5_en-GB,5,,FHRS,5
43081,159 Belper Lane Belper Derbyshire,,,,Hilltop Stores,Retailers - other,4613,10,,1030,10,,53.03646300000000,0007676/FH,062,envhealth@ambervalley.gov.uk,Amber Valley,http://www.ambervalley.gov.uk,-1.49399000000000,DE56 2UJ,2014-08-20,fhrs_4_en-GB,4,,FHRS,0
43082,11 Blackstone Close Somercotes Alfreton Derbyshire,,,,HNC Foods,Other catering premises,7841,5,,409202,0,,53.07708200000000,12/00063/FOOD,062,envhealth@ambervalley.gov.uk,Amber Valley,http://www.ambervalley.gov.uk,-1.36563300000000,DE55 4HL,2012-06-20,fhrs_5_en-GB,5,,FHRS,5
43083,Moorside Lane Holbrook Belper Derbyshire,,,,Holbrook C Of E Primary School,School/college/university,7845,0,,825,5,,53.00402400000000,0003851/FOOD,062,envhealth@ambervalley.gov.uk,Amber Valley,http://www.ambervalley.gov.uk,-1.45796400000000,DE56 0TW,2012-01-31,fhrs_5_en-GB,5,,FHRS,5
43084,Southwood House Portway Holbrook Belper Derbyshire,,,,Holbrook Centre For Autism,School/college/university,7845,0,,826,10,,52.99778700000000,0003868/FOOD,062,envhealth@ambervalley.gov.uk,Amber Valley,http://www.ambervalley.gov.uk,-1.45834000000000,DE56 0TE,2013-09-19,fhrs_4_en-GB,4,,FHRS,0
43085,Residential Home Holbrook Hall Makeney Road Holbrook Belper Derbyshire,,,,Holbrook Hall Residential Home,Hospitals/Childcare/Caring Premises,5,5,,829,5,,52.99776100000000,0003898/FH,062,envhealth@ambervalley.gov.uk,Amber Valley,http://www.ambervalley.gov.uk,-1.46047100000000,DE56 0TF,2015-01-16,fhrs_5_en-GB,5,,FHRS,5
43086,61 Chapel Street Holbrook Belper Derbyshire,,,,Holbrook News,Retailers - other,4613,5,,824,0,,53.00515800000000,0003818/FH,062,envhealth@ambervalley.gov.uk,Amber Valley,http://www.ambervalley.gov.uk,-1.46020000000000,DE56 0TQ,2013-01-07,fhrs_5_en-GB,5,,FHRS,0
43087,Holbrook Miners Welfare Shaw Lane Holbrook Belper Derbyshire,,,,Holbrook Sports And Social Club,Pub/bar/nightclub,7843,5,,827,5,,53.00575000000000,0003879/FH,062,envhealth@ambervalley.gov.uk,Amber Valley,http://www.ambervalley.gov.uk,-1.46587100000000,DE56 0TG,2014-01-20,fhrs_5_en-GB,5,,FHRS,5
43088,19 King Street Belper Derbyshire,,,,Holland And Barrett,Retailers - other,4613,0,,1109,0,,53.02329400000000,0008417/FH,062,envhealth@ambervalley.gov.uk,Amber Valley,http://www.ambervalley.gov.uk,-1.48364900000000,DE56 1PW,2012-04-24,fhrs_4_en-GB,4,,FHRS,10
43089,51 Brook Lane Ripley Derbyshire,,,,Holly Bush,Pub/bar/nightclub,7843,10,,1165,15,,53.04092500000000,0009354/FH,062,envhealth@ambervalley.gov.uk,Amber Valley,http://www.ambervalley.gov.uk,-1.40717900000000,DE5 8JA,2013-07-22,fhrs_2_en-GB,2,,FHRS,10
43090,Holly Bush Lane Makeney Belper Derbyshire,,,,Holly Bush Inn,Pub/bar/nightclub,7843,5,,1127,5,,52.99849000000000,0008615/FH,062,envhealth@ambervalley.gov.uk,Amber Valley,http://www.ambervalley.gov.uk,-1.47680700000000,DE56 0RX,2013-09-10,fhrs_5_en-GB,5,,FHRS,5
43091,,,,,Holly Tree Catering,Other catering premises,7841,5,,482615,5,,,12/00105/FOOD,062,envhealth@ambervalley.gov.uk,Amber Valley,http://www.ambervalley.gov.uk,,,2012-12-04,fhrs_5_en-GB,5,,FHRS,5
