,addressline1,addressline2,addressline3,addressline4,businessname,businesstype,businesstypeid,confidenceinmanagement,extractdate,fhrsid,hygiene,itemcount,latitude,localauthoritybusinessid,localauthoritycode,localauthorityemailaddress,localauthorityname,localauthoritywebsite,longitude,postcode,ratingdate,ratingkey,ratingvalue,returncode,schemetype,structural
58261,Cross Street,,,Castleton,1530,Restaurant/Cafe/Canteen,1,5,,389703,0,,53.34326400000000,6302,067,borough-council@highpeak.gov.uk,High Peak,http://www.highpeak.gov.uk,-1.77580500000000,S33 8WH,2014-03-21,fhrs_5_en-GB,5,,FHRS,5
58262,8a Hall Bank,,,Buxton,53 Degrees North,Pub/bar/nightclub,7843,5,,668351,10,,53.25735000000000,45777,067,borough-council@highpeak.gov.uk,High Peak,http://www.highpeak.gov.uk,-1.91496900000000,SK17 6EW,2014-05-08,fhrs_4_en-GB,4,,FHRS,5
58263,,,,,A.M Catering T/A The Posh Potato,Mobile caterer,7846,5,,681286,10,,,47289,067,borough-council@highpeak.gov.uk,High Peak,http://www.highpeak.gov.uk,,,2014-07-04,fhrs_4_en-GB,4,,FHRS,5
58264,38 Market Street,,,Whaley Bridge,Al Madina,Takeaway/sandwich shop,7844,0,,389415,5,,53.32956800000000,5222,067,borough-council@highpeak.gov.uk,High Peak,http://www.highpeak.gov.uk,-1.98374400000000,SK23 7LP,2013-04-25,fhrs_5_en-GB,5,,FHRS,0
58265,Buxton Road,,,Chinley,Alderbrook Day Opportunities & Peak School,Hospitals/Childcare/Caring Premises,5,0,,389798,0,,53.34017500000000,6543,067,borough-council@highpeak.gov.uk,High Peak,http://www.highpeak.gov.uk,-1.93381800000000,SK23 6ES,2014-07-24,fhrs_5_en-GB,5,,FHRS,0
58266,3 Temple Road,,,Buxton,Alison Park Hotel,Hotel/bed & breakfast/guest house,7842,5,,389608,5,,53.25203400000000,5930,067,borough-council@highpeak.gov.uk,High Peak,http://www.highpeak.gov.uk,-1.92235300000000,SK17 9BA,2014-01-13,fhrs_5_en-GB,5,,FHRS,5
58267,1 Thornset,Hardwick Mount,,Buxton,Alpine Lodge Guest House,Hotel/bed & breakfast/guest house,7842,10,,389636,5,,53.25784100000000,6038,067,borough-council@highpeak.gov.uk,High Peak,http://www.highpeak.gov.uk,-1.91032100000000,SK17 6PS,2011-03-02,fhrs_4_en-GB,4,,FHRS,0
58268,Cavendish Golf Club,Watford Road,,Buxton,Angel Cuisine,Other catering premises,7841,10,,389853,0,,53.25903100000000,7028,067,borough-council@highpeak.gov.uk,High Peak,http://www.highpeak.gov.uk,-1.92818700000000,SK17 6XF,2013-10-16,fhrs_4_en-GB,4,,FHRS,5
58269,Unit 22a,Harpur Hill Business Park,Harpur Hill,Buxton,Annie's Cafe,Restaurant/Cafe/Canteen,1,5,,410527,5,,53.23238800000000,37150,067,borough-council@highpeak.gov.uk,High Peak,http://www.highpeak.gov.uk,-1.91462900000000,SK17 9JL,2013-12-09,fhrs_5_en-GB,5,,FHRS,5
58270,32 Market Street,,,Chapel-en-le-frith,August Moon,Takeaway/sandwich shop,7844,5,,389629,5,,53.32409000000000,6020,067,borough-council@highpeak.gov.uk,High Peak,http://www.highpeak.gov.uk,-1.91293000000000,SK23 0HY,2014-02-13,fhrs_5_en-GB,5,,FHRS,5
58271,90 Victoria Street,,,Glossop,Ayla Convenience Store,Retailers - other,4613,10,,643768,5,,53.44039700000000,45545,067,borough-council@highpeak.gov.uk,High Peak,http://www.highpeak.gov.uk,-1.95186400000000,SK13 8HZ,2014-04-09,fhrs_3_en-GB,3,,FHRS,10
58272,First floor,46 - 50 High Street West,,Glossop,Ayubowan,Restaurant/Cafe/Canteen,1,5,,550832,10,,53.44356100000000,42045,067,borough-council@highpeak.gov.uk,High Peak,http://www.highpeak.gov.uk,-1.95187500000000,SK13 8BH,2013-04-24,fhrs_4_en-GB,4,,FHRS,0
58273,Beard Hall Farm,Marsh Lane,,New Mills,B. Wild & Sons,Manufacturers/packers,7839,10,,643767,5,,53.35915000000000,45509,067,borough-council@highpeak.gov.uk,High Peak,http://www.highpeak.gov.uk,-1.98821100000000,SK22 4PW,2014-03-13,fhrs_4_en-GB,4,,FHRS,0
58274,2 Old Road,,,Whaley Bridge,Babka,Takeaway/sandwich shop,7844,5,,389675,5,,53.32816500000000,6215,067,borough-council@highpeak.gov.uk,High Peak,http://www.highpeak.gov.uk,-1.98273900000000,SK23 7HR,2014-05-20,fhrs_5_en-GB,5,,FHRS,0
58275,Main Road,,,Bamford,Bamford Bakery,Takeaway/sandwich shop,7844,5,,389605,0,,53.34650800000000,5919,067,borough-council@highpeak.gov.uk,High Peak,http://www.highpeak.gov.uk,-1.69075500000000,S33 0AY,2014-01-21,fhrs_5_en-GB,5,,FHRS,5
58276,Fiddlers Well,Main Road,,Bamford,Bamford Primary School,School/college/university,7845,10,,389795,5,,53.34864100000000,6538,067,borough-council@highpeak.gov.uk,High Peak,http://www.highpeak.gov.uk,-1.68842600000000,S33 0AR,2014-03-04,fhrs_4_en-GB,4,,FHRS,5
58277,7 The Quadrant,,,Buxton,Barbarellas,Pub/bar/nightclub,7843,0,,389884,0,,53.25985700000000,7102,067,borough-council@highpeak.gov.uk,High Peak,http://www.highpeak.gov.uk,-1.91364500000000,SK17 6AW,2013-09-11,fhrs_5_en-GB,5,,FHRS,0
58278,23-27 High Street,,,Buxton,Bargain Booze,Retailers - other,4613,5,,389531,5,,53.25486000000000,5656,067,borough-council@highpeak.gov.uk,High Peak,http://www.highpeak.gov.uk,-1.91516900000000,SK17 6ET,2010-10-19,fhrs_5_en-GB,5,,FHRS,5
58279,56 High Street West,,,Glossop,Bargain Booze,Retailers - other,4613,10,,389447,10,,53.44356100000000,5333,067,borough-council@highpeak.gov.uk,High Peak,http://www.highpeak.gov.uk,-1.95187500000000,SK13 8BH,2013-03-26,fhrs_3_en-GB,3,,FHRS,5
58280,29 Bath Road,,,Buxton,Bath Road Church Centre,Other catering premises,7841,5,,389534,0,,53.25399800000000,5668,067,borough-council@highpeak.gov.uk,High Peak,http://www.highpeak.gov.uk,-1.91612900000000,SK17 6HJ,2013-11-18,fhrs_5_en-GB,5,,FHRS,0
58281,,,,,Beanabout,Mobile caterer,7846,5,,389390,5,,,18466,067,borough-council@highpeak.gov.uk,High Peak,http://www.highpeak.gov.uk,,,2012-04-20,fhrs_5_en-GB,5,,FHRS,5
58282,,,,,Becca's Cakes,Other catering premises,7841,5,,451312,5,,,38573,067,borough-council@highpeak.gov.uk,High Peak,http://www.highpeak.gov.uk,,,2012-09-19,fhrs_5_en-GB,5,,FHRS,0
58283,202 Woolley Bridge Road,Hadfield,,Glossop,Beechwood House,Hospitals/Childcare/Caring Premises,5,5,,389577,5,,53.46249800000000,5841,067,borough-council@highpeak.gov.uk,High Peak,http://www.highpeak.gov.uk,-1.97720300000000,SK13 1PQ,2014-01-07,fhrs_5_en-GB,5,,FHRS,0
58284,67 Albion Road,,,New Mills,Beehive Inn,Pub/bar/nightclub,7843,5,,401602,0,,53.36232300000000,36718,067,borough-council@highpeak.gov.uk,High Peak,http://www.highpeak.gov.uk,-2.00350700000000,SK22 3EY,2013-12-05,fhrs_5_en-GB,5,,FHRS,5
58285,30 Market Street,,,Whaley Bridge,Bella's,Restaurant/Cafe/Canteen,1,5,,428836,10,,53.32956800000000,37522,067,borough-council@highpeak.gov.uk,High Peak,http://www.highpeak.gov.uk,-1.98374400000000,SK23 7LP,2014-01-08,fhrs_3_en-GB,3,,FHRS,10
58286,5 Bench Road,,,Fairfield,Bench Road Stores,Retailers - other,4613,10,,389683,5,,53.25407100000000,6244,067,borough-council@highpeak.gov.uk,High Peak,http://www.highpeak.gov.uk,-1.89448600000000,SK17 7RP,2011-06-01,fhrs_4_en-GB,4,,FHRS,5
58287,60 Station Road,,,Hadfield,Big Brekkie,Restaurant/Cafe/Canteen,1,10,,389699,5,,53.46394400000000,6296,067,borough-council@highpeak.gov.uk,High Peak,http://www.highpeak.gov.uk,-1.96912900000000,SK13 1DB,2013-09-09,fhrs_4_en-GB,4,,FHRS,5
58288,Hargate Hill Equestrian Centre,Hargate Hill,,Glossop,Billi Smiles Food Vehicle,Mobile caterer,7846,0,,735708,0,,,50530,067,borough-council@highpeak.gov.uk,High Peak,http://www.highpeak.gov.uk,,,2015-02-06,fhrs_5_en-GB,5,,FHRS,5
58289,11 Victoria Terrace,Fairfield Road,,Buxton,Bill's Fish And Chips,Takeaway/sandwich shop,7844,0,,389486,0,,53.26026500000000,5507,067,borough-council@highpeak.gov.uk,High Peak,http://www.highpeak.gov.uk,-1.90566900000000,SK17 7BL,2014-07-05,fhrs_5_en-GB,5,,FHRS,5
58290,98-100 Station Road,,Hadfield,Glossop,Billy's Plaice,Takeaway/sandwich shop,7844,5,,389762,10,,53.46241500000000,6456,067,borough-council@highpeak.gov.uk,High Peak,http://www.highpeak.gov.uk,-1.96780500000000,SK13 1AJ,2015-01-13,fhrs_4_en-GB,4,,FHRS,5
58291,Devonshire Royal Campus,Devonshire Road,,Buxton,"Bistro Restaurant, University Of Derby",Restaurant/Cafe/Canteen,1,5,,389659,5,,53.26094700000000,6101,067,borough-council@highpeak.gov.uk,High Peak,http://www.highpeak.gov.uk,-1.91713500000000,SK17 6RY,2014-09-08,fhrs_5_en-GB,5,,FHRS,5
58292,,,,,Black Diamond Catering,Mobile caterer,7846,5,,643765,0,,,45429,067,borough-council@highpeak.gov.uk,High Peak,http://www.highpeak.gov.uk,,,2014-07-07,fhrs_5_en-GB,5,,FHRS,0
58293,1 - 3 Hannah Buildings,Edale Road,,Hope,Blue Apple Gallery & Tea Room,Restaurant/Cafe/Canteen,1,0,,448343,5,,53.35129900000000,38478,067,borough-council@highpeak.gov.uk,High Peak,http://www.highpeak.gov.uk,-1.74387000000000,S33 6ZF,2014-07-24,fhrs_5_en-GB,5,,FHRS,5
58294,Chapel Street,,,Hayfield,Blue Grass Purple Cow,Hospitals/Childcare/Caring Premises,5,5,,643766,5,,53.37810500000000,45505,067,borough-council@highpeak.gov.uk,High Peak,http://www.highpeak.gov.uk,-1.94709300000000,SK22 2JJ,2014-04-07,fhrs_5_en-GB,5,,FHRS,0
58295,Mam Tor,,,Castleton,Blue John Cafe,Restaurant/Cafe/Canteen,1,5,,691434,5,,53.34728800000000,47961,067,borough-council@highpeak.gov.uk,High Peak,http://www.highpeak.gov.uk,-1.79438100000000,S33 8WA,2014-08-13,fhrs_5_en-GB,5,,FHRS,0
58296,Blythe House,Eccles Fold,,Chapel-en-le-frith,Blythe House Hospice,Hospitals/Childcare/Caring Premises,5,0,,571565,0,,53.32233600000000,42837,067,borough-council@highpeak.gov.uk,High Peak,http://www.highpeak.gov.uk,-1.92446300000000,SK23 9TJ,2014-12-09,fhrs_5_en-GB,5,,FHRS,0
58297,15 Terrace Road,,,Buxton,Bon Appetit,Takeaway/sandwich shop,7844,0,,389465,0,,53.25739300000000,5430,067,borough-council@highpeak.gov.uk,High Peak,http://www.highpeak.gov.uk,-1.91249500000000,SK17 6DU,2014-06-30,fhrs_5_en-GB,5,,FHRS,0
58298,71 High Street West,,,Glossop,Bradley's Fishmonger,Retailers - other,4613,10,,409277,10,,53.44330100000000,36930,067,borough-council@highpeak.gov.uk,High Peak,http://www.highpeak.gov.uk,-1.95231200000000,SK13 8AZ,2012-06-19,fhrs_3_en-GB,3,,FHRS,5
58299,Four Seasons Health Care,56 St.  Johns Road,,Buxton,Branksome Nursing Home,Hospitals/Childcare/Caring Premises,5,5,,389558,0,,53.25787000000000,5760,067,borough-council@highpeak.gov.uk,High Peak,http://www.highpeak.gov.uk,-1.92658500000000,SK17 6TR,2014-09-09,fhrs_5_en-GB,5,,FHRS,5
58300,Cutthroat Bridge Layby,A57,Ladybower,Bamford,Bridge Cafe,Mobile caterer,7846,5,,433482,0,,53.34915161132810,37714,067,borough-council@highpeak.gov.uk,High Peak,http://www.highpeak.gov.uk,-1.68957996368408,,2012-08-02,fhrs_5_en-GB,5,,FHRS,0
58301,Mission Hall,Bridgemont,,Whaley Bridge,Bridgemont Nursery,Hospitals/Childcare/Caring Premises,5,0,,568266,0,,53.33827700000000,42709,067,borough-council@highpeak.gov.uk,High Peak,http://www.highpeak.gov.uk,-1.98198400000000,SK23 7PB,2014-11-04,fhrs_5_en-GB,5,,FHRS,0
58302,Brookfield Service Station,Brookfield,,Glossop,Brookfield Service Station,Retailers - other,4613,10,,486762,5,,53.45403200000000,40074,067,borough-council@highpeak.gov.uk,High Peak,http://www.highpeak.gov.uk,-1.98363800000000,SK13 6JE,2012-12-05,fhrs_4_en-GB,4,,FHRS,0
58303,56 Market Street,,,New Mills,Bryans Family Butchers,Other catering premises,7841,5,,389501,0,,53.36627800000000,5566,067,borough-council@highpeak.gov.uk,High Peak,http://www.highpeak.gov.uk,-2.00200500000000,SK22 4AA,2013-08-15,fhrs_5_en-GB,5,,FHRS,5
58304,1-2 Burlington Road,,,Buxton,Buckingham Hotel,Hotel/bed & breakfast/guest house,7842,5,,389656,5,,53.25740900000000,6096,067,borough-council@highpeak.gov.uk,High Peak,http://www.highpeak.gov.uk,-1.92168400000000,SK17 9AS,2013-08-29,fhrs_5_en-GB,5,,FHRS,5
58305,68 Market Street,,,New Mills,Budds Bakery,Retailers - other,4613,5,,389481,5,,53.36627800000000,5497,067,borough-council@highpeak.gov.uk,High Peak,http://www.highpeak.gov.uk,-2.00200500000000,SK22 4AA,2015-01-07,fhrs_5_en-GB,5,,FHRS,5
58306,Greystones,Cross Street,,Castleton,Buddys,Restaurant/Cafe/Canteen,1,10,,389892,5,,53.34326400000000,7238,067,borough-council@highpeak.gov.uk,High Peak,http://www.highpeak.gov.uk,-1.77580500000000,S33 8WH,2013-09-09,fhrs_3_en-GB,3,,FHRS,10
58307,Cross Street,,,Castleton,Bulls Head Hotel,Pub/bar/nightclub,7843,5,,389697,0,,53.34326400000000,6286,067,borough-council@highpeak.gov.uk,High Peak,http://www.highpeak.gov.uk,-1.77580500000000,S33 8WH,2014-07-02,fhrs_5_en-GB,5,,FHRS,5
58308,102 Church Street,,,Glossop,Bulls Head Inn,Pub/bar/nightclub,7843,5,,616421,0,,53.45042300000000,44146,067,borough-council@highpeak.gov.uk,High Peak,http://www.highpeak.gov.uk,-1.94022800000000,SK13 7RN,2014-07-14,fhrs_5_en-GB,5,,FHRS,5
58309,78 Old Road,,,Tintwistle,Bulls Head Inn,Pub/bar/nightclub,7843,10,,715656,10,,53.47320100000000,48677,067,borough-council@highpeak.gov.uk,High Peak,http://www.highpeak.gov.uk,-1.96686200000000,SK13 1JY,2014-09-26,fhrs_3_en-GB,3,,FHRS,5
58310,,,,,Bun And Dusted,Other catering premises,7841,5,,734058,0,,,50466,067,borough-council@highpeak.gov.uk,High Peak,http://www.highpeak.gov.uk,,,2015-02-03,fhrs_5_en-GB,5,,FHRS,0
58311,,,,,Bunsai Catering,Other catering premises,7841,5,,389783,0,,,6510,067,borough-council@highpeak.gov.uk,High Peak,http://www.highpeak.gov.uk,,,2014-06-12,fhrs_5_en-GB,5,,FHRS,0
58312,122 Macclesfield Road,,,Buxton,Burbage News,Retailers - other,4613,5,,389574,5,,53.25340700000000,5838,067,borough-council@highpeak.gov.uk,High Peak,http://www.highpeak.gov.uk,-1.93329200000000,SK17 9AD,2014-05-12,fhrs_5_en-GB,5,,FHRS,5
58313,Nursery Lane,,,Buxton,Burbage Pre School Nursery,Hospitals/Childcare/Caring Premises,5,0,,389497,0,,53.25629800000000,5553,067,borough-council@highpeak.gov.uk,High Peak,http://www.highpeak.gov.uk,-1.91377200000000,SK17 6EB,2014-02-03,fhrs_5_en-GB,5,,FHRS,0
58314,Girdon Close,off Cavendish Avenue,,Buxton,Burbage Primary School,School/college/university,7845,0,,389510,5,,53.25300100000000,5580,067,borough-council@highpeak.gov.uk,High Peak,http://www.highpeak.gov.uk,-1.93085000000000,SK17 9AT,2014-09-29,fhrs_5_en-GB,5,,FHRS,5
58315,39 Thornsett,,,Birch Vale,Busy Bunnies Nursery,Hospitals/Childcare/Caring Premises,5,5,,482894,0,,53.37922100000000,40030,067,borough-council@highpeak.gov.uk,High Peak,http://www.highpeak.gov.uk,-1.98513900000000,SK22 1AZ,2013-11-11,fhrs_5_en-GB,5,,FHRS,5
58316,Hulme House,Buxton Road,,Whaley Bridge,Buttercup Cakes,Other catering premises,7841,5,,564460,0,,53.44240900000000,42669,067,borough-council@highpeak.gov.uk,High Peak,http://www.highpeak.gov.uk,-1.94696900000000,SK13 8HS,2013-07-02,fhrs_5_en-GB,5,,FHRS,0
58317,,,,,Button Cloud Cakes,Other catering premises,7841,5,,511467,5,,,40729,067,borough-council@highpeak.gov.uk,High Peak,http://www.highpeak.gov.uk,,,2013-02-21,fhrs_5_en-GB,5,,FHRS,0
58318,27 Town End,Fairfield,,Buxton,Buxton And High Peak Golf Club,Pub/bar/nightclub,7843,0,,410528,0,,53.26413900000000,37154,067,borough-council@highpeak.gov.uk,High Peak,http://www.highpeak.gov.uk,-1.89578100000000,SK17 7EN,2013-12-16,fhrs_5_en-GB,5,,FHRS,5
58319,14 High Street,,,Buxton,Buxton Charcoal Grill,Takeaway/sandwich shop,7844,10,,389618,10,,53.25467200000000,5965,067,borough-council@highpeak.gov.uk,High Peak,http://www.highpeak.gov.uk,-1.91569400000000,SK17 6EU,2014-10-13,fhrs_3_en-GB,3,,FHRS,5
58320,College Road,,,Buxton,Buxton Community School,School/college/university,7845,0,,389804,0,,53.25059500000000,6565,067,borough-council@highpeak.gov.uk,High Peak,http://www.highpeak.gov.uk,-1.92111200000000,SK17 9EA,2013-03-21,fhrs_5_en-GB,5,,FHRS,5
58321,3-5 Concert Place,,,Buxton,Buxton Conservative Club,Pub/bar/nightclub,7843,5,,389722,0,,53.25609100000000,6346,067,borough-council@highpeak.gov.uk,High Peak,http://www.highpeak.gov.uk,-1.91351700000000,SK17 6EE,2014-03-21,fhrs_5_en-GB,5,,FHRS,5
58322,Buxton County Infant School,Hardwick Square South,,Buxton,Buxton County Infants School,School/college/university,7845,0,,633174,0,,53.25696100000000,44709,067,borough-council@highpeak.gov.uk,High Peak,http://www.highpeak.gov.uk,-1.91099700000000,SK17 6QB,2014-02-13,fhrs_5_en-GB,5,,FHRS,0
58323,20 Dale Road,,,Buxton,Buxton Dairy Supplies,Distributors/Transporters,7,5,,389427,5,,53.25428300000000,5268,067,borough-council@highpeak.gov.uk,High Peak,http://www.highpeak.gov.uk,-1.91160200000000,SK17 6NL,2011-11-22,fhrs_5_en-GB,5,,FHRS,5
58324,4 Market Place,,,Buxton,Buxton Food Spot,Takeaway/sandwich shop,7844,10,,389729,10,,53.25629800000000,6358,067,borough-council@highpeak.gov.uk,High Peak,http://www.highpeak.gov.uk,-1.91377200000000,SK17 6EB,2014-03-18,fhrs_3_en-GB,3,,FHRS,5
58325,Silverlands,,,Buxton,Buxton Football Club,Pub/bar/nightclub,7843,5,,389718,5,,53.25717400000000,6336,067,borough-council@highpeak.gov.uk,High Peak,http://www.highpeak.gov.uk,-1.90828400000000,SK17 6QH,2014-06-23,fhrs_5_en-GB,5,,FHRS,5
58326,Mosley Road,,,Buxton,Buxton Junior School,School/college/university,7845,0,,389575,0,,53.25079600000000,5839,067,borough-council@highpeak.gov.uk,High Peak,http://www.highpeak.gov.uk,-1.91315300000000,SK17 9DR,2014-05-19,fhrs_5_en-GB,5,,FHRS,0
58327,Buxton Methodist Church,Chapel Street,,Buxton,Buxton Methodist Church Luncheon Club,Other catering premises,7841,0,,389847,0,,53.25519300000000,7022,067,borough-council@highpeak.gov.uk,High Peak,http://www.highpeak.gov.uk,-1.91569200000000,SK17 6HX,2014-01-08,fhrs_5_en-GB,5,,FHRS,5
58328,Hardwick Square South,,,Buxton,Buxton Nursery,Hospitals/Childcare/Caring Premises,5,5,,389500,0,,53.25696100000000,5565,067,borough-council@highpeak.gov.uk,High Peak,http://www.highpeak.gov.uk,-1.91099700000000,SK17 6QB,2010-09-02,fhrs_5_en-GB,5,,FHRS,0
58329,Brierlow Road,Harpur Hill,,Buxton,Buxton Rugby Club,Pub/bar/nightclub,7843,0,,389836,5,,53.23084600000000,6686,067,borough-council@highpeak.gov.uk,High Peak,http://www.highpeak.gov.uk,-1.88703800000000,SK17 9PT,2013-06-18,fhrs_5_en-GB,5,,FHRS,5
58330,14 Dale Road,,,Buxton,Buxton Tandoori,Takeaway/sandwich shop,7844,10,,389706,0,,53.25428300000000,6305,067,borough-council@highpeak.gov.uk,High Peak,http://www.highpeak.gov.uk,-1.91160200000000,SK17 6NL,2014-03-21,fhrs_4_en-GB,4,,FHRS,10
58331,Unit 11 To 16,Old Court House,George Street,Buxton,Buxton Tap House,Pub/bar/nightclub,7843,5,,585698,0,,53.25912100000000,43326,067,borough-council@highpeak.gov.uk,High Peak,http://www.highpeak.gov.uk,-1.91508500000000,SK17 6AY,2013-09-11,fhrs_5_en-GB,5,,FHRS,0
58332,At the Car Wash,Manchester Road,Tintwistle,Glossop,Cafe,Restaurant/Cafe/Canteen,1,10,,406714,0,,53.47189100000000,36742,067,borough-council@highpeak.gov.uk,High Peak,http://www.highpeak.gov.uk,-1.97350700000000,SK13 1LW,2014-08-28,fhrs_4_en-GB,4,,FHRS,10
58333,4 Lower Lane,,,Chinley,Cafe Bombay,Restaurant/Cafe/Canteen,1,5,,389419,5,,53.33936200000000,5233,067,borough-council@highpeak.gov.uk,High Peak,http://www.highpeak.gov.uk,-1.94280100000000,SK23 6BD,2013-07-23,fhrs_5_en-GB,5,,FHRS,5
58334,20-22 Spring Gardens,,,Buxton,Caffe Nero,Restaurant/Cafe/Canteen,1,5,,389609,0,,53.25886700000000,5931,067,borough-council@highpeak.gov.uk,High Peak,http://www.highpeak.gov.uk,-1.91208800000000,SK17 6DE,2014-11-11,fhrs_5_en-GB,5,,FHRS,5
58335,58 Market Street,,,New Mills,Cakery,Restaurant/Cafe/Canteen,1,0,,728910,0,,53.36627800000000,50129,067,borough-council@highpeak.gov.uk,High Peak,http://www.highpeak.gov.uk,-2.00200500000000,SK22 4AA,2015-01-06,fhrs_5_en-GB,5,,FHRS,0
58336,,,,,Cakes By Vicki,Other catering premises,7841,5,,456864,0,,,39025,067,borough-council@highpeak.gov.uk,High Peak,http://www.highpeak.gov.uk,,,2012-10-16,fhrs_5_en-GB,5,,FHRS,0
58337,7 Church Street,,,Hayfield,Calico Cafe,Restaurant/Cafe/Canteen,1,5,,683037,0,,53.37867900000000,47681,067,borough-council@highpeak.gov.uk,High Peak,http://www.highpeak.gov.uk,-1.94548400000000,SK22 2JE,2014-09-30,fhrs_5_en-GB,5,,FHRS,0
58338,51 High Street West,,,Glossop,Canton King,Takeaway/sandwich shop,7844,10,,389637,5,,53.44330100000000,6039,067,borough-council@highpeak.gov.uk,High Peak,http://www.highpeak.gov.uk,-1.95231200000000,SK13 8AZ,2014-01-22,fhrs_4_en-GB,4,,FHRS,5
58339,The Canteen,Hope Construction Materials - Hope Cement,Pindale Road,Hope,Carolines Kitchen,Restaurant/Cafe/Canteen,1,10,,389582,5,,53.34650800000000,5854,067,borough-council@highpeak.gov.uk,High Peak,http://www.highpeak.gov.uk,-1.74391400000000,S33 6RN,2014-01-15,fhrs_3_en-GB,3,,FHRS,10
58340,Hope Construction Materials,,,Hope Valley,Caroline's Kitchen Mobile Food Vehicle,Mobile caterer,7846,0,,455316,0,,53.33976900000000,38793,067,borough-council@highpeak.gov.uk,High Peak,http://www.highpeak.gov.uk,-1.75385100000000,S33 6RP,2014-10-29,fhrs_5_en-GB,5,,FHRS,0
58341,,,,,Cartland Cakes,Other catering premises,7841,5,,442778,0,,,38174,067,borough-council@highpeak.gov.uk,High Peak,http://www.highpeak.gov.uk,,,2012-08-30,fhrs_5_en-GB,5,,FHRS,0
58342,1 Charlestown,,,Glossop,Casa D' Italia,Restaurant/Cafe/Canteen,1,10,,629175,10,,53.43219900000000,44585,067,borough-council@highpeak.gov.uk,High Peak,http://www.highpeak.gov.uk,-1.94990100000000,SK13 8LF,2014-01-29,fhrs_4_en-GB,4,,FHRS,0
58343,5 Market Street,,,Whaley Bridge,Casa Di Pizza,Restaurant/Cafe/Canteen,1,5,,389414,5,,53.32916300000000,5220,067,borough-council@highpeak.gov.uk,High Peak,http://www.highpeak.gov.uk,-1.98410500000000,SK23 7AA,2013-04-09,fhrs_5_en-GB,5,,FHRS,5
58344,,,,,Casa Espana Events,Mobile caterer,7846,5,,636830,5,,,45113,067,borough-council@highpeak.gov.uk,High Peak,http://www.highpeak.gov.uk,,,2014-03-06,fhrs_5_en-GB,5,,FHRS,0
58345,The Stones,,,Castleton,Castleton Fish And Chip Shop,Takeaway/sandwich shop,7844,0,,389773,0,,53.34200100000000,6480,067,borough-council@highpeak.gov.uk,High Peak,http://www.highpeak.gov.uk,-1.77815500000000,S33 8WX,2013-02-23,fhrs_5_en-GB,5,,FHRS,5
58346,@ Glossop Rugby Club,Hargate Hill Lane ,Charlesworth,Glossop,Cath Lloyd Catering,Other catering premises,7841,5,,389797,5,,53.43774600000000,6542,067,borough-council@highpeak.gov.uk,High Peak,http://www.highpeak.gov.uk,-1.98739200000000,SK13 5HG,2011-09-30,fhrs_5_en-GB,5,,FHRS,5
58347,Watford Road,,,Buxton,Cavendish Golf Club Limited,Pub/bar/nightclub,7843,0,,389632,0,,53.25903100000000,6025,067,borough-council@highpeak.gov.uk,High Peak,http://www.highpeak.gov.uk,-1.92818700000000,SK17 6XF,2014-02-10,fhrs_5_en-GB,5,,FHRS,0
58348,24 Manchester Road,,,Buxton,Cavendish Hospital,Hospitals/Childcare/Caring Premises,5,0,,389554,0,,53.26245100000000,5753,067,borough-council@highpeak.gov.uk,High Peak,http://www.highpeak.gov.uk,-1.92127000000000,SK17 6TE,2013-12-10,fhrs_5_en-GB,5,,FHRS,0
58349,,,,,Celtic Larder,Manufacturers/packers,7839,5,,389548,0,,,5724,067,borough-council@highpeak.gov.uk,High Peak,http://www.highpeak.gov.uk,,,2014-12-03,fhrs_5_en-GB,5,,FHRS,0
58350,Unit 6,Redmoor Mill,,New Mills,Chalkers Snooker Club,Other catering premises,7841,0,,389886,0,,53.35826900000000,7110,067,borough-council@highpeak.gov.uk,High Peak,http://www.highpeak.gov.uk,-2.00612100000000,SK22 3JT,2013-10-08,fhrs_5_en-GB,5,,FHRS,0
58351,17 Market Place,,,Chapel-en-le-frith,Chapel Chippy,Takeaway/sandwich shop,7844,5,,410521,0,,53.32366900000000,37106,067,borough-council@highpeak.gov.uk,High Peak,http://www.highpeak.gov.uk,-1.91569300000000,SK23 0EN,2013-11-21,fhrs_5_en-GB,5,,FHRS,5
58352,Chapel-en-le-frith C Of E Primary School,Warmbrook Road,,Chapel-en-le-frith,Chapel En Le Frith Co E Vc Primary School,School/college/university,7845,0,,389877,0,,53.32219000000000,7074,067,borough-council@highpeak.gov.uk,High Peak,http://www.highpeak.gov.uk,-1.90793500000000,SK23 0NL,2014-03-03,fhrs_5_en-GB,5,,FHRS,0
58353,Long Lane,,,Chapel En Le Frith,Chapel En Le Frith High School,School/college/university,7845,0,,389519,0,,53.31860400000000,5616,067,borough-council@highpeak.gov.uk,High Peak,http://www.highpeak.gov.uk,-1.92227800000000,SK23 0TQ,2014-02-24,fhrs_5_en-GB,5,,FHRS,0
58354,Manchester Road,,,Chapel-en-le-frith,Chapel Golf Club,Pub/bar/nightclub,7843,5,,389745,5,,53.31690600000000,6402,067,borough-council@highpeak.gov.uk,High Peak,http://www.highpeak.gov.uk,-1.93928800000000,SK23 9UH,2014-12-15,fhrs_5_en-GB,5,,FHRS,5
58355,Chisworth Methodist Church,Marple Road,,Chisworth,Chapel Kitchen,Other catering premises,7841,5,,680322,5,,53.42642900000000,47253,067,borough-council@highpeak.gov.uk,High Peak,http://www.highpeak.gov.uk,-2.00855400000000,SK13 5DL,2014-07-04,fhrs_5_en-GB,5,,FHRS,5
58356,Long Lane,,,Chapel-en-le-frith,Chapel Leisure Centre,Restaurant/Cafe/Canteen,1,0,,389768,0,,53.31416800000000,6463,067,borough-council@highpeak.gov.uk,High Peak,http://www.highpeak.gov.uk,-1.90352400000000,SK23 9UF,2014-02-24,fhrs_5_en-GB,5,,FHRS,5
58357,Hayfield Road,,,Chapel-en-le-frith,Chapel Lodge Nursing Home,Hospitals/Childcare/Caring Premises,5,5,,389470,0,,53.33082200000000,5439,067,borough-council@highpeak.gov.uk,High Peak,http://www.highpeak.gov.uk,-1.91276600000000,SK23 0QH,2014-01-09,fhrs_5_en-GB,5,,FHRS,0
58358,Glossop Road,,,Charlesworth,Charlesworth Baptist Chapel,Other catering premises,7841,10,,389760,5,,53.43545400000000,6451,067,borough-council@highpeak.gov.uk,High Peak,http://www.highpeak.gov.uk,-1.98962000000000,SK13 5HB,2013-01-28,fhrs_4_en-GB,4,,FHRS,0
58359,Unit 1 Cavendish Arcade,The Crescent,,Buxton,Charlottes Chocolates,Restaurant/Cafe/Canteen,1,0,,389590,5,,53.25930000000000,5880,067,borough-council@highpeak.gov.uk,High Peak,http://www.highpeak.gov.uk,-1.91396100000000,SK17 6BQ,2013-01-17,fhrs_5_en-GB,5,,FHRS,0
58360,Long Lane,,,Chapel-en-le-frith,Cheeky Monkey's Day Nursery,Hospitals/Childcare/Caring Premises,5,5,,389503,5,,53.31860400000000,5568,067,borough-council@highpeak.gov.uk,High Peak,http://www.highpeak.gov.uk,-1.92227800000000,SK23 0TQ,2015-01-08,fhrs_5_en-GB,5,,FHRS,0
58361,Edale Road,,,Hope,Cheshire Cheese,Pub/bar/nightclub,7843,5,,389736,5,,53.35129900000000,6373,067,borough-council@highpeak.gov.uk,High Peak,http://www.highpeak.gov.uk,-1.74387000000000,S33 6ZF,2014-06-18,fhrs_5_en-GB,5,,FHRS,5
58362,Chestnut Centre,Castleton Road,,Chapel-en-le-frith,Chestnut Centre Conservation Park,Restaurant/Cafe/Canteen,1,5,,455317,5,,53.33391200000000,38973,067,borough-council@highpeak.gov.uk,High Peak,http://www.highpeak.gov.uk,-1.88832800000000,SK23 0QS,2014-06-12,fhrs_5_en-GB,5,,FHRS,5
58363,115 Victoria Park Road,,Fairfield,Buxton,China House,Takeaway/sandwich shop,7844,5,,389730,5,,53.25758000000000,6359,067,borough-council@highpeak.gov.uk,High Peak,http://www.highpeak.gov.uk,-1.89842000000000,SK17 7PE,2014-11-26,fhrs_4_en-GB,4,,FHRS,10
58364,59 Church Road,,,New Mills,China Red,Takeaway/sandwich shop,7844,10,,389844,10,,53.36451600000000,7019,067,borough-council@highpeak.gov.uk,High Peak,http://www.highpeak.gov.uk,-1.99551300000000,SK22 4NU,2013-08-21,fhrs_3_en-GB,3,,FHRS,5
58365,23 Lower Lane,,,Chinley,Chinley & Buxworth Conservative Club,Pub/bar/nightclub,7843,5,,389766,5,,53.33908300000000,6461,067,borough-council@highpeak.gov.uk,High Peak,http://www.highpeak.gov.uk,-1.94248600000000,SK23 6BE,2013-01-09,fhrs_5_en-GB,5,,FHRS,5
58366,Buxton Road,,,Chinley,Chinley Primary School,School/college/university,7845,5,,389436,0,,53.33974000000000,5293,067,borough-council@highpeak.gov.uk,High Peak,http://www.highpeak.gov.uk,-1.92721100000000,SK23 6DR,2014-04-30,fhrs_5_en-GB,5,,FHRS,0
58367,14 Lower Lane,,,Chinley,Chinley Stores,Retailers - other,4613,0,,426718,5,,53.33936200000000,37298,067,borough-council@highpeak.gov.uk,High Peak,http://www.highpeak.gov.uk,-1.94280100000000,SK23 6BD,2013-12-04,fhrs_5_en-GB,5,,FHRS,5
58368,59 Spring Gardens,,,Buxton,Chippy's Plaice,Restaurant/Cafe/Canteen,1,5,,389480,5,,53.25942400000000,5489,067,borough-council@highpeak.gov.uk,High Peak,http://www.highpeak.gov.uk,-1.91118700000000,SK17 6BJ,2014-12-15,fhrs_4_en-GB,4,,FHRS,10
58369,20 Green Lane,,,Chinley,Christine's Deli,Takeaway/sandwich shop,7844,5,,389617,0,,53.34026800000000,5962,067,borough-council@highpeak.gov.uk,High Peak,http://www.highpeak.gov.uk,-1.94012600000000,SK23 6AA,2014-07-07,fhrs_5_en-GB,5,,FHRS,0
58370,37 Church Road,,,New Mills,Church Road Stores,Retailers - other,4613,5,,389460,5,,53.36413000000000,5418,067,borough-council@highpeak.gov.uk,High Peak,http://www.highpeak.gov.uk,-1.99671500000000,SK22 4NJ,2012-07-12,fhrs_5_en-GB,5,,FHRS,5
58371,Whaley Bridge Uniting Church,Buxton Road,,Whaley Bridge,Churches Together Whaley Bridge Luncheon Club,Other catering premises,7841,5,,564459,0,,53.32821900000000,42525,067,borough-council@highpeak.gov.uk,High Peak,http://www.highpeak.gov.uk,-1.98371500000000,SK23 7HT,2014-11-13,fhrs_5_en-GB,5,,FHRS,0
58372,Church Road,,,New Mills,Co Operative Group Food,Retailers - supermarkets/hypermarkets,7840,0,,389695,0,,53.36340200000000,6270,067,borough-council@highpeak.gov.uk,High Peak,http://www.highpeak.gov.uk,-1.99754200000000,SK22 4NG,2013-11-27,fhrs_5_en-GB,5,,FHRS,0
58373,Norfolk Street,,,Glossop,Co Operative Store,Retailers - supermarkets/hypermarkets,7840,0,,389479,0,,53.44388300000000,5487,067,borough-council@highpeak.gov.uk,High Peak,http://www.highpeak.gov.uk,-1.94841200000000,SK13 8BS,2013-08-15,fhrs_5_en-GB,5,,FHRS,5
58374,2 Eccles Road,,,Chapel-en-le-frith,Co Operative Supermarket,Retailers - supermarkets/hypermarkets,7840,5,,389382,5,,53.32318500000000,18346,067,borough-council@highpeak.gov.uk,High Peak,http://www.highpeak.gov.uk,-1.91722500000000,SK23 0EZ,2012-05-24,fhrs_5_en-GB,5,,FHRS,5
58375,20a Market Street,,,Chapel-en-le-frith,Coco Ristorante & Pizzeria,Restaurant/Cafe/Canteen,1,10,,389655,5,,53.32392900000000,6094,067,borough-council@highpeak.gov.uk,High Peak,http://www.highpeak.gov.uk,-1.91446200000000,SK23 0EU,2014-01-30,fhrs_2_en-GB,2,,FHRS,15
58376,50 Spring Gardens,Buxton,Derbyshire,Buxton,Coffee Beans Cafe,Restaurant/Cafe/Canteen,1,0,,389402,0,,53.25919000000000,5190,067,borough-council@highpeak.gov.uk,High Peak,http://www.highpeak.gov.uk,-1.91042300000000,SK17 6BZ,2013-12-02,fhrs_5_en-GB,5,,FHRS,5
58377,Unit 6 Spring Gardens Shopping Centre,,,Buxton,Coffee Delight,Restaurant/Cafe/Canteen,1,5,,389709,10,,53.25963100000000,6309,067,borough-council@highpeak.gov.uk,High Peak,http://www.highpeak.gov.uk,-1.91181600000000,SK17 6DF,2014-12-16,fhrs_4_en-GB,4,,FHRS,5
58378,,,,,Collette Buckley,Other catering premises,7841,5,,538592,0,,,41625,067,borough-council@highpeak.gov.uk,High Peak,http://www.highpeak.gov.uk,,,2014-07-24,fhrs_5_en-GB,5,,FHRS,0
58379,Combs County School,Lesser Lane,,Combs,Combs Infant School,School/college/university,7845,0,,468711,0,,53.30098800000000,39762,067,borough-council@highpeak.gov.uk,High Peak,http://www.highpeak.gov.uk,-1.94171100000000,SK23 9UZ,2014-09-24,fhrs_5_en-GB,5,,FHRS,0
58380,137 Manor Park Road,,,Glossop,Commercial Inn,Pub/bar/nightclub,7843,10,,389888,5,,53.44570400000000,7118,067,borough-council@highpeak.gov.uk,High Peak,http://www.highpeak.gov.uk,-1.93922600000000,SK13 7SH,2014-03-03,fhrs_4_en-GB,4,,FHRS,5
58381,97-103 Spring Gardens,,,Buxton,Co-operative Group,Retailers - other,4613,5,,389580,5,,53.25954800000000,5845,067,borough-council@highpeak.gov.uk,High Peak,http://www.highpeak.gov.uk,-1.90925300000000,SK17 6BP,2010-12-06,fhrs_5_en-GB,5,,FHRS,5
58382,1 Pennine Road,Simmondley,,Glossop,Cooperative Supermarket,Retailers - supermarkets/hypermarkets,7840,5,,389380,5,,53.43954900000000,18338,067,borough-council@highpeak.gov.uk,High Peak,http://www.highpeak.gov.uk,-1.96905600000000,SK13 6NN,2012-05-24,fhrs_5_en-GB,5,,FHRS,5
58383,Grindsbrook Booth,,,Edale,Coopers Cafe,Restaurant/Cafe/Canteen,1,5,,389552,0,,53.37087600000000,5748,067,borough-council@highpeak.gov.uk,High Peak,http://www.highpeak.gov.uk,-1.81721700000000,S33 7ZD,2014-08-13,fhrs_5_en-GB,5,,FHRS,5
58384,First floor,Queens Arms,1 Shepley Street,Glossop,Coriander Indian Restaurant,Restaurant/Cafe/Canteen,1,5,,486761,5,,53.44972100000000,40070,067,borough-council@highpeak.gov.uk,High Peak,http://www.highpeak.gov.uk,-1.93789500000000,SK13 7RZ,2014-06-17,fhrs_4_en-GB,4,,FHRS,10
58385,102 Church Street,,,Glossop,Coriander Restaurant,Restaurant/Cafe/Canteen,1,10,,389677,5,,53.45042300000000,6217,067,borough-council@highpeak.gov.uk,High Peak,http://www.highpeak.gov.uk,-1.94022800000000,SK13 7RN,2011-05-31,fhrs_4_en-GB,4,,FHRS,5
58386,4 High Street West,,,Glossop,Corner Cupboard,Takeaway/sandwich shop,7844,0,,389680,0,,53.44356100000000,6240,067,borough-council@highpeak.gov.uk,High Peak,http://www.highpeak.gov.uk,-1.95187500000000,SK13 8BH,2013-07-11,fhrs_5_en-GB,5,,FHRS,0
58387,1 Norfolk Square,,,Glossop,Costa Coffee,Restaurant/Cafe/Canteen,1,5,,715658,10,,53.44365000000000,49085,067,borough-council@highpeak.gov.uk,High Peak,http://www.highpeak.gov.uk,-1.95046000000000,SK13 8BP,2014-10-15,fhrs_4_en-GB,4,,FHRS,5
58388,52 Spring Gardens,,,Buxton,Costa Coffee,Restaurant/Cafe/Canteen,1,5,,389560,0,,53.25919000000000,5762,067,borough-council@highpeak.gov.uk,High Peak,http://www.highpeak.gov.uk,-1.91042300000000,SK17 6BZ,2014-04-08,fhrs_5_en-GB,5,,FHRS,5
58389,Devonshire Royal Campus,Devonshire Road,,Buxton,"Costa Coffee Cart, University Of Derby",Other catering premises,7841,5,,458112,5,,53.26094700000000,39150,067,borough-council@highpeak.gov.uk,High Peak,http://www.highpeak.gov.uk,-1.91713500000000,SK17 6RY,2014-03-10,fhrs_5_en-GB,5,,FHRS,0
58390,The Meadows,Beech Lane,Doveholes,Buxton,Country Care Childrens Homes Ltd.,Hospitals/Childcare/Caring Premises,5,5,,389459,5,,53.29746400000000,5416,067,borough-council@highpeak.gov.uk,High Peak,http://www.highpeak.gov.uk,-1.88921800000000,SK17 8DJ,2014-03-06,fhrs_5_en-GB,5,,FHRS,0
58391,Main Road,,,Bamford,Country Stores,Retailers - other,4613,20,,389494,10,,53.34883400000000,5549,067,borough-council@highpeak.gov.uk,High Peak,http://www.highpeak.gov.uk,-1.68986700000000,S33 0DY,2014-07-02,fhrs_1_en-GB,1,,FHRS,10
58392,57 West Road,,,Buxton,Cramond House,Hotel/bed & breakfast/guest house,7842,5,,560382,0,,53.25297500000000,42473,067,borough-council@highpeak.gov.uk,High Peak,http://www.highpeak.gov.uk,-1.91841000000000,SK17 6HQ,2013-06-13,fhrs_5_en-GB,5,,FHRS,0
58393,Hayfield Road,Chapel Milton,,Chapel-en-le-frith,Cross Keys Inn,Pub/bar/nightclub,7843,5,,389547,0,,53.33328800000000,5722,067,borough-council@highpeak.gov.uk,High Peak,http://www.highpeak.gov.uk,-1.91647000000000,SK23 0QQ,2013-12-10,fhrs_5_en-GB,5,,FHRS,5
58394,Hayfield Road,,,Chinley,Crown And Mitre,Pub/bar/nightclub,7843,10,,389535,5,,53.33922400000000,5669,067,borough-council@highpeak.gov.uk,High Peak,http://www.highpeak.gov.uk,-1.92221100000000,SK23 6DZ,2012-06-13,fhrs_4_en-GB,4,,FHRS,5
58395,4 Bridge Street,,,Buxton,Cuccinis,Takeaway/sandwich shop,7844,10,,389573,5,,53.25968200000000,5827,067,borough-council@highpeak.gov.uk,High Peak,http://www.highpeak.gov.uk,-1.90847300000000,SK17 6BS,2014-09-29,fhrs_4_en-GB,4,,FHRS,5
58396,Unit 6,Thornbrook Road,,Chapel-en-le-frith,Cup N Cake,Restaurant/Cafe/Canteen,1,0,,389420,0,,53.32300200000000,5235,067,borough-council@highpeak.gov.uk,High Peak,http://www.highpeak.gov.uk,-1.91198600000000,SK23 0LX,2014-04-30,fhrs_5_en-GB,5,,FHRS,5
58397,24 Henry Street,,,Glossop,Curly Cornet,Restaurant/Cafe/Canteen,1,5,,389471,5,,53.44397400000000,5440,067,borough-council@highpeak.gov.uk,High Peak,http://www.highpeak.gov.uk,-1.95002300000000,SK13 8BW,2015-01-07,fhrs_5_en-GB,5,,FHRS,5
58398,10 Castleton Road,,,Hope,Curry Cabin,Restaurant/Cafe/Canteen,1,10,,389720,15,,53.34835900000000,6340,067,borough-council@highpeak.gov.uk,High Peak,http://www.highpeak.gov.uk,-1.74788400000000,S33 6RD,2014-03-03,fhrs_2_en-GB,2,,FHRS,15
58399,47 - 49 Market Street,,,Chapel-en-le-frith,Daily News,Retailers - other,4613,10,,426720,0,,53.32355100000000,37486,067,borough-council@highpeak.gov.uk,High Peak,http://www.highpeak.gov.uk,-1.91392200000000,SK23 0HP,2012-07-17,fhrs_4_en-GB,4,,FHRS,5
58400,,,,,Dcc Family Centre,Hospitals/Childcare/Caring Premises,5,5,,468709,5,,,39606,067,borough-council@highpeak.gov.uk,High Peak,http://www.highpeak.gov.uk,,,2012-11-13,fhrs_5_en-GB,5,,FHRS,0
58401,12 Broad Walk,,,Buxton,Derby House Nursing Home,Hospitals/Childcare/Caring Premises,5,0,,389794,5,,53.25567100000000,6537,067,borough-council@highpeak.gov.uk,High Peak,http://www.highpeak.gov.uk,-1.91731000000000,SK17 6JS,2014-03-03,fhrs_5_en-GB,5,,FHRS,5
58402,,,,,Derbyshire Oatcakes,Manufacturers/packers,7839,5,,389393,5,,,18478,067,borough-council@highpeak.gov.uk,High Peak,http://www.highpeak.gov.uk,,,2012-05-22,fhrs_5_en-GB,5,,FHRS,5
58403,Hernstone Lane,,,Peak Forest,Devonshire Arms,Pub/bar/nightclub,7843,5,,389674,10,,53.30894100000000,6214,067,borough-council@highpeak.gov.uk,High Peak,http://www.highpeak.gov.uk,-1.82704100000000,SK17 8EJ,2014-10-01,fhrs_4_en-GB,4,,FHRS,5
58404,,,,,Dining In,Other catering premises,7841,0,,668352,0,,,45785,067,borough-council@highpeak.gov.uk,High Peak,http://www.highpeak.gov.uk,,,2014-05-12,fhrs_5_en-GB,5,,FHRS,0
58405,Dinting Vale,,Dinting,Glossop,Dinting C Of E Primary School,School/college/university,7845,0,,389396,0,,53.44541800000000,36598,067,borough-council@highpeak.gov.uk,High Peak,http://www.highpeak.gov.uk,-1.96930800000000,SK13 6NX,2013-11-12,fhrs_5_en-GB,5,,FHRS,0
58406,3 Market Street,,,Chapel-en-le-frith,Dog Inn,Pub/bar/nightclub,7843,5,,409278,5,,53.32337300000000,36950,067,borough-council@highpeak.gov.uk,High Peak,http://www.highpeak.gov.uk,-1.91525800000000,SK23 0HH,2014-05-16,fhrs_4_en-GB,4,,FHRS,10
58407,31 Station Road,Hadfield,,Glossop,Dolly's Cafe,Restaurant/Cafe/Canteen,1,5,,389666,0,,53.46394400000000,6155,067,borough-council@highpeak.gov.uk,High Peak,http://www.highpeak.gov.uk,-1.96912900000000,SK13 1DB,2014-01-15,fhrs_5_en-GB,5,,FHRS,5
58408,University Of Derby,Devonshire Road,,Buxton,Dome Restaurant,Restaurant/Cafe/Canteen,1,5,,389816,0,,53.26094700000000,6591,067,borough-council@highpeak.gov.uk,High Peak,http://www.highpeak.gov.uk,-1.91713500000000,SK17 6RY,2011-09-22,fhrs_5_en-GB,5,,FHRS,0
58409,9 The Quadrant,,,Buxton,Domino's Pizza,Takeaway/sandwich shop,7844,10,,719174,0,,53.25985700000000,49621,067,borough-council@highpeak.gov.uk,High Peak,http://www.highpeak.gov.uk,-1.91364500000000,SK17 6AW,2014-11-19,fhrs_4_en-GB,4,,FHRS,0
58410,Unit 1,Howard Town Shopping Park,Victoria Street,Glossop,Domino's Pizza,Takeaway/sandwich shop,7844,0,,455314,0,,53.46962800000000,38757,067,borough-council@highpeak.gov.uk,High Peak,http://www.highpeak.gov.uk,-1.89554100000000,SK13 8HS,2014-09-04,fhrs_5_en-GB,5,,FHRS,0
58411,Hallsteads,,,Dove Holes,Dove Holes C Of E Primary School,School/college/university,7845,0,,389424,5,,53.29985200000000,5240,067,borough-council@highpeak.gov.uk,High Peak,http://www.highpeak.gov.uk,-1.88583600000000,SK17 8BJ,2014-04-30,fhrs_5_en-GB,5,,FHRS,0
58412,110-112 High Street West,,,Glossop,Dowd's Restaurant,Restaurant/Cafe/Canteen,1,0,,389811,0,,53.44339100000000,6583,067,borough-council@highpeak.gov.uk,High Peak,http://www.highpeak.gov.uk,-1.95469100000000,SK13 8BB,2014-04-03,fhrs_5_en-GB,5,,FHRS,5
58413,60 Chapel Road,,,Whaley Bridge,Drum And Monkey,Pub/bar/nightclub,7843,0,,466476,0,,53.32164800000000,39494,067,borough-council@highpeak.gov.uk,High Peak,http://www.highpeak.gov.uk,-1.98050500000000,SK23 7LB,2014-04-14,fhrs_5_en-GB,5,,FHRS,5
58414,Royle Avenue,,,Glossop,Duke Of Norfolk C Of E Primary School,School/college/university,7845,0,,389711,0,,53.44668600000000,6316,067,borough-council@highpeak.gov.uk,High Peak,http://www.highpeak.gov.uk,-1.94533700000000,SK13 7RD,2015-01-13,fhrs_5_en-GB,5,,FHRS,0
58415,78-82 Marple Road,,,Charlesworth,Dysons Village Store,Retailers - other,4613,5,,389468,5,,53.42930600000000,5434,067,borough-council@highpeak.gov.uk,High Peak,http://www.highpeak.gov.uk,-1.99762900000000,SK13 5DE,2014-12-09,fhrs_5_en-GB,5,,FHRS,5
58416,33 Ecclesfold,,,Chapel-en-le-frith,Ecclesfold Resource Centre,Hospitals/Childcare/Caring Premises,5,5,,389840,0,,53.32233600000000,7015,067,borough-council@highpeak.gov.uk,High Peak,http://www.highpeak.gov.uk,-1.92446300000000,SK23 9TJ,2014-12-09,fhrs_5_en-GB,5,,FHRS,0
58417,Rowland Cote,Netherbooth,,Edale,Edale Youth Hostel & Activity Centre,Hotel/bed & breakfast/guest house,7842,0,,389839,0,,53.37226400000000,7014,067,borough-council@highpeak.gov.uk,High Peak,http://www.highpeak.gov.uk,-1.78689600000000,S33 7ZH,2014-03-21,fhrs_5_en-GB,5,,FHRS,5
58418,Edwards Wine Bar,Station Road,Hadfield,Glossop,Edwards Wine Bar,Pub/bar/nightclub,7843,5,,389399,5,,53.46187600000000,36618,067,borough-council@highpeak.gov.uk,High Peak,http://www.highpeak.gov.uk,-1.96655500000000,SK13 1AA,2012-06-01,fhrs_4_en-GB,4,,FHRS,10
58419,18 Old Road,,,Whaley Bridge,Edwin Wild & Son Butchers,Retailers - other,4613,10,,389581,10,,53.32816500000000,5853,067,borough-council@highpeak.gov.uk,High Peak,http://www.highpeak.gov.uk,-1.98273900000000,SK23 7HR,2014-02-25,fhrs_4_en-GB,4,,FHRS,0
58420,J D Williams,Waterside,,Glossop,Elior Uk,Restaurant/Cafe/Canteen,1,5,,668357,5,,53.46532900000000,46565,067,borough-council@highpeak.gov.uk,High Peak,http://www.highpeak.gov.uk,-1.97340600000000,SK13 1BP,2014-05-28,fhrs_5_en-GB,5,,FHRS,0
58421,79 Dale Road,,,Buxton,Emmas,Mobile caterer,7846,5,,542922,0,,,41761,067,borough-council@highpeak.gov.uk,High Peak,http://www.highpeak.gov.uk,,,2013-03-27,fhrs_5_en-GB,5,,FHRS,5
58422,,,,,Emmy's Pop Up Cafe,Other catering premises,7841,10,,715662,5,,,49273,067,borough-council@highpeak.gov.uk,High Peak,http://www.highpeak.gov.uk,,,2014-11-07,fhrs_4_en-GB,4,,FHRS,0
58423,,,,,Esland Care  At  The Old School House,Hospitals/Childcare/Caring Premises,5,5,,389869,5,,,7044,067,borough-council@highpeak.gov.uk,High Peak,http://www.highpeak.gov.uk,,,2014-09-01,fhrs_5_en-GB,5,,FHRS,0
58424,75 Leek Road,,,Buxton,Esso Rockbay Service Station,Retailers - other,4613,5,,389464,5,,53.24674900000000,5429,067,borough-council@highpeak.gov.uk,High Peak,http://www.highpeak.gov.uk,-1.93905700000000,SK17 6UF,2013-01-15,fhrs_5_en-GB,5,,FHRS,5
58425,Burlows Road,Harpur Hill,,Buxton,F Redfern And Sons Ltd,Retailers - other,4613,10,,389668,10,,53.23402100000000,6189,067,borough-council@highpeak.gov.uk,High Peak,http://www.highpeak.gov.uk,-1.89965900000000,SK17 9HT,2014-11-10,fhrs_3_en-GB,3,,FHRS,10
58426,Boarstones Lane,Fairfield,,Buxton,Fairfield Endowed C E (C) Junior School,School/college/university,7845,0,,389860,0,,53.25971700000000,7035,067,borough-council@highpeak.gov.uk,High Peak,http://www.highpeak.gov.uk,-1.89532700000000,SK17 7NA,2013-10-08,fhrs_4_en-GB,4,,FHRS,10
58427,Bench Road,Fairfield,Buxton,Derbyshire,Fairfield Infants And Nursery School,School/college/university,7845,0,,389443,0,,53.25940600000000,5310,067,borough-council@highpeak.gov.uk,High Peak,http://www.highpeak.gov.uk,-1.90016900000000,SK17 7PQ,2014-06-03,fhrs_5_en-GB,5,,FHRS,0
58428,159 Victoria Park Road,Fairfield,,Buxton,Fairfield Plaice,Takeaway/sandwich shop,7844,0,,389462,0,,53.25758000000000,5423,067,borough-council@highpeak.gov.uk,High Peak,http://www.highpeak.gov.uk,-1.89842000000000,SK17 7PE,2014-03-21,fhrs_5_en-GB,5,,FHRS,0
58429,St Peters Road,,,Buxton,Fairfield Sports And Social Club,Pub/bar/nightclub,7843,5,,481592,5,,53.26399300000000,39910,067,borough-council@highpeak.gov.uk,High Peak,http://www.highpeak.gov.uk,-1.90279700000000,SK17 7DX,2012-11-14,fhrs_5_en-GB,5,,FHRS,5
58430,Picnic Site,Fairholmes,,Bamford,Fairholmes Kiosk,Takeaway/sandwich shop,7844,5,,389615,5,,53.39638800000000,5952,067,borough-council@highpeak.gov.uk,High Peak,http://www.highpeak.gov.uk,-1.72866700000000,S33 0AQ,2014-07-03,fhrs_5_en-GB,5,,FHRS,5
58431,Hayfield Road,,,Chapel-en-le-frith,Federal Mogul,Restaurant/Cafe/Canteen,1,0,,389705,5,,53.32980800000000,6304,067,borough-council@highpeak.gov.uk,High Peak,http://www.highpeak.gov.uk,-1.91497500000000,SK23 0JP,2014-05-21,fhrs_5_en-GB,5,,FHRS,0
58432,3 Eagle Parade,,,Buxton,Firenze,Restaurant/Cafe/Canteen,1,5,,389648,5,,53.25647800000000,6069,067,borough-council@highpeak.gov.uk,High Peak,http://www.highpeak.gov.uk,-1.91500000000000,SK17 6EQ,2014-03-27,fhrs_5_en-GB,5,,FHRS,5
58433,34 Lower Lane,,,Chinley,First Empire,Takeaway/sandwich shop,7844,5,,389866,5,,53.33936200000000,7041,067,borough-council@highpeak.gov.uk,High Peak,http://www.highpeak.gov.uk,-1.94280100000000,SK23 6BD,2014-05-08,fhrs_5_en-GB,5,,FHRS,5
58434,1 Hibbert Street,,,New Mills,First Steps Nursery (New Mills) Ltd,Hospitals/Childcare/Caring Premises,5,5,,389808,0,,53.36040800000000,6579,067,borough-council@highpeak.gov.uk,High Peak,http://www.highpeak.gov.uk,-2.00606100000000,SK22 3JJ,2014-08-27,fhrs_5_en-GB,5,,FHRS,0
58435,175 Buxton Road,,,Furness Vale,First Steps Nursery (New Mills) Ltd.,Hospitals/Childcare/Caring Premises,5,5,,389838,0,,53.35406300000000,7013,067,borough-council@highpeak.gov.uk,High Peak,http://www.highpeak.gov.uk,-1.99727200000000,SK23 7PZ,2014-04-03,fhrs_5_en-GB,5,,FHRS,5
58436,12 Spring Gardens,,,Buxton,Fitzgerald Craft Bakery,Restaurant/Cafe/Canteen,1,5,,553117,0,,53.25886700000000,42181,067,borough-council@highpeak.gov.uk,High Peak,http://www.highpeak.gov.uk,-1.91208800000000,SK17 6DE,2013-03-05,fhrs_5_en-GB,5,,FHRS,5
58437,Unit 4a,Staden Business Park,Staden Lane,Buxton,Fitzgeralds Craft Bakery Ltd.,Manufacturers/packers,7839,0,,389458,0,,53.24481400000000,5415,067,borough-council@highpeak.gov.uk,High Peak,http://www.highpeak.gov.uk,-1.89630700000000,SK17 9RZ,2013-05-09,fhrs_5_en-GB,5,,FHRS,0
58438,Layby On A628 Woodhead Road,,,Glossop SK13 1JD,Five Star Catering,Mobile caterer,7846,5,,389483,0,,53.49927500000000,5499,067,borough-council@highpeak.gov.uk,High Peak,http://www.highpeak.gov.uk,-1.85518300000000,,2013-09-18,fhrs_5_en-GB,5,,FHRS,0
58439,1 West Road,,,Buxton,Fiveways Cafe And Launderette,Restaurant/Cafe/Canteen,1,5,,389895,5,,53.25308100000000,7290,067,borough-council@highpeak.gov.uk,High Peak,http://www.highpeak.gov.uk,-1.91605600000000,SK17 6HE,2013-10-29,fhrs_5_en-GB,5,,FHRS,0
58440,9 Concert Place,,,Buxton,Flamenco,Restaurant/Cafe/Canteen,1,10,,389492,0,,53.25609100000000,5529,067,borough-council@highpeak.gov.uk,High Peak,http://www.highpeak.gov.uk,-1.91351700000000,SK17 6EE,2014-01-28,fhrs_4_en-GB,4,,FHRS,0
58441,Castleton Visitor Centre,Buxton Road,,Castleton,Food 2 Go,Takeaway/sandwich shop,7844,0,,434860,5,,53.34308300000000,37910,067,borough-council@highpeak.gov.uk,High Peak,http://www.highpeak.gov.uk,-1.77990700000000,S33 8WP,2014-07-02,fhrs_5_en-GB,5,,FHRS,0
58442,,,,,For Goodness Cake,Other catering premises,7841,0,,410523,0,,,37126,067,borough-council@highpeak.gov.uk,High Peak,http://www.highpeak.gov.uk,,,2012-05-01,fhrs_5_en-GB,5,,FHRS,0
58443,3 Hayfield Road,,,Chapel-en-le-frith,Fosters Fine Foods & Flowers,Retailers - other,4613,10,,389791,10,,53.32585800000000,6533,067,borough-council@highpeak.gov.uk,High Peak,http://www.highpeak.gov.uk,-1.90930800000000,SK23 0JF,2014-08-28,fhrs_3_en-GB,3,,FHRS,10
58444,Spital House,How Lane,,Castleton,Four Seasons Bed & Breakfast,Hotel/bed & breakfast/guest house,7842,10,,560385,5,,53.34452400000000,42509,067,borough-council@highpeak.gov.uk,High Peak,http://www.highpeak.gov.uk,-1.77205900000000,S33 8WJ,2013-06-19,fhrs_4_en-GB,4,,FHRS,5
58445,Market Street,,,Chapel En Le Frith,Friday Lunch Club @ Town End Methodist Church,Other catering premises,7841,5,,389493,0,,53.32459100000000,5545,067,borough-council@highpeak.gov.uk,High Peak,http://www.highpeak.gov.uk,-1.90976100000000,SK23 0JD,2012-08-31,fhrs_5_en-GB,5,,FHRS,0
58446,20 Henry Street,,,Glossop,Frosted Wine Bar,Pub/bar/nightclub,7843,10,,389872,10,,53.44397400000000,7049,067,borough-council@highpeak.gov.uk,High Peak,http://www.highpeak.gov.uk,-1.95002300000000,SK13 8BW,2012-03-22,fhrs_3_en-GB,3,,FHRS,5
58447,26-28 Green Lane,Hadfield,,Glossop,Fu Shing,Takeaway/sandwich shop,7844,10,,389650,5,,53.45830100000000,6074,067,borough-council@highpeak.gov.uk,High Peak,http://www.highpeak.gov.uk,-1.97610600000000,SK13 2DT,2014-11-17,fhrs_4_en-GB,4,,FHRS,5
58448,36 - 38 Waterside,Hadfield,,Glossop,Fulfilled Living Ltd,Hospitals/Childcare/Caring Premises,5,5,,715663,0,,53.46535500000000,49349,067,borough-council@highpeak.gov.uk,High Peak,http://www.highpeak.gov.uk,-1.97158300000000,SK13 1BR,2014-11-11,fhrs_5_en-GB,5,,FHRS,0
58449,53 Buxton Road,,,Furness Vale,Furness Vale Fish Bar,Takeaway/sandwich shop,7844,10,,389563,10,,53.34944200000000,5765,067,borough-council@highpeak.gov.uk,High Peak,http://www.highpeak.gov.uk,-1.99102300000000,SK23 7PL,2014-07-29,fhrs_3_en-GB,3,,FHRS,5
58450,73-75 Buxton Road,,,Furness Vale,Furness Vale Post Office,Retailers - other,4613,5,,389405,5,,53.34944200000000,5194,067,borough-council@highpeak.gov.uk,High Peak,http://www.highpeak.gov.uk,-1.99102300000000,SK23 7PL,2010-06-09,fhrs_5_en-GB,5,,FHRS,0
58451,Units 24 To 26,Etherow Industrial Estate,Wooley Bridge Road,Hadfield,G D L  Air Systems,Restaurant/Cafe/Canteen,1,5,,389800,5,,53.46069300000000,6559,067,borough-council@highpeak.gov.uk,High Peak,http://www.highpeak.gov.uk,-1.98640600000000,SK13 2NS,2013-07-11,fhrs_5_en-GB,5,,FHRS,0
58452,6 Winster Mews,Gamesley,,Glossop,Gamesley Community Cafe,Restaurant/Cafe/Canteen,1,5,,389755,0,,53.44840600000000,6433,067,borough-council@highpeak.gov.uk,High Peak,http://www.highpeak.gov.uk,-1.98495000000000,SK13 0LU,2014-12-04,fhrs_5_en-GB,5,,FHRS,5
58453,Grindleford Grove,,,Gamesley,Gamesley Community Primary School,School/college/university,7845,0,,389620,5,,53.44811800000000,5971,067,borough-council@highpeak.gov.uk,High Peak,http://www.highpeak.gov.uk,-1.98496500000000,SK13 6HW,2014-06-09,fhrs_5_en-GB,5,,FHRS,0
58454,Winster Mews,Gamesley,,Glossop,Gamesley Early Excellence Centre,Hospitals/Childcare/Caring Premises,5,5,,389594,5,,53.44840600000000,5894,067,borough-council@highpeak.gov.uk,High Peak,http://www.highpeak.gov.uk,-1.98495000000000,SK13 0LU,2014-11-21,fhrs_5_en-GB,5,,FHRS,5
58455,Bishop Geoffrey Allen Centre,Winster Mews,Gamesley,Glossop,Gamesley Out Of School Club,Hospitals/Childcare/Caring Premises,5,5,,446002,5,,53.44840600000000,38262,067,borough-council@highpeak.gov.uk,High Peak,http://www.highpeak.gov.uk,-1.98495000000000,SK13 0LU,2014-02-26,fhrs_5_en-GB,5,,FHRS,0
58456,,,,,Gemma's Cake House,Other catering premises,7841,5,,553113,0,,,42157,067,borough-council@highpeak.gov.uk,High Peak,http://www.highpeak.gov.uk,,,2013-05-29,fhrs_5_en-GB,5,,FHRS,0
58457,1 Scarsdale Place,,,Buxton,Geoff Mycock And Son,Retailers - other,4613,10,,389446,15,,53.25554300000000,5332,067,borough-council@highpeak.gov.uk,High Peak,http://www.highpeak.gov.uk,-1.91417800000000,SK17 6EF,2014-11-26,fhrs_2_en-GB,2,,FHRS,10
58458,14 Church Street,,,Hayfield,George Hotel,Pub/bar/nightclub,7843,0,,389521,5,,53.37867900000000,5627,067,borough-council@highpeak.gov.uk,High Peak,http://www.highpeak.gov.uk,-1.94548400000000,SK22 2JE,2013-08-14,fhrs_5_en-GB,5,,FHRS,5
58459,,,,,Gingers Deli,Other catering premises,7841,5,,715660,5,,,49265,067,borough-council@highpeak.gov.uk,High Peak,http://www.highpeak.gov.uk,,,2014-11-04,fhrs_5_en-GB,5,,FHRS,5
58460,41 Market Street,,,New Mills,Gioia Mia,Restaurant/Cafe/Canteen,1,0,,389408,5,,53.36627800000000,5198,067,borough-council@highpeak.gov.uk,High Peak,http://www.highpeak.gov.uk,-2.00200500000000,SK22 4AA,2013-12-04,fhrs_5_en-GB,5,,FHRS,5
58461,,,,,Glorious Gluten Free Foods,Other catering premises,7841,5,,389862,5,,,7037,067,borough-council@highpeak.gov.uk,High Peak,http://www.highpeak.gov.uk,,,2012-04-19,fhrs_5_en-GB,5,,FHRS,0
58462,Hurst Road,(off Sheffield Road),,Glossop,Glossop & District Golf Club,Pub/bar/nightclub,7843,5,,389735,0,,53.44465900000000,6368,067,borough-council@highpeak.gov.uk,High Peak,http://www.highpeak.gov.uk,-1.92064900000000,SK13 7PU,2014-05-28,fhrs_5_en-GB,5,,FHRS,5
58463,13 Victoria Street,,,Glossop,Glossop Cafeteria,Restaurant/Cafe/Canteen,1,5,,389409,5,,53.44202300000000,5207,067,borough-council@highpeak.gov.uk,High Peak,http://www.highpeak.gov.uk,-1.94942300000000,SK13 8HT,2014-08-27,fhrs_5_en-GB,5,,FHRS,0
58464,North Road,,,Glossop,Glossop Cricket & Bowling Club,Pub/bar/nightclub,7843,0,,389807,0,,53.44652700000000,6573,067,borough-council@highpeak.gov.uk,High Peak,http://www.highpeak.gov.uk,-1.95187200000000,SK13 7AS,2013-04-15,fhrs_5_en-GB,5,,FHRS,0
58465,Bradbury Community House,Market Street,,Glossop,Glossop Day Care Centre,Hospitals/Childcare/Caring Premises,5,0,,389714,0,,53.44298500000000,6332,067,borough-council@highpeak.gov.uk,High Peak,http://www.highpeak.gov.uk,-1.95074700000000,SK13 8AR,2014-03-25,fhrs_5_en-GB,5,,FHRS,0
58466,20-22 High Street East,,,Glossop,Glossop Fish Bar,Takeaway/sandwich shop,7844,5,,389453,5,,53.44317300000000,5404,067,borough-council@highpeak.gov.uk,High Peak,http://www.highpeak.gov.uk,-1.94821700000000,SK13 8DA,2013-09-09,fhrs_4_en-GB,4,,FHRS,10
58467,Glossop Labour Club,11 - 13 Chapel Street,,Glossop,Glossop People's Kitchen,Restaurant/Cafe/Canteen,1,10,,511469,5,,53.44278000000000,40741,067,borough-council@highpeak.gov.uk,High Peak,http://www.highpeak.gov.uk,-1.95285500000000,SK13 8AT,2013-02-18,fhrs_4_en-GB,4,,FHRS,0
58468,11 Victoria Street,,,Glossop,Glossop Pizza,Takeaway/sandwich shop,7844,10,,389489,10,,53.44202300000000,5518,067,borough-council@highpeak.gov.uk,High Peak,http://www.highpeak.gov.uk,-1.94942300000000,SK13 8HT,2013-10-09,fhrs_3_en-GB,3,,FHRS,5
58469,Glossop Rugby Club,Hargate Hill Lane,,Charlesworth,Glossop Rubgy Club (Bar Only),Pub/bar/nightclub,7843,0,,389894,0,,53.43774600000000,7274,067,borough-council@highpeak.gov.uk,High Peak,http://www.highpeak.gov.uk,-1.98739200000000,SK13 5HG,2012-04-18,fhrs_5_en-GB,5,,FHRS,0
58470,The Commercial Inn,137 Manor Park Road,,Glossop,Glossop Spice,Restaurant/Cafe/Canteen,1,10,,715654,10,,53.44570400000000,48657,067,borough-council@highpeak.gov.uk,High Peak,http://www.highpeak.gov.uk,-1.93922600000000,SK13 7SH,2014-09-30,fhrs_3_en-GB,3,,FHRS,10
58471,Newshaw Lane,Hadfield,,Glossop,Glossopdale Community College,School/college/university,7845,5,,389616,0,,53.45655600000000,5954,067,borough-council@highpeak.gov.uk,High Peak,http://www.highpeak.gov.uk,-1.97089600000000,SK13 2DA,2014-06-10,fhrs_5_en-GB,5,,FHRS,5
58472,Talbot Road,,,Glossop,Glossopdale Community College,School/college/university,7845,0,,389613,5,,53.44887200000000,5949,067,borough-council@highpeak.gov.uk,High Peak,http://www.highpeak.gov.uk,-1.94977600000000,SK13 7DR,2014-09-08,fhrs_5_en-GB,5,,FHRS,0
58473,,,,,Go Go Gaggia 3,Mobile caterer,7846,5,,455318,0,,,38977,067,borough-council@highpeak.gov.uk,High Peak,http://www.highpeak.gov.uk,,,2012-10-11,fhrs_5_en-GB,5,,FHRS,5
58474,Various event locations in and around High Peak,,,High Peak,Golden Roasts,Other catering premises,7841,5,,389786,0,,53.25025300000000,6523,067,borough-council@highpeak.gov.uk,High Peak,http://www.highpeak.gov.uk,-1.89668300000000,SK17 9RP,2013-11-27,fhrs_5_en-GB,5,,FHRS,5
58475,Charis House,Hardwick Square East,,Buxton,Good News Family Care Homes Ltd.,Hospitals/Childcare/Caring Premises,5,5,,389676,0,,53.25758900000000,6216,067,borough-council@highpeak.gov.uk,High Peak,http://www.highpeak.gov.uk,-1.91009700000000,SK17 6PT,2014-04-29,fhrs_5_en-GB,5,,FHRS,5
58476,Unit 17,Vincent Works,Stretfield Road,Bradwell,Gourmet Express,Other catering premises,7841,5,,636828,0,,53.33884100000000,44969,067,borough-council@highpeak.gov.uk,High Peak,http://www.highpeak.gov.uk,-1.72796500000000,S33 9HG,2014-03-04,fhrs_5_en-GB,5,,FHRS,0
58477,Jubilee Street,,,New Mills,Goyt Valley House,Hospitals/Childcare/Caring Premises,5,5,,389482,5,,53.36167600000000,5498,067,borough-council@highpeak.gov.uk,High Peak,http://www.highpeak.gov.uk,-1.99471700000000,SK22 4PA,2015-01-06,fhrs_5_en-GB,5,,FHRS,5
58478,,,,,Great Little Baking Co.,Other catering premises,7841,0,,584041,0,,,43233,067,borough-council@highpeak.gov.uk,High Peak,http://www.highpeak.gov.uk,,,2011-11-23,fhrs_5_en-GB,5,,FHRS,0
58479,11 Green Lane,,,Buxton,Green Lane Nursery,Hospitals/Childcare/Caring Premises,5,0,,389472,0,,53.25183200000000,5441,067,borough-council@highpeak.gov.uk,High Peak,http://www.highpeak.gov.uk,-1.91653800000000,SK17 9DP,2014-12-03,fhrs_5_en-GB,5,,FHRS,0
58480,Unit 7,Marsh Green Business Park,Marsh Green,Chapel-en-le-frith,Greengages,Other catering premises,7841,10,,715655,10,,53.31580700000000,48673,067,borough-council@highpeak.gov.uk,High Peak,http://www.highpeak.gov.uk,-1.91925100000000,SK23 9UE,2014-10-01,fhrs_2_en-GB,2,,FHRS,15
58481,25 High Street West,,,Glossop,Greggs,Takeaway/sandwich shop,7844,0,,389513,0,,53.44330100000000,5592,067,borough-council@highpeak.gov.uk,High Peak,http://www.highpeak.gov.uk,-1.95231200000000,SK13 8AZ,2014-07-23,fhrs_5_en-GB,5,,FHRS,0
58482,30-32 Spring Gardens,,,Buxton,Greggs,Takeaway/sandwich shop,7844,0,,389716,0,,53.25886700000000,6334,067,borough-council@highpeak.gov.uk,High Peak,http://www.highpeak.gov.uk,-1.91208800000000,SK17 6DE,2014-03-11,fhrs_5_en-GB,5,,FHRS,5
58483,Chunal,,,Glossop,Grouse Inn,Pub/bar/nightclub,7843,5,,389406,5,,53.42134094238281,5196,067,borough-council@highpeak.gov.uk,High Peak,http://www.highpeak.gov.uk,-1.95021486282349,SK13 6JY,2013-06-05,fhrs_5_en-GB,5,,FHRS,5
58484,Grove Parade ,Terrace Road,,Buxton,Grove Hotel,Hotel/bed & breakfast/guest house,7842,5,,389652,5,,53.25933500000000,6082,067,borough-council@highpeak.gov.uk,High Peak,http://www.highpeak.gov.uk,-1.91289600000000,SK17 6AJ,2011-03-21,fhrs_4_en-GB,4,,FHRS,10
58485,135 London Road,,,Buxton,Haddon Hall Care Home,Hospitals/Childcare/Caring Premises,5,5,,668360,5,,53.24978700000000,47081,067,borough-council@highpeak.gov.uk,High Peak,http://www.highpeak.gov.uk,-1.91051800000000,SK17 9NW,2014-09-11,fhrs_5_en-GB,5,,FHRS,0
58486,Mersey Bank Road,Hadfield,,Glossop,Hadfield Infant School,School/college/university,7845,0,,389793,0,,53.46035000000000,6536,067,borough-council@highpeak.gov.uk,High Peak,http://www.highpeak.gov.uk,-1.97446300000000,SK13 1PN,2014-07-23,fhrs_5_en-GB,5,,FHRS,5
58487,Queen Street,Hadfield,,Glossop,Hadfield Nursery School,School/college/university,7845,5,,389778,0,,53.45980000000000,6493,067,borough-council@highpeak.gov.uk,High Peak,http://www.highpeak.gov.uk,-1.96964400000000,SK13 2DW,2014-06-25,fhrs_5_en-GB,5,,FHRS,0
58488,Snake Road,,,Bamford,Hagg Farm Outdoor Education Centre,Other catering premises,7841,0,,389596,0,,53.40284300000000,5905,067,borough-council@highpeak.gov.uk,High Peak,http://www.highpeak.gov.uk,-1.78681800000000,S33 0BJ,2015-01-28,fhrs_5_en-GB,5,,FHRS,0
58489,101 Station Road,Hadfield,,Glossop,Halcyon Restaurant,Restaurant/Cafe/Canteen,1,5,,734059,0,,53.46284600000000,50470,067,borough-council@highpeak.gov.uk,High Peak,http://www.highpeak.gov.uk,-1.96763800000000,SK13 1AR,2015-02-04,fhrs_5_en-GB,5,,FHRS,0
58490,Manchester Road,,,Chapel-en-le-frith,Hanging Gate,Pub/bar/nightclub,7843,5,,389721,5,,53.31690600000000,6343,067,borough-council@highpeak.gov.uk,High Peak,http://www.highpeak.gov.uk,-1.93928800000000,SK23 9UH,2014-06-11,fhrs_4_en-GB,4,,FHRS,10
58491,,,,,Happiness Is Homemade,Other catering premises,7841,5,,689588,0,,,47849,067,borough-council@highpeak.gov.uk,High Peak,http://www.highpeak.gov.uk,,,2014-08-06,fhrs_5_en-GB,5,,FHRS,0
58492,Simmondley Village,Simmondley,,Glossop,Hare And Hounds,Pub/bar/nightclub,7843,5,,406715,5,,53.43619600000000,36762,067,borough-council@highpeak.gov.uk,High Peak,http://www.highpeak.gov.uk,-1.96863700000000,SK13 6LS,2013-12-04,fhrs_5_en-GB,5,,FHRS,5
58493,Hargate Hill Equestrian Centre,,,Glossop,Hargate Hill Cafe,Restaurant/Cafe/Canteen,1,10,,389719,5,,53.43798800000000,6339,067,borough-council@highpeak.gov.uk,High Peak,http://www.highpeak.gov.uk,-1.98215300000000,SK13 6JL,2013-12-04,fhrs_4_en-GB,4,,FHRS,5
58494,At Hargreaves and Sons Ltd,16-18 Spring Gardens,,Buxton,Hargreaves Edwardian Tea Room,Restaurant/Cafe/Canteen,1,5,,389688,5,,53.25886700000000,6252,067,borough-council@highpeak.gov.uk,High Peak,http://www.highpeak.gov.uk,-1.91208800000000,SK17 6DE,2014-03-11,fhrs_5_en-GB,5,,FHRS,5
58495,The Childrens Centre,Trent Avenue,,Buxton,Harpur Hill Pre School,Hospitals/Childcare/Caring Premises,5,0,,389509,0,,53.24320600000000,5579,067,borough-council@highpeak.gov.uk,High Peak,http://www.highpeak.gov.uk,-1.90789400000000,SK17 9LP,2010-09-23,fhrs_5_en-GB,5,,FHRS,0
58496,Trent Avenue,Harpur Hill,,Buxton,Harpur Hill Primary School,School/college/university,7845,0,,389425,5,,53.24320600000000,5241,067,borough-council@highpeak.gov.uk,High Peak,http://www.highpeak.gov.uk,-1.90789400000000,SK17 9LP,2014-04-30,fhrs_5_en-GB,5,,FHRS,0
58497,18a Burlow Road,Harpur Hill,,Buxton,Harpurs Plaice,Takeaway/sandwich shop,7844,5,,389724,0,,53.23582300000000,6350,067,borough-council@highpeak.gov.uk,High Peak,http://www.highpeak.gov.uk,-1.90428400000000,SK17 9JA,2014-11-24,fhrs_5_en-GB,5,,FHRS,5
58498,Fairfield Road,,,Buxton,Hawthorn Farm Bed And Breakfast,Hotel/bed & breakfast/guest house,7842,5,,389566,5,,53.26276000000000,5777,067,borough-council@highpeak.gov.uk,High Peak,http://www.highpeak.gov.uk,-1.90128600000000,SK17 7ED,2014-06-23,fhrs_5_en-GB,5,,FHRS,5
58499,Hayfield Cricket Club,Market Street,,Hayfield,Hayfield Cricket Club,Pub/bar/nightclub,7843,10,,389845,5,,53.38015300000000,7020,067,borough-council@highpeak.gov.uk,High Peak,http://www.highpeak.gov.uk,-1.94569300000000,SK22 2EP,2014-04-15,fhrs_4_en-GB,4,,FHRS,5
58500,Hayfield Cricket Club,Market Street,,Hayfield,Hayfield Pavillion Lunch Club,Other catering premises,7841,5,,558510,5,,53.38015300000000,42445,067,borough-council@highpeak.gov.uk,High Peak,http://www.highpeak.gov.uk,-1.94569300000000,SK22 2EP,2013-05-29,fhrs_5_en-GB,5,,FHRS,5
58501,Swallow House Lane,,,Hayfield,Hayfield Primary School,School/college/university,7845,0,,389431,5,,53.38252900000000,5282,067,borough-council@highpeak.gov.uk,High Peak,http://www.highpeak.gov.uk,-1.95222900000000,SK22 2HB,2013-11-22,fhrs_5_en-GB,5,,FHRS,5
58502,,,,,Heatherhill Farm Mobile Vehicle,Mobile caterer,7846,5,,389391,0,,,18470,067,borough-council@highpeak.gov.uk,High Peak,http://www.highpeak.gov.uk,,,2014-01-09,fhrs_5_en-GB,5,,FHRS,5
58503,19 Lower Lane,,,Chinley,Henshall Butchers,Retailers - other,4613,5,,550831,10,,53.33908300000000,42041,067,borough-council@highpeak.gov.uk,High Peak,http://www.highpeak.gov.uk,-1.94248600000000,SK23 6BE,2013-05-22,fhrs_4_en-GB,4,,FHRS,0
58504,Dalton House,18 Broad Walk,,Buxton,Hidden Hearing Limited,School/college/university,7845,5,,389779,5,,53.25462000000000,6499,067,borough-council@highpeak.gov.uk,High Peak,http://www.highpeak.gov.uk,-1.91836200000000,SK17 6JR,2013-03-20,fhrs_5_en-GB,5,,FHRS,0
58505,Various Locations Around,High Peak,,VN03 NZZ,High Peak Ice Cream,Mobile caterer,7846,10,,389731,10,,,6360,067,borough-council@highpeak.gov.uk,High Peak,http://www.highpeak.gov.uk,,,2014-08-07,fhrs_3_en-GB,3,,FHRS,5
58506,Various Locations around High Peak,,,K398 0FM,High Peak Ice Cream,Mobile caterer,7846,10,,524945,5,,,41173,067,borough-council@highpeak.gov.uk,High Peak,http://www.highpeak.gov.uk,,,2014-08-07,fhrs_4_en-GB,4,,FHRS,5
58507,Various locations around High Peak,,,K242 A0H,High Peak Ice Cream,Mobile caterer,7846,10,,699408,10,,,48165,067,borough-council@highpeak.gov.uk,High Peak,http://www.highpeak.gov.uk,,,2014-08-07,fhrs_3_en-GB,3,,FHRS,5
58508,21 Etherow Industrial Estate,Wooley Bridge Road,,Glossop,High Peak Ice Cream K242 Aoh,Mobile caterer,7846,10,,528983,10,,,41241,067,borough-council@highpeak.gov.uk,High Peak,http://www.highpeak.gov.uk,,,2013-03-25,fhrs_3_en-GB,3,,FHRS,5
58509,20 High Street,,,Chapel-en-le-frith,High Street Fish And Chips,Takeaway/sandwich shop,7844,5,,389738,5,,53.32280800000000,6376,067,borough-council@highpeak.gov.uk,High Peak,http://www.highpeak.gov.uk,-1.91791700000000,SK23 0HD,2013-06-27,fhrs_5_en-GB,5,,FHRS,5
58510,78 Fairfield Road,,,Buxton,Hollin Knowle Residential Home,Hospitals/Childcare/Caring Premises,5,5,,389442,0,,53.26251000000000,5309,067,borough-council@highpeak.gov.uk,High Peak,http://www.highpeak.gov.uk,-1.90407500000000,SK17 7DR,2012-06-14,fhrs_5_en-GB,5,,FHRS,5
58511,,,,,Home Caterer,Other catering premises,7841,10,,696345,10,,,48057,067,borough-council@highpeak.gov.uk,High Peak,http://www.highpeak.gov.uk,,,2014-08-28,fhrs_3_en-GB,3,,FHRS,5
58512,,,,,Home Caterer Iris Armett,Other catering premises,7841,5,,528984,0,,,41261,067,borough-council@highpeak.gov.uk,High Peak,http://www.highpeak.gov.uk,,,2014-07-24,fhrs_5_en-GB,5,,FHRS,0
58513,,,,,Home Caterer Jc,Other catering premises,7841,5,,699228,0,,,48153,067,borough-council@highpeak.gov.uk,High Peak,http://www.highpeak.gov.uk,,,2014-09-01,fhrs_5_en-GB,5,,FHRS,0
58514,18 Castleton Road,,,Hope,Honeysuckle Cafe,Restaurant/Cafe/Canteen,1,5,,728190,5,,53.34840300000000,50121,067,borough-council@highpeak.gov.uk,High Peak,http://www.highpeak.gov.uk,-1.74731200000000,S33 6RD,2015-01-08,fhrs_5_en-GB,5,,FHRS,5
58515,Unit 2,8 Castleton Road,Hope,Hope Valley,Hope Chest Deli,Retailers - other,4613,0,,389452,0,,53.34840300000000,5375,067,borough-council@highpeak.gov.uk,High Peak,http://www.highpeak.gov.uk,-1.74731200000000,S33 6RD,2014-03-22,fhrs_5_en-GB,5,,FHRS,0
58516,Edale Road,,,Hope,Hope Primary School,School/college/university,7845,5,,389728,0,,53.35129900000000,6357,067,borough-council@highpeak.gov.uk,High Peak,http://www.highpeak.gov.uk,-1.74387000000000,S33 6ZF,2014-07-16,fhrs_4_en-GB,4,,FHRS,10
58517,Castleton Road,,,Hope,Hope Valley College,School/college/university,7845,0,,389823,0,,53.34741100000000,6641,067,borough-council@highpeak.gov.uk,High Peak,http://www.highpeak.gov.uk,-1.75018700000000,S33 6SD,2013-06-19,fhrs_5_en-GB,5,,FHRS,5
58518,15 High Street East,,,Glossop,Howard Arms,Pub/bar/nightclub,7843,5,,516562,5,,53.44317300000000,40957,067,borough-council@highpeak.gov.uk,High Peak,http://www.highpeak.gov.uk,-1.94821700000000,SK13 8DA,2014-04-09,fhrs_4_en-GB,4,,FHRS,10
58519,3-5 High Street East,,,Glossop,Hq Bar,Pub/bar/nightclub,7843,0,,389478,0,,53.44317300000000,5456,067,borough-council@highpeak.gov.uk,High Peak,http://www.highpeak.gov.uk,-1.94821700000000,SK13 8DA,2010-08-11,fhrs_5_en-GB,5,,FHRS,5
58520,75 Spring Gardens,,,Buxton,Hydro Cafe & Restaurant,Restaurant/Cafe/Canteen,1,0,,389799,5,,53.25954800000000,6557,067,borough-council@highpeak.gov.uk,High Peak,http://www.highpeak.gov.uk,-1.90925300000000,SK17 6BP,2013-03-19,fhrs_5_en-GB,5,,FHRS,5
58521,Unit 9,Wren Nest Retail,,Glossop,Iceland,Retailers - supermarkets/hypermarkets,7840,0,,389887,0,,53.44432700000000,7114,067,borough-council@highpeak.gov.uk,High Peak,http://www.highpeak.gov.uk,-1.95756500000000,SK13 8GN,2012-02-27,fhrs_5_en-GB,5,,FHRS,0
58522,37 Market Street,,,Whaley Bridge,Ikram Indian Takeaway,Takeaway/sandwich shop,7844,5,,454457,10,,53.32916300000000,38749,067,borough-council@highpeak.gov.uk,High Peak,http://www.highpeak.gov.uk,-1.98410500000000,SK23 7AA,2014-02-10,fhrs_3_en-GB,3,,FHRS,10
58523,Bulls Head Hotel,Fairfield Road,,Buxton,Imanis,Restaurant/Cafe/Canteen,1,10,,609366,0,,53.26271600000000,43886,067,borough-council@highpeak.gov.uk,High Peak,http://www.highpeak.gov.uk,-1.90263500000000,SK17 7DT,2013-11-12,fhrs_4_en-GB,4,,FHRS,5
58524,31 Market Street,,,Chapel - En- Le- Frith,In A Pickle,Restaurant/Cafe/Canteen,1,5,,389809,5,,53.32355100000000,6581,067,borough-council@highpeak.gov.uk,High Peak,http://www.highpeak.gov.uk,-1.91392200000000,SK23 0HP,2013-04-18,fhrs_5_en-GB,5,,FHRS,5
58525,5 Cavendish Circus,,,Buxton,Indian Palace,Restaurant/Cafe/Canteen,1,5,,389455,5,,53.25959700000000,5407,067,borough-council@highpeak.gov.uk,High Peak,http://www.highpeak.gov.uk,-1.91462000000000,SK17 6AT,2013-09-11,fhrs_5_en-GB,5,,FHRS,5
58526,Waterside Business Park,Waterside,,Hadfield,Indulge,Takeaway/sandwich shop,7844,10,,560386,5,,53.46697300000000,42513,067,borough-council@highpeak.gov.uk,High Peak,http://www.highpeak.gov.uk,-1.97189800000000,SK13 1BS,2013-06-20,fhrs_4_en-GB,4,,FHRS,0
58527,Health And Safety Laboratory,Harpur Hill Business Park,Harpur Hill,Buxton,Interserve,Restaurant/Cafe/Canteen,1,5,,389423,10,,53.23067300000000,5239,067,borough-council@highpeak.gov.uk,High Peak,http://www.highpeak.gov.uk,-1.91789800000000,SK17 9JN,2013-12-17,fhrs_4_en-GB,4,,FHRS,5
58528,145 Fairfield Road,,,Buxton,Ip's Chinese Takeaway,Takeaway/sandwich shop,7844,5,,389572,5,,53.26209600000000,5826,067,borough-council@highpeak.gov.uk,High Peak,http://www.highpeak.gov.uk,-1.90232200000000,SK17 7DU,2014-02-24,fhrs_5_en-GB,5,,FHRS,5
58529,2 Meal Street,,,New Mills,Istanbul Kebab,Takeaway/sandwich shop,7844,20,,389477,15,,53.36766200000000,5455,067,borough-council@highpeak.gov.uk,High Peak,http://www.highpeak.gov.uk,-2.00083300000000,SK22 4AH,2013-02-19,fhrs_1_en-GB,1,,FHRS,5
58530,,,,,J C's Catering,Takeaway/sandwich shop,7844,5,,504317,5,,,40489,067,borough-council@highpeak.gov.uk,High Peak,http://www.highpeak.gov.uk,,,2014-09-04,fhrs_5_en-GB,5,,FHRS,0
58531,20 High Street West,,,Glossop,J W Mettrick & Son Ltd.,Retailers - other,4613,5,,389686,0,,53.44356100000000,6250,067,borough-council@highpeak.gov.uk,High Peak,http://www.highpeak.gov.uk,-1.95187500000000,SK13 8BH,2013-11-25,fhrs_5_en-GB,5,,FHRS,0
58532,,,,,J. Kemp,Retailers - other,4613,0,,560384,5,,,42505,067,borough-council@highpeak.gov.uk,High Peak,http://www.highpeak.gov.uk,,,2013-06-17,fhrs_5_en-GB,5,,FHRS,5
58533,,,,,J. Kemp Butcher And Hog Roast,Other catering premises,7841,5,,717520,0,,,49549,067,borough-council@highpeak.gov.uk,High Peak,http://www.highpeak.gov.uk,,,2014-11-20,fhrs_5_en-GB,5,,FHRS,0
58534,,,,,Jammy D Jams,Other catering premises,7841,5,,550829,0,,,42025,067,borough-council@highpeak.gov.uk,High Peak,http://www.highpeak.gov.uk,,,2013-05-20,fhrs_5_en-GB,5,,FHRS,0
58535,Chunal,,,Glossop,Jens Dinky Diner,Farmers/growers,7838,0,,389429,5,,53.42134094238281,5275,067,borough-council@highpeak.gov.uk,High Peak,http://www.highpeak.gov.uk,-1.95021486282349,SK13 6JY,2013-04-25,fhrs_5_en-GB,5,,FHRS,5
58536,63 Spring Gardens,,,Buxton,Jo Jo's Bistro At The Miltons Head,Restaurant/Cafe/Canteen,1,5,,389856,10,,53.25942400000000,7031,067,borough-council@highpeak.gov.uk,High Peak,http://www.highpeak.gov.uk,-1.91118700000000,SK17 6BJ,2014-07-22,fhrs_4_en-GB,4,,FHRS,5
58537,Lower Barley Castle,Bank Street,,Hayfield,Jo Kemp Butchers,Retailers - other,4613,5,,542924,0,,,41785,067,borough-council@highpeak.gov.uk,High Peak,http://www.highpeak.gov.uk,,SK22 5EQ,2013-04-19,fhrs_5_en-GB,5,,FHRS,0
58538,The Old Dairy,Farfield Farm,,Hope,Jo's Pantry,Other catering premises,7841,0,,389774,0,,53.35233100000000,6482,067,borough-council@highpeak.gov.uk,High Peak,http://www.highpeak.gov.uk,-1.72705300000000,S33 6RA,2014-03-28,fhrs_5_en-GB,5,,FHRS,0
58539,Judith Mary 2,Whaley Bridge Canal Basin,,Whaley Bridge,Judith Mary Canal Boat,Restaurant/Cafe/Canteen,1,5,,511470,5,,53.33066400000000,40781,067,borough-council@highpeak.gov.uk,High Peak,http://www.highpeak.gov.uk,-1.98380400000000,SK23 7LS,2013-02-28,fhrs_5_en-GB,5,,FHRS,5
58540,86-88 Station Road,Hadfield,,Glossop,Jw Mettrick & Son Ltd.,Retailers - other,4613,5,,389693,10,,53.46241500000000,6267,067,borough-council@highpeak.gov.uk,High Peak,http://www.highpeak.gov.uk,-1.96780500000000,SK13 1AJ,2014-10-07,fhrs_4_en-GB,4,,FHRS,0
58541,29 Market Street,,,New Mills,Kashmir Balti,Takeaway/sandwich shop,7844,5,,389682,10,,53.36627800000000,6243,067,borough-council@highpeak.gov.uk,High Peak,http://www.highpeak.gov.uk,-2.00200500000000,SK22 4AA,2013-11-12,fhrs_4_en-GB,4,,FHRS,5
58542,,,,,Kathryns Kitchen,Other catering premises,7841,5,,553118,0,,,42189,067,borough-council@highpeak.gov.uk,High Peak,http://www.highpeak.gov.uk,,,2013-05-13,fhrs_5_en-GB,5,,FHRS,5
58543,Bibbington Layby,Buxton Road,,Doveholes,Katy's Diner,Restaurant/Cafe/Canteen,1,5,,389673,5,,53.29766100000000,6213,067,borough-council@highpeak.gov.uk,High Peak,http://www.highpeak.gov.uk,-1.88824200000000,SK17 8DL,2014-01-07,fhrs_5_en-GB,5,,FHRS,0
58544,Outdoor Market,Market Place,,Glossop,Kel & Jo's Cafe,Restaurant/Cafe/Canteen,1,5,,389694,5,,53.44298500000000,6268,067,borough-council@highpeak.gov.uk,High Peak,http://www.highpeak.gov.uk,-1.95074700000000,SK13 8AR,2014-05-09,fhrs_5_en-GB,5,,FHRS,5
58545,27 Kershaw Street,,,Glossop,Kershaw House Day Nursery,Hospitals/Childcare/Caring Premises,5,5,,516563,0,,53.43923700000000,40969,067,borough-council@highpeak.gov.uk,High Peak,http://www.highpeak.gov.uk,-1.95026900000000,SK13 8NN,2013-02-18,fhrs_5_en-GB,5,,FHRS,0
58546,85-87 Spring Gardens,,,Buxton,Kfc,Takeaway/sandwich shop,7844,5,,389569,0,,53.25955700000000,5812,067,borough-council@highpeak.gov.uk,High Peak,http://www.highpeak.gov.uk,-1.90913300000000,SK17 6BP,2013-12-11,fhrs_5_en-GB,5,,FHRS,5
58547,Unit 1 Wren Nest Retail Park,Glossop Brook Road,,Glossop,Kfc,Restaurant/Cafe/Canteen,1,5,,389591,5,,53.44263500000000,5883,067,borough-council@highpeak.gov.uk,High Peak,http://www.highpeak.gov.uk,-1.94985900000000,SK13 8AF,2014-05-28,fhrs_4_en-GB,4,,FHRS,10
58548,5 Scarsdale Place,,,Buxton,Khomkhai Thai Cuisine,Takeaway/sandwich shop,7844,5,,434859,5,,53.25554300000000,37906,067,borough-council@highpeak.gov.uk,High Peak,http://www.highpeak.gov.uk,-1.91417800000000,SK17 6EF,2014-03-26,fhrs_5_en-GB,5,,FHRS,5
58549,12 High Street East,,,Glossop,Kimberley's,Takeaway/sandwich shop,7844,5,,389630,10,,53.44317300000000,6021,067,borough-council@highpeak.gov.uk,High Peak,http://www.highpeak.gov.uk,-1.94821700000000,SK13 8DA,2014-01-06,fhrs_4_en-GB,4,,FHRS,5
58550,10 New Mills Road,,,Hayfield,Kinder Lodge,Pub/bar/nightclub,7843,10,,389700,5,,53.37829300000000,6299,067,borough-council@highpeak.gov.uk,High Peak,http://www.highpeak.gov.uk,-1.94685300000000,SK22 2JG,2014-05-29,fhrs_4_en-GB,4,,FHRS,5
58551,93 Market Street,,,Chapel-en-le-frith,King 2,Takeaway/sandwich shop,7844,5,,389701,5,,53.32459100000000,6300,067,borough-council@highpeak.gov.uk,High Peak,http://www.highpeak.gov.uk,-1.90976100000000,SK23 0JD,2014-01-30,fhrs_5_en-GB,5,,FHRS,5
58552,Market Place,,,Buxton,Kings Head,Pub/bar/nightclub,7843,0,,389802,5,,53.25693600000000,6563,067,borough-council@highpeak.gov.uk,High Peak,http://www.highpeak.gov.uk,-1.91431000000000,SK17 6EJ,2014-08-11,fhrs_5_en-GB,5,,FHRS,5
58553,,,,,Kouros Greek Foods,Other catering premises,7841,5,,623400,5,,,44377,067,borough-council@highpeak.gov.uk,High Peak,http://www.highpeak.gov.uk,,,2014-01-08,fhrs_5_en-GB,5,,FHRS,5
58554,1 Lower Hardwick Street,,,Buxton,Kwei Lin,Restaurant/Cafe/Canteen,1,0,,389748,5,,53.25856200000000,6412,067,borough-council@highpeak.gov.uk,High Peak,http://www.highpeak.gov.uk,-1.91238800000000,SK17 6DQ,2014-03-21,fhrs_5_en-GB,5,,FHRS,0
58555,22 Henry Street,,,Glossop,Kwei Ping,Restaurant/Cafe/Canteen,1,5,,389708,0,,53.44397400000000,6307,067,borough-council@highpeak.gov.uk,High Peak,http://www.highpeak.gov.uk,-1.95002300000000,SK13 8BW,2014-08-08,fhrs_5_en-GB,5,,FHRS,5
58556,49 High Street West,,,Glossop,La Bodega,Restaurant/Cafe/Canteen,1,5,,389890,0,,53.44330100000000,7218,067,borough-council@highpeak.gov.uk,High Peak,http://www.highpeak.gov.uk,-1.95231200000000,SK13 8AZ,2013-10-11,fhrs_5_en-GB,5,,FHRS,0
58557,Old Court House,George Street,,Buxton,La Brasserie De La Cour,Pub/bar/nightclub,7843,5,,389819,5,,53.25912100000000,6595,067,borough-council@highpeak.gov.uk,High Peak,http://www.highpeak.gov.uk,-1.91508500000000,SK17 6AY,2013-05-02,fhrs_5_en-GB,5,,FHRS,5
58558,7 Market Place,,,Chapel-en-le-frith,La Fontana,Takeaway/sandwich shop,7844,5,,389604,5,,53.32366900000000,5915,067,borough-council@highpeak.gov.uk,High Peak,http://www.highpeak.gov.uk,-1.91569300000000,SK23 0EN,2014-06-16,fhrs_5_en-GB,5,,FHRS,5
58559,7 Concert Place,,,Buxton,La Pizzeria,Takeaway/sandwich shop,7844,5,,442779,5,,53.25609100000000,38178,067,borough-council@highpeak.gov.uk,High Peak,http://www.highpeak.gov.uk,-1.91351700000000,SK17 6EE,2014-03-11,fhrs_5_en-GB,5,,FHRS,5
58560,A57 Snake Pass,Ladybower,,Bamford,Ladybower Inn,Pub/bar/nightclub,7843,5,,389610,5,,53.37533900000000,5933,067,borough-council@highpeak.gov.uk,High Peak,http://www.highpeak.gov.uk,-1.70688500000000,S33 0AX,2014-01-16,fhrs_5_en-GB,5,,FHRS,5
58561,45 Glossop Road,,,Little Hayfield,Lantern Pike,Pub/bar/nightclub,7843,5,,389641,5,,53.38873900000000,6048,067,borough-council@highpeak.gov.uk,High Peak,http://www.highpeak.gov.uk,-1.94891500000000,SK22 2NG,2014-02-05,fhrs_5_en-GB,5,,FHRS,5
58562,6 Henry Street,,,Glossop,Laura's Coffee Lounge,Restaurant/Cafe/Canteen,1,5,,389527,0,,53.44397400000000,5643,067,borough-council@highpeak.gov.uk,High Peak,http://www.highpeak.gov.uk,-1.95002300000000,SK13 8BW,2014-06-19,fhrs_4_en-GB,4,,FHRS,10
58563,13 Manchester Road,,,Buxton,Lee Wood Hotel,Hotel/bed & breakfast/guest house,7842,5,,389523,5,,53.26148000000000,5637,067,borough-council@highpeak.gov.uk,High Peak,http://www.highpeak.gov.uk,-1.92080700000000,SK17 6TQ,2014-07-29,fhrs_5_en-GB,5,,FHRS,5
58564,140 Victoria Street,,,Glossop,Lee's Garden,Takeaway/sandwich shop,7844,10,,618774,10,,53.43926500000000,44185,067,borough-council@highpeak.gov.uk,High Peak,http://www.highpeak.gov.uk,-1.95243700000000,SK13 8JF,2013-12-11,fhrs_3_en-GB,3,,FHRS,10
58565,Lime Tree Park,Dukes Drive,,Buxton,Lime Tree Holiday Park,Retailers - other,4613,5,,465206,0,,53.25025300000000,39398,067,borough-council@highpeak.gov.uk,High Peak,http://www.highpeak.gov.uk,-1.89668300000000,SK17 9RP,2012-11-02,fhrs_5_en-GB,5,,FHRS,0
58566,Hollowford Centre,Robinlands Lane,,Castleton,Lindley Educational Trust,Restaurant/Cafe/Canteen,1,0,,389685,0,,53.35113800000000,6247,067,borough-council@highpeak.gov.uk,High Peak,http://www.highpeak.gov.uk,-1.77095700000000,S33 8WB,2013-06-19,fhrs_5_en-GB,5,,FHRS,0
58567,St. Mary's Hall,St. Mary's Road,,Glossop,Little Beaver Childcare Ltd.,Hospitals/Childcare/Caring Premises,5,0,,389444,5,,53.44281600000000,5311,067,borough-council@highpeak.gov.uk,High Peak,http://www.highpeak.gov.uk,-1.95538400000000,SK13 8DN,2014-12-11,fhrs_5_en-GB,5,,FHRS,5
58568,Hollinsmoor Road,,,Rowarth,Little Mill Inn,Pub/bar/nightclub,7843,10,,389633,5,,53.39887000000000,6026,067,borough-council@highpeak.gov.uk,High Peak,http://www.highpeak.gov.uk,-1.98256100000000,SK22 1EB,2013-02-27,fhrs_4_en-GB,4,,FHRS,0
58569,Units 3 & 4,Tongue Lane Industrial Estate,Fairfield,Buxton,Little Rascals,Restaurant/Cafe/Canteen,1,5,,389551,10,,53.25519200000000,5747,067,borough-council@highpeak.gov.uk,High Peak,http://www.highpeak.gov.uk,-1.91389400000000,SK17 6LE,2014-11-24,fhrs_4_en-GB,4,,FHRS,5
58570,124 Hadfield Road,,,Hadfield,Little Stars Day Nursery,Hospitals/Childcare/Caring Premises,5,5,,389812,5,,53.46006100000000,6584,067,borough-council@highpeak.gov.uk,High Peak,http://www.highpeak.gov.uk,-1.97237000000000,SK13 2DR,2015-02-03,fhrs_5_en-GB,5,,FHRS,5
58571,30 Market Street,,,New Mills,Llamedos Cafe,Restaurant/Cafe/Canteen,1,5,,389861,5,,53.36746500000000,7036,067,borough-council@highpeak.gov.uk,High Peak,http://www.highpeak.gov.uk,-2.00185400000000,SK22 4AE,2014-04-23,fhrs_5_en-GB,5,,FHRS,5
58572,Snake Pass,,,Bamford,Lockerbrook Farm Outdoor Activity Centre,Restaurant/Cafe/Canteen,1,0,,389579,0,,53.40301800000000,5844,067,borough-council@highpeak.gov.uk,High Peak,http://www.highpeak.gov.uk,-1.78451600000000,S33 0BJ,2013-12-05,fhrs_5_en-GB,5,,FHRS,5
58573,Masonic Hall,Union Road,,New Mills,Lodge Of Freemasons,Pub/bar/nightclub,7843,0,,389466,0,,53.36472300000000,5432,067,borough-council@highpeak.gov.uk,High Peak,http://www.highpeak.gov.uk,-2.00144900000000,SK22 3ES,2014-10-01,fhrs_5_en-GB,5,,FHRS,0
58574,77-79 Spring Gardens,,,Buxton,Lomas Foods Limited,Retailers - other,4613,5,,389687,5,,53.25955700000000,6251,067,borough-council@highpeak.gov.uk,High Peak,http://www.highpeak.gov.uk,-1.90913300000000,SK17 6BP,2014-11-17,fhrs_5_en-GB,5,,FHRS,5
58575,George Street,,,Buxton,Lone Star Bar And Grill,Restaurant/Cafe/Canteen,1,5,,389690,5,,53.25912100000000,6262,067,borough-council@highpeak.gov.uk,High Peak,http://www.highpeak.gov.uk,-1.91508500000000,SK17 6AY,2014-02-04,fhrs_4_en-GB,4,,FHRS,10
58576,Losehill Lane,,,Hope,Losehill House Hotel,Hotel/bed & breakfast/guest house,7842,5,,389593,5,,53.36089400000000,5886,067,borough-council@highpeak.gov.uk,High Peak,http://www.highpeak.gov.uk,-1.75439100000000,S33 6AF,2014-11-25,fhrs_5_en-GB,5,,FHRS,5
58577,1 Dale Road,,,Buxton,Lucky House Takeaway,Takeaway/sandwich shop,7844,10,,389544,5,,53.25378100000000,5716,067,borough-council@highpeak.gov.uk,High Peak,http://www.highpeak.gov.uk,-1.91367200000000,SK17 6LN,2013-11-27,fhrs_4_en-GB,4,,FHRS,5
58578,21 High Street,,,Buxton,Lucky Lotus Takeaway,Takeaway/sandwich shop,7844,5,,389740,5,,53.25486000000000,6378,067,borough-council@highpeak.gov.uk,High Peak,http://www.highpeak.gov.uk,-1.91516900000000,SK17 6ET,2015-01-26,fhrs_5_en-GB,5,,FHRS,0
58579,106-108 Buxton Road,Whaley Bridge,Derbyshire,Highpeak,M D Coleman Butchers Ltd,Retailers - other,4613,5,,389418,10,,53.32249400000000,5232,067,borough-council@highpeak.gov.uk,High Peak,http://www.highpeak.gov.uk,-1.98485800000000,SK23 7JH,2011-11-03,fhrs_3_en-GB,3,,FHRS,10
58580,3 - 5 High Street,,,Chapel-en-le-frith,Mac Burnham Traditional Family Butchers,Retailers - other,4613,10,,683547,5,,53.32280800000000,47709,067,borough-council@highpeak.gov.uk,High Peak,http://www.highpeak.gov.uk,-1.91791700000000,SK23 0HD,2014-07-09,fhrs_4_en-GB,4,,FHRS,5
58581,120 High Hill Road,,,New Mills,Macs Fish And Chips,Takeaway/sandwich shop,7844,10,,389784,5,,53.37259700000000,6511,067,borough-council@highpeak.gov.uk,High Peak,http://www.highpeak.gov.uk,-1.98941000000000,SK22 4HQ,2012-12-12,fhrs_4_en-GB,4,,FHRS,5
58582,7 Jacksons Buildings,Victoria Street,,Glossop,Made In Italy,Restaurant/Cafe/Canteen,1,10,,451308,0,,53.44291300000000,38498,067,borough-council@highpeak.gov.uk,High Peak,http://www.highpeak.gov.uk,-1.94883500000000,SK13 8AQ,2012-09-12,fhrs_4_en-GB,4,,FHRS,5
58583,,,,,Maison De Truffles,Other catering premises,7841,5,,486759,5,,,40062,067,borough-council@highpeak.gov.uk,High Peak,http://www.highpeak.gov.uk,,,2012-12-12,fhrs_5_en-GB,5,,FHRS,0
58584,209-211 High Street East,,,Glossop,Manor Fish & Chips,Takeaway/sandwich shop,7844,5,,389732,10,,53.44471600000000,6365,067,borough-council@highpeak.gov.uk,High Peak,http://www.highpeak.gov.uk,-1.94067300000000,SK13 8QF,2014-01-08,fhrs_3_en-GB,3,,FHRS,10
58585,Unit 2,Milltown Retail,Victoria Street,Glossop,Marks And Spencers Coffee Shop,Restaurant/Cafe/Canteen,1,0,,481594,5,,,39922,067,borough-council@highpeak.gov.uk,High Peak,http://www.highpeak.gov.uk,,SK13 8HS,2014-04-09,fhrs_5_en-GB,5,,FHRS,0
58586,Unit 2,Milltown Retail,Victoria Street,Glossop,Marks And Spencers Retail Shop,Retailers - supermarkets/hypermarkets,7840,5,,481593,0,,,39918,067,borough-council@highpeak.gov.uk,High Peak,http://www.highpeak.gov.uk,,SK13 8HS,2012-11-28,fhrs_5_en-GB,5,,FHRS,0
58587,28 Monyash Place,,,Gamesley,Mark's Fruit And Veg,Retailers - other,4613,5,,389772,5,,53.44658700000000,6475,067,borough-council@highpeak.gov.uk,High Peak,http://www.highpeak.gov.uk,-1.98819900000000,,2011-09-07,fhrs_5_en-GB,5,,FHRS,5
58588,94-96 Albion Road,,,New Mills,Master Fryer,Takeaway/sandwich shop,7844,5,,389539,0,,53.36232300000000,5687,067,borough-council@highpeak.gov.uk,High Peak,http://www.highpeak.gov.uk,-2.00350700000000,SK22 3EY,2013-11-05,fhrs_5_en-GB,5,,FHRS,0
58589,170 High Street West,,,Glossop,Maxims,Takeaway/sandwich shop,7844,10,,389842,10,,53.44462600000000,7017,067,borough-council@highpeak.gov.uk,High Peak,http://www.highpeak.gov.uk,-1.96366300000000,SK13 8ER,2014-06-16,fhrs_1_en-GB,1,,FHRS,20
58590,,,,,Maxines Mobile Pizza,Mobile caterer,7846,0,,389814,0,,,6589,067,borough-council@highpeak.gov.uk,High Peak,http://www.highpeak.gov.uk,,,2014-12-19,fhrs_5_en-GB,5,,FHRS,0
58591,,,,,Mc Griddles,Mobile caterer,7846,5,,578478,10,,,43037,067,borough-council@highpeak.gov.uk,High Peak,http://www.highpeak.gov.uk,,,2013-08-05,fhrs_4_en-GB,4,,FHRS,5
58592,89 - 91 Victoria Park Road,Fairfield,,Buxton,McColls Food and Wine,Retailers - other,4613,5,,389852,5,,53.25758000000000,7027,067,borough-council@highpeak.gov.uk,High Peak,http://www.highpeak.gov.uk,-1.89842000000000,SK17 7PE,2012-04-08,fhrs_5_en-GB,5,,FHRS,5
58593,37 Buxton Road,,,Whaley Bridge,Memories Of India,Restaurant/Cafe/Canteen,1,5,,389524,5,,53.32821900000000,5638,067,borough-council@highpeak.gov.uk,High Peak,http://www.highpeak.gov.uk,-1.98371500000000,SK23 7HT,2013-04-08,fhrs_5_en-GB,5,,FHRS,5
58594,Chapel Lane,Hadfield,,Glossop,Mersey Bank Nursery,Hospitals/Childcare/Caring Premises,5,0,,389672,0,,53.46157200000000,6212,067,borough-council@highpeak.gov.uk,High Peak,http://www.highpeak.gov.uk,-1.97690200000000,SK13 1PG,2013-11-06,fhrs_5_en-GB,5,,FHRS,0
58595,The Carriage Drive,Hadfield,,Glossop,Mersey Bank Nursing Home,Hospitals/Childcare/Caring Premises,5,0,,389398,0,,53.46214800000000,36606,067,borough-council@highpeak.gov.uk,High Peak,http://www.highpeak.gov.uk,-1.97988400000000,SK13 1PJ,2013-11-06,fhrs_5_en-GB,5,,FHRS,0
58596,12 Norfolk Street,,,Glossop,Mia Maria,Restaurant/Cafe/Canteen,1,5,,728188,0,,53.44388300000000,50113,067,borough-council@highpeak.gov.uk,High Peak,http://www.highpeak.gov.uk,-1.94841200000000,SK13 8BS,2015-01-08,fhrs_5_en-GB,5,,FHRS,5
58597,1 Market Place,,,Buxton,Michelangelos,Restaurant/Cafe/Canteen,1,0,,579812,5,,53.25629800000000,43137,067,borough-council@highpeak.gov.uk,High Peak,http://www.highpeak.gov.uk,-1.91377200000000,SK17 6EB,2013-08-14,fhrs_4_en-GB,4,,FHRS,10
58598,,,,,Millers Dale Refreshments T/A Funky Coffee Hut,Mobile caterer,7846,5,,389387,0,,,18438,067,borough-council@highpeak.gov.uk,High Peak,http://www.highpeak.gov.uk,,,2014-05-22,fhrs_5_en-GB,5,,FHRS,0
58599,58-60 Green Lane,,Hadfield,Glossop,Millers Store,Retailers - other,4613,5,,389734,10,,53.45830100000000,6367,067,borough-council@highpeak.gov.uk,High Peak,http://www.highpeak.gov.uk,-1.97610600000000,SK13 2DT,2014-06-10,fhrs_4_en-GB,4,,FHRS,5
58600,Scout Hut,Bench Road,Fairfield,Buxton,Minnie Me Ltd,Hospitals/Childcare/Caring Premises,5,5,,389407,5,,53.25788600000000,5197,067,borough-council@highpeak.gov.uk,High Peak,http://www.highpeak.gov.uk,-1.89942300000000,SK17 7PG,2010-05-19,fhrs_5_en-GB,5,,FHRS,5
58601,,,,,Missy's Vegan Cupcakes,Other catering premises,7841,5,,550835,0,,,42065,067,borough-council@highpeak.gov.uk,High Peak,http://www.highpeak.gov.uk,,,2013-05-01,fhrs_5_en-GB,5,,FHRS,0
58602,,,,,Mobile Munch Box,Mobile caterer,7846,0,,389868,0,,,7043,067,borough-council@highpeak.gov.uk,High Peak,http://www.highpeak.gov.uk,,,2012-02-08,fhrs_5_en-GB,5,,FHRS,0
58603,,,,,Monpe Japanese Catering,Other catering premises,7841,5,,703326,5,,,48461,067,borough-council@highpeak.gov.uk,High Peak,http://www.highpeak.gov.uk,,,2014-09-22,fhrs_5_en-GB,5,,FHRS,5
58604,Bernard Street,,,Glossop,Moon And Sixpence,Pub/bar/nightclub,7843,5,,389383,5,,53.44374100000000,18350,067,borough-council@highpeak.gov.uk,High Peak,http://www.highpeak.gov.uk,-1.95113700000000,SK13 7AA,2013-11-22,fhrs_5_en-GB,5,,FHRS,5
58605,,,,,Mooreish Baking,Other catering premises,7841,0,,446000,0,,,38230,067,borough-council@highpeak.gov.uk,High Peak,http://www.highpeak.gov.uk,,,2013-04-15,fhrs_5_en-GB,5,,FHRS,0
58606,Bakewell Road,,,Buxton,Morrisons Supermarkets Plc,Retailers - supermarkets/hypermarkets,7840,5,,389782,5,,53.25362000000000,6509,067,borough-council@highpeak.gov.uk,High Peak,http://www.highpeak.gov.uk,-1.90288100000000,SK17 9TB,2013-03-05,fhrs_5_en-GB,5,,FHRS,0
58607,Market Street,,,Chapen - En - Le - Frith,Morrisons Supermarkets Plc,Retailers - supermarkets/hypermarkets,7840,0,,389828,5,,53.32494100000000,6650,067,borough-council@highpeak.gov.uk,High Peak,http://www.highpeak.gov.uk,-1.90956500000000,SK23 0HZ,2013-04-24,fhrs_5_en-GB,5,,FHRS,5
58608,Unit 16c Etherow Industrial Estate,Hadfield ,,Glossop,Mr Clowns Fun Zone,Restaurant/Cafe/Canteen,1,5,,389565,0,,53.46069300000000,5776,067,borough-council@highpeak.gov.uk,High Peak,http://www.highpeak.gov.uk,-1.98640600000000,SK13 2NS,2012-06-07,fhrs_5_en-GB,5,,FHRS,5
58609,91 Spring Gardens,,,Buxton,Mr Simms Olde Sweet Shoppe,Retailers - other,4613,5,,389529,5,,53.25954800000000,5647,067,borough-council@highpeak.gov.uk,High Peak,http://www.highpeak.gov.uk,-1.90925300000000,SK17 6BP,2010-10-21,fhrs_5_en-GB,5,,FHRS,5
58610,118 Market Street,,,Chapel-en-le-frith,Mustard Seed,Restaurant/Cafe/Canteen,1,0,,389502,0,,53.32472400000000,5567,067,borough-council@highpeak.gov.uk,High Peak,http://www.highpeak.gov.uk,-1.90696800000000,SK23 0NT,2010-09-03,fhrs_5_en-GB,5,,FHRS,0
58611,6 Eagle Parade,,,Buxton,Myst Night Venue (Food Only Rating),Pub/bar/nightclub,7843,10,,636829,5,,53.25647800000000,45017,067,borough-council@highpeak.gov.uk,High Peak,http://www.highpeak.gov.uk,-1.91500000000000,SK17 6EQ,2014-03-10,fhrs_4_en-GB,4,,FHRS,5
58612,,,,,Nadines Little Cake Company,Other catering premises,7841,5,,558509,5,,,42433,067,borough-council@highpeak.gov.uk,High Peak,http://www.highpeak.gov.uk,,,2013-05-24,fhrs_5_en-GB,5,,FHRS,5
58613,2 The Old Co-op Building,Norfolk Square,,Glossop,Napoli Ristorante,Restaurant/Cafe/Canteen,1,5,,553115,0,,53.44365000000000,42169,067,borough-council@highpeak.gov.uk,High Peak,http://www.highpeak.gov.uk,-1.95046000000000,SK13 8BP,2013-05-29,fhrs_5_en-GB,5,,FHRS,5
58614,114 High Street West,,,Glossop,Naseeb Indian Restaurant,Restaurant/Cafe/Canteen,1,10,,442777,10,,53.44339100000000,38170,067,borough-council@highpeak.gov.uk,High Peak,http://www.highpeak.gov.uk,-1.95469100000000,SK13 8BB,2014-03-25,fhrs_3_en-GB,3,,FHRS,10
58615,,,,,Natural Fayre,Other catering premises,7841,5,,389670,0,,,6192,067,borough-council@highpeak.gov.uk,High Peak,http://www.highpeak.gov.uk,,,2011-05-10,fhrs_5_en-GB,5,,FHRS,0
58616,Brookside,,,Buxworth,Navigation Inn,Pub/bar/nightclub,7843,5,,389661,0,,53.33547900000000,6135,067,borough-council@highpeak.gov.uk,High Peak,http://www.highpeak.gov.uk,-1.96734400000000,SK23 7NE,2013-10-23,fhrs_5_en-GB,5,,FHRS,5
58617,16 Green Lane,,,Buxton,Netherdale Guest House,Hotel/bed & breakfast/guest house,7842,10,,401599,0,,53.25183200000000,36662,067,borough-council@highpeak.gov.uk,High Peak,http://www.highpeak.gov.uk,-1.91653800000000,SK17 9DP,2012-04-19,fhrs_4_en-GB,4,,FHRS,0
58618,,,,,New House Farm,Farmers/growers,7838,5,,520660,5,,,41017,067,borough-council@highpeak.gov.uk,High Peak,http://www.highpeak.gov.uk,,,2013-02-28,fhrs_4_en-GB,4,,FHRS,10
58619,64 Albion Road,,,New Mills,New Lucky Tree,Takeaway/sandwich shop,7844,5,,389450,10,,53.36232300000000,5346,067,borough-council@highpeak.gov.uk,High Peak,http://www.highpeak.gov.uk,-2.00350700000000,SK22 3EY,2013-09-04,fhrs_3_en-GB,3,,FHRS,10
58620,9 Pennine Road,,,Simmondley,New Mans Wok,Takeaway/sandwich shop,7844,10,,389832,5,,53.43954900000000,6668,067,borough-council@highpeak.gov.uk,High Peak,http://www.highpeak.gov.uk,-1.96905600000000,SK13 6NN,2014-11-06,fhrs_3_en-GB,3,,FHRS,10
58621,Meadow Street,,,New Mills,New Mills County Primary School,School/college/university,7845,0,,389435,0,,53.36883100000000,5292,067,borough-council@highpeak.gov.uk,High Peak,http://www.highpeak.gov.uk,-2.00167400000000,SK22 4AY,2013-11-25,fhrs_5_en-GB,5,,FHRS,5
58622,New Mills Football Club,Church Lane,,New Mills,New Mills Football Club,Restaurant/Cafe/Canteen,1,10,,401600,10,,53.36753700000000,36702,067,borough-council@highpeak.gov.uk,High Peak,http://www.highpeak.gov.uk,-1.99593300000000,SK22 4NP,2014-02-08,fhrs_3_en-GB,3,,FHRS,10
58623,New Mills Golf Club,Eaves Knoll Road,,New Mills,New Mills Golf Club   Kitchen,Pub/bar/nightclub,7843,0,,389873,0,,53.37615500000000,7063,067,borough-council@highpeak.gov.uk,High Peak,http://www.highpeak.gov.uk,-2.01717200000000,SK22 4QE,2015-02-11,fhrs_5_en-GB,5,,FHRS,5
58624,New Mills Nursery School,Sett Close,,New Mills,New Mills Nursery School,School/college/university,7845,5,,631780,0,,53.36639500000000,44613,067,borough-council@highpeak.gov.uk,High Peak,http://www.highpeak.gov.uk,-2.00238000000000,SK22 4AQ,2014-02-04,fhrs_5_en-GB,5,,FHRS,5
58625,Church Lane,,,New Mills,New Mills School Business And Enterprise College,School/college/university,7845,5,,389622,5,,53.36688000000000,5979,067,borough-council@highpeak.gov.uk,High Peak,http://www.highpeak.gov.uk,-1.99605400000000,SK22 4NR,2014-09-09,fhrs_5_en-GB,5,,FHRS,0
58626,79 Dinting Vale,Dinting,,Glossop,New Village Chippy,Takeaway/sandwich shop,7844,0,,389681,5,,53.44609300000000,6242,067,borough-council@highpeak.gov.uk,High Peak,http://www.highpeak.gov.uk,-1.97132500000000,SK13 6NY,2014-05-28,fhrs_5_en-GB,5,,FHRS,5
58627,Buxton Road,Newtown,,New Mills,Newtown County Primary School,School/college/university,7845,0,,389710,0,,53.35862900000000,6315,067,borough-council@highpeak.gov.uk,High Peak,http://www.highpeak.gov.uk,-2.00885600000000,SK22 3JS,2014-02-04,fhrs_5_en-GB,5,,FHRS,5
58628,,,,,Nice Nosh,Mobile caterer,7846,0,,389758,0,,,6444,067,borough-council@highpeak.gov.uk,High Peak,http://www.highpeak.gov.uk,,,2014-03-26,fhrs_5_en-GB,5,,FHRS,0
58629,Rushop Hall,Rushup Lane,,Chapel-en-le-frith,No Car Cafe At Rushop Hall,Other catering premises,7841,5,,616949,0,,53.33819000000000,44157,067,borough-council@highpeak.gov.uk,High Peak,http://www.highpeak.gov.uk,-1.85463100000000,SK23 0QT,2013-11-28,fhrs_5_en-GB,5,,FHRS,0
58630,6 The Square,,,Buxton,No. 6 The Square Tearooms,Restaurant/Cafe/Canteen,1,5,,389761,5,,53.25860000000000,6452,067,borough-council@highpeak.gov.uk,High Peak,http://www.highpeak.gov.uk,-1.91574600000000,SK17 6AZ,2014-12-16,fhrs_5_en-GB,5,,FHRS,0
58631,Norfolk Square,,,Glossop,Norfolk Arms Hotel,Pub/bar/nightclub,7843,5,,389831,5,,53.44365000000000,6665,067,borough-council@highpeak.gov.uk,High Peak,http://www.highpeak.gov.uk,-1.95046000000000,SK13 8BP,2014-03-25,fhrs_5_en-GB,5,,FHRS,5
58632,16 Norfolk Street,,,Glossop,Norfolk Pizza,Takeaway/sandwich shop,7844,10,,389463,5,,53.44388300000000,5425,067,borough-council@highpeak.gov.uk,High Peak,http://www.highpeak.gov.uk,-1.94841200000000,SK13 8BS,2013-08-12,fhrs_3_en-GB,3,,FHRS,10
58633,2 North Road,,,Glossop,North View Day Nursery,Hospitals/Childcare/Caring Premises,5,5,,389578,5,,53.44652700000000,5842,067,borough-council@highpeak.gov.uk,High Peak,http://www.highpeak.gov.uk,-1.95187200000000,SK13 7AS,2014-01-08,fhrs_5_en-GB,5,,FHRS,0
58634,9-11 Market Street,,,Buxton,Number 13,Restaurant/Cafe/Canteen,1,5,,389530,5,,53.25582100000000,5655,067,borough-council@highpeak.gov.uk,High Peak,http://www.highpeak.gov.uk,-1.91362300000000,SK17 6JY,2014-09-19,fhrs_5_en-GB,5,,FHRS,0
58635,Newshaw Lane,Hadfield,,Glossop,Oakford Manor Nursing Home,Hospitals/Childcare/Caring Premises,5,5,,389416,5,,53.45720300000000,5223,067,borough-council@highpeak.gov.uk,High Peak,http://www.highpeak.gov.uk,-1.97289900000000,SK13 2AJ,2014-11-12,fhrs_5_en-GB,5,,FHRS,5
58636,Central  Methodist Church,Chapel Street,,Glossop,Oasis Cafe,Restaurant/Cafe/Canteen,1,0,,389495,5,,53.44290500000000,5551,067,borough-council@highpeak.gov.uk,High Peak,http://www.highpeak.gov.uk,-1.95247800000000,SK13 8AT,2015-01-21,fhrs_5_en-GB,5,,FHRS,5
58637,,,,,Oggs,Mobile caterer,7846,5,,462605,5,,,39282,067,borough-council@highpeak.gov.uk,High Peak,http://www.highpeak.gov.uk,,,2012-10-22,fhrs_5_en-GB,5,,FHRS,0
58638,2-4 Shepley Street,,,Glossop,Old Glossop Bakery,Takeaway/sandwich shop,7844,0,,389542,5,,53.44972100000000,5702,067,borough-council@highpeak.gov.uk,High Peak,http://www.highpeak.gov.uk,-1.93789500000000,SK13 7RZ,2012-10-31,fhrs_5_en-GB,5,,FHRS,5
58639,Unnamed Road,End of Shepley Street,,Glossop,Old Glossop Shooting Ground,Restaurant/Cafe/Canteen,1,0,,736073,5,,53.45006000000000,50546,067,borough-council@highpeak.gov.uk,High Peak,http://www.highpeak.gov.uk,-1.93473200000000,SK13 7SA,2015-02-16,fhrs_5_en-GB,5,,FHRS,0
58640,Market Place,,,Hope,Old Hall Hotel,Hotel/bed & breakfast/guest house,7842,0,,389467,0,,53.34745500000000,5433,067,borough-council@highpeak.gov.uk,High Peak,http://www.highpeak.gov.uk,-1.74146000000000,S33 6RH,2014-03-22,fhrs_5_en-GB,5,,FHRS,5
58641,The Square,,,Buxton,Old Hall Hotel,Hotel/bed & breakfast/guest house,7842,5,,389657,5,,53.25827600000000,6097,067,borough-council@highpeak.gov.uk,High Peak,http://www.highpeak.gov.uk,-1.91522200000000,SK17 6BD,2014-02-17,fhrs_4_en-GB,4,,FHRS,10
58642,Grindsbrook Booth,,,Edale,Old Nags Head,Pub/bar/nightclub,7843,10,,389488,5,,53.37087600000000,5515,067,borough-council@highpeak.gov.uk,High Peak,http://www.highpeak.gov.uk,-1.81721700000000,S33 7ZD,2013-10-15,fhrs_4_en-GB,4,,FHRS,5
58643,8 High Street,,,Buxton,Olivers,Takeaway/sandwich shop,7844,5,,389781,5,,53.25467200000000,6508,067,borough-council@highpeak.gov.uk,High Peak,http://www.highpeak.gov.uk,-1.91569400000000,SK17 6EU,2014-05-19,fhrs_4_en-GB,4,,FHRS,10
58644,117 High Street West,,,Glossop,One 17 Bakers,Retailers - other,4613,5,,580796,5,,53.44339100000000,43157,067,borough-council@highpeak.gov.uk,High Peak,http://www.highpeak.gov.uk,-1.95469100000000,SK13 8BB,2013-08-08,fhrs_5_en-GB,5,,FHRS,5
58645,Unit 12 Tongue Lane Industrial Estate,Dew Pond Lane,Fairfield,Buxton,Otter Controls Ltd.,Restaurant/Cafe/Canteen,1,0,,389741,5,,53.25932800000000,6380,067,borough-council@highpeak.gov.uk,High Peak,http://www.highpeak.gov.uk,-1.89244900000000,SK17 7LF,2014-02-17,fhrs_5_en-GB,5,,FHRS,0
58646,78 Market Street,,,New Mills,Pa Pa Pan Pizza,Takeaway/sandwich shop,7844,5,,389785,5,,53.36627800000000,6513,067,borough-council@highpeak.gov.uk,High Peak,http://www.highpeak.gov.uk,-2.00200500000000,SK22 4AA,2014-01-07,fhrs_4_en-GB,4,,FHRS,10
58647,Mellor Road,,,New Mills,Pack Horse Inn,Pub/bar/nightclub,7843,0,,389818,0,,53.37867300000000,6594,067,borough-council@highpeak.gov.uk,High Peak,http://www.highpeak.gov.uk,-1.99784100000000,SK22 4QQ,2014-02-04,fhrs_5_en-GB,5,,FHRS,0
58648,,,,,Paella Fallera,Mobile caterer,7846,5,,550836,5,,,42073,067,borough-council@highpeak.gov.uk,High Peak,http://www.highpeak.gov.uk,,,2013-05-23,fhrs_5_en-GB,5,,FHRS,5
58649,,,,,Park Lodge,Retailers - other,4613,5,,510027,5,,,40693,067,borough-council@highpeak.gov.uk,High Peak,http://www.highpeak.gov.uk,,,2013-01-31,fhrs_5_en-GB,5,,FHRS,5
58650,Unit 12-13 Glossop Indoor Market,,,Glossop,Parkers Cheese Stall,Retailers - other,4613,0,,389776,0,,53.44275100000000,6491,067,borough-council@highpeak.gov.uk,High Peak,http://www.highpeak.gov.uk,-1.95002400000000,SK13 8AJ,2014-07-17,fhrs_5_en-GB,5,,FHRS,5
58651,Parks Inn,2 Burlow Road,,Buxton,Parks Inn,Pub/bar/nightclub,7843,5,,389876,5,,53.23645300000000,7070,067,borough-council@highpeak.gov.uk,High Peak,http://www.highpeak.gov.uk,-1.90558600000000,SK17 9JD,2013-05-28,fhrs_5_en-GB,5,,FHRS,5
58652,Hardhurst Farm,Parsons Lane,,Hope,Parlour Tea Room,Restaurant/Cafe/Canteen,1,5,,389788,0,,53.34468800000000,6526,067,borough-council@highpeak.gov.uk,High Peak,http://www.highpeak.gov.uk,-1.72198000000000,S33 6RB,2013-05-01,fhrs_5_en-GB,5,,FHRS,0
58653,29 Union Road,,,New Mills,Passage To India,Takeaway/sandwich shop,7844,10,,389660,10,,53.36496600000000,6119,067,borough-council@highpeak.gov.uk,High Peak,http://www.highpeak.gov.uk,-2.00116300000000,SK22 3EL,2013-11-14,fhrs_3_en-GB,3,,FHRS,10
58654,36 St. Johns Road,,,Buxton,Pavilion Care Centre,Hospitals/Childcare/Caring Premises,5,0,,389564,0,,53.25792200000000,5766,067,borough-council@highpeak.gov.uk,High Peak,http://www.highpeak.gov.uk,-1.92246300000000,SK17 6XJ,2014-08-12,fhrs_5_en-GB,5,,FHRS,0
58655,St. Johns Road,,,Buxton,Pavilion Gardens,Restaurant/Cafe/Canteen,1,5,,389763,5,,53.25828700000000,6457,067,borough-council@highpeak.gov.uk,High Peak,http://www.highpeak.gov.uk,-1.91759000000000,SK17 6BE,2013-02-15,fhrs_5_en-GB,5,,FHRS,5
58656,The Peak Centre,Unnamed Road From Hope Road To Stonecroft,,Edale,Peak Centre At Champion House,Hotel/bed & breakfast/guest house,7842,0,,643762,5,,53.36690200000000,45309,067,borough-council@highpeak.gov.uk,High Peak,http://www.highpeak.gov.uk,-1.81700900000000,S33 7ZA,2014-03-22,fhrs_5_en-GB,5,,FHRS,0
58657,School Road,,,Peak Dale,Peak Dale Primary School,School/college/university,7845,0,,389614,0,,53.28303400000000,5951,067,borough-council@highpeak.gov.uk,High Peak,http://www.highpeak.gov.uk,-1.86837700000000,SK17 8AP,2014-03-04,fhrs_5_en-GB,5,,FHRS,5
58658,Peak Lodge,Buxton Road,,Chinley,Peak Lodge,Hospitals/Childcare/Caring Premises,5,5,,451310,0,,53.34015700000000,38518,067,borough-council@highpeak.gov.uk,High Peak,http://www.highpeak.gov.uk,-1.93392400000000,SK23 6ES,2012-09-11,fhrs_5_en-GB,5,,FHRS,0
58659,,,,,Peak Treats,Other catering premises,7841,5,,465207,0,,,39454,067,borough-council@highpeak.gov.uk,High Peak,http://www.highpeak.gov.uk,,,2012-11-01,fhrs_5_en-GB,5,,FHRS,5
58660,10B Canal Street,,,Whaley Bridge,Pear Tree Cafe,Restaurant/Cafe/Canteen,1,5,,486765,5,,53.33066400000000,40094,067,borough-council@highpeak.gov.uk,High Peak,http://www.highpeak.gov.uk,-1.98380400000000,SK23 7LS,2014-04-23,fhrs_5_en-GB,5,,FHRS,0
58661,6-12 Temple Street,Padfield,,Glossop,Peels Arms,Pub/bar/nightclub,7843,5,,389707,5,,53.46305000000000,6306,067,borough-council@highpeak.gov.uk,High Peak,http://www.highpeak.gov.uk,-1.95569400000000,SK13 1EX,2014-06-04,fhrs_5_en-GB,5,,FHRS,5
