,addressline1,addressline2,addressline3,addressline4,businessname,businesstype,businesstypeid,confidenceinmanagement,extractdate,fhrsid,hygiene,itemcount,latitude,localauthoritybusinessid,localauthoritycode,localauthorityemailaddress,localauthorityname,localauthoritywebsite,longitude,postcode,ratingdate,ratingkey,ratingvalue,returncode,schemetype,structural
5624,Territorial Army Centre,Clive Road,Warley,Brentwood,124 Petroleum Sqn Rlc (V) Ta Centre,Pub/bar/nightclub,7843,0,,431487,0,,51.59939900000000,11/01436/FH,111,envhealth@brentwood.gov.uk,Brentwood,http://www.brentwood.gov.uk/,0.29668900000000,CM13 3UJ,2013-07-23,fhrs_5_en-GB,5,,FHRS,5
5625,348 Ongar Road,Pilgrims Hatch,Essex,,348,Other catering premises,7841,0,,632913,0,,51.63627600000000,13/00122/FH,111,envhealth@brentwood.gov.uk,Brentwood,http://www.brentwood.gov.uk/,0.28113800000000,CM15 9JH,2014-02-04,fhrs_5_en-GB,5,,FHRS,0
5626,13 Eastham Crescent,Brentwood,Essex,,A & S,Retailers - supermarkets/hypermarkets,7840,10,,431527,0,,51.61211600000000,11/01480/MIXED,111,envhealth@brentwood.gov.uk,Brentwood,http://www.brentwood.gov.uk/,0.32767900000000,CM13 2BN,2012-11-26,fhrs_4_en-GB,4,,FHRS,0
5627,Spring Farm,Blackmore Road,Ingatestone,Essex,A B Roots,Retailers - other,4613,5,,431327,5,,51.67772400000000,11/01266/FH,111,envhealth@brentwood.gov.uk,Brentwood,http://www.brentwood.gov.uk/,0.35583500000000,CM4 0NP,2013-04-23,fhrs_5_en-GB,5,,FHRS,5
5628,168 Hutton Road,Shenfield,Brentwood,Essex,A Gilmore & Sons,Retailers - other,4613,,,431403,,,51.63050500000000,11/01344/FH,111,envhealth@brentwood.gov.uk,Brentwood,http://www.brentwood.gov.uk/,0.32727600000000,CM15 8NL,2014-09-03,fhrs_exempt_en-GB,Exempt,,FHRS,
5629,64 High Street,Brentwood,Essex,,A La Turka,Restaurant/Cafe/Canteen,1,5,,431201,10,,51.61984100000000,11/01132/MIXED,111,envhealth@brentwood.gov.uk,Brentwood,http://www.brentwood.gov.uk/,0.30120300000000,CM14 4AN,2013-09-26,fhrs_3_en-GB,3,,FHRS,10
5630,3 Rayleigh Parade,Rayleigh Road,Hutton,Brentwood,A M Stores,Retailers - supermarkets/hypermarkets,7840,10,,431521,0,,51.63230000000000,11/01474/MIXED,111,envhealth@brentwood.gov.uk,Brentwood,http://www.brentwood.gov.uk/,0.34641400000000,CM13 1BN,2013-02-05,fhrs_4_en-GB,4,,FHRS,0
5631,15 Eastham Crescent,Brentwood,Essex,,A&S News,Retailers - other,4613,,,431246,,,51.61211600000000,11/01181/FH,111,envhealth@brentwood.gov.uk,Brentwood,http://www.brentwood.gov.uk/,0.32767900000000,CM13 2BN,2015-01-05,fhrs_exempt_en-GB,Exempt,,FHRS,
5632,88 Church Lane,Doddinghurst,Brentwood,Essex,A.S.K. Wines,Retailers - other,4613,,,431666,,,51.66783500000000,11/01623/MIXED,111,envhealth@brentwood.gov.uk,Brentwood,http://www.brentwood.gov.uk/,0.29802400000000,CM15 0NG,2011-09-28,fhrs_exempt_en-GB,Exempt,,FHRS,
5633,,,,,Abbotswick Cottage,Pub/bar/nightclub,7843,,,431676,,,,11/01633/MIXED,111,envhealth@brentwood.gov.uk,Brentwood,http://www.brentwood.gov.uk/,,,2014-01-29,fhrs_exempt_en-GB,Exempt,,FHRS,
5634,Springfield P N E U School,Ongar Road,Stondon Massey,Brentwood,ABC Nursery & Pre-School Ltd,Hospitals/Childcare/Caring Premises,5,0,,431640,5,,51.69619100000000,11/01596/MIXED,111,envhealth@brentwood.gov.uk,Brentwood,http://www.brentwood.gov.uk/,0.25996900000000,CM5 9RG,2014-02-26,fhrs_5_en-GB,5,,FHRS,5
5635,11a High Street,Ingatestone,Essex,,Abigails,Restaurant/Cafe/Canteen,1,5,,431209,5,,51.67218400000000,11/01141/MIXED,111,envhealth@brentwood.gov.uk,Brentwood,http://www.brentwood.gov.uk/,0.38791700000000,CM4 9ED,2014-06-09,fhrs_4_en-GB,4,,FHRS,10
5636,Thorndon Park Golf Club Ltd,Thorndon Gate,Brentwood,Essex,Above Par Catering Ltd (At Thorndon Park),Pub/bar/nightclub,7843,5,,431463,5,,51.60110300000000,11/01411/MIXED,111,envhealth@brentwood.gov.uk,Brentwood,http://www.brentwood.gov.uk/,0.33515900000000,CM13 3RH,2014-05-06,fhrs_5_en-GB,5,,FHRS,0
5637,Shenfield Sports Centre,Oliver Road,Shenfield,Brentwood,Above The Rims At Champions Academy,Restaurant/Cafe/Canteen,1,5,,431223,5,,51.63702400000000,11/01158/FH,111,envhealth@brentwood.gov.uk,Brentwood,http://www.brentwood.gov.uk/,0.33005200000000,CM15 8PX,2013-08-16,fhrs_5_en-GB,5,,FHRS,5
5638,Unit F3,Hubert Road,Brentwood,Essex,Absalute Gym Ltd,Retailers - other,4613,10,,569838,5,,51.61628300000000,13/00093/MIXED,111,envhealth@brentwood.gov.uk,Brentwood,http://www.brentwood.gov.uk/,0.29095400000000,CM14 4JE,2015-01-05,fhrs_4_en-GB,4,,FHRS,5
5639,119 High Street,Brentwood,Essex,,AJ's Cafe,Takeaway/sandwich shop,7844,10,,431790,5,,51.61989100000000,11/01748/MIXED,111,envhealth@brentwood.gov.uk,Brentwood,http://www.brentwood.gov.uk/,0.29909600000000,CM14 4RX,2012-12-10,fhrs_4_en-GB,4,,FHRS,5
5640,Green Man,Navestock Side,Navestock,Brentwood,Alec's Bar And Grill,Restaurant/Cafe/Canteen,1,5,,431338,5,,51.65336200000000,11/01277/MIXED,111,envhealth@brentwood.gov.uk,Brentwood,http://www.brentwood.gov.uk/,0.25746100000000,CM14 5SD,2013-08-01,fhrs_5_en-GB,5,,FHRS,5
5641,Alma Arms,Horseman Side,Navestock,Brentwood,Alma Arms Freehouse,Pub/bar/nightclub,7843,5,,431610,5,,51.64006800000000,11/01565/MIXED,111,envhealth@brentwood.gov.uk,Brentwood,http://www.brentwood.gov.uk/,0.22509100000000,CM14 5ST,2014-01-21,fhrs_5_en-GB,5,,FHRS,5
5642,22 Highland Avenue,Brentwood,Essex,,American Hotdog Company,Takeaway/sandwich shop,7844,10,,637098,0,,51.62530400000000,14/00010/FH,111,envhealth@brentwood.gov.uk,Brentwood,http://www.brentwood.gov.uk/,0.30373300000000,CM15 9DG,2014-02-11,fhrs_4_en-GB,4,,FHRS,0
5643,62 High Street,Ingatestone,Essex,,Anchor Fish And Chips,Takeaway/sandwich shop,7844,10,,700748,10,,51.67145200000000,14/00039/FH,111,envhealth@brentwood.gov.uk,Brentwood,http://www.brentwood.gov.uk/,0.38589700000000,CM4 9DW,2014-09-02,fhrs_3_en-GB,3,,FHRS,10
5644,5 Moores Place,Brentwood,Essex,,Angies Pie N Mash,Restaurant/Cafe/Canteen,1,5,,431193,5,,51.62021500000000,11/01124/FH,111,envhealth@brentwood.gov.uk,Brentwood,http://www.brentwood.gov.uk/,0.30461700000000,CM14 4AG,2015-01-05,fhrs_5_en-GB,5,,FHRS,5
5645,Willow Green,Ingatestone,Essex,,Anglo European School,School/college/university,7845,5,,431291,5,,51.67316800000000,11/01227/FH,111,envhealth@brentwood.gov.uk,Brentwood,http://www.brentwood.gov.uk/,0.38639300000000,CM4 0DJ,2014-09-12,fhrs_5_en-GB,5,,FHRS,5
5646,56 Station Road,West Horndon,Brentwood,Essex,Annies Cafe,Restaurant/Cafe/Canteen,1,10,,431189,10,,51.56915600000000,11/01120/MIXED,111,envhealth@brentwood.gov.uk,Brentwood,http://www.brentwood.gov.uk/,0.34306000000000,CM13 3TW,2014-06-17,fhrs_3_en-GB,3,,FHRS,10
5647,,,,,Annie's Homebakes&Cupcakes,Other catering premises,7841,0,,632914,0,,,13/00147/FH,111,envhealth@brentwood.gov.uk,Brentwood,http://www.brentwood.gov.uk/,,,2014-02-03,fhrs_5_en-GB,5,,FHRS,0
5648,Ardtully Retirement Home,Station Lane,Ingatestone,Essex,Ardtully Retirement Residence,Hospitals/Childcare/Caring Premises,5,0,,431760,0,,51.66664400000000,11/01718/MIXED,111,envhealth@brentwood.gov.uk,Brentwood,http://www.brentwood.gov.uk/,0.38084300000000,CM4 0BL,2014-05-09,fhrs_5_en-GB,5,,FHRS,0
5649,18 High Street,Brentwood,Essex,,Argos Ltd,Retailers - other,4613,,,431262,,,51.62069900000000,11/01197/MIXED,111,envhealth@brentwood.gov.uk,Brentwood,http://www.brentwood.gov.uk/,0.30469900000000,CM14 4AB,2013-11-20,fhrs_exempt_en-GB,Exempt,,FHRS,
5650,Ashwells Sports And Country Club,Ashwells Road,Pilgrims Hatch,Brentwood,Ashwells Sports & Country Club Ltd,Pub/bar/nightclub,7843,5,,431482,5,,51.64801900000000,11/01431/MIXED,111,envhealth@brentwood.gov.uk,Brentwood,http://www.brentwood.gov.uk/,0.27337200000000,CM15 9SE,2014-06-30,fhrs_5_en-GB,5,,FHRS,5
5651,2 Ingrave Road,Brentwood,Essex,,Bagel Byte,Takeaway/sandwich shop,7844,5,,431777,5,,51.62065100000000,11/01735/FH,111,envhealth@brentwood.gov.uk,Brentwood,http://www.brentwood.gov.uk/,0.30573700000000,CM15 8AT,2013-12-16,fhrs_5_en-GB,5,,FHRS,5
5652,Thoby Lodge,Thoby Lane,Mountnessing,Brentwood,Bake It Make It,Takeaway/sandwich shop,7844,0,,431443,0,,51.66114800000000,11/01389/FH,111,envhealth@brentwood.gov.uk,Brentwood,http://www.brentwood.gov.uk/,0.35143300000000,CM15 0TB,2015-01-15,fhrs_5_en-GB,5,,FHRS,0
5653,Blackmore Baptist Church,The Green,Blackmore,Ingatestone,Baptist Church,Pub/bar/nightclub,7843,,,431685,,,51.69259300000000,11/01642/FH,111,envhealth@brentwood.gov.uk,Brentwood,http://www.brentwood.gov.uk/,0.31949200000000,CM4 0RT,2013-08-05,fhrs_exempt_en-GB,Exempt,,FHRS,
5654,Brentwood Baptist Church,Kings Road,Brentwood,Essex,Baptist Church,Pub/bar/nightclub,7843,,,431686,,,51.61608500000000,11/01643/FH,111,envhealth@brentwood.gov.uk,Brentwood,http://www.brentwood.gov.uk/,0.29920700000000,CM14 4DR,2013-01-14,fhrs_exempt_en-GB,Exempt,,FHRS,
5655,High Street,Ingatestone,Essex,,Bar 28,Pub/bar/nightclub,7843,10,,431620,5,,51.67087000000000,11/01576/MIXED,111,envhealth@brentwood.gov.uk,Brentwood,http://www.brentwood.gov.uk/,0.38576600000000,CM4 9DU,2014-06-12,fhrs_3_en-GB,3,,FHRS,10
5656,110-112 Kings Road,Brentwood,Essex,,Bar West One,Pub/bar/nightclub,7843,5,,431569,5,,51.61530000000000,11/01523/MIXED,111,envhealth@brentwood.gov.uk,Brentwood,http://www.brentwood.gov.uk/,0.29981800000000,CM14 4EA,2013-10-29,fhrs_5_en-GB,5,,FHRS,5
5657,Club House,Bardeswell Close,Brentwood,Essex,Bardeswell Social Club,Pub/bar/nightclub,7843,5,,431471,5,,51.62131900000000,11/01419/FH,111,envhealth@brentwood.gov.uk,Brentwood,http://www.brentwood.gov.uk/,0.29690000000000,CM14 4TJ,2014-07-18,fhrs_5_en-GB,5,,FHRS,5
5658,497 Ongar Road,Pilgrims Hatch,Brentwood,Essex,Bargain Booze Select Convenience,Retailers - other,4613,,,431665,,,51.63848300000000,11/01622/FH,111,envhealth@brentwood.gov.uk,Brentwood,http://www.brentwood.gov.uk/,0.27910900000000,CM15 9JP,2014-10-21,fhrs_exempt_en-GB,Exempt,,FHRS,
5659,Street Record,William Hunter Way,Brentwood,Essex,Barnards Burger Van,Mobile caterer,7846,20,,456256,10,,51.62102700000000,11/01316/MOBILE,111,envhealth@brentwood.gov.uk,Brentwood,http://www.brentwood.gov.uk/,0.30239700000000,,2014-08-13,fhrs_1_en-GB,1,,FHRS,5
5660,Southend Arterial Road,West Horndon,Brentwood,Essex,Basildon Service Station,Takeaway/sandwich shop,7844,10,,431754,0,,51.57523000000000,11/01712/MIXED,111,envhealth@brentwood.gov.uk,Brentwood,http://www.brentwood.gov.uk/,0.31293400000000,CM13 3ES,2011-08-11,fhrs_4_en-GB,4,,FHRS,0
5661,Sawyers Hall Lane,Brentwood,Essex,,Becket Keys Church Of England School,School/college/university,7845,10,,462889,10,,51.62714200000000,12/00091/FH,111,envhealth@brentwood.gov.uk,Brentwood,http://www.brentwood.gov.uk/,0.30126900000000,CM15 9DA,2012-10-09,fhrs_3_en-GB,3,,FHRS,5
5662,Calcott Hall Farm,Ongar Road,Pilgrims Hatch,Essex,Beer Grylls,Mobile caterer,7846,10,,729567,5,,51.62759900000000,14/00046/MOBILE,111,envhealth@brentwood.gov.uk,Brentwood,http://www.brentwood.gov.uk/,0.28664100000000,CM15 9HS,2015-01-12,fhrs_4_en-GB,4,,FHRS,5
5663,Dolphin House,80A High Street,Ingatestone,Essex,Bekkilou's Sweets & Treats,Retailers - other,4613,0,,700746,0,,51.67145200000000,14/00037/MIXED,111,envhealth@brentwood.gov.uk,Brentwood,http://www.brentwood.gov.uk/,0.38589700000000,CM4 9DW,2014-09-08,fhrs_5_en-GB,5,,FHRS,0
5664,74 Woodland Avenue,Hutton,Brentwood,Essex,Bengal Spice,Takeaway/sandwich shop,7844,5,,431781,5,,51.63737900000000,11/01739/FH,111,envhealth@brentwood.gov.uk,Brentwood,http://www.brentwood.gov.uk/,0.34609800000000,CM13 1HH,2013-11-25,fhrs_5_en-GB,5,,FHRS,5
5665,Coxtie Green Road,Pilgrims Hatch,Brentwood,Essex,Bentley Cricket Club,Pub/bar/nightclub,7843,0,,431466,0,,51.63936200000000,11/01414/FH,111,envhealth@brentwood.gov.uk,Brentwood,http://www.brentwood.gov.uk/,0.27502000000000,CM14 5PN,2014-12-08,fhrs_5_en-GB,5,,FHRS,0
5666,Bentley Village Hall,Ongar Road,Pilgrims Hatch,Brentwood,Bentley District Village Club,Pub/bar/nightclub,7843,5,,431491,0,,51.64083400000000,11/01440/FH,111,envhealth@brentwood.gov.uk,Brentwood,http://www.brentwood.gov.uk/,0.27565700000000,CM15 9RZ,2014-10-21,fhrs_5_en-GB,5,,FHRS,0
5667,Bentley Golf Club,Ongar Road,Pilgrims Hatch,Brentwood,Bentley Golf Club Ltd,Restaurant/Cafe/Canteen,1,5,,431214,5,,51.65452000000000,11/01148/MIXED,111,envhealth@brentwood.gov.uk,Brentwood,http://www.brentwood.gov.uk/,0.26827500000000,CM15 9SS,2013-09-23,fhrs_5_en-GB,5,,FHRS,0
5668,Ashwells Road,Pilgrims Hatch,Essex,,Bentley St Pauls C Of E Primary School,School/college/university,7845,0,,724230,0,,51.64801900000000,14/00049/FH,111,envhealth@brentwood.gov.uk,Brentwood,http://www.brentwood.gov.uk/,0.27337200000000,CM15 9SE,2014-12-09,fhrs_5_en-GB,5,,FHRS,0
5669,146a Hatch Road,Pilgrims Hatch,Brentwood,Essex,Berts Butchers,Retailers - other,4613,0,,431177,5,,51.63909500000000,11/01108/MIXED,111,envhealth@brentwood.gov.uk,Brentwood,http://www.brentwood.gov.uk/,0.29107800000000,CM15 9QB,2012-07-26,fhrs_5_en-GB,5,,FHRS,0
5670,62 Brentwood Road,Brentwood,Essex,,Biscuit Wishes,Other catering premises,7841,0,,431816,0,,51.60280400000000,12/00005/FH,111,envhealth@brentwood.gov.uk,Brentwood,http://www.brentwood.gov.uk/,0.34411300000000,CM13 3RD,2012-05-22,fhrs_5_en-GB,5,,FHRS,0
5671,Blackmore Church Of England Primary,Nine Ashes Road,Blackmore,Ingatestone,Blackmore Primary School,School/college/university,7845,0,,431295,5,,51.69411300000000,11/01231/FH,111,envhealth@brentwood.gov.uk,Brentwood,http://www.brentwood.gov.uk/,0.31538800000000,CM4 0QR,2014-10-08,fhrs_5_en-GB,5,,FHRS,5
5672,Blackmore Village Hall,Nine Ashes Road,Blackmore,Ingatestone,Blackmore Sports And Social Club,Pub/bar/nightclub,7843,10,,431476,0,,51.69345100000000,11/01424/FH,111,envhealth@brentwood.gov.uk,Brentwood,http://www.brentwood.gov.uk/,0.31613500000000,CM4 0QW,2011-06-15,fhrs_4_en-GB,4,,FHRS,5
5673,Blackmore Tea Rooms,The Green,Blackmore,Ingatestone,Blackmore Tearooms,Restaurant/Cafe/Canteen,1,5,,431186,5,,51.69303600000000,11/01117/MIXED,111,envhealth@brentwood.gov.uk,Brentwood,http://www.brentwood.gov.uk/,0.31848700000000,CM4 0RL,2014-12-09,fhrs_5_en-GB,5,,FHRS,5
5674,The Boars Head,Billericay Road,Brentwood,Essex,Boars Head,Pub/bar/nightclub,7843,5,,431587,0,,51.59485400000000,11/01541/MIXED,111,envhealth@brentwood.gov.uk,Brentwood,http://www.brentwood.gov.uk/,0.35449000000000,CM13 3PS,2013-12-16,fhrs_5_en-GB,5,,FHRS,5
5675,Swan Lane,Kelvedon Hatch,Brentwood,Essex,Bongow Indian Cuisine,Other catering premises,7841,5,,448286,5,,51.66378900000000,12/00019/FH,111,envhealth@brentwood.gov.uk,Brentwood,http://www.brentwood.gov.uk/,0.27582400000000,CM15 0AW,2014-02-20,fhrs_5_en-GB,5,,FHRS,5
5676,102 Billericay Road,Billericay,Essex,,Bonne Cuisine,Takeaway/sandwich shop,7844,0,,431427,0,,51.59871100000000,11/01372/FH,111,envhealth@brentwood.gov.uk,Brentwood,http://www.brentwood.gov.uk/,0.37991600000000,CM12 9SL,2014-08-05,fhrs_5_en-GB,5,,FHRS,0
5677,Essex County Library,New Road,Brentwood,Essex,Book Rest Cafe,Restaurant/Cafe/Canteen,1,0,,431220,0,,51.61864600000000,11/01154/FH,111,envhealth@brentwood.gov.uk,Brentwood,http://www.brentwood.gov.uk/,0.30287500000000,,2013-11-20,fhrs_5_en-GB,5,,FHRS,0
5678,51 High Street,Brentwood,Essex,,Boots The Chemist,Retailers - supermarkets/hypermarkets,7840,,,431547,,,51.62085900000000,11/01501/FH,111,envhealth@brentwood.gov.uk,Brentwood,http://www.brentwood.gov.uk/,0.30294500000000,CM14 4RH,2011-06-08,fhrs_exempt_en-GB,Exempt,,FHRS,
5679,The Brave Nelson,Woodman Road,Warley,Essex,Brave Nelson,Pub/bar/nightclub,7843,0,,431581,0,,51.60896200000000,11/01535/MIXED,111,envhealth@brentwood.gov.uk,Brentwood,http://www.brentwood.gov.uk/,0.30749900000000,CM14 5AL,2014-01-14,fhrs_4_en-GB,4,,FHRS,10
5680,59 Crown Street,Brentwood,Essex,,Breakthru Church,Restaurant/Cafe/Canteen,1,10,,431224,5,,51.61787500000000,11/01159/FH,111,envhealth@brentwood.gov.uk,Brentwood,http://www.brentwood.gov.uk/,0.30149400000000,CM14 4BD,2010-02-17,fhrs_4_en-GB,4,,FHRS,5
5681,Pavillion,King Georges Playing Fields,Ingrave Road,Brentwood,Brentwood & Central Essex Bowls Club,Pub/bar/nightclub,7843,10,,431483,10,,51.62065124511720,11/01432/MIXED,111,envhealth@brentwood.gov.uk,Brentwood,http://www.brentwood.gov.uk/,0.30351001024246,CM15 2AQ,2013-07-17,fhrs_3_en-GB,3,,FHRS,5
5682,Calcott Hall Farm,Ongar Road,Pilgrims Hatch,Essex,Brentwood Brewing Company,Manufacturers/packers,7839,5,,632915,5,,51.62759900000000,13/00148/MIXED,111,envhealth@brentwood.gov.uk,Brentwood,http://www.brentwood.gov.uk/,0.28664100000000,CM15 9HS,2014-02-05,fhrs_5_en-GB,5,,FHRS,0
5683,Larchwood Gardens,Pilgrims Hatch,Brentwood,Essex,Brentwood Care Centre,Hospitals/Childcare/Caring Premises,5,0,,431771,5,,51.63559000000000,11/01729/FH,111,envhealth@brentwood.gov.uk,Brentwood,http://www.brentwood.gov.uk/,0.28775100000000,CM15 9NG,2014-09-02,fhrs_5_en-GB,5,,FHRS,0
5684,Crescent Drive,Shenfield,Brentwood,Essex,Brentwood Community Hospital,Hospitals/Childcare/Caring Premises,5,0,,431448,0,,51.62344100000000,11/01395/FH,111,envhealth@brentwood.gov.uk,Brentwood,http://www.brentwood.gov.uk/,0.31662800000000,CM15 8DR,2013-11-06,fhrs_5_en-GB,5,,FHRS,0
5685,County Cricket Ground,Shenfield Road,Shenfield,Brentwood,Brentwood County Cricket Club,Pub/bar/nightclub,7843,0,,431474,0,,51.62323000000000,11/01422/MIXED,111,envhealth@brentwood.gov.uk,Brentwood,http://www.brentwood.gov.uk/,0.30861300000000,CM15 8AJ,2014-07-15,fhrs_5_en-GB,5,,FHRS,0
5686,Seven Arches Road,Brentwood,Essex,,Brentwood County High School,School/college/university,7845,5,,431294,5,,51.61589100000000,11/01230/FH,111,envhealth@brentwood.gov.uk,Brentwood,http://www.brentwood.gov.uk/,0.30816800000000,CM14 4JF,2013-11-18,fhrs_4_en-GB,4,,FHRS,10
5687,Shenfield Road,Brentwood,Essex,,Brentwood Day Nursery,Hospitals/Childcare/Caring Premises,5,0,,431643,0,,51.62323000000000,11/01600/MIXED,111,envhealth@brentwood.gov.uk,Brentwood,http://www.brentwood.gov.uk/,0.30861300000000,CM15 8AJ,2013-10-15,fhrs_5_en-GB,5,,FHRS,0
5688,295 Chelmsford Road,Shenfield,Brentwood,Essex,Brentwood Express Service Station,Retailers - supermarkets/hypermarkets,7840,5,,431544,5,,51.64444800000000,11/01498/FH,111,envhealth@brentwood.gov.uk,Brentwood,http://www.brentwood.gov.uk/,0.34338400000000,CM15 8SD,2013-12-09,fhrs_5_en-GB,5,,FHRS,5
5689,62 High Street,Brentwood,Essex,,Brentwood Food And Wine,Retailers - other,4613,,,431663,,,51.61984100000000,11/01620/MIXED,111,envhealth@brentwood.gov.uk,Brentwood,http://www.brentwood.gov.uk/,0.30120300000000,CM14 4AN,2012-09-12,fhrs_exempt_en-GB,Exempt,,FHRS,
5690,Coxtie Green Road,Pilgrims Hatch,South Weald,Essex,Brentwood Golf Club,Pub/bar/nightclub,7843,10,,431485,0,,51.64103200000000,11/01434/MIXED,111,envhealth@brentwood.gov.uk,Brentwood,http://www.brentwood.gov.uk/,0.24342200000000,CM14 5RJ,2014-07-16,fhrs_4_en-GB,4,,FHRS,0
5691,75-77 Rose Valley,Essex,,,Brentwood Guest House,Hotel/bed & breakfast/guest house,7842,5,,431453,0,,51.61442400000000,11/01400/FH,111,envhealth@brentwood.gov.uk,Brentwood,http://www.brentwood.gov.uk/,0.30137700000000,CM14 4HJ,2014-01-07,fhrs_5_en-GB,5,,FHRS,0
5692,Brentwood Hard Court Club,Childerditch Lane,Warley,Brentwood,Brentwood Hard Court Tennis Club,Pub/bar/nightclub,7843,5,,431492,5,,51.57059900000000,11/01441/FH,111,envhealth@brentwood.gov.uk,Brentwood,http://www.brentwood.gov.uk/,0.33017500000000,CM13 3EH,2013-11-20,fhrs_5_en-GB,5,,FHRS,5
5693,66 Selwood Road,Brentwood,Essex,,Brentwood Ice Cream Bikes,Mobile caterer,7846,10,,583187,0,,51.61696400000000,13/00115/MOBILE,111,envhealth@brentwood.gov.uk,Brentwood,http://www.brentwood.gov.uk/,0.27949000000000,CM14 4QA,2013-08-27,fhrs_4_en-GB,4,,FHRS,0
5694,Brentwood Karting,Warley Gap,Warley,Brentwood,Brentwood Karting Centre,Restaurant/Cafe/Canteen,1,10,,431222,5,,51.59635700000000,11/01157/MIXED,111,envhealth@brentwood.gov.uk,Brentwood,http://www.brentwood.gov.uk/,0.29941600000000,,2013-07-23,fhrs_3_en-GB,3,,FHRS,10
5695,76 Ongar Road,Brentwood,Essex,,Brentwood Kebab House,Takeaway/sandwich shop,7844,5,,431794,5,,51.62254700000000,11/01752/FH,111,envhealth@brentwood.gov.uk,Brentwood,http://www.brentwood.gov.uk/,0.30398400000000,CM15 9AX,2013-11-13,fhrs_5_en-GB,5,,FHRS,5
5696,Brentwood Park Ski And Snowboard Ce,Warley Gap,Warley,Brentwood,Brentwood Park Ski And Snowboard Centre Ltd,Restaurant/Cafe/Canteen,1,10,,431204,5,,51.59491800000000,11/01135/FH,111,envhealth@brentwood.gov.uk,Brentwood,http://www.brentwood.gov.uk/,0.30140100000000,CM13 3DP,2014-09-25,fhrs_4_en-GB,4,,FHRS,0
5697,Brentwood Rugby Football Club,King Georges Playing Fields,Ingrave Road,Brentwood,Brentwood Rugby Club,Pub/bar/nightclub,7843,0,,431468,0,,51.62065100000000,11/01416/FH,111,envhealth@brentwood.gov.uk,Brentwood,http://www.brentwood.gov.uk/,0.30573700000000,CM15 8AT,2013-09-15,fhrs_4_en-GB,4,,FHRS,10
5698,Ingrave Road,Brentwood,Essex,,Brentwood School,School/college/university,7845,0,,431279,5,,51.62061800000000,11/01215/FH,111,envhealth@brentwood.gov.uk,Brentwood,http://www.brentwood.gov.uk/,0.30651600000000,CM15 8AS,2014-11-18,fhrs_5_en-GB,5,,FHRS,5
5699,Brentwood School Sports Ground,Shenfield Road,Essex,,Brentwood School Sports Centre,Restaurant/Cafe/Canteen,1,20,,431233,5,,51.62876700000000,11/01168/FH,111,envhealth@brentwood.gov.uk,Brentwood,http://www.brentwood.gov.uk/,0.31796700000000,,2014-11-17,fhrs_1_en-GB,1,,FHRS,10
5700,Unit 1,1 Crescent Road,Warley,Brentwood,Brentwood Superstore,Retailers - supermarkets/hypermarkets,7840,5,,431520,0,,51.61249600000000,11/01473/FH,111,envhealth@brentwood.gov.uk,Brentwood,http://www.brentwood.gov.uk/,0.29743700000000,CM14 5JR,2014-03-10,fhrs_5_en-GB,5,,FHRS,5
5701,County Cricket Ground,Shenfield Road,Shenfield,Brentwood,Brentwood Tennis Club,Pub/bar/nightclub,7843,0,,431493,0,,51.62323000000000,11/01442/MIXED,111,envhealth@brentwood.gov.uk,Brentwood,http://www.brentwood.gov.uk/,0.30861300000000,CM15 8AJ,2013-03-11,fhrs_5_en-GB,5,,FHRS,0
5702,15 Shenfield Road,Brentwood Town,Brentwood,Essex,Brentwood Theatre,Pub/bar/nightclub,7843,,,431499,,,51.62212600000000,11/01448/FH,111,envhealth@brentwood.gov.uk,Brentwood,http://www.brentwood.gov.uk/,0.30711200000000,CM15 8AG,2014-07-15,fhrs_exempt_en-GB,Exempt,,FHRS,
5703,The Ursuline High School,Queens Road,Brentwood,Essex,Brentwood Ursuline Convent High School (Buchs),School/college/university,7845,0,,431297,5,,51.61767100000000,11/01233/FH,111,envhealth@brentwood.gov.uk,Brentwood,http://www.brentwood.gov.uk/,0.30456000000000,CM14 4EX,2013-11-19,fhrs_5_en-GB,5,,FHRS,0
5704,Ashwells Road,Pilgrims Hatch,Brentwood,Essex,Brentwood Vineyard Church,School/college/university,7845,0,,431461,0,,51.64801900000000,11/01409/FH,111,envhealth@brentwood.gov.uk,Brentwood,http://www.brentwood.gov.uk/,0.27337200000000,CM15 9SE,2014-11-04,fhrs_5_en-GB,5,,FHRS,5
5705,Brentwood Rugby Football Club,King Georges Playing Fields,Ingrave Road,Brentwood,Bright Sparks Pre-School,Hospitals/Childcare/Caring Premises,5,5,,431648,5,,,11/01605/MIXED,111,envhealth@brentwood.gov.uk,Brentwood,http://www.brentwood.gov.uk/,,,2012-06-06,fhrs_5_en-GB,5,,FHRS,5
5706,1 London Road,Brentwood,Essex,,British Telecom,Restaurant/Cafe/Canteen,1,0,,431318,0,,51.61882600000000,11/01256/FH,111,envhealth@brentwood.gov.uk,Brentwood,http://www.brentwood.gov.uk/,0.29193500000000,CM14 4QP,2014-10-15,fhrs_5_en-GB,5,,FHRS,5
5707,Brooks House,Western Road,Brentwood,Essex,Brooks House Care Home,Hospitals/Childcare/Caring Premises,5,5,,431776,10,,,11/01734/MIXED,111,envhealth@brentwood.gov.uk,Brentwood,http://www.brentwood.gov.uk/,,,2014-12-01,fhrs_3_en-GB,3,,FHRS,10
5708,Dunsteads Farm,Trueloves Lane,Ingatestone,Essex,Brownbread,Mobile caterer,7846,0,,431392,0,,51.66543400000000,11/01333/FH,111,envhealth@brentwood.gov.uk,Brentwood,http://www.brentwood.gov.uk/,0.36241500000000,,2014-12-15,fhrs_5_en-GB,5,,FHRS,0
5709,46 - 54 High Street,Ingatestone,Essex,,Budgens,Retailers - supermarkets/hypermarkets,7840,5,,431542,5,,51.67145200000000,11/01496/FH,111,envhealth@brentwood.gov.uk,Brentwood,http://www.brentwood.gov.uk/,0.38589700000000,CM4 9DW,2013-07-18,fhrs_5_en-GB,5,,FHRS,5
5710,74b-76 Church Lane,Doddinghurst,Brentwood,Essex,Budgens Of Doddinghurst,Retailers - supermarkets/hypermarkets,7840,10,,431553,5,,51.66783500000000,11/01507/MIXED,111,envhealth@brentwood.gov.uk,Brentwood,http://www.brentwood.gov.uk/,0.29802400000000,CM15 0NG,2013-12-02,fhrs_4_en-GB,4,,FHRS,0
5711,13 Greenshaw,Brentwood,Essex,,Buffet Company,Takeaway/sandwich shop,7844,0,,431428,0,,51.62545900000000,11/01373/FH,111,envhealth@brentwood.gov.uk,Brentwood,http://www.brentwood.gov.uk/,0.28797800000000,CM14 4YA,2011-09-26,fhrs_5_en-GB,5,,FHRS,0
5712,Street Record,Tallon Road,Hutton,Essex,Burger Van,Mobile caterer,7846,0,,622823,0,,,13/00146/MOBILE,111,envhealth@brentwood.gov.uk,Brentwood,http://www.brentwood.gov.uk/,,,2014-02-04,fhrs_4_en-GB,4,,FHRS,10
5713,Ground Floor,27 Shenfield Road,Brentwood,Essex,Burntwood Pharmacy,Retailers - other,4613,,,431248,,,51.62212600000000,11/01183/MIXED,111,envhealth@brentwood.gov.uk,Brentwood,http://www.brentwood.gov.uk/,0.30711200000000,CM15 8AG,2014-10-23,fhrs_exempt_en-GB,Exempt,,FHRS,
5714,The School House,Chindits Lane,Warley,Essex,Butterflies Montessori School Ltd,School/college/university,7845,10,,606748,0,,51.60494400000000,13/00132/MIXED,111,envhealth@brentwood.gov.uk,Brentwood,http://www.brentwood.gov.uk/,0.30052200000000,CM14 5LF,2013-10-09,fhrs_4_en-GB,4,,FHRS,5
5715,3 Moores Place,Brentwood,Essex,,Cafe A Moore,Restaurant/Cafe/Canteen,1,10,,431192,5,,51.62021500000000,11/01123/MIXED,111,envhealth@brentwood.gov.uk,Brentwood,http://www.brentwood.gov.uk/,0.30461700000000,CM14 4AG,2015-01-07,fhrs_4_en-GB,4,,FHRS,5
5716,King Georges Fields,Hartswood Road,Warley,Brentwood,Cafe In The Park,Restaurant/Cafe/Canteen,1,5,,431191,5,,51.61074000000000,11/01122/MIXED,111,envhealth@brentwood.gov.uk,Brentwood,http://www.brentwood.gov.uk/,0.31128700000000,CM14 5AE,2014-11-19,fhrs_5_en-GB,5,,FHRS,5
5717,2 - 2A Victoria Road,Warley,Essex,,Cafe Lowes,Restaurant/Cafe/Canteen,1,10,,583185,5,,51.61317400000000,13/00104/FH,111,envhealth@brentwood.gov.uk,Brentwood,http://www.brentwood.gov.uk/,0.29770200000000,CM14 5EE,2013-08-05,fhrs_4_en-GB,4,,FHRS,5
5718,23 Ongar Road,Brentwood,Essex,,Caffe Essex,Restaurant/Cafe/Canteen,1,5,,606747,5,,51.62200700000000,13/00125/FH,111,envhealth@brentwood.gov.uk,Brentwood,http://www.brentwood.gov.uk/,0.30538700000000,CM15 9AU,2013-10-09,fhrs_5_en-GB,5,,FHRS,5
5719,28 High Street,Brentwood,Essex,,Caffe Nero,Restaurant/Cafe/Canteen,1,5,,431211,0,,51.62069900000000,11/01144/FH,111,envhealth@brentwood.gov.uk,Brentwood,http://www.brentwood.gov.uk/,0.30469900000000,CM14 4AB,2014-08-19,fhrs_5_en-GB,5,,FHRS,0
5720,Refreshment Room,Shenfield Station,Hutton Road,Shenfield,Caffe News,Restaurant/Cafe/Canteen,1,5,,431227,5,,,11/01162/FH,111,envhealth@brentwood.gov.uk,Brentwood,http://www.brentwood.gov.uk/,,,2012-11-29,fhrs_5_en-GB,5,,FHRS,5
5721,Shenfield Station,Hutton Road,Shenfield,Brentwood,Caffe News,Restaurant/Cafe/Canteen,1,5,,431226,5,,51.63030100000000,11/01161/MIXED,111,envhealth@brentwood.gov.uk,Brentwood,http://www.brentwood.gov.uk/,0.32852300000000,CM15 8JD,2014-04-29,fhrs_5_en-GB,5,,FHRS,0
5722,9 Lodge Close,Hutton,Brentwood,,Caffe Piaggio,Mobile caterer,7846,10,,431383,0,,51.62816300000000,11/01324/FH,111,envhealth@brentwood.gov.uk,Brentwood,http://www.brentwood.gov.uk/,0.35946500000000,CM13 1SW,2012-06-14,fhrs_4_en-GB,4,,FHRS,0
5723,23 High Street,Brentwood Town,Brentwood,Essex,Caffe Uno,Restaurant/Cafe/Canteen,1,5,,431359,10,,51.62132800000000,11/01298/MIXED,111,envhealth@brentwood.gov.uk,Brentwood,http://www.brentwood.gov.uk/,0.30471700000000,CM14 4RG,2014-07-30,fhrs_3_en-GB,3,,FHRS,10
5724,Wilwyn,Chelmsford Road,Blackmore,Ingatestone,Cake Supplier,Other catering premises,7841,10,,431438,5,,51.69380500000000,11/01384/FH,111,envhealth@brentwood.gov.uk,Brentwood,http://www.brentwood.gov.uk/,0.32596400000000,CM4 0SD,2012-05-28,fhrs_4_en-GB,4,,FHRS,0
5725,21 Storr Gardens,Hutton,Brentwood,Essex,Cakes For Alice,Other catering premises,7841,0,,491780,0,,51.63854000000000,12/00097/FH,111,envhealth@brentwood.gov.uk,Brentwood,http://www.brentwood.gov.uk/,0.35143400000000,CM13 1HT,2012-11-26,fhrs_5_en-GB,5,,FHRS,0
5726,Calcott Hall Farm,Ongar Road,Pilgrims Hatch,Brentwood,Calcott Hall Farm Shop,Retailers - other,4613,0,,431324,5,,51.62759900000000,11/01263/FH,111,envhealth@brentwood.gov.uk,Brentwood,http://www.brentwood.gov.uk/,0.28664100000000,CM15 9HS,2014-02-05,fhrs_5_en-GB,5,,FHRS,0
5727,,,,,Calypso Creole,Takeaway/sandwich shop,7844,5,,431437,5,,,11/01383/FH,111,envhealth@brentwood.gov.uk,Brentwood,http://www.brentwood.gov.uk/,,,2014-01-20,fhrs_5_en-GB,5,,FHRS,5
5728,Canon (uk) Ltd,Chatham Way,Brentwood,Essex,Canon (Uk)Ltd,Restaurant/Cafe/Canteen,1,5,,431319,5,,51.61851900000000,11/01257/MIXED,111,envhealth@brentwood.gov.uk,Brentwood,http://www.brentwood.gov.uk/,0.29891100000000,CM14 4DZ,2014-09-16,fhrs_5_en-GB,5,,FHRS,5
5729,4 Baytree Centre,Brentwood,Essex,,Card Factory,Retailers - other,4613,,,535116,,,51.61950700000000,12/00002/MIXED,111,envhealth@brentwood.gov.uk,Brentwood,http://www.brentwood.gov.uk/,0.30221200000000,CM14 4BX,2013-03-20,fhrs_exempt_en-GB,Exempt,,FHRS,
5730,410 Ongar Road,Pilgrims Hatch,Brentwood,Essex,Carnival Coffee,Mobile caterer,7846,5,,431385,0,,51.63790900000000,11/01326/MIXED,111,envhealth@brentwood.gov.uk,Brentwood,http://www.brentwood.gov.uk/,0.27857500000000,CM15 9JN,2012-05-24,fhrs_5_en-GB,5,,FHRS,0
5731,The Flat,Richard House,12A Bishops Hall Road,Pilgrims Hatch,Carr Gomm Housing Association,Hospitals/Childcare/Caring Premises,5,10,,431767,5,,,11/01725/FH,111,envhealth@brentwood.gov.uk,Brentwood,http://www.brentwood.gov.uk/,,,2014-12-31,fhrs_4_en-GB,4,,FHRS,0
5732,88 High Street,Brentwood,Essex,,Cascade Florists,Retailers - other,4613,,,431664,,,51.61949400000000,11/01621/MIXED,111,envhealth@brentwood.gov.uk,Brentwood,http://www.brentwood.gov.uk/,0.29917700000000,CM14 4AP,2010-01-22,fhrs_exempt_en-GB,Exempt,,FHRS,
5733,8 Langford Green,Hutton,Brentwood,Essex,Castins,Other catering premises,7841,0,,468239,0,,51.63493300000000,12/00096/FH,111,envhealth@brentwood.gov.uk,Brentwood,http://www.brentwood.gov.uk/,0.34337100000000,CM13 1YJ,2012-11-14,fhrs_5_en-GB,5,,FHRS,0
5734,Brentwood Farmers Market,High Street,Brentwood Town,Brentwood,Cecina Cakes,Retailers - other,4613,5,,456267,0,,,11/01468/MOBILE,111,envhealth@brentwood.gov.uk,Brentwood,http://www.brentwood.gov.uk/,,,2011-07-02,fhrs_5_en-GB,5,,FHRS,5
5735,23 Gerrard Crescent,Brentwood,Essex,,Celebration Cakes,Takeaway/sandwich shop,7844,0,,431422,0,,51.61651500000000,11/01367/FH,111,envhealth@brentwood.gov.uk,Brentwood,http://www.brentwood.gov.uk/,0.29609400000000,CM14 4JU,2012-06-26,fhrs_5_en-GB,5,,FHRS,0
5736,152 Warley Hill,Warley,Brentwood,Essex,Charlies Bar Ltd,Pub/bar/nightclub,7843,5,,431570,0,,51.60712300000000,11/01524/MIXED,111,envhealth@brentwood.gov.uk,Brentwood,http://www.brentwood.gov.uk/,0.29762800000000,CM14 5HE,2014-11-12,fhrs_5_en-GB,5,,FHRS,5
5737,88 High Street,Brentwood,Essex,,Charlies Deli,Restaurant/Cafe/Canteen,1,10,,687635,5,,51.61949400000000,14/00030/MIXED,111,envhealth@brentwood.gov.uk,Brentwood,http://www.brentwood.gov.uk/,0.29917700000000,CM14 4AP,2014-07-08,fhrs_4_en-GB,4,,FHRS,5
5738,120 Shenfield Place,Shenfield,Brentwood,Essex,Chateau De Gateaux,Other catering premises,7841,0,,456270,0,,51.62991900000000,12/00009/FH,111,envhealth@brentwood.gov.uk,Brentwood,http://www.brentwood.gov.uk/,0.31690000000000,CM15 9AG,2013-08-03,fhrs_5_en-GB,5,,FHRS,0
5739,108 High Street,Brentwood,Essex,,Chelo,Other catering premises,7841,20,,689250,5,,51.61949400000000,14/00035/MIXED,111,envhealth@brentwood.gov.uk,Brentwood,http://www.brentwood.gov.uk/,0.29917700000000,CM14 4AP,2014-07-31,fhrs_1_en-GB,1,,FHRS,15
5740,7 Security House,Ongar Road,Brentwood Town,Brentwood,Chicken & Frog Bookshop,Retailers - other,4613,0,,535121,0,,51.62168700000000,13/00009/FH,111,envhealth@brentwood.gov.uk,Brentwood,http://www.brentwood.gov.uk/,0.30564500000000,CM15 9AT,2013-02-05,fhrs_5_en-GB,5,,FHRS,0
5741,3 Warley Hill,Warley,Brentwood,Essex,Chicken & Grill,Takeaway/sandwich shop,7844,10,,431779,10,,51.61339500000000,11/01737/MIXED,111,envhealth@brentwood.gov.uk,Brentwood,http://www.brentwood.gov.uk/,0.29881100000000,CM14 5HT,2014-11-03,fhrs_3_en-GB,3,,FHRS,10
5742,106A High Street,Brentwood Town,Brentwood,Essex,Chimichanga,Restaurant/Cafe/Canteen,1,5,,456269,0,,51.61942400000000,12/00007/MIXED,111,envhealth@brentwood.gov.uk,Brentwood,http://www.brentwood.gov.uk/,0.29908700000000,CM14 4AP,2014-03-06,fhrs_5_en-GB,5,,FHRS,5
5743,Brook Farm,Murthering Lane,Navestock,Essex,Chimneys At Brook Farm,Other catering premises,7841,5,,583186,5,,51.64167300000000,13/00114/MIXED,111,envhealth@brentwood.gov.uk,Brentwood,http://www.brentwood.gov.uk/,0.20243400000000,RM4 1HL,2013-08-03,fhrs_5_en-GB,5,,FHRS,5
5744,253 Ongar Road,Brentwood,Essex,,Chris Fish & Chips,Takeaway/sandwich shop,7844,5,,431807,5,,51.62793100000000,11/01769/FH,111,envhealth@brentwood.gov.uk,Brentwood,http://www.brentwood.gov.uk/,0.29633800000000,CM15 9DZ,2014-04-24,fhrs_5_en-GB,5,,FHRS,5
5745,Christ Church,Warley Hill,Warley,Brentwood,Christ Church Hall,Pub/bar/nightclub,7843,0,,431698,0,,51.51909255981450,11/01655/FH,111,envhealth@brentwood.gov.uk,Brentwood,http://www.brentwood.gov.uk/,-0.07418099790812,,2012-06-28,fhrs_5_en-GB,5,,FHRS,0
5746,Hutton All Saints C Of E Primary Sc,Claughton Way,Hutton,Brentwood,Chuckles (UK) Ltd,Other catering premises,7841,0,,431639,0,,51.63449700000000,11/01595/MIXED,111,envhealth@brentwood.gov.uk,Brentwood,http://www.brentwood.gov.uk/,0.34988000000000,CM13 1JW,2013-02-26,fhrs_5_en-GB,5,,FHRS,5
5747,Doddinghurst C Of E Junior School,Church Lane,Doddinghurst,Brentwood,Chuckles Breakfast And After School Club,Hospitals/Childcare/Caring Premises,5,0,,431651,0,,,11/01608/MIXED,111,envhealth@brentwood.gov.uk,Brentwood,http://www.brentwood.gov.uk/,,,2013-07-23,fhrs_5_en-GB,5,,FHRS,0
5748,117 High Street,Brentwood,Essex,,Chutney Joe,Restaurant/Cafe/Canteen,1,5,,431362,0,,51.61989100000000,11/01301/MIXED,111,envhealth@brentwood.gov.uk,Brentwood,http://www.brentwood.gov.uk/,0.29909600000000,CM14 4RX,2014-10-16,fhrs_5_en-GB,5,,FHRS,5
5749,7 Friars Avenue,Shenfield,Brentwood,Essex,Claires Cakes Essex,Takeaway/sandwich shop,7844,5,,431421,0,,51.62881100000000,11/01366/FH,111,envhealth@brentwood.gov.uk,Brentwood,http://www.brentwood.gov.uk/,0.32746400000000,CM15 8HY,2013-01-24,fhrs_5_en-GB,5,,FHRS,0
5750,Clever Tots Day Nursery,Crescent Road,Warley,Brentwood,Clever Tots Day Nursery Ltd,Hospitals/Childcare/Caring Premises,5,0,,431625,0,,51.61249600000000,11/01581/MIXED,111,envhealth@brentwood.gov.uk,Brentwood,http://www.brentwood.gov.uk/,0.29743700000000,CM14 5JR,2014-01-15,fhrs_5_en-GB,5,,FHRS,5
5751,47C High Street,Brentwood,Essex,,Clinton Cards,Retailers - other,4613,,,431255,,,51.62085900000000,11/01190/FH,111,envhealth@brentwood.gov.uk,Brentwood,http://www.brentwood.gov.uk/,0.30294500000000,CM14 4RH,2014-06-24,fhrs_exempt_en-GB,Exempt,,FHRS,
5752,5k Horndon Industrial Park,Station Road,West Horndon,Brentwood,Club Cafe,Restaurant/Cafe/Canteen,1,10,,431196,0,,51.56886500000000,11/01127/FH,111,envhealth@brentwood.gov.uk,Brentwood,http://www.brentwood.gov.uk/,0.33870100000000,CM13 3XL,2013-12-30,fhrs_4_en-GB,4,,FHRS,0
5753,The Eagle And Child Public House,13 Chelmsford Road,Shenfield,Essex,CMP Seafoods,Takeaway/sandwich shop,7844,5,,606746,5,,51.63056300000000,13/00119/MOBILE,111,envhealth@brentwood.gov.uk,Brentwood,http://www.brentwood.gov.uk/,0.32165800000000,CM15 8RG,2013-12-19,fhrs_5_en-GB,5,,FHRS,5
5754,31 Cedar Road,Hutton,Brentwood,Essex,Coffeelicious,Mobile caterer,7846,5,,431384,5,,51.63142000000000,11/01325/FH,111,envhealth@brentwood.gov.uk,Brentwood,http://www.brentwood.gov.uk/,0.35175900000000,CM13 1NB,2011-11-09,fhrs_5_en-GB,5,,FHRS,5
5755,Mellon House,Ingrave Road,Brentwood,Essex,Compass Contract Services (Uk) Ltd,Restaurant/Cafe/Canteen,1,0,,431322,0,,,11/01260/MIXED,111,envhealth@brentwood.gov.uk,Brentwood,http://www.brentwood.gov.uk/,,,2014-11-04,fhrs_5_en-GB,5,,FHRS,0
5756,Rowan House,Church Lane,Doddinghurst,Brentwood,Consensus Support Services,Hospitals/Childcare/Caring Premises,5,0,,431772,0,,51.66670400000000,11/01730/MIXED,111,envhealth@brentwood.gov.uk,Brentwood,http://www.brentwood.gov.uk/,0.29516100000000,CM15 0NJ,2014-01-13,fhrs_5_en-GB,5,,FHRS,0
5757,201 Rayleigh Road,Hutton,Brentwood,Essex,Co-Operative Pharmacy,Retailers - other,4613,,,431239,,,51.63295300000000,11/01174/FH,111,envhealth@brentwood.gov.uk,Brentwood,http://www.brentwood.gov.uk/,0.35110100000000,CM13 1LZ,2015-01-06,fhrs_exempt_en-GB,Exempt,,FHRS,
5758,62-64 Woodland Avenue,Hutton,Brentwood,Essex,Co-Operative Stores,Retailers - supermarkets/hypermarkets,7840,10,,431531,5,,51.63737900000000,11/01484/MIXED,111,envhealth@brentwood.gov.uk,Brentwood,http://www.brentwood.gov.uk/,0.34609800000000,CM13 1HH,2012-04-17,fhrs_4_en-GB,4,,FHRS,0
5759,The Cottage,1 Fingrith Hall Road,Blackmore,Essex,Co-Operative Stores,Retailers - supermarkets/hypermarkets,7840,5,,569832,5,,51.69352400000000,11/01483/MIXED,111,envhealth@brentwood.gov.uk,Brentwood,http://www.brentwood.gov.uk/,0.31971300000000,CM4 0RU,2013-11-19,fhrs_5_en-GB,5,,FHRS,0
5760,14 Baytree Centre,Brentwood,Essex,,Co-Operative Stores Ltd,Retailers - supermarkets/hypermarkets,7840,5,,569834,5,,51.61950700000000,11/01511/MIXED,111,envhealth@brentwood.gov.uk,Brentwood,http://www.brentwood.gov.uk/,0.30221200000000,CM14 4BX,2013-07-10,fhrs_4_en-GB,4,,FHRS,10
5761,203-205 Rayleigh Road,Hutton,Brentwood,Essex,Co-Operative Stores Ltd,Retailers - supermarkets/hypermarkets,7840,5,,431534,0,,51.63295300000000,11/01487/MIXED,111,envhealth@brentwood.gov.uk,Brentwood,http://www.brentwood.gov.uk/,0.35110100000000,CM13 1LZ,2013-09-16,fhrs_5_en-GB,5,,FHRS,5
5762,208-212 Hutton Road,Shenfield,Brentwood,Essex,Co-Operative Stores Ltd,Retailers - supermarkets/hypermarkets,7840,0,,569833,0,,51.63084000000000,11/01509/MIXED,111,envhealth@brentwood.gov.uk,Brentwood,http://www.brentwood.gov.uk/,0.32852200000000,CM15 8NR,2011-08-15,fhrs_5_en-GB,5,,FHRS,0
5763,3 Spreadeagle Place,High Street,Ingatestone,Essex,Co-Operative Stores Ltd,Retailers - supermarkets/hypermarkets,7840,10,,431543,5,,51.67168300000000,11/01497/MIXED,111,envhealth@brentwood.gov.uk,Brentwood,http://www.brentwood.gov.uk/,0.38692200000000,CM4 9EA,2014-05-20,fhrs_4_en-GB,4,,FHRS,0
5764,6-8a Harewood Road,Pilgrims Hatch,Brentwood,Essex,Co-Operative Stores Ltd,Retailers - supermarkets/hypermarkets,7840,0,,569831,0,,51.63524100000000,11/01472/MIXED,111,envhealth@brentwood.gov.uk,Brentwood,http://www.brentwood.gov.uk/,0.29228600000000,CM15 9PD,2014-09-18,fhrs_5_en-GB,5,,FHRS,0
5765,The Keys,Eagle Way,Warley,Brentwood,Copperfield Wines,Retailers - other,4613,,,431660,,,51.60048100000000,11/01617/MIXED,111,envhealth@brentwood.gov.uk,Brentwood,http://www.brentwood.gov.uk/,0.29879400000000,CM13 3BP,2014-10-23,fhrs_exempt_en-GB,Exempt,,FHRS,
5766,26 Copperfield Gardens,Brentwood,Essex,,Copperfields,Retailers - supermarkets/hypermarkets,7840,5,,431518,0,,51.62467700000000,11/01471/MIXED,111,envhealth@brentwood.gov.uk,Brentwood,http://www.brentwood.gov.uk/,0.29627500000000,CM14 4UD,2013-11-18,fhrs_5_en-GB,5,,FHRS,0
5767,Ground Floor,Crown House,Crown Street,Brentwood,Coral Racing,Retailers - other,4613,,,431237,,,51.61920000000000,11/01172/FH,111,envhealth@brentwood.gov.uk,Brentwood,http://www.brentwood.gov.uk/,0.30088200000000,CM14 4BA,2012-11-26,fhrs_exempt_en-GB,Exempt,,FHRS,
5768,Street Record,Thorndon Park,Brentwood,Essex,Cosmos Burger Van,Mobile caterer,7846,0,,535115,0,,,11/01317/MOBILE,111,envhealth@brentwood.gov.uk,Brentwood,http://www.brentwood.gov.uk/,,,2014-02-27,fhrs_4_en-GB,4,,FHRS,10
5769,Shenfield House,180 - 182 Hutton Road,Shenfield,Brentwood,Costa Coffee,Restaurant/Cafe/Canteen,1,5,,431216,5,,51.63084000000000,11/01150/MIXED,111,envhealth@brentwood.gov.uk,Brentwood,http://www.brentwood.gov.uk/,0.32852200000000,CM15 8NR,2014-10-21,fhrs_5_en-GB,5,,FHRS,0
5770,Hutchins Farm Dairies,422 Ongar Road,Pilgrims Hatch,Brentwood,Costcutter,Retailers - supermarkets/hypermarkets,7840,5,,456268,5,,51.63790900000000,11/01505/MIXED,111,envhealth@brentwood.gov.uk,Brentwood,http://www.brentwood.gov.uk/,0.27857500000000,CM15 9JN,2014-04-08,fhrs_5_en-GB,5,,FHRS,0
5771,Brentwood Farmers Market,High Street,Brentwood Town,Brentwood,Cottage Cakes Arnaold & Son Ltd,Retailers - other,4613,5,,456265,5,,,11/01466/MOBILE,111,envhealth@brentwood.gov.uk,Brentwood,http://www.brentwood.gov.uk/,,,2011-07-02,fhrs_5_en-GB,5,,FHRS,5
5772,The Garden Centre Group,Langford Bridge,Ongar Road,Brentwood,Country Gardens Ongar Garden Centre,Restaurant/Cafe/Canteen,1,5,,431225,5,,,11/01160/MIXED,111,envhealth@brentwood.gov.uk,Brentwood,http://www.brentwood.gov.uk/,,,2014-03-04,fhrs_5_en-GB,5,,FHRS,5
5773,Sawyers Hall Lane Chapel,Sawyers Hall Lane,Brentwood,Essex,Crown Cafe,Restaurant/Cafe/Canteen,1,5,,431232,5,,51.62212600000000,11/01167/FH,111,envhealth@brentwood.gov.uk,Brentwood,http://www.brentwood.gov.uk/,0.30711200000000,CM15 8AG,2014-05-09,fhrs_5_en-GB,5,,FHRS,5
5774,Crown Corner,Ongar Road,Kelvedon Hatch,Brentwood,Crown Corner Farm Shop,Retailers - other,4613,5,,431325,5,,51.66598100000000,11/01264/MIXED,111,envhealth@brentwood.gov.uk,Brentwood,http://www.brentwood.gov.uk/,0.26945500000000,CM15 0AA,2012-11-01,fhrs_5_en-GB,5,,FHRS,5
5775,25 Crown Street,Brentwood,Essex,,Crown Street Cafe,Restaurant/Cafe/Canteen,1,5,,431183,5,,51.61920000000000,11/01114/MIXED,111,envhealth@brentwood.gov.uk,Brentwood,http://www.brentwood.gov.uk/,0.30088200000000,CM14 4BA,2014-04-06,fhrs_5_en-GB,5,,FHRS,5
5776,265 Ongar Road,Brentwood,Essex,,Crumbs,Restaurant/Cafe/Canteen,1,0,,697338,5,,51.62793100000000,14/00025/MIXED,111,envhealth@brentwood.gov.uk,Brentwood,http://www.brentwood.gov.uk/,0.29633800000000,CM15 9DZ,2014-08-20,fhrs_5_en-GB,5,,FHRS,0
5777,Cuckoo Cottage,Beggar Hill,Ingatestone,Essex,Cuckoo Cottage Bakes,Other catering premises,7841,0,,569835,0,,51.68545400000000,13/00011/FH,111,envhealth@brentwood.gov.uk,Brentwood,http://www.brentwood.gov.uk/,0.35693100000000,CM4 0PH,2013-02-26,fhrs_5_en-GB,5,,FHRS,0
5778,25 Cromwell Road,Warley,Brentwood,Essex,Cupcakes & Cookies,Takeaway/sandwich shop,7844,0,,431407,0,,51.61314800000000,11/01349/FH,111,envhealth@brentwood.gov.uk,Brentwood,http://www.brentwood.gov.uk/,0.29396000000000,CM14 5DT,2014-09-17,fhrs_5_en-GB,5,,FHRS,0
5779,,,,,Cupcakes To Go,Takeaway/sandwich shop,7844,5,,664008,0,,,14/00011/FH,111,envhealth@brentwood.gov.uk,Brentwood,http://www.brentwood.gov.uk/,,,2014-03-17,fhrs_5_en-GB,5,,FHRS,0
5780,27A Cadogan Avenue,West Horndon,Brentwood,Essex,Cupcakey Doodah,Other catering premises,7841,0,,491779,0,,51.57133000000000,12/00086/FH,111,envhealth@brentwood.gov.uk,Brentwood,http://www.brentwood.gov.uk/,0.34540900000000,CM13 3TU,2012-11-20,fhrs_5_en-GB,5,,FHRS,0
5781,78 Church Lane,Doddinghurst,Brentwood,Essex,D Hubbard Ltd T A Doddinghurst News,Retailers - other,4613,,,431267,,,51.66783500000000,11/01202/MIXED,111,envhealth@brentwood.gov.uk,Brentwood,http://www.brentwood.gov.uk/,0.29802400000000,CM15 0NG,2014-10-21,fhrs_exempt_en-GB,Exempt,,FHRS,
5782,19 South Street,Brentwood,Essex,,Da Vinci,Restaurant/Cafe/Canteen,1,10,,622818,5,,51.61931600000000,13/00135/MIXED,111,envhealth@brentwood.gov.uk,Brentwood,http://www.brentwood.gov.uk/,0.30139300000000,CM14 4BJ,2013-12-09,fhrs_4_en-GB,4,,FHRS,5
5783,16 High Street,Brentwood,Essex,,Dairyman,Pub/bar/nightclub,7843,0,,724229,5,,51.62069900000000,14/00036/MIXED,111,envhealth@brentwood.gov.uk,Brentwood,http://www.brentwood.gov.uk/,0.30469900000000,CM14 4AB,2014-11-24,fhrs_5_en-GB,5,,FHRS,5
5784,Day Lewis Chemist,Pastoral Way,Warley,Brentwood,Day Lewis Pharmacy,Retailers - supermarkets/hypermarkets,7840,0,,431540,0,,51.60860400000000,11/01493/MIXED,111,envhealth@brentwood.gov.uk,Brentwood,http://www.brentwood.gov.uk/,0.29272000000000,CM14 5WF,2014-03-10,fhrs_5_en-GB,5,,FHRS,0
5785,New World Inn,Great Warley Street,Warley,Brentwood,De Rougemont Manor,Restaurant/Cafe/Canteen,1,5,,431345,10,,51.58804800000000,11/01284/MIXED,111,envhealth@brentwood.gov.uk,Brentwood,http://www.brentwood.gov.uk/,0.29079000000000,CM13 3JP,2013-07-19,fhrs_4_en-GB,4,,FHRS,5
5786,Third Floor,Town Hall,Ingrave Road,Brentwood,Depot For Brentwood Food Bank,Distributors/Transporters,7,,,583182,,,,13/00098/FH,111,envhealth@brentwood.gov.uk,Brentwood,http://www.brentwood.gov.uk/,,,2013-08-29,fhrs_exempt_en-GB,Exempt,,FHRS,
5787,Church Lane,Doddinghurst,Brentwood,Essex,Doddinghurst C Of E Junior School,School/college/university,7845,5,,431301,0,,51.66670400000000,11/01237/FH,111,envhealth@brentwood.gov.uk,Brentwood,http://www.brentwood.gov.uk/,0.29516100000000,CM15 0NJ,2014-04-29,fhrs_5_en-GB,5,,FHRS,5
5788,Village Hall,Church Lane,Doddinghurst,Brentwood,Doddinghurst Community Pre-School,Hospitals/Childcare/Caring Premises,5,10,,431626,5,,51.66670400000000,11/01582/FH,111,envhealth@brentwood.gov.uk,Brentwood,http://www.brentwood.gov.uk/,0.29516100000000,CM15 0NJ,2012-06-07,fhrs_4_en-GB,4,,FHRS,0
5789,Doddinghurst County Infant School,Church Lane,Doddinghurst,Brentwood,Doddinghurst Infant School,School/college/university,7845,0,,431281,0,,51.66670400000000,11/01217/FH,111,envhealth@brentwood.gov.uk,Brentwood,http://www.brentwood.gov.uk/,0.29516100000000,CM15 0NJ,2013-05-15,fhrs_4_en-GB,4,,FHRS,10
5790,Belthaven,Doddinghurst Road,Doddinghurst,Brentwood,Doddinghurst Stores,Retailers - supermarkets/hypermarkets,7840,5,,431525,5,,51.66394100000000,11/01478/FH,111,envhealth@brentwood.gov.uk,Brentwood,http://www.brentwood.gov.uk/,0.30220800000000,CM15 0QP,2014-10-21,fhrs_5_en-GB,5,,FHRS,5
5791,113 High Street,Brentwood,Essex,,Dominos Pizza,Takeaway/sandwich shop,7844,0,,431787,0,,51.61989100000000,11/01745/MIXED,111,envhealth@brentwood.gov.uk,Brentwood,http://www.brentwood.gov.uk/,0.29909600000000,CM14 4RX,2014-12-01,fhrs_5_en-GB,5,,FHRS,0
5792,Dudbrook Road,Navestock,Brentwood,Essex,Dudbrook Hall Residential Home,Hospitals/Childcare/Caring Premises,5,10,,431768,5,,51.66359300000000,11/01726/MIXED,111,envhealth@brentwood.gov.uk,Brentwood,http://www.brentwood.gov.uk/,0.24867200000000,CM14 5TQ,2014-04-08,fhrs_4_en-GB,4,,FHRS,5
5793,Tilbury Road,West Horndon,Brentwood,Essex,Dunton Hills Golf Course,Restaurant/Cafe/Canteen,1,5,,431205,5,,51.57292700000000,11/01136/MIXED,111,envhealth@brentwood.gov.uk,Brentwood,http://www.brentwood.gov.uk/,0.35772900000000,CM13 3LT,2013-07-08,fhrs_5_en-GB,5,,FHRS,0
5794,21 Oaktree Close,Brentwood,Essex,,E Dobney,Retailers - other,4613,0,,431820,0,,51.61288400000000,12/00017/FH,111,envhealth@brentwood.gov.uk,Brentwood,http://www.brentwood.gov.uk/,0.32247500000000,CM13 2EF,2012-07-03,fhrs_5_en-GB,5,,FHRS,0
5795,Street Record,Crown Road,Kelvedon Hatch,Brentwood,E L Baxter Fish Merchants,Mobile caterer,7846,5,,456258,0,,51.65765900000000,11/01329/MOBILE,111,envhealth@brentwood.gov.uk,Brentwood,http://www.brentwood.gov.uk/,0.26415500000000,,2012-02-15,fhrs_5_en-GB,5,,FHRS,0
5796,The Keys,Eagle Way,Warley,Brentwood,Eagle Cafe Ltd,Takeaway/sandwich shop,7844,10,,431749,5,,51.60048100000000,11/01707/MIXED,111,envhealth@brentwood.gov.uk,Brentwood,http://www.brentwood.gov.uk/,0.29879400000000,CM13 3BP,2014-08-28,fhrs_4_en-GB,4,,FHRS,5
5797,Eclipse,Ongar Road,Brentwood Town,Brentwood,Eclipse (Brentwood) Ltd,Pub/bar/nightclub,7843,0,,431623,0,,51.62204500000000,11/01579/MIXED,111,envhealth@brentwood.gov.uk,Brentwood,http://www.brentwood.gov.uk/,0.30531600000000,CM15 9AU,2011-07-29,fhrs_5_en-GB,5,,FHRS,0
5798,Codham Hall,Codham Hall Lane,Warley,Brentwood,Elisha Cafe,Restaurant/Cafe/Canteen,1,5,,431823,5,,51.57638100000000,12/00024/FH,111,envhealth@brentwood.gov.uk,Brentwood,http://www.brentwood.gov.uk/,0.29095300000000,CM13 3JT,2014-04-07,fhrs_5_en-GB,5,,FHRS,0
5799,67 Hutton Road,Shenfield,Brentwood,Essex,Empire Indian Cuisine,Restaurant/Cafe/Canteen,1,10,,456273,5,,51.63030100000000,12/00068/FH,111,envhealth@brentwood.gov.uk,Brentwood,http://www.brentwood.gov.uk/,0.32852300000000,CM15 8JD,2013-11-06,fhrs_4_en-GB,4,,FHRS,5
5800,The Essex Arms,Warley Hill,Warley,Brentwood,Essex Arms,Pub/bar/nightclub,7843,10,,431614,10,,51.61177200000000,11/01569/MIXED,111,envhealth@brentwood.gov.uk,Brentwood,http://www.brentwood.gov.uk/,0.29903300000000,CM14 5HA,2014-05-20,fhrs_3_en-GB,3,,FHRS,10
5801,Thrift Wood Scout Adult Training Ce,Orchard Avenue,Brentwood,Essex,Essex County Scouts Training And Hq,Retailers - other,4613,,,431243,,,51.61395200000000,11/01178/MIXED,111,envhealth@brentwood.gov.uk,Brentwood,http://www.brentwood.gov.uk/,0.32261600000000,CM13 2DY,2011-10-05,fhrs_exempt_en-GB,Exempt,,FHRS,
5802,Hutton Service Station,1 Rayleigh Road,Hutton,Brentwood,Esso Hutton Mount Service Station,Takeaway/sandwich shop,7844,5,,431746,5,,51.63175900000000,11/01704/MIXED,111,envhealth@brentwood.gov.uk,Brentwood,http://www.brentwood.gov.uk/,0.33342400000000,CM13 1AB,2014-07-01,fhrs_5_en-GB,5,,FHRS,5
5803,Ingrave Service Station,Brentwood Road,Brentwood,Essex,Esso Ingrave Service Station,Retailers - supermarkets/hypermarkets,7840,5,,431528,0,,51.59986100000000,11/01481/FH,111,envhealth@brentwood.gov.uk,Brentwood,http://www.brentwood.gov.uk/,0.34693600000000,CM13 3NY,2011-06-15,fhrs_5_en-GB,5,,FHRS,0
5804,Sawyers Hall College,Sawyers Hall Lane,Brentwood,Essex,Faces Kids Club Brentwood Ltd,Pub/bar/nightclub,7843,10,,431677,5,,51.62820500000000,11/01634/MIXED,111,envhealth@brentwood.gov.uk,Brentwood,http://www.brentwood.gov.uk/,0.30256600000000,CM15 9BZ,2014-05-08,fhrs_4_en-GB,4,,FHRS,5
5805,,,,,Fairy Tale Cakes,Other catering premises,7841,0,,622819,0,,,13/00136/FH,111,envhealth@brentwood.gov.uk,Brentwood,http://www.brentwood.gov.uk/,,,2013-12-16,fhrs_5_en-GB,5,,FHRS,0
5806,1 Vaughan Williams Way,Warley,Essex,,Farmahs,Mobile caterer,7846,10,,700745,0,,51.61040000000000,14/00027/MIXED,111,envhealth@brentwood.gov.uk,Brentwood,http://www.brentwood.gov.uk/,0.29145300000000,CM14 5WL,2014-08-26,fhrs_4_en-GB,4,,FHRS,5
5807,216 Hutton Road,Shenfield,Brentwood,Essex,FISH,Takeaway/sandwich shop,7844,10,,431335,5,,51.63084000000000,11/01274/MIXED,111,envhealth@brentwood.gov.uk,Brentwood,http://www.brentwood.gov.uk/,0.32852200000000,CM15 8NR,2014-01-14,fhrs_4_en-GB,4,,FHRS,5
5808,1 Rayleigh Parade,Rayleigh Road,Hutton,Brentwood,Fish N Chicken,Takeaway/sandwich shop,7844,0,,431329,5,,51.63230000000000,11/01268/MIXED,111,envhealth@brentwood.gov.uk,Brentwood,http://www.brentwood.gov.uk/,0.34641400000000,CM13 1BN,2013-10-28,fhrs_5_en-GB,5,,FHRS,5
5809,18 Baytree Centre,Brentwood,Essex,,Fitness First,Restaurant/Cafe/Canteen,1,5,,431206,0,,51.61950700000000,11/01138/MIXED,111,envhealth@brentwood.gov.uk,Brentwood,http://www.brentwood.gov.uk/,0.30221200000000,CM14 4BX,2013-10-18,fhrs_5_en-GB,5,,FHRS,0
5810,Brentwood Farmers Market,High Street,Brentwood,Essex,Flour Power City Bakery,Mobile caterer,7846,,,589538,,,,13/00127/MOBILE,111,envhealth@brentwood.gov.uk,Brentwood,http://www.brentwood.gov.uk/,,,2013-07-27,fhrs_exempt_en-GB,Exempt,,FHRS,
5811,12 Janmead,Hutton,Brentwood,Essex,Fondant Folie,Takeaway/sandwich shop,7844,5,,431435,5,,51.63064000000000,11/01381/FH,111,envhealth@brentwood.gov.uk,Brentwood,http://www.brentwood.gov.uk/,0.33767300000000,CM13 2PU,2011-12-17,fhrs_5_en-GB,5,,FHRS,5
5812,Central Office,Ford Motor Co Ltd,Eagle Way,Warley,Ford Motor Company Ltd,Restaurant/Cafe/Canteen,1,5,,431314,5,,51.59936200000000,11/01252/MIXED,111,envhealth@brentwood.gov.uk,Brentwood,http://www.brentwood.gov.uk/,0.29947400000000,CM13 3BW,2012-04-24,fhrs_5_en-GB,5,,FHRS,5
5813,Clever Clogs Day Nursery,Library Hill,Coptfold Road,Essex,Forrest Nurseries Ltd T A Clever Clogs Day Nursery,Hospitals/Childcare/Caring Premises,5,5,,431624,5,,51.61846100000000,11/01580/FH,111,envhealth@brentwood.gov.uk,Brentwood,http://www.brentwood.gov.uk/,0.30371900000000,CM14 4BN,2014-02-18,fhrs_5_en-GB,5,,FHRS,5
5814,Unit 1,Childerditch Hall Drive,Warley,Brentwood,Franco Vargo (Uk) Ltd,Distributors/Transporters,7,0,,431500,0,,51.58168300000000,11/01450/FH,111,envhealth@brentwood.gov.uk,Brentwood,http://www.brentwood.gov.uk/,0.32045000000000,CM13 3HD,2011-10-05,fhrs_5_en-GB,5,,FHRS,0
5815,96 High Street,Brentwood,Essex,,Fresh,Retailers - other,4613,,,431402,,,51.61949400000000,11/01343/FH,111,envhealth@brentwood.gov.uk,Brentwood,http://www.brentwood.gov.uk/,0.29917700000000,CM14 4AP,2012-09-12,fhrs_exempt_en-GB,Exempt,,FHRS,
5816,Between 71 And 73,High Street,Brentwood,Essex,Fruit Stall,Retailers - other,4613,5,,431505,10,,51.62052500000000,11/01455/MIXED,111,envhealth@brentwood.gov.uk,Brentwood,http://www.brentwood.gov.uk/,0.30161300000000,CM14 4RW,2014-06-24,fhrs_4_en-GB,4,,FHRS,5
5817,21 High Street,Ingatestone,Essex,,Galvins Family Butchers,Retailers - other,4613,20,,689249,5,,51.67087000000000,14/00034/MIXED,111,envhealth@brentwood.gov.uk,Brentwood,http://www.brentwood.gov.uk/,0.38576600000000,CM4 9DU,2014-07-30,fhrs_1_en-GB,1,,FHRS,0
5818,111 High Street,Brentwood,Essex,,Garlok,Retailers - supermarkets/hypermarkets,7840,20,,431545,10,,51.61989100000000,11/01499/FH,111,envhealth@brentwood.gov.uk,Brentwood,http://www.brentwood.gov.uk/,0.29909600000000,CM14 4RX,2014-08-07,fhrs_1_en-GB,1,,FHRS,5
5819,119a High Street,Brentwood,Essex,,Gemini,Retailers - supermarkets/hypermarkets,7840,,,431548,,,51.61989100000000,11/01502/MIXED,111,envhealth@brentwood.gov.uk,Brentwood,http://www.brentwood.gov.uk/,0.29909600000000,CM14 4RX,2015-01-07,fhrs_exempt_en-GB,Exempt,,FHRS,
5820,Brentwood Farmers Market,High Street,Brentwood,Essex,Giggly Pig Farmers Market,Retailers - other,4613,,,431503,,,,11/01453/FH,111,envhealth@brentwood.gov.uk,Brentwood,http://www.brentwood.gov.uk/,,,2014-07-19,fhrs_exempt_en-GB,Exempt,,FHRS,
5821,21 Eastham Crescent,Brentwood,Essex,,Gladcare Ltd T A Ingrave Pharmacy,Retailers - other,4613,,,431245,,,51.61211600000000,11/01180/MIXED,111,envhealth@brentwood.gov.uk,Brentwood,http://www.brentwood.gov.uk/,0.32767900000000,CM13 2BN,2014-12-31,fhrs_exempt_en-GB,Exempt,,FHRS,
5822,Community Hall At Bishops Hall Park,Bishops Hall Park,Elizabeth Road,Pilgrims Hatch,Glitterbugs Pre School,Pub/bar/nightclub,7843,5,,431683,5,,51.63418399013360,11/01640/FH,111,envhealth@brentwood.gov.uk,Brentwood,http://www.brentwood.gov.uk/,0.29330494853434,,2012-09-25,fhrs_5_en-GB,5,,FHRS,5
5823,24 Warley Hill,Warley,Brentwood,Essex,Golden Gate Take Away,Takeaway/sandwich shop,7844,10,,431780,10,,51.61177200000000,11/01738/MIXED,111,envhealth@brentwood.gov.uk,Brentwood,http://www.brentwood.gov.uk/,0.29903300000000,CM14 5HA,2014-06-16,fhrs_3_en-GB,3,,FHRS,5
5824,Hogarth County Junior School,Riseway,Brentwood,Essex,Gooseberry Green Pre School Nursery Ltd,School/college/university,7845,5,,462895,0,,51.61660000000000,12/00101/FH,111,envhealth@brentwood.gov.uk,Brentwood,http://www.brentwood.gov.uk/,0.31648200000000,CM15 8BG,2014-04-28,fhrs_5_en-GB,5,,FHRS,5
5825,Adjacent Coombe Lodge,Warley Road,Warley,Brentwood,Great & Little Warley Cricket Club,Pub/bar/nightclub,7843,0,,431469,0,,51.59237600000000,11/01417/FH,111,envhealth@brentwood.gov.uk,Brentwood,http://www.brentwood.gov.uk/,0.28234500000000,CM13 3HX,2014-03-18,fhrs_5_en-GB,5,,FHRS,0
5826,Sports Ground,Sawyers Hall Lane,Brentwood,Essex,Great Danes Youth Football Club,Pub/bar/nightclub,7843,10,,431494,0,,51.62868900000000,11/01443/MIXED,111,envhealth@brentwood.gov.uk,Brentwood,http://www.brentwood.gov.uk/,0.30355800000000,CM15 9BY,2012-05-31,fhrs_4_en-GB,4,,FHRS,0
5827,7 The Keys,Eagle Way,Warley,Brentwood,Great Wall,Takeaway/sandwich shop,7844,10,,431798,5,,51.60048100000000,11/01756/MIXED,111,envhealth@brentwood.gov.uk,Brentwood,http://www.brentwood.gov.uk/,0.29879400000000,CM13 3BP,2014-03-04,fhrs_4_en-GB,4,,FHRS,5
5828,68 High Street,Brentwood,Essex,,Greggs,Manufacturers/packers,7839,5,,431170,5,,51.61984100000000,11/01101/MIXED,111,envhealth@brentwood.gov.uk,Brentwood,http://www.brentwood.gov.uk/,0.30120300000000,CM14 4AN,2014-10-27,fhrs_5_en-GB,5,,FHRS,5
5829,19 High Street,Brentwood,Essex,,Greggs Bakers,Manufacturers/packers,7839,0,,431167,0,,51.62132800000000,11/01098/FH,111,envhealth@brentwood.gov.uk,Brentwood,http://www.brentwood.gov.uk/,0.30471700000000,CM14 4RG,2014-10-27,fhrs_5_en-GB,5,,FHRS,0
5830,33 Kings Road,Brentwood,Essex,,H & H Kebabs,Takeaway/sandwich shop,7844,5,,431784,5,,51.61813500000000,11/01742/MIXED,111,envhealth@brentwood.gov.uk,Brentwood,http://www.brentwood.gov.uk/,0.29830000000000,CM14 4DJ,2013-11-13,fhrs_5_en-GB,5,,FHRS,5
5831,Weald Road,South Weald,Brentwood,Essex,Halfway House Farm,Hotel/bed & breakfast/guest house,7842,10,,431450,0,,51.62368900000000,11/01397/FH,111,envhealth@brentwood.gov.uk,Brentwood,http://www.brentwood.gov.uk/,0.28096800000000,CM14 5QF,2011-09-28,fhrs_4_en-GB,4,,FHRS,5
5832,17 Warley Hill,Warley,Brentwood,Essex,Happy Garden Chinese Take Away,Takeaway/sandwich shop,7844,5,,431797,5,,51.61239400000000,11/01755/MIXED,111,envhealth@brentwood.gov.uk,Brentwood,http://www.brentwood.gov.uk/,0.29851500000000,CM14 5HR,2013-05-14,fhrs_5_en-GB,5,,FHRS,5
5833,Street Record,Harewood Road,Pilgrims Hatch,Brentwood,Harewood Road Social Club,Pub/bar/nightclub,7843,,,431691,,,51.63537000000000,11/01648/FH,111,envhealth@brentwood.gov.uk,Brentwood,http://www.brentwood.gov.uk/,0.29213500000000,,2012-06-01,fhrs_exempt_en-GB,Exempt,,FHRS,
5834,Clubhouse,King Georges Playing Fields,Ingrave Road,Brentwood,Hartswood Golf Club,Pub/bar/nightclub,7843,0,,431464,0,,51.61074000000000,11/01412/MIXED,111,envhealth@brentwood.gov.uk,Brentwood,http://www.brentwood.gov.uk/,0.31128700000000,CM14 5AE,2013-12-02,fhrs_5_en-GB,5,,FHRS,0
5835,The Headley,Warley Gap,Warley,Brentwood,Headley Spice,Restaurant/Cafe/Canteen,1,10,,431337,5,,51.59901700000000,11/01276/MIXED,111,envhealth@brentwood.gov.uk,Brentwood,http://www.brentwood.gov.uk/,0.29089400000000,CM13 3HS,2014-11-12,fhrs_4_en-GB,4,,FHRS,5
5836,The Hedgerows Nursing Home,256A Ongar Road,Brentwood Town,Brentwood,Hedgerows Nursing Home,Hospitals/Childcare/Caring Premises,5,5,,431765,5,,51.62784000000000,11/01723/FH,111,envhealth@brentwood.gov.uk,Brentwood,http://www.brentwood.gov.uk/,0.29500500000000,CM15 9EA,2013-11-28,fhrs_4_en-GB,4,,FHRS,10
5837,269 Roman Road,Mountnessing,Brentwood,Essex,Hepburns Of Mountnessing Ltd,Manufacturers/packers,7839,0,,431276,0,,51.65373600000000,11/01212/MIXED,111,envhealth@brentwood.gov.uk,Brentwood,http://www.brentwood.gov.uk/,0.35466300000000,CM15 0UH,2014-07-16,fhrs_5_en-GB,5,,FHRS,0
5838,77 Hutton Road,Shenfield,Brentwood,Essex,Hepburns Of Shenfield Ltd,Retailers - other,4613,5,,431180,5,,51.63030100000000,11/01111/MIXED,111,envhealth@brentwood.gov.uk,Brentwood,http://www.brentwood.gov.uk/,0.32852300000000,CM15 8JD,2014-12-09,fhrs_5_en-GB,5,,FHRS,5
5839,Herington House Preparatory School,Mount Avenue,Hutton,Brentwood,Herington House School Ltd,School/college/university,7845,5,,431298,5,,51.63079600000000,11/01234/FH,111,envhealth@brentwood.gov.uk,Brentwood,http://www.brentwood.gov.uk/,0.33258000000000,CM13 2NS,2012-04-19,fhrs_5_en-GB,5,,FHRS,5
5840,Brentwood Road,Brentwood,Essex,,Heron Court,Hospitals/Childcare/Caring Premises,5,5,,431757,10,,51.59135200000000,11/01715/MIXED,111,envhealth@brentwood.gov.uk,Brentwood,http://www.brentwood.gov.uk/,0.35468400000000,CM13 3PN,2014-10-14,fhrs_3_en-GB,3,,FHRS,10
5841,Brentwood Road,Brentwood,Essex,,Herongate Cricket Club,Pub/bar/nightclub,7843,10,,431496,5,,51.60672200000000,11/01445/MIXED,111,envhealth@brentwood.gov.uk,Brentwood,http://www.brentwood.gov.uk/,0.33481200000000,CM13 3QH,2014-05-22,fhrs_4_en-GB,4,,FHRS,5
5842,Sports Ground Between 65 And 67,Billericay Road,Brentwood,Essex,Herongate Football & Athletic Club,Pub/bar/nightclub,7843,5,,431478,0,,51.59498400000000,11/01426/MIXED,111,envhealth@brentwood.gov.uk,Brentwood,http://www.brentwood.gov.uk/,0.35693700000000,CM13 3PU,2013-02-19,fhrs_5_en-GB,5,,FHRS,0
5843,156 Brentwood Road,Brentwood,Essex,,Herongate Village Stores,Retailers - supermarkets/hypermarkets,7840,10,,431529,0,,51.59722000000000,11/01482/MIXED,111,envhealth@brentwood.gov.uk,Brentwood,http://www.brentwood.gov.uk/,0.34857600000000,CM13 3PD,2012-09-18,fhrs_4_en-GB,4,,FHRS,0
5844,87 Heybridge Road,Ingatestone,Essex,,Heybridge News,Retailers - other,4613,,,431250,,,51.66134300000000,11/01185/MIXED,111,envhealth@brentwood.gov.uk,Brentwood,http://www.brentwood.gov.uk/,0.37216400000000,CM4 9AQ,2014-07-22,fhrs_exempt_en-GB,Exempt,,FHRS,
5845,Riseway,Brentwood,Essex,,Hogarth Day Centre,Hospitals/Childcare/Caring Premises,5,0,,431770,0,,51.61660000000000,11/01728/FH,111,envhealth@brentwood.gov.uk,Brentwood,http://www.brentwood.gov.uk/,0.31648200000000,CM15 8BG,2014-08-19,fhrs_5_en-GB,5,,FHRS,0
5846,Hogarth County Junior School,Riseway,Brentwood,Essex,Hogarth Primary School,School/college/university,7845,5,,431285,5,,51.61660000000000,11/01221/FH,111,envhealth@brentwood.gov.uk,Brentwood,http://www.brentwood.gov.uk/,0.31648200000000,CM15 8BG,2014-04-28,fhrs_5_en-GB,5,,FHRS,0
5847,Holiday Inn,Brook Street,Brentwood,Essex,Holiday Inn Brentwood,Restaurant/Cafe/Canteen,1,5,,431203,5,,51.61072600000000,11/01134/MIXED,111,envhealth@brentwood.gov.uk,Brentwood,http://www.brentwood.gov.uk/,0.26869100000000,CM14 5NF,2014-05-12,fhrs_5_en-GB,5,,FHRS,5
5848,234 Hutton Road,Shenfield,Brentwood,Essex,Hollands Wine Bar,Pub/bar/nightclub,7843,10,,431612,0,,51.63119600000000,11/01567/MIXED,111,envhealth@brentwood.gov.uk,Brentwood,http://www.brentwood.gov.uk/,0.32963800000000,CM15 8PA,2014-05-28,fhrs_4_en-GB,4,,FHRS,5
5849,Holly Trees County Infant School,Vaughan Williams Way,Warley,Brentwood,Holly Trees Primary School,School/college/university,7845,0,,431305,5,,51.61075700000000,11/01241/FH,111,envhealth@brentwood.gov.uk,Brentwood,http://www.brentwood.gov.uk/,0.29021400000000,CM14 5RY,2013-10-09,fhrs_5_en-GB,5,,FHRS,0
5850,,,,,Home Caterer,Takeaway/sandwich shop,7844,0,,431419,0,,,11/01364/FH,111,envhealth@brentwood.gov.uk,Brentwood,http://www.brentwood.gov.uk/,,,2014-09-03,fhrs_5_en-GB,5,,FHRS,0
5851,Haylings,Doddinghurst Road,Doddinghurst,Brentwood,Home Kitchen,Takeaway/sandwich shop,7844,5,,431412,5,,51.66106700000000,11/01356/FH,111,envhealth@brentwood.gov.uk,Brentwood,http://www.brentwood.gov.uk/,0.30841000000000,CM15 0RE,2011-06-16,fhrs_5_en-GB,5,,FHRS,5
5852,Sawyers Hall Lane,Brentwood,Essex,,Hopefield Animal Sanctuary,Restaurant/Cafe/Canteen,1,0,,431221,5,,51.62868900000000,11/01156/MIXED,111,envhealth@brentwood.gov.uk,Brentwood,http://www.brentwood.gov.uk/,0.30355800000000,CM15 9BY,2012-05-27,fhrs_4_en-GB,4,,FHRS,10
5853,Nursery,Kelvedon Hatch Catholic Primary,School Road,Kelvedon Hatch,Hopscotch Day Nursery Ltd,Hospitals/Childcare/Caring Premises,5,5,,431633,5,,51.66742700000000,11/01589/MIXED,111,envhealth@brentwood.gov.uk,Brentwood,http://www.brentwood.gov.uk/,0.27093000000000,CM15 0DH,2014-12-30,fhrs_5_en-GB,5,,FHRS,5
5854,Howard Lodge Road,Kelvedon Common,Brentwood,Essex,Howard Lodge Nursing And Residential Home,Hospitals/Childcare/Caring Premises,5,0,,431763,5,,51.66371000000000,11/01721/MIXED,111,envhealth@brentwood.gov.uk,Brentwood,http://www.brentwood.gov.uk/,0.25524300000000,CM14 5TG,2013-11-05,fhrs_5_en-GB,5,,FHRS,0
5855,Howletts Hall,Chelmsford Road,Blackmore,Ingatestone,Howletts Hall Venison,Manufacturers/packers,7839,5,,431517,5,,51.69482000000000,11/01470/FH,111,envhealth@brentwood.gov.uk,Brentwood,http://www.brentwood.gov.uk/,0.34008200000000,CM4 0QA,2014-03-18,fhrs_5_en-GB,5,,FHRS,0
5856,,,,,Hoyle's Honey,Manufacturers/packers,7839,0,,664009,5,,,14/00012/FH,111,envhealth@brentwood.gov.uk,Brentwood,http://www.brentwood.gov.uk/,,,2014-04-08,fhrs_5_en-GB,5,,FHRS,5
5857,Claughton Way,Hutton,Brentwood,Essex,Hutton All Saints C Of E Primary School,School/college/university,7845,10,,431278,5,,51.63449700000000,11/01214/FH,111,envhealth@brentwood.gov.uk,Brentwood,http://www.brentwood.gov.uk/,0.34988000000000,CM13 1JW,2014-07-03,fhrs_4_en-GB,4,,FHRS,5
5858,Wash Road,Hutton,Brentwood,Essex,Hutton All Saints Scout Group,Pub/bar/nightclub,7843,,,431671,,,51.63407900000000,11/01628/FH,111,envhealth@brentwood.gov.uk,Brentwood,http://www.brentwood.gov.uk/,0.35368800000000,CM13 1BS,2013-01-26,fhrs_exempt_en-GB,Exempt,,FHRS,
5859,Hall Green Lane,Hutton,Brentwood,Essex,Hutton Football Club,Pub/bar/nightclub,7843,5,,431497,5,,51.61209700000000,11/01446/FH,111,envhealth@brentwood.gov.uk,Brentwood,http://www.brentwood.gov.uk/,0.32272300000000,CM13 2EH,2014-03-29,fhrs_5_en-GB,5,,FHRS,0
5860,Hanging Hill Lane,Hutton,Brentwood,Essex,Hutton Free Church,Pub/bar/nightclub,7843,0,,431700,0,,51.62746700000000,11/01657/FH,111,envhealth@brentwood.gov.uk,Brentwood,http://www.brentwood.gov.uk/,0.34706100000000,CM13 2SJ,2014-06-18,fhrs_5_en-GB,5,,FHRS,5
5861,Hutton Free Church,Hanging Hill Lane,Hutton,Brentwood,Hutton Free Church Playgroup,Hospitals/Childcare/Caring Premises,5,0,,431652,0,,51.62746700000000,11/01609/MIXED,111,envhealth@brentwood.gov.uk,Brentwood,http://www.brentwood.gov.uk/,0.34706100000000,CM13 2SJ,2014-12-15,fhrs_5_en-GB,5,,FHRS,0
5862,Hutton Popular Lodge,Rayleigh Road,Hutton,Essex,Hutton Poplars Lodge,Pub/bar/nightclub,7843,10,,431678,5,,51.63191100000000,11/01635/FH,111,envhealth@brentwood.gov.uk,Brentwood,http://www.brentwood.gov.uk/,0.33753600000000,CM13 1BA,2013-01-30,fhrs_3_en-GB,3,,FHRS,10
5863,Willowbrook Hall,Willow Brook Primary School,Rosen Crescent,Hutton,Hutton Pre School Ltd,Hospitals/Childcare/Caring Premises,5,0,,431629,0,,51.60501300000000,11/01585/MIXED,111,envhealth@brentwood.gov.uk,Brentwood,http://www.brentwood.gov.uk/,0.33076800000000,CM13 2TU,2014-01-14,fhrs_5_en-GB,5,,FHRS,0
5864,170 Hutton Road,Shenfield,Brentwood,Essex,Hutton Road Fisheries,Retailers - other,4613,5,,431336,5,,51.63050500000000,11/01275/MIXED,111,envhealth@brentwood.gov.uk,Brentwood,http://www.brentwood.gov.uk/,0.32727600000000,CM15 8NL,2013-01-03,fhrs_5_en-GB,5,,FHRS,5
5865,208 Rayleigh Road,Hutton,Brentwood,Essex,Hutton Shopper,Retailers - other,4613,,,431401,,,51.63354700000000,11/01342/MIXED,111,envhealth@brentwood.gov.uk,Brentwood,http://www.brentwood.gov.uk/,0.35513500000000,CM13 1PN,2014-10-23,fhrs_exempt_en-GB,Exempt,,FHRS,
5866,216 Rayleigh Road,Hutton,Brentwood,Essex,Hutton Spice Ltd,Takeaway/sandwich shop,7844,5,,431801,5,,51.63354700000000,11/01759/MIXED,111,envhealth@brentwood.gov.uk,Brentwood,http://www.brentwood.gov.uk/,0.35513500000000,CM13 1PN,2013-09-23,fhrs_4_en-GB,4,,FHRS,10
5867,Hutton Village,Hutton,Essex,,Hutton Village Nursing Home,Hospitals/Childcare/Caring Premises,5,0,,431774,5,,51.77044677734380,11/01732/FH,111,envhealth@brentwood.gov.uk,Brentwood,http://www.brentwood.gov.uk/,0.70727801322937,,2014-05-21,fhrs_5_en-GB,5,,FHRS,5
5868,32 High Street,Brentwood,Essex,,Iceland Foods Plc,Retailers - supermarkets/hypermarkets,7840,0,,431546,0,,51.62022500000000,11/01500/FH,111,envhealth@brentwood.gov.uk,Brentwood,http://www.brentwood.gov.uk/,0.30269600000000,CM14 4AJ,2014-10-21,fhrs_5_en-GB,5,,FHRS,5
5869,67a High Street,Brentwood,Essex,,Imperial Peking,Restaurant/Cafe/Canteen,1,5,,431363,5,,51.62052500000000,11/01302/MIXED,111,envhealth@brentwood.gov.uk,Brentwood,http://www.brentwood.gov.uk/,0.30161300000000,CM14 4RW,2014-03-19,fhrs_5_en-GB,5,,FHRS,5
5870,261 Ongar Road,Brentwood,Essex,,Indian Spice,Other catering premises,7841,,,608588,,,51.62793100000000,13/00138/MIXED,111,envhealth@brentwood.gov.uk,Brentwood,http://www.brentwood.gov.uk/,0.29633800000000,CM15 9DZ,2014-01-15,fhrs_4_en-GB,4,,FHRS,
5871,Ingatestone And Fryerning Church Of,The Furlongs,Ingatestone,Essex,Ingatestone & Fryerning C Of E Junior School,School/college/university,7845,5,,431306,5,,51.77044677734380,11/01242/FH,111,envhealth@brentwood.gov.uk,Brentwood,http://www.brentwood.gov.uk/,0.70727801322937,CM4 0AL,2014-06-05,fhrs_5_en-GB,5,,FHRS,5
5872,Community Centre,7 High Street,Ingatestone,Essex,Ingatestone & Fryerning Community Association,Pub/bar/nightclub,7843,5,,431489,5,,51.67218400000000,11/01438/MIXED,111,envhealth@brentwood.gov.uk,Brentwood,http://www.brentwood.gov.uk/,0.38791700000000,CM4 9ED,2013-12-03,fhrs_5_en-GB,5,,FHRS,5
5873,Rear Of Community Centre,7 High Street,Ingatestone And Fryerning,Ingatestone,Ingatestone Bowling Club,Pub/bar/nightclub,7843,,,431699,,,51.67218400000000,11/01656/FH,111,envhealth@brentwood.gov.uk,Brentwood,http://www.brentwood.gov.uk/,0.38791700000000,CM4 9ED,2012-05-28,fhrs_exempt_en-GB,Exempt,,FHRS,
5874,Ingatestone Nurseries,Roman Road,Ingatestone,Essex,Ingatestone Garden Centre,Restaurant/Cafe/Canteen,1,10,,431185,5,,51.65841800000000,11/01116/MIXED,111,envhealth@brentwood.gov.uk,Brentwood,http://www.brentwood.gov.uk/,0.36559100000000,CM4 9AU,2014-01-21,fhrs_4_en-GB,4,,FHRS,5
5875,Hall Lane,Ingatestone,Essex,,Ingatestone Hall,Restaurant/Cafe/Canteen,1,5,,431198,5,,51.66148400000000,11/01129/MIXED,111,envhealth@brentwood.gov.uk,Brentwood,http://www.brentwood.gov.uk/,0.38913300000000,CM4 9NS,2013-07-25,fhrs_5_en-GB,5,,FHRS,0
5876,Ingatestone County Infant School,Fryerning Lane,Ingatestone,Essex,Ingatestone Infants School,School/college/university,7845,0,,431296,0,,51.67391500000000,11/01232/FH,111,envhealth@brentwood.gov.uk,Brentwood,http://www.brentwood.gov.uk/,0.37797000000000,CM4 0DF,2014-11-17,fhrs_5_en-GB,5,,FHRS,5
5877,Infants School House,Fryerning Lane,Ingatestone,Essex,Ingatestone Infants School Breakfast Club,Hospitals/Childcare/Caring Premises,5,0,,431656,0,,51.67391500000000,11/01613/FH,111,envhealth@brentwood.gov.uk,Brentwood,http://www.brentwood.gov.uk/,0.37797000000000,CM4 0DF,2013-04-15,fhrs_5_en-GB,5,,FHRS,0
5878,Ingleton House,Stock Lane,Ingatestone,Essex,Ingleton House Social Club,Pub/bar/nightclub,7843,,,431695,,,,11/01652/FH,111,envhealth@brentwood.gov.uk,Brentwood,http://www.brentwood.gov.uk/,,,2014-07-07,fhrs_exempt_en-GB,Exempt,,FHRS,
5879,Ingrave Johnstone C Of E School,Brentwood Road,Brentwood,Essex,Ingrave Johnstone C Of E Primary School,School/college/university,7845,0,,431286,0,,51.60068800000000,11/01222/FH,111,envhealth@brentwood.gov.uk,Brentwood,http://www.brentwood.gov.uk/,0.34562200000000,CM13 3NU,2013-06-18,fhrs_5_en-GB,5,,FHRS,0
5880,St Nicolas Church,Brentwood Road,Ingrave,Essex,Ingrave Play Group,Hospitals/Childcare/Caring Premises,5,5,,431644,5,,,11/01601/MIXED,111,envhealth@brentwood.gov.uk,Brentwood,http://www.brentwood.gov.uk/,,,2013-06-17,fhrs_5_en-GB,5,,FHRS,5
5881,,Warley Gap,Great Warley,Essex,Izumi,Restaurant/Cafe/Canteen,1,10,,431352,10,,51.59491800000000,11/01291/MIXED,111,envhealth@brentwood.gov.uk,Brentwood,http://www.brentwood.gov.uk/,0.30140100000000,CM13 3DP,2014-04-24,fhrs_3_en-GB,3,,FHRS,10
5882,Mobile Mizu Car Park,67 - 69 Brook Street,Brentwood Town,Brentwood,J & R Catering,Mobile caterer,7846,5,,431380,5,,51.60905500000000,11/01321/FH,111,envhealth@brentwood.gov.uk,Brentwood,http://www.brentwood.gov.uk/,0.26488200000000,CM14 5NA,2014-07-15,fhrs_5_en-GB,5,,FHRS,0
5883,60 Hutton Road,Shenfield,Brentwood,Essex,Jack And Jill Pre School,School/college/university,7845,0,,510263,0,,51.62974300000000,13/00010/FH,111,envhealth@brentwood.gov.uk,Brentwood,http://www.brentwood.gov.uk/,0.32218000000000,CM15 8LB,2013-01-24,fhrs_5_en-GB,5,,FHRS,0
5884,Kelvedon Hatch Village Hall,School Road,Kelvedon Hatch,Brentwood,Jack And Jill Pre School,School/college/university,7845,0,,510262,0,,51.66750800000000,13/00003/MIXED,111,envhealth@brentwood.gov.uk,Brentwood,http://www.brentwood.gov.uk/,0.27372600000000,CM15 0DL,2012-11-29,fhrs_5_en-GB,5,,FHRS,0
5885,Mountnessing Church Of England Prim,Roman Road,Mountnessing,Ingatestone,Jack And Jill's,School/college/university,7845,0,,462893,0,,51.65373600000000,12/00099/FH,111,envhealth@brentwood.gov.uk,Brentwood,http://www.brentwood.gov.uk/,0.35466300000000,CM15 0UH,2012-10-16,fhrs_5_en-GB,5,,FHRS,5
5886,187 Thorndon Avenue,West Horndon,Brentwood,Essex,Jacksons Newsagents,Retailers - other,4613,10,,431268,10,,51.57021200000000,11/01203/MIXED,111,envhealth@brentwood.gov.uk,Brentwood,http://www.brentwood.gov.uk/,0.34328700000000,CM13 3TP,2014-11-12,fhrs_4_en-GB,4,,FHRS,0
5887,Platform 4,Brentwood Railway Station,Kings Road,Brentwood,Jasmin's Indian Kitchen,Other catering premises,7841,5,,682545,5,,51.61369400000000,14/00021/MIXED,111,envhealth@brentwood.gov.uk,Brentwood,http://www.brentwood.gov.uk/,0.30005400000000,CM14 4EW,2014-08-19,fhrs_5_en-GB,5,,FHRS,5
5888,240 Hatch Road,Pilgrims Hatch,Brentwood,Essex,Jenkos Ltd,Mobile caterer,7846,0,,431382,0,,51.63963900000000,11/01323/FH,111,envhealth@brentwood.gov.uk,Brentwood,http://www.brentwood.gov.uk/,0.29820200000000,CM15 9QR,2012-06-26,fhrs_5_en-GB,5,,FHRS,5
5889,Joy Fook,Ongar Road,Pilgrims Hatch,Brentwood,Joy Fook Restaurant,Restaurant/Cafe/Canteen,1,10,,431366,10,,51.65637500000000,11/01305/MIXED,111,envhealth@brentwood.gov.uk,Brentwood,http://www.brentwood.gov.uk/,0.30798900000000,CM15 9SX,2014-12-15,fhrs_3_en-GB,3,,FHRS,10
5890,31 Warley Hill,Warley,Brentwood,Essex,Juboraj,Restaurant/Cafe/Canteen,1,10,,431342,5,,51.61239400000000,11/01281/MIXED,111,envhealth@brentwood.gov.uk,Brentwood,http://www.brentwood.gov.uk/,0.29851500000000,CM14 5HR,2013-10-22,fhrs_4_en-GB,4,,FHRS,5
5891,Juniper Court,Beech Avenue,Brentwood,Essex,Juniper And Rowan Green Social Club,Pub/bar/nightclub,7843,,,431694,,,,11/01651/FH,111,envhealth@brentwood.gov.uk,Brentwood,http://www.brentwood.gov.uk/,,,2012-12-17,fhrs_exempt_en-GB,Exempt,,FHRS,
5892,Kelvedon Hatch Village Hall,School Road,Kelvedon Hatch,Brentwood,K H Village Hall Charitable Trust,Pub/bar/nightclub,7843,,,431617,,,51.66750800000000,11/01572/FH,111,envhealth@brentwood.gov.uk,Brentwood,http://www.brentwood.gov.uk/,0.27372600000000,CM15 0DL,2013-07-02,fhrs_exempt_en-GB,Exempt,,FHRS,
5893,120 Orchard Avenue,Brentwood,Essex,,K S D Newsagents,Retailers - other,4613,10,,431266,0,,51.61567800000000,11/01201/FH,111,envhealth@brentwood.gov.uk,Brentwood,http://www.brentwood.gov.uk/,0.32078300000000,CM13 2DP,2014-04-28,fhrs_4_en-GB,4,,FHRS,0
5894,,,,,Kellys Sweet Cones& Party Bags,Other catering premises,7841,0,,664010,0,,,14/00014/FH,111,envhealth@brentwood.gov.uk,Brentwood,http://www.brentwood.gov.uk/,,,2014-04-08,fhrs_5_en-GB,5,,FHRS,0
5895,Kelvedon Hatch County Primary Schoo,School Road,Kelvedon Hatch,Brentwood,Kelvedon Hatch Primary School,School/college/university,7845,5,,431293,5,,51.66742700000000,11/01229/FH,111,envhealth@brentwood.gov.uk,Brentwood,http://www.brentwood.gov.uk/,0.27093000000000,CM15 0DH,2014-01-13,fhrs_5_en-GB,5,,FHRS,5
5896,Ex Nuclear Command Centre,Kelvedon Hall Lane,Kelvedon Hatch,Brentwood,Kelvedon Hatch Secret Nuclear Bunker,Restaurant/Cafe/Canteen,1,5,,431202,0,,51.67498500000000,11/01133/MIXED,111,envhealth@brentwood.gov.uk,Brentwood,http://www.brentwood.gov.uk/,0.25440000000000,CM14 5TL,2013-04-10,fhrs_5_en-GB,5,,FHRS,0
5897,Fane Memorial Room,Church Road,Kelvedon Hatch,Brentwood,Kelvedon Hatch Senior Citizen Lunch Club,Pub/bar/nightclub,7843,,,431675,,,51.66687700000000,11/01632/FH,111,envhealth@brentwood.gov.uk,Brentwood,http://www.brentwood.gov.uk/,0.26170500000000,CM14 5TJ,2014-06-18,fhrs_exempt_en-GB,Exempt,,FHRS,
5898,2 Warley Hill,Warley,Brentwood,Essex,Key News,Retailers - other,4613,,,431241,,,51.61336600000000,11/01176/MIXED,111,envhealth@brentwood.gov.uk,Brentwood,http://www.brentwood.gov.uk/,0.29937300000000,CM14 5EZ,2011-07-20,fhrs_exempt_en-GB,Exempt,,FHRS,
5899,10 High Street,Brentwood,Essex,,KFC,Restaurant/Cafe/Canteen,1,0,,431361,5,,51.62069900000000,11/01300/MIXED,111,envhealth@brentwood.gov.uk,Brentwood,http://www.brentwood.gov.uk/,0.30469900000000,CM14 4AB,2013-12-16,fhrs_5_en-GB,5,,FHRS,0
5900,Brentwood Baptist Church,Kings Road,Brentwood,Essex,Kingfishers Pre School,Hospitals/Childcare/Caring Premises,5,0,,431655,5,,51.61572500000000,11/01612/MIXED,111,envhealth@brentwood.gov.uk,Brentwood,http://www.brentwood.gov.uk/,0.29973400000000,,2015-01-07,fhrs_5_en-GB,5,,FHRS,5
5901,Kings Chase Sports And Social Club,Kings Chase,Brentwood,Essex,Kings Chase Sports And Social Club Ltd,Pub/bar/nightclub,7843,5,,431467,0,,51.61552300000000,11/01415/FH,111,envhealth@brentwood.gov.uk,Brentwood,http://www.brentwood.gov.uk/,0.29574100000000,CM14 4LD,2011-09-30,fhrs_5_en-GB,5,,FHRS,5
5902,33 Hutton Road,Shenfield,Brentwood,Essex,L. Buckle Butchers,Retailers - other,4613,5,,431181,5,,51.62912300000000,11/01112/FH,111,envhealth@brentwood.gov.uk,Brentwood,http://www.brentwood.gov.uk/,0.32213400000000,CM15 8JU,2014-11-07,fhrs_5_en-GB,5,,FHRS,5
5903,37 Station Road,West Horndon,Brentwood,Essex,La Bicicletta,Restaurant/Cafe/Canteen,1,5,,431188,0,,51.56847500000000,11/01119/FH,111,envhealth@brentwood.gov.uk,Brentwood,http://www.brentwood.gov.uk/,0.34153900000000,CM13 3TL,2013-12-02,fhrs_5_en-GB,5,,FHRS,5
5904,Dragons Health Club,Chindits Lane,Warley,Brentwood,LA Fitness Cafe And Sports Bar,Pub/bar/nightclub,7843,5,,431488,5,,51.60494400000000,11/01437/MIXED,111,envhealth@brentwood.gov.uk,Brentwood,http://www.brentwood.gov.uk/,0.30052200000000,CM14 5LF,2013-10-22,fhrs_5_en-GB,5,,FHRS,5
5905,Village Hall,Magpie Lane,Warley,Brentwood,Ladybird Kindergarten,Hospitals/Childcare/Caring Premises,5,5,,557740,5,,,11/02071/FH,111,envhealth@brentwood.gov.uk,Brentwood,http://www.brentwood.gov.uk/,,,2014-11-19,fhrs_5_en-GB,5,,FHRS,5
5906,Larchwood Gardens,Pilgrims Hatch,Brentwood,Essex,Larchwood Primary School,School/college/university,7845,5,,431284,5,,51.63559000000000,11/01220/FH,111,envhealth@brentwood.gov.uk,Brentwood,http://www.brentwood.gov.uk/,0.28775100000000,CM15 9NG,2014-10-21,fhrs_5_en-GB,5,,FHRS,5
5907,Ingatestone Railway Station,Station Lane,Ingatestone,Essex,Latte To Go Ltd,Takeaway/sandwich shop,7844,0,,644133,0,,51.66703600000000,14/00006/MIXED,111,envhealth@brentwood.gov.uk,Brentwood,http://www.brentwood.gov.uk/,0.38413200000000,CM4 0BW,2014-03-18,fhrs_5_en-GB,5,,FHRS,0
5908,,,,,Lavender Blue,Takeaway/sandwich shop,7844,5,,431409,0,,,11/01352/FH,111,envhealth@brentwood.gov.uk,Brentwood,http://www.brentwood.gov.uk/,,,2013-11-20,fhrs_5_en-GB,5,,FHRS,0
5909,Thorndon Avenue,West Horndon,Brentwood,Essex,Law Farm,Retailers - other,4613,0,,431326,0,,51.57637200000000,11/01265/FH,111,envhealth@brentwood.gov.uk,Brentwood,http://www.brentwood.gov.uk/,0.34283900000000,CM13 3TT,2014-02-25,fhrs_5_en-GB,5,,FHRS,0
5910,Prince Albert,The Green,Blackmore,Essex,Lawries Brasserie,Other catering premises,7841,0,,632916,0,,,14/00003/MIXED,111,envhealth@brentwood.gov.uk,Brentwood,http://www.brentwood.gov.uk/,,CM4 0RJ,2014-01-22,fhrs_5_en-GB,5,,FHRS,0
5911,186 Warley Hill,Warley,Brentwood,Essex,Lawsons Coffee & Sandwich Bar,Restaurant/Cafe/Canteen,1,0,,431199,5,,51.60566483000000,11/01130/FH,111,envhealth@brentwood.gov.uk,Brentwood,http://www.brentwood.gov.uk/,0.29625528000000,,2014-09-25,fhrs_5_en-GB,5,,FHRS,0
5912,The Green,Blackmore,Ingatestone,Essex,Leather Bottle,Restaurant/Cafe/Canteen,1,5,,431372,5,,51.69303600000000,11/01312/MIXED,111,envhealth@brentwood.gov.uk,Brentwood,http://www.brentwood.gov.uk/,0.31848700000000,CM4 0RL,2013-10-22,fhrs_5_en-GB,5,,FHRS,5
5913,132b London Road,Brentwood,Essex,,Leon Lewis,Takeaway/sandwich shop,7844,0,,431415,0,,51.61280300000000,11/01360/FH,111,envhealth@brentwood.gov.uk,Brentwood,http://www.brentwood.gov.uk/,0.27799600000000,CM14 4NS,2013-07-17,fhrs_5_en-GB,5,,FHRS,0
5914,Roxwell Gardens,Hutton,Brentwood,Essex,Leonard Lodge Nursing Home,Hospitals/Childcare/Caring Premises,5,0,,431769,5,,51.63528800000000,11/01727/FH,111,envhealth@brentwood.gov.uk,Brentwood,http://www.brentwood.gov.uk/,0.34453100000000,CM13 1AQ,2014-11-03,fhrs_5_en-GB,5,,FHRS,5
5915,Leverton Hall,Dark Lane,Warley,Brentwood,Leverton Hall Secure Unit,School/college/university,7845,0,,431462,5,,51.60327300000000,11/01410/FH,111,envhealth@brentwood.gov.uk,Brentwood,http://www.brentwood.gov.uk/,0.27972800000000,CM14 5LL,2013-10-29,fhrs_5_en-GB,5,,FHRS,5
5916,Leverton Hall,Dark Lane,Warley,Brentwood,Leverton House Childrens Home,Hospitals/Childcare/Caring Premises,5,5,,431630,0,,51.60327300000000,11/01586/FH,111,envhealth@brentwood.gov.uk,Brentwood,http://www.brentwood.gov.uk/,0.27972800000000,CM14 5LL,2013-10-29,fhrs_5_en-GB,5,,FHRS,0
5917,Great Ropers,Warley Road,Warley,Brentwood,Lilly's Cupcakes,Takeaway/sandwich shop,7844,0,,431411,0,,51.60024200000000,11/01355/FH,111,envhealth@brentwood.gov.uk,Brentwood,http://www.brentwood.gov.uk/,0.28851500000000,CM13 3HR,2011-06-14,fhrs_5_en-GB,5,,FHRS,0
5918,,,,,Liquorice,Retailers - other,4613,,,431667,,,,11/01624/MIXED,111,envhealth@brentwood.gov.uk,Brentwood,http://www.brentwood.gov.uk/,,,2013-10-29,fhrs_exempt_en-GB,Exempt,,FHRS,
5919,Lallams,Hanging Hill Lane,Hutton,Brentwood,Little Brittany,Takeaway/sandwich shop,7844,5,,431440,5,,51.62476100000000,11/01386/FH,111,envhealth@brentwood.gov.uk,Brentwood,http://www.brentwood.gov.uk/,0.34296200000000,CM13 2HE,2011-06-08,fhrs_5_en-GB,5,,FHRS,5
5920,Southend Arterial Road,West Horndon,Brentwood,Essex,Little Chef,Restaurant/Cafe/Canteen,1,5,,431187,5,,51.57991300000000,11/01118/FH,111,envhealth@brentwood.gov.uk,Brentwood,http://www.brentwood.gov.uk/,0.35553600000000,CM13 3LL,2014-12-08,fhrs_5_en-GB,5,,FHRS,5
5921,Scout Hall,Wash Road,Hutton,Brentwood,Little Ducks,Hospitals/Childcare/Caring Premises,5,5,,431657,5,,51.63630200000000,11/01614/MIXED,111,envhealth@brentwood.gov.uk,Brentwood,http://www.brentwood.gov.uk/,0.35585600000000,CM13 1DJ,2013-10-14,fhrs_5_en-GB,5,,FHRS,5
5922,St Peters Hall,Warley Hill,Warley,Essex,Little Ducks Childcare,School/college/university,7845,10,,709280,0,,51.60302600000000,14/00040/MIXED,111,envhealth@brentwood.gov.uk,Brentwood,http://www.brentwood.gov.uk/,0.29373900000000,CM13 3AJ,2014-09-25,fhrs_4_en-GB,4,,FHRS,5
5923,664 Rayleigh Road,Hutton,Brentwood,Essex,Little Legs,Hospitals/Childcare/Caring Premises,5,5,,431627,5,,51.62799600000000,11/01583/FH,111,envhealth@brentwood.gov.uk,Brentwood,http://www.brentwood.gov.uk/,0.38553800000000,CM13 1SJ,2014-05-14,fhrs_5_en-GB,5,,FHRS,5
5924,Ingrave Johnstone C Of E School,Brentwood Road,Brentwood,Essex,Little Legs After School,School/college/university,7845,0,,535118,0,,51.60068800000000,12/00104/MIXED,111,envhealth@brentwood.gov.uk,Brentwood,http://www.brentwood.gov.uk/,0.34562200000000,CM13 3NU,2014-10-07,fhrs_5_en-GB,5,,FHRS,0
5925,11a Childerditch Hall Drive,Warley,Brentwood,Essex,Little Piggies Cafe,Restaurant/Cafe/Canteen,1,5,,431215,5,,51.58168300000000,11/01149/MIXED,111,envhealth@brentwood.gov.uk,Brentwood,http://www.brentwood.gov.uk/,0.32045000000000,CM13 3HD,2014-10-14,fhrs_4_en-GB,4,,FHRS,10
5926,Village Hall,Magpie Lane,Warley,Brentwood,Little Warley & Childerditch Village Hall,Pub/bar/nightclub,7843,,,431673,,,51.59028100000000,11/01630/FH,111,envhealth@brentwood.gov.uk,Brentwood,http://www.brentwood.gov.uk/,0.31538800000000,CM13 3DZ,2013-05-21,fhrs_exempt_en-GB,Exempt,,FHRS,
5927,35 Brook Street,Brentwood,Essex,,Londis,Takeaway/sandwich shop,7844,10,,431748,5,,51.61176500000000,11/01706/MIXED,111,envhealth@brentwood.gov.uk,Brentwood,http://www.brentwood.gov.uk/,0.27355300000000,CM14 5LZ,2014-06-30,fhrs_4_en-GB,4,,FHRS,5
5928,19 Warley Hill,Warley,Brentwood,Essex,Londis Stores,Retailers - supermarkets/hypermarkets,7840,5,,431523,0,,51.61239400000000,11/01476/FH,111,envhealth@brentwood.gov.uk,Brentwood,http://www.brentwood.gov.uk/,0.29851500000000,CM14 5HR,2012-05-21,fhrs_5_en-GB,5,,FHRS,5
5929,Long Ridings County Primary School,Long Ridings Avenue,Hutton,Brentwood,Long Ridings Primary School,School/college/university,7845,0,,431287,0,,51.63528100000000,11/01223/FH,111,envhealth@brentwood.gov.uk,Brentwood,http://www.brentwood.gov.uk/,0.33677000000000,CM13 1DU,2014-07-02,fhrs_5_en-GB,5,,FHRS,0
5930,Brentwood Farmers Market,High Street,Brentwood,Essex,Lonis Fresh Fish,Retailers - other,4613,,,589537,,,,13/00126/MOBILE,111,envhealth@brentwood.gov.uk,Brentwood,http://www.brentwood.gov.uk/,,,2013-07-27,fhrs_exempt_en-GB,Exempt,,FHRS,
5931,4 Rayleigh Parade,Rayleigh Road,Hutton,Brentwood,Lords Newsagents,Retailers - other,4613,,,431238,,,51.63230000000000,11/01173/FH,111,envhealth@brentwood.gov.uk,Brentwood,http://www.brentwood.gov.uk/,0.34641400000000,CM13 1BN,2014-09-03,fhrs_exempt_en-GB,Exempt,,FHRS,
5932,104 High Street,Brentwood Town,Brentwood,Essex,Lot 104,Other catering premises,7841,5,,535124,5,,51.61942400000000,13/00018/MIXED,111,envhealth@brentwood.gov.uk,Brentwood,http://www.brentwood.gov.uk/,0.29908700000000,CM14 4AP,2014-09-05,fhrs_5_en-GB,5,,FHRS,5
5933,71 Hutton Road,Shenfield,Brentwood,Essex,Lot 73,Restaurant/Cafe/Canteen,1,5,,689248,5,,51.63030100000000,14/00033/MIXED,111,envhealth@brentwood.gov.uk,Brentwood,http://www.brentwood.gov.uk/,0.32852300000000,CM15 8JD,2014-07-28,fhrs_5_en-GB,5,,FHRS,0
5934,75 Hutton Road,Shenfield,Brentwood,Essex,Lot 75 And Lot 73,Pub/bar/nightclub,7843,5,,431611,5,,51.63030100000000,11/01566/FH,111,envhealth@brentwood.gov.uk,Brentwood,http://www.brentwood.gov.uk/,0.32852300000000,CM15 8JD,2013-10-15,fhrs_5_en-GB,5,,FHRS,5
5935,72 South Drive,Warley,Brentwood,Essex,Luckocks Jams,Takeaway/sandwich shop,7844,10,,431423,0,,51.60997300000000,11/01368/FH,111,envhealth@brentwood.gov.uk,Brentwood,http://www.brentwood.gov.uk/,0.30911000000000,CM14 5DL,2013-11-20,fhrs_4_en-GB,4,,FHRS,0
5936,Navestock Village Hall,Navestock Side,Navestock,Brentwood,Luncheon Club,Pub/bar/nightclub,7843,,,431696,,,51.65336200000000,11/01653/MIXED,111,envhealth@brentwood.gov.uk,Brentwood,http://www.brentwood.gov.uk/,0.25746100000000,CM14 5SD,2014-10-08,fhrs_exempt_en-GB,Exempt,,FHRS,
5937,Highway House,171 Kings Road,Brentwood,Essex,LV,Restaurant/Cafe/Canteen,1,5,,431320,10,,51.61453200000000,11/01258/FH,111,envhealth@brentwood.gov.uk,Brentwood,http://www.brentwood.gov.uk/,0.29905700000000,CM14 4EJ,2015-01-06,fhrs_4_en-GB,4,,FHRS,5
5938,Bookstall Shenfield Station,Shenfield Station,Hutton Road,Shenfield,M Patel News The Kiosk,Retailers - other,4613,,,431269,,,51.63030100000000,11/01204/MIXED,111,envhealth@brentwood.gov.uk,Brentwood,http://www.brentwood.gov.uk/,0.32852300000000,CM15 8JD,2014-10-23,fhrs_exempt_en-GB,Exempt,,FHRS,
5939,Trinity Church,49 Coxtie Green Road,Pilgrims Hatch,South Weald,Manna Meals,Other catering premises,7841,5,,718662,5,,51.63964000000000,14/00044/FH,111,envhealth@brentwood.gov.uk,Brentwood,http://www.brentwood.gov.uk/,0.26763400000000,CM14 5PS,2014-11-19,fhrs_5_en-GB,5,,FHRS,5
5940,43-45 High Street,Brentwood,Essex,,Marks And Spencer,Retailers - supermarkets/hypermarkets,7840,0,,431549,0,,51.62085900000000,11/01503/FH,111,envhealth@brentwood.gov.uk,Brentwood,http://www.brentwood.gov.uk/,0.30294500000000,CM14 4RH,2011-02-08,fhrs_5_en-GB,5,,FHRS,5
5941,1 - 3 Chafford Gardens,West Horndon,Brentwood,Essex,Martin McColls,Retailers - supermarkets/hypermarkets,7840,0,,431541,0,,51.56918600000000,11/01495/MIXED,111,envhealth@brentwood.gov.uk,Brentwood,http://www.brentwood.gov.uk/,0.34470600000000,CM13 3NJ,2014-05-27,fhrs_5_en-GB,5,,FHRS,0
5942,214 Hutton Road,Shenfield,Brentwood,Essex,Martin McColls,Takeaway/sandwich shop,7844,,,431753,,,51.63119600000000,11/01711/MIXED,111,envhealth@brentwood.gov.uk,Brentwood,http://www.brentwood.gov.uk/,0.32963800000000,CM15 8PA,2012-09-03,fhrs_exempt_en-GB,Exempt,,FHRS,
5943,255-259 Ongar Road,Brentwood,Essex,,Martin McColls,Retailers - supermarkets/hypermarkets,7840,5,,431538,0,,51.62793100000000,11/01491/MIXED,111,envhealth@brentwood.gov.uk,Brentwood,http://www.brentwood.gov.uk/,0.29633800000000,CM15 9DZ,2014-07-30,fhrs_4_en-GB,4,,FHRS,10
5944,47B High Street,Ingatestone And Fryerning,Ingatestone,Essex,Martin McColls,Retailers - other,4613,,,431252,,,51.67087000000000,11/01187/MIXED,111,envhealth@brentwood.gov.uk,Brentwood,http://www.brentwood.gov.uk/,0.38576600000000,CM4 9DU,2014-04-30,fhrs_exempt_en-GB,Exempt,,FHRS,
5945,5 Hatch Road,Pilgrims Hatch,Brentwood,Essex,Martin McColls,Retailers - other,4613,,,431244,,,51.63799500000000,11/01179/MIXED,111,envhealth@brentwood.gov.uk,Brentwood,http://www.brentwood.gov.uk/,0.28336300000000,CM15 9PU,2012-09-03,fhrs_exempt_en-GB,Exempt,,FHRS,
5946,88 Hutton Road,Shenfield,Brentwood,Essex,Martin McColls,Takeaway/sandwich shop,7844,,,431752,,,51.62949000000000,11/01710/MIXED,111,envhealth@brentwood.gov.uk,Brentwood,http://www.brentwood.gov.uk/,0.32359700000000,CM15 8NB,2015-01-06,fhrs_exempt_en-GB,Exempt,,FHRS,
5947,The Keys,Eagle Way,Warley,Brentwood,Martin McColls,Takeaway/sandwich shop,7844,0,,431740,5,,51.60048100000000,11/01697/MIXED,111,envhealth@brentwood.gov.uk,Brentwood,http://www.brentwood.gov.uk/,0.29879400000000,CM13 3BP,2014-10-14,fhrs_5_en-GB,5,,FHRS,5
5948,33 Cornwall Road,Pilgrims Hatch,Brentwood,Essex,Martine Darkin,Other catering premises,7841,0,,510257,0,,51.63733300000000,12/00102/FH,111,envhealth@brentwood.gov.uk,Brentwood,http://www.brentwood.gov.uk/,0.29152400000000,CM15 9LU,2012-12-06,fhrs_5_en-GB,5,,FHRS,0
5949,Marygreen Manor,London Road,Brentwood,Essex,Marygreen Manor And Tudors Restaurant,Hotel/bed & breakfast/guest house,7842,5,,431451,5,,51.61270100000000,11/01398/MIXED,111,envhealth@brentwood.gov.uk,Brentwood,http://www.brentwood.gov.uk/,0.27862600000000,CM14 4NR,2013-07-04,fhrs_5_en-GB,5,,FHRS,5
5950,38 Springfield Avenue,Hutton,Brentwood,Essex,Masala Indian Takeaway,Takeaway/sandwich shop,7844,10,,431783,10,,51.62914100000000,11/01741/FH,111,envhealth@brentwood.gov.uk,Brentwood,http://www.brentwood.gov.uk/,0.35779700000000,CM13 1RE,2014-07-29,fhrs_3_en-GB,3,,FHRS,10
5951,155 - 157 Ingrave Road,Brentwood,Essex,,Masons Restaurant,Restaurant/Cafe/Canteen,1,5,,431339,5,,51.61278400000000,11/01278/MIXED,111,envhealth@brentwood.gov.uk,Brentwood,http://www.brentwood.gov.uk/,0.31891600000000,CM13 2AA,2014-10-28,fhrs_5_en-GB,5,,FHRS,5
5952,Unit 3,Everik Business Centre,Prospect Way,Hutton,McCarthys Country Stores,Manufacturers/packers,7839,5,,510260,5,,51.63912200000000,12/00108/MIXED,111,envhealth@brentwood.gov.uk,Brentwood,http://www.brentwood.gov.uk/,0.35649300000000,CM13 1XG,2014-07-18,fhrs_5_en-GB,5,,FHRS,5
5953,99 High Street,Brentwood,Essex,,McDonalds,Restaurant/Cafe/Canteen,1,0,,431357,5,,51.62024900000000,11/01296/MIXED,111,envhealth@brentwood.gov.uk,Brentwood,http://www.brentwood.gov.uk/,0.30060200000000,CM14 4RR,2013-11-21,fhrs_4_en-GB,4,,FHRS,10
5954,Mcdonalds Restaurant,295 Chelmsford Road,Shenfield,Brentwood,McDonalds,Restaurant/Cafe/Canteen,1,5,,431350,5,,51.64444800000000,11/01289/FH,111,envhealth@brentwood.gov.uk,Brentwood,http://www.brentwood.gov.uk/,0.34338400000000,CM15 8SD,2014-09-05,fhrs_5_en-GB,5,,FHRS,5
5955,49 Hutton Road,Shenfield,Brentwood,Essex,Meeting House Playgroup,Hospitals/Childcare/Caring Premises,5,5,,431637,5,,51.62902500000000,11/01593/MIXED,111,envhealth@brentwood.gov.uk,Brentwood,http://www.brentwood.gov.uk/,0.32392000000000,CM15 8NF,2012-05-01,fhrs_4_en-GB,4,,FHRS,10
5956,Jericho Cottage,The Green,Blackmore,Ingatestone,Megarrys Teashop,Restaurant/Cafe/Canteen,1,0,,431213,0,,51.69172100000000,11/01147/FH,111,envhealth@brentwood.gov.uk,Brentwood,http://www.brentwood.gov.uk/,0.31952000000000,CM4 0RR,2013-11-20,fhrs_5_en-GB,5,,FHRS,5
5957,Mill Green Road,Fryerning,Essex,,Mill Green Gospel Hall,Pub/bar/nightclub,7843,,,431697,,,51.68395300000000,11/01654/FH,111,envhealth@brentwood.gov.uk,Brentwood,http://www.brentwood.gov.uk/,0.36897700000000,CM4 0HY,2014-12-01,fhrs_exempt_en-GB,Exempt,,FHRS,
5958,67 - 69 Brook Street,Brentwood,Essex,,Mizu Noodle Bar,Restaurant/Cafe/Canteen,1,10,,431347,5,,51.60935900000000,11/01286/MIXED,111,envhealth@brentwood.gov.uk,Brentwood,http://www.brentwood.gov.uk/,0.26586400000000,CM14 5NA,2014-08-13,fhrs_3_en-GB,3,,FHRS,10
5959,Cleves Avenue,Essex,,,Montbazon Court,Hospitals/Childcare/Caring Premises,5,5,,431810,5,,51.62620300000000,11/02929/FH,111,envhealth@brentwood.gov.uk,Brentwood,http://www.brentwood.gov.uk/,0.29411300000000,CM14 4WB,2014-04-04,fhrs_5_en-GB,5,,FHRS,0
5960,The Grange,93 Queens Road,Brentwood,Essex,Moulton-Miller Partnership,Restaurant/Cafe/Canteen,1,0,,632917,0,,51.61912000000000,14/00005/FH,111,envhealth@brentwood.gov.uk,Brentwood,http://www.brentwood.gov.uk/,0.30586200000000,CM14 4EY,2014-02-03,fhrs_5_en-GB,5,,FHRS,0
5961,The Masonic Hall,Mount Avenue,Hutton,Brentwood,Mount Avenue Banqueting Suite,Pub/bar/nightclub,7843,5,,431480,5,,51.63079600000000,11/01429/FH,111,envhealth@brentwood.gov.uk,Brentwood,http://www.brentwood.gov.uk/,0.33258000000000,CM13 2NS,2014-09-05,fhrs_5_en-GB,5,,FHRS,5
5962,Mountnessing Church Of England Prim,Roman Road,Mountnessing,Brentwood,Mountnessing C Of E Primary School,School/college/university,7845,5,,431811,5,,51.65373600000000,11/02932/COMM,111,envhealth@brentwood.gov.uk,Brentwood,http://www.brentwood.gov.uk/,0.35466300000000,CM15 0UH,2014-01-20,fhrs_5_en-GB,5,,FHRS,5
5963,99 Hutton Road,Shenfield,Essex,,Mr Simms,Retailers - other,4613,,,557747,,,51.63030100000000,13/00082/MIXED,111,envhealth@brentwood.gov.uk,Brentwood,http://www.brentwood.gov.uk/,0.32852300000000,CM15 8JD,2013-05-14,fhrs_exempt_en-GB,Exempt,,FHRS,
5964,,,,,Mrs J V Perrett,Takeaway/sandwich shop,7844,0,,431426,0,,,11/01371/FH,111,envhealth@brentwood.gov.uk,Brentwood,http://www.brentwood.gov.uk/,,,2011-01-17,fhrs_5_en-GB,5,,FHRS,0
5965,52 Hanging Hill Lane,Hutton,Brentwood,Essex,MS Supermarket,Retailers - supermarkets/hypermarkets,7840,5,,431552,0,,51.61974600000000,11/01506/FH,111,envhealth@brentwood.gov.uk,Brentwood,http://www.brentwood.gov.uk/,0.33741600000000,CM13 2HU,2012-09-03,fhrs_5_en-GB,5,,FHRS,5
5966,36 Chelmer Drive,Hutton,Brentwood,Essex,Much Loved Baby Cakes,Other catering premises,7841,0,,468238,0,,51.63231700000000,12/00090/FH,111,envhealth@brentwood.gov.uk,Brentwood,http://www.brentwood.gov.uk/,0.35589500000000,CM13 1NP,2012-11-14,fhrs_5_en-GB,5,,FHRS,5
5967,Scruffy Murphys,161 Kings Road,Brentwood,Essex,Murphy's Sports Bar,Pub/bar/nightclub,7843,5,,431568,5,,51.61505100000000,11/01522/MIXED,111,envhealth@brentwood.gov.uk,Brentwood,http://www.brentwood.gov.uk/,0.29919800000000,CM14 4EG,2013-11-13,fhrs_4_en-GB,4,,FHRS,10
5968,Calcott Hall Farm,Ongar Road,Pilgrims Hatch,Brentwood,N S Risdon High Class Butchers,Retailers - other,4613,10,,431175,5,,51.63410200000000,11/01106/MIXED,111,envhealth@brentwood.gov.uk,Brentwood,http://www.brentwood.gov.uk/,0.28417200000000,,2013-01-10,fhrs_3_en-GB,3,,FHRS,10
5969,101 High Street,Brentwood,Essex,,Nandos,Restaurant/Cafe/Canteen,1,0,,431360,5,,51.62024900000000,11/01299/MIXED,111,envhealth@brentwood.gov.uk,Brentwood,http://www.brentwood.gov.uk/,0.30060200000000,CM14 4RR,2014-10-31,fhrs_5_en-GB,5,,FHRS,5
5970,Barn  Tooks Farm,Great Warley Street,Warley,Brentwood,Nappies And Paddies,School/college/university,7845,10,,535123,0,,51.58804800000000,13/00017/FH,111,envhealth@brentwood.gov.uk,Brentwood,http://www.brentwood.gov.uk/,0.29079000000000,CM13 3JP,2014-02-18,fhrs_4_en-GB,4,,FHRS,0
5971,Regional Blood Transfusion Centre,Crescent Drive,Shenfield,Essex,National Health Blood Transfusion Brentwood,Restaurant/Cafe/Canteen,1,5,,569836,0,,51.62386000000000,13/00036/MIXED,111,envhealth@brentwood.gov.uk,Brentwood,http://www.brentwood.gov.uk/,0.31862800000000,CM15 8DN,2013-04-08,fhrs_5_en-GB,5,,FHRS,5
5972,Pavillion The Green,Navestock Side,Navestock,Brentwood,Navestock Cricket Club,Pub/bar/nightclub,7843,10,,431495,5,,51.65336200000000,11/01444/FH,111,envhealth@brentwood.gov.uk,Brentwood,http://www.brentwood.gov.uk/,0.25746100000000,CM14 5SD,2014-06-12,fhrs_4_en-GB,4,,FHRS,5
5973,40b High Street,Brentwood,Essex,,New Look Clothes Shop,Retailers - other,4613,,,431812,,,51.62022500000000,11/03117/MIXED,111,envhealth@brentwood.gov.uk,Brentwood,http://www.brentwood.gov.uk/,0.30269600000000,CM14 4AJ,2013-12-02,fhrs_exempt_en-GB,Exempt,,FHRS,
5974,145 Kings Road,Brentwood,Essex,,Newstime,Retailers - other,4613,10,,431240,0,,51.61505100000000,11/01175/MIXED,111,envhealth@brentwood.gov.uk,Brentwood,http://www.brentwood.gov.uk/,0.29919800000000,CM14 4EG,2014-08-19,fhrs_4_en-GB,4,,FHRS,0
5975,Bentley Garage,Ongar Road,Pilgrims Hatch,Brentwood,Nicks Tyres Ltd,Takeaway/sandwich shop,7844,,,431751,,,51.64975100000000,11/01709/MIXED,111,envhealth@brentwood.gov.uk,Brentwood,http://www.brentwood.gov.uk/,0.26471200000000,CM15 9SB,2011-06-08,fhrs_exempt_en-GB,Exempt,,FHRS,
5976,118 Kings Road,Brentwood,Essex,,Nicos Coffee Shop,Restaurant/Cafe/Canteen,1,0,,431197,0,,51.61530000000000,11/01128/FH,111,envhealth@brentwood.gov.uk,Brentwood,http://www.brentwood.gov.uk/,0.29981800000000,CM14 4EA,2014-06-09,fhrs_5_en-GB,5,,FHRS,0
5977,72 High Street,Ingatestone And Fryerning,Ingatestone,Essex,Nirvana Indian Cuisine,Restaurant/Cafe/Canteen,1,5,,431353,5,,51.67145200000000,11/01292/MIXED,111,envhealth@brentwood.gov.uk,Brentwood,http://www.brentwood.gov.uk/,0.38589700000000,CM4 9DW,2014-11-03,fhrs_5_en-GB,5,,FHRS,5
5978,146 Hatch Road,Pilgrims Hatch,Brentwood,Essex,Nisa,Retailers - supermarkets/hypermarkets,7840,5,,431526,10,,51.63885511000000,11/01479/FH,111,envhealth@brentwood.gov.uk,Brentwood,http://www.brentwood.gov.uk/,0.29037018000000,,2014-10-28,fhrs_3_en-GB,3,,FHRS,10
5979,48 Blackmore Road,Kelvedon Hatch,Brentwood,Essex,Nisa,Retailers - supermarkets/hypermarkets,7840,5,,431533,5,,51.66378700000000,11/01486/FH,111,envhealth@brentwood.gov.uk,Brentwood,http://www.brentwood.gov.uk/,0.27735700000000,CM15 0AZ,2014-10-27,fhrs_5_en-GB,5,,FHRS,0
5980,Essex House,141 Kings Road,Brentwood,Essex,Nisa Local,Retailers - other,4613,10,,637096,5,,,14/00001/MIXED,111,envhealth@brentwood.gov.uk,Brentwood,http://www.brentwood.gov.uk/,,,2014-02-18,fhrs_4_en-GB,4,,FHRS,5
5981,Brentwood Methodist Church,Warley Hill,Warley,Brentwood,Noah S Ark,Hospitals/Childcare/Caring Premises,5,5,,431646,5,,51.60796000000000,11/01603/MIXED,111,envhealth@brentwood.gov.uk,Brentwood,http://www.brentwood.gov.uk/,0.29790200000000,,2011-11-08,fhrs_5_en-GB,5,,FHRS,5
5982,Navestock Hall,Shonks Mill Road,Navestock,Romford,Norpar Flowers,Retailers - supermarkets/hypermarkets,7840,5,,431536,0,,51.66131800000000,11/01489/MIXED,111,envhealth@brentwood.gov.uk,Brentwood,http://www.brentwood.gov.uk/,0.22553900000000,RM4 1EX,2013-11-20,fhrs_5_en-GB,5,,FHRS,5
5983,Nuffield Nursing Home,Shenfield Road,Brentwood,Essex,Nuffield Health Brentwood,Hospitals/Childcare/Caring Premises,5,0,,431446,0,,51.62358100000000,11/01393/FH,111,envhealth@brentwood.gov.uk,Brentwood,http://www.brentwood.gov.uk/,0.31267600000000,CM15 8EH,2013-05-07,fhrs_5_en-GB,5,,FHRS,5
5984,Old Macdonalds Educational Farm,Wrightsbridge Road,South Weald,Brentwood,Old Macdonalds Farm,Restaurant/Cafe/Canteen,1,5,,431200,5,,51.62597400000000,11/01131/MIXED,111,envhealth@brentwood.gov.uk,Brentwood,http://www.brentwood.gov.uk/,0.23747700000000,CM14 5AY,2014-05-09,fhrs_5_en-GB,5,,FHRS,5
5985,Hall Lane,Shenfield,Brentwood,Essex,Old Shenfield Place,Hospitals/Childcare/Caring Premises,5,5,,431761,5,,51.63003900000000,11/01719/MIXED,111,envhealth@brentwood.gov.uk,Brentwood,http://www.brentwood.gov.uk/,0.31903000000000,CM15 9AB,2014-04-25,fhrs_5_en-GB,5,,FHRS,5
5986,212-214 Rayleigh Road,Hutton,Brentwood,Essex,Olivers Butchers,Retailers - other,4613,0,,431176,0,,51.63354700000000,11/01107/MIXED,111,envhealth@brentwood.gov.uk,Brentwood,http://www.brentwood.gov.uk/,0.35513500000000,CM13 1PN,2014-05-12,fhrs_5_en-GB,5,,FHRS,0
5987,42 Hutton Road,Shenfield,Brentwood,Essex,On A Plate,Other catering premises,7841,5,,468237,5,,51.62974300000000,11/01914/MIXED,111,envhealth@brentwood.gov.uk,Brentwood,http://www.brentwood.gov.uk/,0.32218000000000,CM15 8LB,2014-01-13,fhrs_5_en-GB,5,,FHRS,5
5988,Brentwood Railway Station,Kings Road,Brentwood,Essex,One Mean Bean,Restaurant/Cafe/Canteen,1,5,,431228,5,,51.64067840576170,11/01163/MIXED,111,envhealth@brentwood.gov.uk,Brentwood,http://www.brentwood.gov.uk/,0.29418000578880,,2015-01-06,fhrs_5_en-GB,5,,FHRS,5
5989,86 High Street,Brentwood,Essex,,O'Neills,Pub/bar/nightclub,7843,0,,431600,5,,51.61914400000000,11/01554/MIXED,111,envhealth@brentwood.gov.uk,Brentwood,http://www.brentwood.gov.uk/,0.29868300000000,CM14 4AR,2014-05-22,fhrs_5_en-GB,5,,FHRS,5
5990,71 Ongar Road,Brentwood Town,Brentwood,Essex,Ongar Fish Bar & Brasserie,Takeaway/sandwich shop,7844,10,,431334,5,,51.62305000000000,11/01273/MIXED,111,envhealth@brentwood.gov.uk,Brentwood,http://www.brentwood.gov.uk/,0.30400900000000,CM15 9AZ,2014-08-26,fhrs_4_en-GB,4,,FHRS,5
5991,55 High Street,Ingatestone,Essex,,Oscars Seafood,Mobile caterer,7846,5,,583181,10,,51.67016800000000,13/00096/MOBILE,111,envhealth@brentwood.gov.uk,Brentwood,http://www.brentwood.gov.uk/,0.38444100000000,CM4 0AT,2013-08-09,fhrs_4_en-GB,4,,FHRS,5
