,businessname,ratingvalue,structural,hygiene,confidenceinmanagement,ratingdate,latitude,longitude
5624,124 Petroleum Sqn Rlc (V) Ta Centre,5,5,0,0,2013-07-23,51.599399,0.296689
5625,348,5,0,0,0,2014-02-04,51.636276,0.281138
5626,A & S,4,0,0,10,2012-11-26,51.612116,0.327679
5627,A B Roots,5,5,5,5,2013-04-23,51.677724,0.355835
5628,A Gilmore & Sons,Exempt,nan,nan,nan,2014-09-03,51.630505,0.327276
5629,A La Turka,3,10,10,5,2013-09-26,51.619841,0.301203
5630,A M Stores,4,0,0,10,2013-02-05,51.6323,0.346414
5631,A&S News,Exempt,nan,nan,nan,2015-01-05,51.612116,0.327679
5632,A.S.K. Wines,Exempt,nan,nan,nan,2011-09-28,51.667835,0.298024
5633,Abbotswick Cottage,Exempt,nan,nan,nan,2014-01-29,,
5634,ABC Nursery & Pre-School Ltd,5,5,5,0,2014-02-26,51.696191,0.259969
5635,Abigails,4,10,5,5,2014-06-09,51.672184,0.387917
5636,Above Par Catering Ltd (At Thorndon Park),5,0,5,5,2014-05-06,51.601103,0.335159
5637,Above The Rims At Champions Academy,5,5,5,5,2013-08-16,51.637024,0.330052
5638,Absalute Gym Ltd,4,5,5,10,2015-01-05,51.616283,0.290954
5639,AJ's Cafe,4,5,5,10,2012-12-10,51.619891,0.299096
5640,Alec's Bar And Grill,5,5,5,5,2013-08-01,51.653362,0.257461
5641,Alma Arms Freehouse,5,5,5,5,2014-01-21,51.640068,0.225091
5642,American Hotdog Company,4,0,0,10,2014-02-11,51.625304,0.303733
5643,Anchor Fish And Chips,3,10,10,10,2014-09-02,51.671452,0.385897
5644,Angies Pie N Mash,5,5,5,5,2015-01-05,51.620215,0.304617
5645,Anglo European School,5,5,5,5,2014-09-12,51.673168,0.386393
5646,Annies Cafe,3,10,10,10,2014-06-17,51.569156,0.34306
5647,Annie's Homebakes&Cupcakes,5,0,0,0,2014-02-03,,
5648,Ardtully Retirement Residence,5,0,0,0,2014-05-09,51.666644,0.380843
5649,Argos Ltd,Exempt,nan,nan,nan,2013-11-20,51.620699,0.304699
5650,Ashwells Sports & Country Club Ltd,5,5,5,5,2014-06-30,51.648019,0.273372
5651,Bagel Byte,5,5,5,5,2013-12-16,51.620651,0.305737
5652,Bake It Make It,5,0,0,0,2015-01-15,51.661148,0.351433
5653,Baptist Church,Exempt,nan,nan,nan,2013-08-05,51.692593,0.319492
5654,Baptist Church,Exempt,nan,nan,nan,2013-01-14,51.616085,0.299207
5655,Bar 28,3,10,5,10,2014-06-12,51.67087,0.385766
5656,Bar West One,5,5,5,5,2013-10-29,51.6153,0.299818
5657,Bardeswell Social Club,5,5,5,5,2014-07-18,51.621319,0.2969
5658,Bargain Booze Select Convenience,Exempt,nan,nan,nan,2014-10-21,51.638483,0.279109
5659,Barnards Burger Van,1,5,10,20,2014-08-13,51.621027,0.302397
5660,Basildon Service Station,4,0,0,10,2011-08-11,51.57523,0.312934
5661,Becket Keys Church Of England School,3,5,10,10,2012-10-09,51.627142,0.301269
5662,Beer Grylls,4,5,5,10,2015-01-12,51.627599,0.286641
5663,Bekkilou's Sweets & Treats,5,0,0,0,2014-09-08,51.671452,0.385897
5664,Bengal Spice,5,5,5,5,2013-11-25,51.637379,0.346098
5665,Bentley Cricket Club,5,0,0,0,2014-12-08,51.639362,0.27502
5666,Bentley District Village Club,5,0,0,5,2014-10-21,51.640834,0.275657
5667,Bentley Golf Club Ltd,5,0,5,5,2013-09-23,51.65452,0.268275
5668,Bentley St Pauls C Of E Primary School,5,0,0,0,2014-12-09,51.648019,0.273372
5669,Berts Butchers,5,0,5,0,2012-07-26,51.639095,0.291078
5670,Biscuit Wishes,5,0,0,0,2012-05-22,51.602804,0.344113
5671,Blackmore Primary School,5,5,5,0,2014-10-08,51.694113,0.315388
5672,Blackmore Sports And Social Club,4,5,0,10,2011-06-15,51.693451,0.316135
5673,Blackmore Tearooms,5,5,5,5,2014-12-09,51.693036,0.318487
5674,Boars Head,5,5,0,5,2013-12-16,51.594854,0.35449
5675,Bongow Indian Cuisine,5,5,5,5,2014-02-20,51.663789,0.275824
5676,Bonne Cuisine,5,0,0,0,2014-08-05,51.598711,0.379916
5677,Book Rest Cafe,5,0,0,0,2013-11-20,51.618646,0.302875
5678,Boots The Chemist,Exempt,nan,nan,nan,2011-06-08,51.620859,0.302945
5679,Brave Nelson,4,10,0,0,2014-01-14,51.608962,0.307499
5680,Breakthru Church,4,5,5,10,2010-02-17,51.617875,0.301494
5681,Brentwood & Central Essex Bowls Club,3,5,10,10,2013-07-17,51.6206512451,0.303510010242
5682,Brentwood Brewing Company,5,0,5,5,2014-02-05,51.627599,0.286641
5683,Brentwood Care Centre,5,0,5,0,2014-09-02,51.63559,0.287751
5684,Brentwood Community Hospital,5,0,0,0,2013-11-06,51.623441,0.316628
5685,Brentwood County Cricket Club,5,0,0,0,2014-07-15,51.62323,0.308613
5686,Brentwood County High School,4,10,5,5,2013-11-18,51.615891,0.308168
5687,Brentwood Day Nursery,5,0,0,0,2013-10-15,51.62323,0.308613
5688,Brentwood Express Service Station,5,5,5,5,2013-12-09,51.644448,0.343384
5689,Brentwood Food And Wine,Exempt,nan,nan,nan,2012-09-12,51.619841,0.301203
5690,Brentwood Golf Club,4,0,0,10,2014-07-16,51.641032,0.243422
5691,Brentwood Guest House,5,0,0,5,2014-01-07,51.614424,0.301377
5692,Brentwood Hard Court Tennis Club,5,5,5,5,2013-11-20,51.570599,0.330175
5693,Brentwood Ice Cream Bikes,4,0,0,10,2013-08-27,51.616964,0.27949
5694,Brentwood Karting Centre,3,10,5,10,2013-07-23,51.596357,0.299416
5695,Brentwood Kebab House,5,5,5,5,2013-11-13,51.622547,0.303984
5696,Brentwood Park Ski And Snowboard Centre Ltd,4,0,5,10,2014-09-25,51.594918,0.301401
5697,Brentwood Rugby Club,4,10,0,0,2013-09-15,51.620651,0.305737
5698,Brentwood School,5,5,5,0,2014-11-18,51.620618,0.306516
5699,Brentwood School Sports Centre,1,10,5,20,2014-11-17,51.628767,0.317967
5700,Brentwood Superstore,5,5,0,5,2014-03-10,51.612496,0.297437
5701,Brentwood Tennis Club,5,0,0,0,2013-03-11,51.62323,0.308613
5702,Brentwood Theatre,Exempt,nan,nan,nan,2014-07-15,51.622126,0.307112
5703,Brentwood Ursuline Convent High School (Buchs),5,0,5,0,2013-11-19,51.617671,0.30456
5704,Brentwood Vineyard Church,5,5,0,0,2014-11-04,51.648019,0.273372
5705,Bright Sparks Pre-School,5,5,5,5,2012-06-06,,
5706,British Telecom,5,5,0,0,2014-10-15,51.618826,0.291935
5707,Brooks House Care Home,3,10,10,5,2014-12-01,,
5708,Brownbread,5,0,0,0,2014-12-15,51.665434,0.362415
5709,Budgens,5,5,5,5,2013-07-18,51.671452,0.385897
5710,Budgens Of Doddinghurst,4,0,5,10,2013-12-02,51.667835,0.298024
5711,Buffet Company,5,0,0,0,2011-09-26,51.625459,0.287978
5712,Burger Van,4,10,0,0,2014-02-04,,
5713,Burntwood Pharmacy,Exempt,nan,nan,nan,2014-10-23,51.622126,0.307112
5714,Butterflies Montessori School Ltd,4,5,0,10,2013-10-09,51.604944,0.300522
5715,Cafe A Moore,4,5,5,10,2015-01-07,51.620215,0.304617
5716,Cafe In The Park,5,5,5,5,2014-11-19,51.61074,0.311287
5717,Cafe Lowes,4,5,5,10,2013-08-05,51.613174,0.297702
5718,Caffe Essex,5,5,5,5,2013-10-09,51.622007,0.305387
5719,Caffe Nero,5,0,0,5,2014-08-19,51.620699,0.304699
5720,Caffe News,5,5,5,5,2012-11-29,,
5721,Caffe News,5,0,5,5,2014-04-29,51.630301,0.328523
5722,Caffe Piaggio,4,0,0,10,2012-06-14,51.628163,0.359465
5723,Caffe Uno,3,10,10,5,2014-07-30,51.621328,0.304717
5724,Cake Supplier,4,0,5,10,2012-05-28,51.693805,0.325964
5725,Cakes For Alice,5,0,0,0,2012-11-26,51.63854,0.351434
5726,Calcott Hall Farm Shop,5,0,5,0,2014-02-05,51.627599,0.286641
5727,Calypso Creole,5,5,5,5,2014-01-20,,
5728,Canon (Uk)Ltd,5,5,5,5,2014-09-16,51.618519,0.298911
5729,Card Factory,Exempt,nan,nan,nan,2013-03-20,51.619507,0.302212
5730,Carnival Coffee,5,0,0,5,2012-05-24,51.637909,0.278575
5731,Carr Gomm Housing Association,4,0,5,10,2014-12-31,,
5732,Cascade Florists,Exempt,nan,nan,nan,2010-01-22,51.619494,0.299177
5733,Castins,5,0,0,0,2012-11-14,51.634933,0.343371
5734,Cecina Cakes,5,5,0,5,2011-07-02,,
5735,Celebration Cakes,5,0,0,0,2012-06-26,51.616515,0.296094
5736,Charlies Bar Ltd,5,5,0,5,2014-11-12,51.607123,0.297628
5737,Charlies Deli,4,5,5,10,2014-07-08,51.619494,0.299177
5738,Chateau De Gateaux,5,0,0,0,2013-08-03,51.629919,0.3169
5739,Chelo,1,15,5,20,2014-07-31,51.619494,0.299177
5740,Chicken & Frog Bookshop,5,0,0,0,2013-02-05,51.621687,0.305645
5741,Chicken & Grill,3,10,10,10,2014-11-03,51.613395,0.298811
5742,Chimichanga,5,5,0,5,2014-03-06,51.619424,0.299087
5743,Chimneys At Brook Farm,5,5,5,5,2013-08-03,51.641673,0.202434
5744,Chris Fish & Chips,5,5,5,5,2014-04-24,51.627931,0.296338
5745,Christ Church Hall,5,0,0,0,2012-06-28,51.5190925598,-0.0741809979081
5746,Chuckles (UK) Ltd,5,5,0,0,2013-02-26,51.634497,0.34988
5747,Chuckles Breakfast And After School Club,5,0,0,0,2013-07-23,,
5748,Chutney Joe,5,5,0,5,2014-10-16,51.619891,0.299096
5749,Claires Cakes Essex,5,0,0,5,2013-01-24,51.628811,0.327464
5750,Clever Tots Day Nursery Ltd,5,5,0,0,2014-01-15,51.612496,0.297437
5751,Clinton Cards,Exempt,nan,nan,nan,2014-06-24,51.620859,0.302945
5752,Club Cafe,4,0,0,10,2013-12-30,51.568865,0.338701
5753,CMP Seafoods,5,5,5,5,2013-12-19,51.630563,0.321658
5754,Coffeelicious,5,5,5,5,2011-11-09,51.63142,0.351759
5755,Compass Contract Services (Uk) Ltd,5,0,0,0,2014-11-04,,
5756,Consensus Support Services,5,0,0,0,2014-01-13,51.666704,0.295161
5757,Co-Operative Pharmacy,Exempt,nan,nan,nan,2015-01-06,51.632953,0.351101
5758,Co-Operative Stores,4,0,5,10,2012-04-17,51.637379,0.346098
5759,Co-Operative Stores,5,0,5,5,2013-11-19,51.693524,0.319713
5760,Co-Operative Stores Ltd,4,10,5,5,2013-07-10,51.619507,0.302212
5761,Co-Operative Stores Ltd,5,5,0,5,2013-09-16,51.632953,0.351101
5762,Co-Operative Stores Ltd,5,0,0,0,2011-08-15,51.63084,0.328522
5763,Co-Operative Stores Ltd,4,0,5,10,2014-05-20,51.671683,0.386922
5764,Co-Operative Stores Ltd,5,0,0,0,2014-09-18,51.635241,0.292286
5765,Copperfield Wines,Exempt,nan,nan,nan,2014-10-23,51.600481,0.298794
5766,Copperfields,5,0,0,5,2013-11-18,51.624677,0.296275
5767,Coral Racing,Exempt,nan,nan,nan,2012-11-26,51.6192,0.300882
5768,Cosmos Burger Van,4,10,0,0,2014-02-27,,
5769,Costa Coffee,5,0,5,5,2014-10-21,51.63084,0.328522
5770,Costcutter,5,0,5,5,2014-04-08,51.637909,0.278575
5771,Cottage Cakes Arnaold & Son Ltd,5,5,5,5,2011-07-02,,
5772,Country Gardens Ongar Garden Centre,5,5,5,5,2014-03-04,,
5773,Crown Cafe,5,5,5,5,2014-05-09,51.622126,0.307112
5774,Crown Corner Farm Shop,5,5,5,5,2012-11-01,51.665981,0.269455
5775,Crown Street Cafe,5,5,5,5,2014-04-06,51.6192,0.300882
5776,Crumbs,5,0,5,0,2014-08-20,51.627931,0.296338
5777,Cuckoo Cottage Bakes,5,0,0,0,2013-02-26,51.685454,0.356931
5778,Cupcakes & Cookies,5,0,0,0,2014-09-17,51.613148,0.29396
5779,Cupcakes To Go,5,0,0,5,2014-03-17,,
5780,Cupcakey Doodah,5,0,0,0,2012-11-20,51.57133,0.345409
5781,D Hubbard Ltd T A Doddinghurst News,Exempt,nan,nan,nan,2014-10-21,51.667835,0.298024
5782,Da Vinci,4,5,5,10,2013-12-09,51.619316,0.301393
5783,Dairyman,5,5,5,0,2014-11-24,51.620699,0.304699
5784,Day Lewis Pharmacy,5,0,0,0,2014-03-10,51.608604,0.29272
5785,De Rougemont Manor,4,5,10,5,2013-07-19,51.588048,0.29079
5786,Depot For Brentwood Food Bank,Exempt,nan,nan,nan,2013-08-29,,
5787,Doddinghurst C Of E Junior School,5,5,0,5,2014-04-29,51.666704,0.295161
5788,Doddinghurst Community Pre-School,4,0,5,10,2012-06-07,51.666704,0.295161
5789,Doddinghurst Infant School,4,10,0,0,2013-05-15,51.666704,0.295161
5790,Doddinghurst Stores,5,5,5,5,2014-10-21,51.663941,0.302208
5791,Dominos Pizza,5,0,0,0,2014-12-01,51.619891,0.299096
5792,Dudbrook Hall Residential Home,4,5,5,10,2014-04-08,51.663593,0.248672
5793,Dunton Hills Golf Course,5,0,5,5,2013-07-08,51.572927,0.357729
5794,E Dobney,5,0,0,0,2012-07-03,51.612884,0.322475
5795,E L Baxter Fish Merchants,5,0,0,5,2012-02-15,51.657659,0.264155
5796,Eagle Cafe Ltd,4,5,5,10,2014-08-28,51.600481,0.298794
5797,Eclipse (Brentwood) Ltd,5,0,0,0,2011-07-29,51.622045,0.305316
5798,Elisha Cafe,5,0,5,5,2014-04-07,51.576381,0.290953
5799,Empire Indian Cuisine,4,5,5,10,2013-11-06,51.630301,0.328523
5800,Essex Arms,3,10,10,10,2014-05-20,51.611772,0.299033
5801,Essex County Scouts Training And Hq,Exempt,nan,nan,nan,2011-10-05,51.613952,0.322616
5802,Esso Hutton Mount Service Station,5,5,5,5,2014-07-01,51.631759,0.333424
5803,Esso Ingrave Service Station,5,0,0,5,2011-06-15,51.599861,0.346936
5804,Faces Kids Club Brentwood Ltd,4,5,5,10,2014-05-08,51.628205,0.302566
5805,Fairy Tale Cakes,5,0,0,0,2013-12-16,,
5806,Farmahs,4,5,0,10,2014-08-26,51.6104,0.291453
5807,FISH,4,5,5,10,2014-01-14,51.63084,0.328522
5808,Fish N Chicken,5,5,5,0,2013-10-28,51.6323,0.346414
5809,Fitness First,5,0,0,5,2013-10-18,51.619507,0.302212
5810,Flour Power City Bakery,Exempt,nan,nan,nan,2013-07-27,,
5811,Fondant Folie,5,5,5,5,2011-12-17,51.63064,0.337673
5812,Ford Motor Company Ltd,5,5,5,5,2012-04-24,51.599362,0.299474
5813,Forrest Nurseries Ltd T A Clever Clogs Day Nursery,5,5,5,5,2014-02-18,51.618461,0.303719
5814,Franco Vargo (Uk) Ltd,5,0,0,0,2011-10-05,51.581683,0.32045
5815,Fresh,Exempt,nan,nan,nan,2012-09-12,51.619494,0.299177
5816,Fruit Stall,4,5,10,5,2014-06-24,51.620525,0.301613
5817,Galvins Family Butchers,1,0,5,20,2014-07-30,51.67087,0.385766
5818,Garlok,1,5,10,20,2014-08-07,51.619891,0.299096
5819,Gemini,Exempt,nan,nan,nan,2015-01-07,51.619891,0.299096
5820,Giggly Pig Farmers Market,Exempt,nan,nan,nan,2014-07-19,,
5821,Gladcare Ltd T A Ingrave Pharmacy,Exempt,nan,nan,nan,2014-12-31,51.612116,0.327679
5822,Glitterbugs Pre School,5,5,5,5,2012-09-25,51.6341839901,0.293304948534
5823,Golden Gate Take Away,3,5,10,10,2014-06-16,51.611772,0.299033
5824,Gooseberry Green Pre School Nursery Ltd,5,5,0,5,2014-04-28,51.6166,0.316482
5825,Great & Little Warley Cricket Club,5,0,0,0,2014-03-18,51.592376,0.282345
5826,Great Danes Youth Football Club,4,0,0,10,2012-05-31,51.628689,0.303558
5827,Great Wall,4,5,5,10,2014-03-04,51.600481,0.298794
5828,Greggs,5,5,5,5,2014-10-27,51.619841,0.301203
5829,Greggs Bakers,5,0,0,0,2014-10-27,51.621328,0.304717
5830,H & H Kebabs,5,5,5,5,2013-11-13,51.618135,0.2983
5831,Halfway House Farm,4,5,0,10,2011-09-28,51.623689,0.280968
5832,Happy Garden Chinese Take Away,5,5,5,5,2013-05-14,51.612394,0.298515
5833,Harewood Road Social Club,Exempt,nan,nan,nan,2012-06-01,51.63537,0.292135
5834,Hartswood Golf Club,5,0,0,0,2013-12-02,51.61074,0.311287
5835,Headley Spice,4,5,5,10,2014-11-12,51.599017,0.290894
5836,Hedgerows Nursing Home,4,10,5,5,2013-11-28,51.62784,0.295005
5837,Hepburns Of Mountnessing Ltd,5,0,0,0,2014-07-16,51.653736,0.354663
5838,Hepburns Of Shenfield Ltd,5,5,5,5,2014-12-09,51.630301,0.328523
5839,Herington House School Ltd,5,5,5,5,2012-04-19,51.630796,0.33258
5840,Heron Court,3,10,10,5,2014-10-14,51.591352,0.354684
5841,Herongate Cricket Club,4,5,5,10,2014-05-22,51.606722,0.334812
5842,Herongate Football & Athletic Club,5,0,0,5,2013-02-19,51.594984,0.356937
5843,Herongate Village Stores,4,0,0,10,2012-09-18,51.59722,0.348576
5844,Heybridge News,Exempt,nan,nan,nan,2014-07-22,51.661343,0.372164
5845,Hogarth Day Centre,5,0,0,0,2014-08-19,51.6166,0.316482
5846,Hogarth Primary School,5,0,5,5,2014-04-28,51.6166,0.316482
5847,Holiday Inn Brentwood,5,5,5,5,2014-05-12,51.610726,0.268691
5848,Hollands Wine Bar,4,5,0,10,2014-05-28,51.631196,0.329638
5849,Holly Trees Primary School,5,0,5,0,2013-10-09,51.610757,0.290214
5850,Home Caterer,5,0,0,0,2014-09-03,,
5851,Home Kitchen,5,5,5,5,2011-06-16,51.661067,0.30841
5852,Hopefield Animal Sanctuary,4,10,5,0,2012-05-27,51.628689,0.303558
5853,Hopscotch Day Nursery Ltd,5,5,5,5,2014-12-30,51.667427,0.27093
5854,Howard Lodge Nursing And Residential Home,5,0,5,0,2013-11-05,51.66371,0.255243
5855,Howletts Hall Venison,5,0,5,5,2014-03-18,51.69482,0.340082
5856,Hoyle's Honey,5,5,5,0,2014-04-08,,
5857,Hutton All Saints C Of E Primary School,4,5,5,10,2014-07-03,51.634497,0.34988
5858,Hutton All Saints Scout Group,Exempt,nan,nan,nan,2013-01-26,51.634079,0.353688
5859,Hutton Football Club,5,0,5,5,2014-03-29,51.612097,0.322723
5860,Hutton Free Church,5,5,0,0,2014-06-18,51.627467,0.347061
5861,Hutton Free Church Playgroup,5,0,0,0,2014-12-15,51.627467,0.347061
5862,Hutton Poplars Lodge,3,10,5,10,2013-01-30,51.631911,0.337536
5863,Hutton Pre School Ltd,5,0,0,0,2014-01-14,51.605013,0.330768
5864,Hutton Road Fisheries,5,5,5,5,2013-01-03,51.630505,0.327276
5865,Hutton Shopper,Exempt,nan,nan,nan,2014-10-23,51.633547,0.355135
5866,Hutton Spice Ltd,4,10,5,5,2013-09-23,51.633547,0.355135
5867,Hutton Village Nursing Home,5,5,5,0,2014-05-21,51.7704467773,0.707278013229
5868,Iceland Foods Plc,5,5,0,0,2014-10-21,51.620225,0.302696
5869,Imperial Peking,5,5,5,5,2014-03-19,51.620525,0.301613
5870,Indian Spice,4,nan,nan,nan,2014-01-15,51.627931,0.296338
5871,Ingatestone & Fryerning C Of E Junior School,5,5,5,5,2014-06-05,51.7704467773,0.707278013229
5872,Ingatestone & Fryerning Community Association,5,5,5,5,2013-12-03,51.672184,0.387917
5873,Ingatestone Bowling Club,Exempt,nan,nan,nan,2012-05-28,51.672184,0.387917
5874,Ingatestone Garden Centre,4,5,5,10,2014-01-21,51.658418,0.365591
5875,Ingatestone Hall,5,0,5,5,2013-07-25,51.661484,0.389133
5876,Ingatestone Infants School,5,5,0,0,2014-11-17,51.673915,0.37797
5877,Ingatestone Infants School Breakfast Club,5,0,0,0,2013-04-15,51.673915,0.37797
5878,Ingleton House Social Club,Exempt,nan,nan,nan,2014-07-07,,
5879,Ingrave Johnstone C Of E Primary School,5,0,0,0,2013-06-18,51.600688,0.345622
5880,Ingrave Play Group,5,5,5,5,2013-06-17,,
5881,Izumi,3,10,10,10,2014-04-24,51.594918,0.301401
5882,J & R Catering,5,0,5,5,2014-07-15,51.609055,0.264882
5883,Jack And Jill Pre School,5,0,0,0,2013-01-24,51.629743,0.32218
5884,Jack And Jill Pre School,5,0,0,0,2012-11-29,51.667508,0.273726
5885,Jack And Jill's,5,5,0,0,2012-10-16,51.653736,0.354663
5886,Jacksons Newsagents,4,0,10,10,2014-11-12,51.570212,0.343287
5887,Jasmin's Indian Kitchen,5,5,5,5,2014-08-19,51.613694,0.300054
5888,Jenkos Ltd,5,5,0,0,2012-06-26,51.639639,0.298202
5889,Joy Fook Restaurant,3,10,10,10,2014-12-15,51.656375,0.307989
5890,Juboraj,4,5,5,10,2013-10-22,51.612394,0.298515
5891,Juniper And Rowan Green Social Club,Exempt,nan,nan,nan,2012-12-17,,
5892,K H Village Hall Charitable Trust,Exempt,nan,nan,nan,2013-07-02,51.667508,0.273726
5893,K S D Newsagents,4,0,0,10,2014-04-28,51.615678,0.320783
5894,Kellys Sweet Cones& Party Bags,5,0,0,0,2014-04-08,,
5895,Kelvedon Hatch Primary School,5,5,5,5,2014-01-13,51.667427,0.27093
5896,Kelvedon Hatch Secret Nuclear Bunker,5,0,0,5,2013-04-10,51.674985,0.2544
5897,Kelvedon Hatch Senior Citizen Lunch Club,Exempt,nan,nan,nan,2014-06-18,51.666877,0.261705
5898,Key News,Exempt,nan,nan,nan,2011-07-20,51.613366,0.299373
5899,KFC,5,0,5,0,2013-12-16,51.620699,0.304699
5900,Kingfishers Pre School,5,5,5,0,2015-01-07,51.615725,0.299734
5901,Kings Chase Sports And Social Club Ltd,5,5,0,5,2011-09-30,51.615523,0.295741
5902,L. Buckle Butchers,5,5,5,5,2014-11-07,51.629123,0.322134
5903,La Bicicletta,5,5,0,5,2013-12-02,51.568475,0.341539
5904,LA Fitness Cafe And Sports Bar,5,5,5,5,2013-10-22,51.604944,0.300522
5905,Ladybird Kindergarten,5,5,5,5,2014-11-19,,
5906,Larchwood Primary School,5,5,5,5,2014-10-21,51.63559,0.287751
5907,Latte To Go Ltd,5,0,0,0,2014-03-18,51.667036,0.384132
5908,Lavender Blue,5,0,0,5,2013-11-20,,
5909,Law Farm,5,0,0,0,2014-02-25,51.576372,0.342839
5910,Lawries Brasserie,5,0,0,0,2014-01-22,,
5911,Lawsons Coffee & Sandwich Bar,5,0,5,0,2014-09-25,51.60566483,0.29625528
5912,Leather Bottle,5,5,5,5,2013-10-22,51.693036,0.318487
5913,Leon Lewis,5,0,0,0,2013-07-17,51.612803,0.277996
5914,Leonard Lodge Nursing Home,5,5,5,0,2014-11-03,51.635288,0.344531
5915,Leverton Hall Secure Unit,5,5,5,0,2013-10-29,51.603273,0.279728
5916,Leverton House Childrens Home,5,0,0,5,2013-10-29,51.603273,0.279728
5917,Lilly's Cupcakes,5,0,0,0,2011-06-14,51.600242,0.288515
5918,Liquorice,Exempt,nan,nan,nan,2013-10-29,,
5919,Little Brittany,5,5,5,5,2011-06-08,51.624761,0.342962
5920,Little Chef,5,5,5,5,2014-12-08,51.579913,0.355536
5921,Little Ducks,5,5,5,5,2013-10-14,51.636302,0.355856
5922,Little Ducks Childcare,4,5,0,10,2014-09-25,51.603026,0.293739
5923,Little Legs,5,5,5,5,2014-05-14,51.627996,0.385538
5924,Little Legs After School,5,0,0,0,2014-10-07,51.600688,0.345622
5925,Little Piggies Cafe,4,10,5,5,2014-10-14,51.581683,0.32045
5926,Little Warley & Childerditch Village Hall,Exempt,nan,nan,nan,2013-05-21,51.590281,0.315388
5927,Londis,4,5,5,10,2014-06-30,51.611765,0.273553
5928,Londis Stores,5,5,0,5,2012-05-21,51.612394,0.298515
5929,Long Ridings Primary School,5,0,0,0,2014-07-02,51.635281,0.33677
5930,Lonis Fresh Fish,Exempt,nan,nan,nan,2013-07-27,,
5931,Lords Newsagents,Exempt,nan,nan,nan,2014-09-03,51.6323,0.346414
5932,Lot 104,5,5,5,5,2014-09-05,51.619424,0.299087
5933,Lot 73,5,0,5,5,2014-07-28,51.630301,0.328523
5934,Lot 75 And Lot 73,5,5,5,5,2013-10-15,51.630301,0.328523
5935,Luckocks Jams,4,0,0,10,2013-11-20,51.609973,0.30911
5936,Luncheon Club,Exempt,nan,nan,nan,2014-10-08,51.653362,0.257461
5937,LV,4,5,10,5,2015-01-06,51.614532,0.299057
5938,M Patel News The Kiosk,Exempt,nan,nan,nan,2014-10-23,51.630301,0.328523
5939,Manna Meals,5,5,5,5,2014-11-19,51.63964,0.267634
5940,Marks And Spencer,5,5,0,0,2011-02-08,51.620859,0.302945
5941,Martin McColls,5,0,0,0,2014-05-27,51.569186,0.344706
5942,Martin McColls,Exempt,nan,nan,nan,2012-09-03,51.631196,0.329638
5943,Martin McColls,4,10,0,5,2014-07-30,51.627931,0.296338
5944,Martin McColls,Exempt,nan,nan,nan,2014-04-30,51.67087,0.385766
5945,Martin McColls,Exempt,nan,nan,nan,2012-09-03,51.637995,0.283363
5946,Martin McColls,Exempt,nan,nan,nan,2015-01-06,51.62949,0.323597
5947,Martin McColls,5,5,5,0,2014-10-14,51.600481,0.298794
5948,Martine Darkin,5,0,0,0,2012-12-06,51.637333,0.291524
5949,Marygreen Manor And Tudors Restaurant,5,5,5,5,2013-07-04,51.612701,0.278626
5950,Masala Indian Takeaway,3,10,10,10,2014-07-29,51.629141,0.357797
5951,Masons Restaurant,5,5,5,5,2014-10-28,51.612784,0.318916
5952,McCarthys Country Stores,5,5,5,5,2014-07-18,51.639122,0.356493
5953,McDonalds,4,10,5,0,2013-11-21,51.620249,0.300602
5954,McDonalds,5,5,5,5,2014-09-05,51.644448,0.343384
5955,Meeting House Playgroup,4,10,5,5,2012-05-01,51.629025,0.32392
5956,Megarrys Teashop,5,5,0,0,2013-11-20,51.691721,0.31952
5957,Mill Green Gospel Hall,Exempt,nan,nan,nan,2014-12-01,51.683953,0.368977
5958,Mizu Noodle Bar,3,10,5,10,2014-08-13,51.609359,0.265864
5959,Montbazon Court,5,0,5,5,2014-04-04,51.626203,0.294113
5960,Moulton-Miller Partnership,5,0,0,0,2014-02-03,51.61912,0.305862
5961,Mount Avenue Banqueting Suite,5,5,5,5,2014-09-05,51.630796,0.33258
5962,Mountnessing C Of E Primary School,5,5,5,5,2014-01-20,51.653736,0.354663
5963,Mr Simms,Exempt,nan,nan,nan,2013-05-14,51.630301,0.328523
5964,Mrs J V Perrett,5,0,0,0,2011-01-17,,
5965,MS Supermarket,5,5,0,5,2012-09-03,51.619746,0.337416
5966,Much Loved Baby Cakes,5,5,0,0,2012-11-14,51.632317,0.355895
5967,Murphy's Sports Bar,4,10,5,5,2013-11-13,51.615051,0.299198
5968,N S Risdon High Class Butchers,3,10,5,10,2013-01-10,51.634102,0.284172
5969,Nandos,5,5,5,0,2014-10-31,51.620249,0.300602
5970,Nappies And Paddies,4,0,0,10,2014-02-18,51.588048,0.29079
5971,National Health Blood Transfusion Brentwood,5,5,0,5,2013-04-08,51.62386,0.318628
5972,Navestock Cricket Club,4,5,5,10,2014-06-12,51.653362,0.257461
5973,New Look Clothes Shop,Exempt,nan,nan,nan,2013-12-02,51.620225,0.302696
5974,Newstime,4,0,0,10,2014-08-19,51.615051,0.299198
5975,Nicks Tyres Ltd,Exempt,nan,nan,nan,2011-06-08,51.649751,0.264712
5976,Nicos Coffee Shop,5,0,0,0,2014-06-09,51.6153,0.299818
5977,Nirvana Indian Cuisine,5,5,5,5,2014-11-03,51.671452,0.385897
5978,Nisa,3,10,10,5,2014-10-28,51.63885511,0.29037018
5979,Nisa,5,0,5,5,2014-10-27,51.663787,0.277357
5980,Nisa Local,4,5,5,10,2014-02-18,,
5981,Noah S Ark,5,5,5,5,2011-11-08,51.60796,0.297902
5982,Norpar Flowers,5,5,0,5,2013-11-20,51.661318,0.225539
5983,Nuffield Health Brentwood,5,5,0,0,2013-05-07,51.623581,0.312676
5984,Old Macdonalds Farm,5,5,5,5,2014-05-09,51.625974,0.237477
5985,Old Shenfield Place,5,5,5,5,2014-04-25,51.630039,0.31903
5986,Olivers Butchers,5,0,0,0,2014-05-12,51.633547,0.355135
5987,On A Plate,5,5,5,5,2014-01-13,51.629743,0.32218
5988,One Mean Bean,5,5,5,5,2015-01-06,51.6406784058,0.294180005789
5989,O'Neills,5,5,5,0,2014-05-22,51.619144,0.298683
5990,Ongar Fish Bar & Brasserie,4,5,5,10,2014-08-26,51.62305,0.304009
5991,Oscars Seafood,4,5,10,5,2013-08-09,51.670168,0.384441
5992,Outlook Care Ltd,Exempt,nan,nan,nan,2012-05-31,51.628542,0.297294
5993,Oxfam,Exempt,nan,nan,nan,2014-10-21,51.619841,0.301203
5994,Pantiles Bed And Breakfast,4,0,0,10,2011-07-08,51.666333,0.374449
5995,Papa Johns,5,5,0,0,2015-01-06,51.619494,0.299177
5996,Papadom,3,10,10,10,2014-07-30,51.613366,0.299373
5997,Paradise Stores,4,0,0,10,2014-01-21,51.621328,0.304717
5998,Pavilion Cafe,5,0,5,0,2014-08-20,51.600392,0.316624
5999,Peking Chef,5,5,5,5,2014-11-03,51.619494,0.299177
6000,Percy Ingle Bakeries Ltd,5,5,5,5,2012-04-30,51.620225,0.302696
6001,Phoenix Day Nursery,5,5,5,5,2014-05-15,51.625423,0.309577
6002,Pick Up Station @ Brentwood Food Bank,5,5,5,5,2013-08-27,51.62867,0.29902
6003,Piero's Restaurant,5,5,5,5,2014-08-07,51.670168,0.384441
6004,Pilgrims Pantry,5,0,0,5,2013-04-18,51.639095,0.291078
6005,Pink Garlic,3,5,10,10,2014-05-29,51.623108,0.302438
6006,Pink Ginger,5,5,5,5,2012-05-28,51.637199,0.342028
6007,Pizza Express,5,5,5,0,2013-12-16,51.621328,0.304717
6008,Pizza Go Go,5,5,5,5,2014-05-23,51.622547,0.303984
6009,Pizza Hut,4,10,5,5,2014-08-28,51.611772,0.299033
6010,Poplars Hall,5,0,0,0,2011-10-06,51.634328,0.341721
6011,Poppetts Day Nursery,5,0,0,0,2013-12-11,51.635281,0.33677
6012,Poppies Bed & Breakfast,5,0,0,5,2013-04-23,51.620399,0.340758
6013,Poundland,5,0,0,0,2013-11-04,51.620249,0.300602
6014,Premier Inn,5,5,5,5,2014-10-14,51.614885,0.298973
6015,Prezzo,5,5,5,5,2014-06-02,51.619551,0.298097
6016,Prince Of Wales,4,5,5,10,2013-11-19,51.655497,0.357458
6017,Pumpkin 2 (Platform 1),5,0,0,0,2013-01-03,51.630301,0.328523
6018,Quennell Way Club,Exempt,nan,nan,nan,2013-11-04,51.62941,0.346149
6019,Quiet Waters,5,0,5,0,2014-09-16,51.576372,0.342839
6020,R & A R Hoyle,5,0,0,0,2014-03-18,51.649866,0.252633
6021,R G & R Legg,5,5,0,5,2014-10-25,51.648894,0.322363
6022,Race Newsagents,1,15,15,20,2014-09-17,51.611772,0.299033
6023,Rajmoni Indian Cuisine,3,10,10,10,2013-08-16,51.611772,0.299033
6024,Ravens Bakery,4,5,5,10,2014-02-17,51.671452,0.385897
6025,Red Hen Bakery,5,0,0,0,2014-10-28,,
6026,Red Rose Farm,Exempt,nan,nan,nan,2013-03-19,51.694959,0.323129
6027,Rendezvous At Pilgrims Hall,Exempt,nan,nan,nan,2014-05-27,51.644335,0.271323
6028,Robert Dyas Holdings Ltd,Exempt,nan,nan,nan,2014-06-24,51.620249,0.300602
6029,Rockys Funhouse,5,5,0,5,2014-06-24,51.620859,0.302945
6030,Roses Bakery Ltd,5,0,0,0,2014-11-10,51.62949,0.323597
6031,Rossi Brentwood,5,0,0,0,2014-11-11,51.621328,0.304717
6032,Rowlands Pharmacy,Exempt,nan,nan,nan,2014-09-03,51.631196,0.329638
6033,Ruksana's Spices,4,5,0,10,2013-04-30,51.631688,0.353218
6034,Sainsburys Staff Canteen,Exempt,nan,nan,nan,2014-06-09,51.621027,0.302397
6035,Sainsburys Supermarkets,5,0,5,0,2013-12-10,51.622187,0.302622
6036,Sallys Cafe,5,5,5,5,2013-09-25,51.61271,0.324921
6037,Samosa Shack,4,5,5,10,2011-11-20,,
6038,Seasons Catering,5,5,0,0,2014-08-12,,
6039,Seven Arches Nursing Home,5,5,5,0,2014-12-30,51.614373,0.307167
6040,SF Connect And Marks And Spencer,5,5,0,0,2013-05-21,51.632251,0.28832
6041,Shadforth Pharmacy,Exempt,nan,nan,nan,2014-03-11,51.671452,0.385897
6042,Shell Brentwood,5,0,0,0,2013-03-25,51.607123,0.297628
6043,Shell South Weald,4,5,10,5,2013-11-21,51.609055,0.264882
6044,Shenfield Bakery And Sandwich Bar,5,5,5,5,2014-11-11,51.63084,0.328522
6045,Shenfield Country Market,4,0,0,10,2011-11-03,51.63375,0.33052
6046,Shenfield Country Market,5,5,5,0,2011-06-22,51.63375,0.33052
6047,Shenfield Country Markets,5,5,5,5,2014-02-14,51.6296587918,0.325407519406
6048,Shenfield Day Nursery,5,5,0,5,2013-10-29,51.629903,0.321379
6049,Shenfield High School,4,10,5,5,2013-04-15,51.638414,0.330268
6050,Shenfield Parish Hall,Exempt,nan,nan,nan,2013-01-24,51.629743,0.32218
6051,Shenfield Pattiserie,4,5,5,10,2014-10-14,51.630505,0.327276
6052,Shenfield St Marys Church Of England Primary School,5,5,0,5,2014-08-13,51.630929,0.31857
6053,Shenfield Tandoori,5,5,5,5,2013-11-25,51.630505,0.327276
6054,Shenfield Tandoori Take Away,5,5,5,5,2014-03-04,51.630301,0.328523
6055,Simply Fun,5,0,0,0,2014-05-27,,
6056,Sincerely Yours,Exempt,nan,nan,nan,2015-01-06,51.630301,0.328523
6057,Siyenne.com,5,0,0,0,2014-03-18,,
6058,Slug & Lettuce,4,10,5,5,2014-07-29,51.619424,0.299087
6059,Smokers World (Nisa),Exempt,nan,nan,nan,2013-05-07,51.619494,0.299177
6060,Society Of Old Brentwood Sports Club,5,5,0,0,2015-01-05,51.648019,0.273372
6061,SOF FOODS,4,5,5,10,2014-12-31,51.614548,0.293193
6062,South Essex Golf & Country Club,3,10,10,10,2014-05-20,51.584572,0.362215
6063,South Weald Parish Hall,Exempt,nan,nan,nan,2011-08-23,51.612951,0.277296
6064,Spire Hartswood Hospital,5,5,0,0,2014-05-21,51.600449,0.293103
6065,Sponge A Rama,5,0,0,0,2012-10-02,51.615523,0.295741
6066,St Georges Court Social Club,Exempt,nan,nan,nan,2014-09-30,,
6067,St George's Playgroup,5,0,0,0,2013-11-14,51.629112,0.291586
6068,St Helens Pre School,4,0,5,10,2012-06-28,51.620651,0.305737
6069,St Helens RC Infant School,5,5,5,5,2014-09-03,51.628992,0.303256
6070,St Johns Ambulance,Exempt,nan,nan,nan,2011-01-13,51.617232,0.30032
6071,St Joseph The Worker Primary School,5,5,0,0,2013-04-25,51.63234,0.344899
6072,St Margarets Pre School,5,0,0,0,2013-06-18,51.666514,0.301196
6073,St Martins School,5,5,0,0,2014-01-22,51.621615,0.342887
6074,St Pauls Church Centre,Exempt,nan,nan,nan,2014-08-15,51.6330299377,0.285510003567
6075,St Peters C Of E Vol Aided Primary School,5,5,5,5,2014-01-21,51.620626,0.267813
6076,St Peters Church,Exempt,nan,nan,nan,2013-03-27,51.621387,0.268905
6077,St Stephens Church,Exempt,nan,nan,nan,2013-05-22,51.611951,0.325068
6078,St Thomas Of Canterbury Infants School,5,0,5,0,2014-11-10,51.624476,0.30584
6079,Stapleford Abbots Golf Course,4,5,5,10,2013-10-01,51.630916,0.197217
6080,Starbucks Coffee Shop,4,10,0,0,2013-08-16,51.620225,0.302696
6081,Steamer Trading Cook Shop,4,10,5,5,2014-08-22,51.620525,0.301613
6082,Stondon Massey Pre School,5,0,0,0,2013-05-20,51.675652,0.29382
6083,Stoneleigh,5,0,0,5,2012-05-29,51.677724,0.355835
6084,Stoney Hill Farm,4,5,10,5,2011-11-09,51.590777,0.27763
6085,Stony Hills Farm,Exempt,nan,nan,nan,2013-08-27,51.590777,0.27763
6086,Stop N Scoff,5,5,0,0,2013-03-27,51.661318,0.225539
6087,Subway,4,5,5,10,2014-06-26,51.619494,0.299177
6088,Sugar Bunny Cake Company,5,0,0,0,2013-05-28,,
6089,Sugar Hut,5,5,5,5,2014-12-01,51.620249,0.300602
6090,Sunflower Montessori,5,5,5,0,2013-04-15,51.63369,0.34041
6091,Sunh Hing,4,5,5,10,2014-06-27,51.630498,0.319921
6092,Sunshine Emas,4,5,5,10,2013-12-18,51.637379,0.346098
6093,Superdrug,Exempt,nan,nan,nan,2014-06-24,51.620859,0.302945
6094,Sushi City,5,5,5,5,2014-01-13,51.615051,0.299198
6095,Sweet Cake Of Mine,5,0,0,0,2012-11-19,51.618209,0.340515
6096,Sycamore Court,5,5,0,5,2013-11-05,51.590119,0.307193
6097,Tandoori Nights,4,5,5,10,2014-07-31,51.629123,0.322134
6098,Tara Residential Care Home,5,5,0,5,2014-01-21,51.611968,0.299606
6099,Tarantino Ltd,4,5,5,10,2014-07-08,51.6192,0.300882
6100,Taste Of China,5,5,5,5,2014-04-16,51.629729,0.325655
6101,Taste Of India Ltd / Balti House,5,5,5,5,2013-08-01,51.619494,0.299177
6102,Tesco,5,0,0,0,2013-02-19,51.628898,0.345242
6103,Tesco,5,0,0,0,2014-04-15,51.608064,0.298253
6104,Tesco Express,5,5,5,5,2013-11-25,51.616474,0.289433
6105,Tesco Express,5,5,0,5,2011-09-28,51.630301,0.328523
6106,Thatchers Arms,3,10,10,10,2013-08-01,51.593077,0.284228
6107,The Ark Childrens Centre,5,0,5,5,2011-08-09,51.627142,0.301269
6108,The Baytree Cafe,5,5,5,5,2014-05-09,51.619507,0.302212
6109,The Beeches,5,0,0,5,2013-09-19,,
6110,The Bell,5,5,5,5,2013-12-09,51.670168,0.384441
6111,The Bhaji,3,10,10,10,2013-11-21,51.635241,0.292286
6112,The Birdcage Cafe,5,5,5,5,2014-05-20,51.614014,0.289237
6113,The Black Horse,5,5,5,0,2013-07-01,51.637909,0.278575
6114,The Blue Cafe,5,5,5,5,2014-01-14,51.631911,0.337536
6115,The Brentwood Centre,5,0,5,5,2014-06-09,51.634946,0.299525
6116,The Brentwood Kitchen,5,0,0,0,2014-02-13,51.621406,0.307133
6117,The Brentwood Wine Cellar,Exempt,nan,nan,nan,2014-02-24,51.611121,0.276583
6118,The Brewery Tap,4,5,5,10,2013-07-03,51.617232,0.30032
6119,The Bricklayers Arms,5,5,5,0,2014-06-11,51.681304,0.290344
6120,The Bull,5,5,5,0,2014-10-15,51.611765,0.273553
6121,The Burger Grill,5,0,5,5,2014-10-15,,
6122,The Cafe,4,0,5,10,2013-07-10,51.6946819133,0.260957529174
6123,The Camping And Caravanning Club Kel Hatch Site,5,0,0,5,2013-04-22,51.655366,0.277527
6124,The Chequers,4,10,5,5,2013-11-27,51.633184,0.352587
6125,The Cherry Tree,5,0,0,5,2012-01-30,51.606818,0.299432
6126,The Chough Public House,4,5,5,10,2014-12-30,51.612838,0.32799
6127,The Company Hut,1,0,15,20,2014-10-29,51.665981,0.269455
6128,The Cricketers,5,5,5,5,2013-11-21,51.685682,0.369284
6129,The Eagle,5,5,5,5,2014-01-13,51.665981,0.269455
6130,The Eagle And Child,5,5,5,5,2014-06-09,51.630563,0.321658
6131,The Edinburgh Woollen Mill,Exempt,nan,nan,nan,2015-01-07,51.620859,0.302945
6132,The Endeavour School,5,5,5,5,2013-10-16,51.616375,0.31738
6133,The Fish House,5,5,5,5,2014-08-13,51.62014,0.304281
6134,The Flying Fish Bar,5,5,5,5,2014-06-03,51.610255,0.298436
6135,The Four Vintners,Exempt,nan,nan,nan,2012-09-12,51.612394,0.298515
6136,The Four Vintners Ltd,Exempt,nan,nan,nan,2014-07-22,51.672489,0.387933
6137,The Gardeners Arms,4,5,10,5,2012-06-28,51.619484,0.299683
6138,The George And Dragon,5,5,5,5,2013-11-18,51.652161,0.350259
6139,The Golden Fish Bar,5,5,5,5,2014-01-13,51.637995,0.283363
6140,The Golden Fleece Harvester,4,10,5,0,2014-07-11,51.612951,0.277296
6141,The Great British Raj,5,5,5,5,2013-12-18,51.622007,0.305387
6142,The Green Man,5,5,0,5,2014-10-16,51.5965,0.350849
6143,The Greyhound,3,10,10,5,2014-10-08,51.590281,0.315388
6144,The Halfway House,5,5,5,5,2012-01-30,51.579913,0.355536
6145,The Hermit Club,5,0,5,5,2011-11-02,51.622126,0.307112
6146,The Horndon Cake Company,5,0,0,0,2013-03-11,51.569156,0.34306
6147,The Hutton Public House,5,5,5,5,2013-11-25,51.631759,0.333424
6148,The Kilns Hotel,4,5,0,10,2014-10-06,51.580625,0.300503
6149,The Kitchen,4,10,5,5,2014-07-02,51.618135,0.2983
6150,The Kitchen Express,5,5,5,5,2014-06-27,51.62305,0.304009
6151,The Little Pop Bake Shop,5,0,0,0,2014-01-13,51.670034,0.300116
6152,The Lounge Bar,4,5,5,10,2013-12-09,51.669973,0.383882
6153,The Marillac Care Home,5,0,0,0,2013-11-04,51.600312,0.302873
6154,The Merchant,4,10,5,5,2014-07-30,51.619891,0.299096
6155,The Nags Head,5,0,5,5,2014-05-22,51.607544,0.265326
6156,The New Pharmacy,Exempt,nan,nan,nan,2014-06-27,51.621328,0.304717
6157,The Newsagent,Exempt,nan,nan,nan,2011-07-08,51.62305,0.304009
6158,The Olde Dog Inn,4,10,5,5,2014-05-22,51.594315,0.369637
6159,The Only Way Is Catering,5,0,0,5,2013-06-24,51.639095,0.291078
6160,The Paper Shop,Exempt,nan,nan,nan,2011-06-29,51.611898,0.294879
6161,The Pilgrims Korai,4,5,5,10,2014-04-16,51.638483,0.279109
6162,The Plough,5,5,5,5,2014-12-18,51.628136,0.380372
6163,The Plough,5,0,5,5,2014-12-12,51.655497,0.357458
6164,The Post Office,Exempt,nan,nan,nan,2012-12-03,51.612394,0.298515
6165,The Post Office,Exempt,nan,nan,nan,2015-01-06,51.692853,0.318203
6166,The Railway Hotel,4,0,0,10,2014-09-16,51.568475,0.341539
6167,The Raj,5,5,5,5,2013-11-13,51.618135,0.2983
6168,The Robin,4,5,5,10,2015-01-05,51.628302,0.294854
6169,The Rose,5,0,5,5,2014-12-16,51.637313,0.326353
6170,The Shenfield Wine Company,5,5,5,5,2015-01-06,51.62949,0.323597
6171,The Shepherd,3,10,10,10,2014-10-08,51.663047,0.276568
6172,The Snack Shack,5,0,0,0,2013-05-20,51.636252,0.354769
6173,The Spread Eagle,5,0,5,5,2014-02-10,51.618195,0.303518
6174,The Squirrels,5,5,5,5,2014-07-29,51.592376,0.282345
6175,The Star Inn,5,5,5,0,2013-12-18,51.67087,0.385766
6176,The Swan,5,5,5,0,2014-05-08,51.619891,0.299096
6177,The Teriss Bar,4,5,5,10,2013-11-20,51.619484,0.299683
6178,The Tuck In,5,0,0,5,2013-12-03,51.609767,0.267708
6179,The Walter Boyce Training Centre,5,5,5,5,2013-12-16,51.603964,0.294103
6180,The White Buddha Cafe,5,0,5,5,2014-06-24,51.625423,0.309577
6181,The White Horse,3,10,10,10,2014-07-29,51.640312,0.258461
6182,The Willow,5,5,0,5,2013-10-14,51.667835,0.298024
6183,Thorndon Countryside Centre,5,5,0,5,2013-05-13,51.600392,0.316624
6184,Thorntons Plc,Exempt,nan,nan,nan,2014-06-24,51.620225,0.302696
6185,Thriftwood Scout Campsite,Exempt,nan,nan,nan,2014-06-11,51.613952,0.322616
6186,Tims Palace Chinese Restaurant,5,5,5,5,2013-07-18,51.671452,0.385897
6187,Tiny Treasures Day Nursery Ltd,5,5,0,5,2014-08-13,51.635212,0.283136
6188,Tipps Cross Remembrance Hall,Exempt,nan,nan,nan,2012-11-29,51.675652,0.29382
6189,TM McColl All Occasions Caterers Ltd,4,0,10,10,2013-09-30,51.656375,0.307989
6190,Toby Carvery,5,5,0,0,2013-07-25,51.618919,0.30877
6191,Tomlins Garden Centre,4,0,5,10,2012-05-25,51.608553,0.278693
6192,Tommy Tuckers,4,5,5,10,2013-07-03,51.612116,0.327679
6193,Torte Cake Art,5,0,0,0,2014-06-23,51.614548,0.293193
6194,Travelodge At Halfway House,4,0,0,10,2011-08-25,51.579913,0.355536
6195,Travis Perkins,4,5,0,10,2014-12-31,51.639362,0.27502
6196,Tre Stelle,5,0,5,5,2012-05-22,51.618468,0.337033
6197,Trinity School,5,5,5,0,2014-01-20,51.662648,0.27114
6198,Trinity School Nursery,5,0,0,0,2014-01-20,51.63964,0.267634
6199,Ty Cakes N Bakes,5,0,5,0,2013-03-05,51.63209,0.290161
6200,United Reform Church,5,0,5,0,2013-07-10,51.618968,0.303066
6201,Vaporetto,Exempt,nan,nan,nan,2012-12-07,51.610255,0.298436
6202,Viceroy Brentwood,3,10,5,10,2013-08-15,51.619494,0.299177
6203,Victoria Arms,5,0,5,5,2013-12-09,51.622547,0.303984
6204,Victoria Social Club,Exempt,nan,nan,nan,2015-01-07,51.7298176807,0.684834982139
6205,Village,4,10,5,5,2014-06-11,51.611772,0.299033
6206,Village Hall,Exempt,nan,nan,nan,2011-10-06,51.682999,0.281807
6207,Village Stores,4,5,5,10,2014-06-30,51.667328,0.2677
6208,Viper Inn,3,10,10,10,2014-11-12,51.690876,0.374374
6209,Virgin Active Clearview,3,10,10,5,2013-12-16,51.572144,0.315736
6210,W H Smith Ltd,Exempt,nan,nan,nan,2012-07-09,51.619507,0.302212
6211,Waldmans Pharmacy,Exempt,nan,nan,nan,2014-10-21,51.627931,0.296338
6212,Warley Food & Wine,5,5,5,5,2014-10-24,51.60584081,0.29640324
6213,Warley Park Golf Club,4,0,10,10,2014-07-28,51.588609,0.307131
6214,Warley Park Golf Shop,4,0,0,10,2014-10-23,51.590874,0.30993
6215,Warley Primary School,5,0,0,0,2013-04-23,51.604944,0.300522
6216,Waterstones,Exempt,nan,nan,nan,2014-06-24,51.620525,0.301613
6217,Weald Country Park Visitors Centre,4,0,0,10,2012-09-18,51.6223973829,0.28924890743
6218,West Horndon Primary School,5,5,5,5,2014-09-08,51.572383,0.343587
6219,West Horndon Under 5 S Play Group,5,5,5,5,2013-05-20,51.57356,0.343085
6220,Whittakers,4,10,0,5,2013-07-02,51.619841,0.301203
6221,Wilkinson,5,0,0,0,2012-07-02,51.619507,0.302212
6222,Willowbrook Primary School,5,5,0,0,2013-04-25,51.614618,0.333455
6223,Wind In The Willows,5,5,0,5,2014-07-09,51.605013,0.330768
6224,Winifred Dell House,5,5,5,5,2014-02-17,51.602685,0.295584
6225,With A Cherry On Top,5,0,0,5,2013-02-12,,
6226,Wolsley Canteen,4,5,5,10,2013-12-09,51.568815,0.333085
6227,Wongs Chinese Food Take Away,5,5,5,5,2014-02-18,51.627931,0.296338
6228,Wongs Fish Bar,4,5,10,5,2014-08-05,51.668493,0.301658
6229,Woodland Bakery,5,5,0,5,2014-07-10,51.637379,0.346098
6230,Woodlands Preparatory School,4,5,10,5,2014-04-08,51.579682,0.300097
6231,Woodlands School,5,5,5,5,2014-06-23,,
6232,Wright Start Day Nurseries Ltd,5,0,0,5,2013-10-15,51.672444,0.380858
6233,Ya Ya,5,0,5,5,2014-01-07,51.619424,0.299087
6234,Ye Olde Green Dragon,5,5,5,5,2014-06-10,51.629884,0.319586
6235,Youth Council Tuck Shop,Exempt,nan,nan,nan,2013-12-09,,
6236,Zizzi,5,5,5,0,2014-10-31,51.619841,0.301203
