,addressline1,addressline2,addressline3,addressline4,businessname,businesstype,businesstypeid,confidenceinmanagement,extractdate,fhrsid,hygiene,itemcount,latitude,localauthoritybusinessid,localauthoritycode,localauthorityemailaddress,localauthorityname,localauthoritywebsite,longitude,postcode,ratingdate,ratingkey,ratingvalue,returncode,schemetype,structural
30567,124 High Street Great Wakering Essex,,,,A Cup Above,Restaurant/Cafe/Canteen,1,5,,695921,5,,51.55317700000000,14/00027/COMM,118,customerservices@rochford.gov.uk,Rochford,http://www.rochford.gov.uk,0.80217600000000,SS3 0ET,2014-08-06,fhrs_5_en-GB,5,,FHRS,5
30568,40 Eastwood Road Rayleigh Essex,,,,ABC Rainbow Day Nursery Ltd,Hospitals/Childcare/Caring Premises,5,5,,155612,5,,51.58455600000000,EH/00004860,118,customerservices@rochford.gov.uk,Rochford,http://www.rochford.gov.uk,0.60593700000000,SS6 7JQ,2014-05-12,fhrs_5_en-GB,5,,FHRS,5
30569,Not published,,,,Alberts Catering,Mobile caterer,7846,5,,576063,10,,,13/00048/COMM,118,customerservices@rochford.gov.uk,Rochford,http://www.rochford.gov.uk,,,2013-11-11,fhrs_4_en-GB,4,,FHRS,0
30570,64 - 66 West Street Rochford Essex,,,,Alessandros,Restaurant/Cafe/Canteen,1,10,,333375,0,,51.58246000000000,11/00151/COMM,118,customerservices@rochford.gov.uk,Rochford,http://www.rochford.gov.uk,0.70569700000000,SS4 1AJ,2014-01-09,fhrs_4_en-GB,4,,FHRS,5
30571,133 Ferry Road Hullbridge Hockley Essex,,,,Alexanders,Takeaway/sandwich shop,7844,5,,32782,5,,51.62263600000000,10/00005/COMM,118,customerservices@rochford.gov.uk,Rochford,http://www.rochford.gov.uk,0.61271300000000,SS5 6ET,2014-05-07,fhrs_5_en-GB,5,,FHRS,5
30572,45 Eastwood Road Rayleigh Essex,,,,Ali Baba,Takeaway/sandwich shop,7844,20,,33025,15,,51.58480600000000,10/00020/COMM,118,customerservices@rochford.gov.uk,Rochford,http://www.rochford.gov.uk,0.60644200000000,SS6 7JE,2014-11-21,fhrs_1_en-GB,1,,FHRS,15
30573,Not published,,,,Always Cake Day,Other catering premises,7841,5,,576059,0,,,13/00003/COMM,118,customerservices@rochford.gov.uk,Rochford,http://www.rochford.gov.uk,,,2013-06-26,fhrs_5_en-GB,5,,FHRS,0
30574,173 High Street Rayleigh Essex,,,,Amelias Allsorts,Restaurant/Cafe/Canteen,1,20,,637168,10,,51.58459400000000,14/00005/COMM,118,customerservices@rochford.gov.uk,Rochford,http://www.rochford.gov.uk,0.60381700000000,SS6 7QA,2014-02-19,fhrs_1_en-GB,1,,FHRS,15
30575,Anchor Inn High Street Canewdon Rochford Essex,,,,Anchor Inn,Pub/bar/nightclub,7843,5,,18468,5,,51.61749300000000,06/00136/COMM,118,customerservices@rochford.gov.uk,Rochford,http://www.rochford.gov.uk,0.74272900000000,SS4 3QA,2013-02-12,fhrs_5_en-GB,5,,FHRS,5
30576,Anne Boleyn Public House 93 Southend Road Rochford Essex,,,,Anne Boleyn,Pub/bar/nightclub,7843,0,,155695,0,,51.57429200000000,EH/00008852,118,customerservices@rochford.gov.uk,Rochford,http://www.rochford.gov.uk,0.70772400000000,SS4 1HU,2013-04-28,fhrs_5_en-GB,5,,FHRS,0
30577,12 - 14 North Street Rochford Essex,,,,Antica Roma,Restaurant/Cafe/Canteen,1,5,,428859,5,,51.58291152000000,12/00040/COMM,118,customerservices@rochford.gov.uk,Rochford,http://www.rochford.gov.uk,0.70708475000000,,2013-11-28,fhrs_5_en-GB,5,,FHRS,5
30578,London Southend Airport Southend Airport Rochford Essex,,,,Arnold   Forbes   Lakers Bar,Restaurant/Cafe/Canteen,1,0,,606631,0,,51.77044677734375,13/00042/COMM,118,customerservices@rochford.gov.uk,Rochford,http://www.rochford.gov.uk,0.70727801322937,SS2 6YF,2013-10-18,fhrs_5_en-GB,5,,FHRS,0
30579,Asda Priory Chase Rayleigh Essex,,,,Asda,Retailers - supermarkets/hypermarkets,7840,0,,21919,5,,51.60302300000000,07/00089/COMM,118,customerservices@rochford.gov.uk,Rochford,http://www.rochford.gov.uk,0.59766500000000,SS6 9JR,2014-11-26,fhrs_5_en-GB,5,,FHRS,5
30580,Ashingdon Hall  Ashingdon Road Rochford Essex,,,,Ashingdon Hall Care Home,Hospitals/Childcare/Caring Premises,5,5,,25320,5,,51.60924100000000,08/00069/COMM,118,customerservices@rochford.gov.uk,Rochford,http://www.rochford.gov.uk,0.69050600000000,SS4 3HZ,2014-06-26,fhrs_5_en-GB,5,,FHRS,5
30581,428 Ashingdon Road Ashingdon Rochford Essex,,,,Ashingdon News & Mace,Retailers - other,4613,5,,155536,0,,51.60571900000000,-EH/00000070,118,customerservices@rochford.gov.uk,Rochford,http://www.rochford.gov.uk,0.69269500000000,SS4 3ET,2014-04-10,fhrs_5_en-GB,5,,FHRS,5
30582,4 Golden Cross Parade Ashingdon Road Rochford Essex,,,,Ashingdon Off Licence,Retailers - other,4613,0,,28973,0,,51.59632300000000,09/00042/COMM,118,customerservices@rochford.gov.uk,Rochford,http://www.rochford.gov.uk,0.69615400000000,SS4 1UB,2012-10-24,fhrs_5_en-GB,5,,FHRS,5
30583,Ashingdon Post Office 509 Ashingdon Road Ashingdon Rochford Essex,,,,Ashingdon Post Office,Retailers - other,4613,0,,155538,0,,51.60731800000000,EH/00000089,118,customerservices@rochford.gov.uk,Rochford,http://www.rochford.gov.uk,0.69120100000000,SS4 3HE,2011-09-07,fhrs_5_en-GB,5,,FHRS,0
30584,Ashingdon School Fambridge Road Ashingdon Rochford Essex,,,,Ashingdon School,School/college/university,7845,5,,155540,0,,51.61459600000000,EH/00000216,118,customerservices@rochford.gov.uk,Rochford,http://www.rochford.gov.uk,0.68367200000000,SS4 3LN,2015-01-30,fhrs_5_en-GB,5,,FHRS,0
30585,Wyburns Primary School Nevern Road Rayleigh Essex,,,,Ashlyns Organics Ltd,School/college/university,7845,0,,46945,0,,51.57865800000000,11/00095/COMM,118,customerservices@rochford.gov.uk,Rochford,http://www.rochford.gov.uk,0.61756500000000,SS6 7PE,2014-07-09,fhrs_5_en-GB,5,,FHRS,5
30586,110A High Street Rayleigh Essex,,,,Asiana,Restaurant/Cafe/Canteen,1,20,,45825,15,,51.58573800000000,11/00030/COMM,118,customerservices@rochford.gov.uk,Rochford,http://www.rochford.gov.uk,0.60457500000000,SS6 7BY,2014-11-24,fhrs_1_en-GB,1,,FHRS,10
30587,28 High Street Rayleigh Essex,,,,Ask Italian,Restaurant/Cafe/Canteen,1,0,,33151,0,,51.58733400000000,10/00028/COMM,118,customerservices@rochford.gov.uk,Rochford,http://www.rochford.gov.uk,0.60680300000000,SS6 7EF,2014-07-30,fhrs_5_en-GB,5,,FHRS,5
30588,15 Brook Road Rayleigh Essex,,,,Aspire Cafe,Restaurant/Cafe/Canteen,1,10,,559697,10,,51.57744800000000,13/00029/COMM,118,customerservices@rochford.gov.uk,Rochford,http://www.rochford.gov.uk,0.60486600000000,SS6 7UT,2014-11-14,fhrs_3_en-GB,3,,FHRS,5
30589,121 Southend Road Rochford Essex,,,,B & M News,Retailers - other,4613,0,,155696,0,,51.57310600000000,EH/00008862,118,customerservices@rochford.gov.uk,Rochford,http://www.rochford.gov.uk,0.70685900000000,SS4 1HX,2014-01-08,fhrs_5_en-GB,5,,FHRS,5
30590,Unit 6 Airport Retail Park Rochford Essex,,,,B And M Stores,Retailers - supermarkets/hypermarkets,7840,0,,486111,0,,51.56765000000000,12/00112/COMM,118,customerservices@rochford.gov.uk,Rochford,http://www.rochford.gov.uk,0.70323000000000,SS2 6FW,2012-11-14,fhrs_5_en-GB,5,,FHRS,0
30591,Badgers 53 Rayleigh Avenue Eastwood Leigh-on-Sea Essex,,,,Badgers Nursing Home,Hospitals/Childcare/Caring Premises,5,0,,155751,0,,51.57703200000000,EH/00018438,118,customerservices@rochford.gov.uk,Rochford,http://www.rochford.gov.uk,0.63756400000000,SS9 5DS,2014-11-23,fhrs_5_en-GB,5,,FHRS,5
30592,Not published,,,,BakerLou,Other catering premises,7841,0,,47202,0,,,11/00114/COMM,118,customerservices@rochford.gov.uk,Rochford,http://www.rochford.gov.uk,,,2014-08-28,fhrs_5_en-GB,5,,FHRS,0
30593,Ballards Gore Golf Club Ballards Gore Stambridge Rochford Essex,,,,Ballards Gore Golf Club,Pub/bar/nightclub,7843,20,,29679,15,,51.60175400000000,09/00101/COMM,118,customerservices@rochford.gov.uk,Rochford,http://www.rochford.gov.uk,0.74849600000000,SS4 2DA,2014-12-03,fhrs_1_en-GB,1,,FHRS,10
30594,27 - 29 Eastwood Road Rayleigh Essex,,,,Bar Blanco,Pub/bar/nightclub,7843,10,,536903,5,,51.58526700000000,12/00116/COMM,118,customerservices@rochford.gov.uk,Rochford,http://www.rochford.gov.uk,0.60553000000000,SS6 7JD,2014-11-11,fhrs_4_en-GB,4,,FHRS,5
30595,Barling Lodge 399 Little Wakering Road Barling Magna Southend-On-Sea Essex,,,,Barling Lodge,Hospitals/Childcare/Caring Premises,5,5,,18828,5,,51.57605900000000,06/00247/COMM,118,customerservices@rochford.gov.uk,Rochford,http://www.rochford.gov.uk,0.89780800000000,SS3 0LH,2013-09-25,fhrs_5_en-GB,5,,FHRS,5
30596,Barling Magna Village Hall Little Wakering Road Barling Magna Essex,,,,Barling Magna Parish Hall,Other catering premises,7841,0,,552581,0,,,13/00015/COMM,118,customerservices@rochford.gov.uk,Rochford,http://www.rochford.gov.uk,,,2014-11-18,fhrs_5_en-GB,5,,FHRS,5
30597,Barling Magna Primary School Little Wakering Road Barling Magna Southend-On-Sea Essex,,,,Barling Magna Primary School,School/college/university,7845,5,,155595,5,,51.56842100000000,EH/00003824,118,customerservices@rochford.gov.uk,Rochford,http://www.rochford.gov.uk,0.78409300000000,SS3 0LN,2013-03-14,fhrs_5_en-GB,5,,FHRS,5
30598,Premier Inn Arterial Road Rayleigh Essex,,,,Basildon (Rayleigh) Premier Inn,Hotel/bed & breakfast/guest house,7842,0,,26030,0,,51.57727200000000,08/00181/COMM,118,customerservices@rochford.gov.uk,Rochford,http://www.rochford.gov.uk,0.60064100000000,SS6 7SP,2012-12-20,fhrs_5_en-GB,5,,FHRS,0
30599,Battlesbridge Mill Garden Centre Chelmsford Road Rawreth Wickford Essex,,,,Battlesbridge Mill Garden Centre,Retailers - other,4613,5,,33207,0,,51.62217800000000,10/00031/COMM,118,customerservices@rochford.gov.uk,Rochford,http://www.rochford.gov.uk,0.57158200000000,SS11 8TR,2012-02-02,fhrs_5_en-GB,5,,FHRS,0
30600,Not published,,,,Bel's Bakes,Other catering premises,7841,0,,208855,0,,,12/00011/COMM,118,customerservices@rochford.gov.uk,Rochford,http://www.rochford.gov.uk,,,2012-03-01,fhrs_5_en-GB,5,,FHRS,0
30601,49 Eastwood Road Rayleigh Essex,,,,Bengal Blue,Restaurant/Cafe/Canteen,1,20,,559694,15,,51.58480600000000,13/00004/COMM,118,customerservices@rochford.gov.uk,Rochford,http://www.rochford.gov.uk,0.60644200000000,SS6 7JE,2014-11-21,fhrs_1_en-GB,1,,FHRS,10
30602,31 Eastwood Road Rayleigh Essex,,,,Bentleys Quality Sandwiches,Restaurant/Cafe/Canteen,1,0,,155748,5,,51.58526700000000,EH/00017707,118,customerservices@rochford.gov.uk,Rochford,http://www.rochford.gov.uk,0.60553000000000,SS6 7JD,2014-06-13,fhrs_5_en-GB,5,,FHRS,0
30603,133 High Street Rayleigh Essex,,,,Best Bargains,Retailers - other,4613,0,,606633,0,,51.58459400000000,13/00070/COMM,118,customerservices@rochford.gov.uk,Rochford,http://www.rochford.gov.uk,0.60381700000000,SS6 7QA,2013-10-16,fhrs_4_en-GB,4,,FHRS,10
30604,123 High Street Rayleigh Essex,,,,Bogaz Turkish Resturant,Restaurant/Cafe/Canteen,1,0,,695924,5,,51.58462000000000,14/00056/COMM,118,customerservices@rochford.gov.uk,Rochford,http://www.rochford.gov.uk,0.60387600000000,SS6 7QA,2014-07-30,fhrs_5_en-GB,5,,FHRS,5
30605,127 Southend Road Rochford Essex,,,,Boleyn Cafe,Restaurant/Cafe/Canteen,1,10,,155697,0,,51.57310600000000,EH/00008865,118,customerservices@rochford.gov.uk,Rochford,http://www.rochford.gov.uk,0.70685900000000,SS4 1HX,2014-09-30,fhrs_4_en-GB,4,,FHRS,10
30606,77 High Street Rayleigh Essex,,,,Boots The Chemist Plc,Retailers - other,4613,0,,637173,0,,51.58587500000000,EH/00005473,118,customerservices@rochford.gov.uk,Rochford,http://www.rochford.gov.uk,0.60569400000000,SS6 7EJ,2014-01-09,fhrs_5_en-GB,5,,FHRS,0
30607,Britton Court Finchfield Rayleigh Essex,,,,Britton Court,Hospitals/Childcare/Caring Premises,5,0,,409031,0,,51.58343929089380,12/00050/COMM,118,customerservices@rochford.gov.uk,Rochford,http://www.rochford.gov.uk,0.60695149469715,,2014-04-23,fhrs_5_en-GB,5,,FHRS,0
30608,Broadoaks Residential Home 2 Southend Road Rochford Essex,,,,Broadoaks,Hospitals/Childcare/Caring Premises,5,10,,155694,5,,51.57827000000000,EH/00008832,118,customerservices@rochford.gov.uk,Rochford,http://www.rochford.gov.uk,0.70680500000000,SS4 1HE,2014-09-27,fhrs_4_en-GB,4,,FHRS,5
30609,349 Eastwood Road Rayleigh Essex,,,,Brocketts,Retailers - other,4613,10,,669438,0,,51.57665500000000,14/00032/COMM,118,customerservices@rochford.gov.uk,Rochford,http://www.rochford.gov.uk,0.63033900000000,SS6 7LJ,2014-06-05,fhrs_4_en-GB,4,,FHRS,0
30610,17 Brook Close Rochford Essex,,,,Brook Care Home,Hospitals/Childcare/Caring Premises,5,20,,155676,15,,51.57307300000000,EH/00007702,118,customerservices@rochford.gov.uk,Rochford,http://www.rochford.gov.uk,0.71258700000000,SS4 1HN,2014-09-27,fhrs_1_en-GB,1,,FHRS,10
30611,Brookside Cafe London Road Rayleigh Essex,,,,Brookside Cafe,Restaurant/Cafe/Canteen,1,10,,669432,15,,51.59776200000000,14/00010/COMM,118,customerservices@rochford.gov.uk,Rochford,http://www.rochford.gov.uk,0.57811500000000,SS6 9ES,2014-05-02,fhrs_2_en-GB,2,,FHRS,15
30612,Broomhills Stambridge Road Rochford Essex,,,,Broomhills Care Centre Ltd,Hospitals/Childcare/Caring Premises,5,5,,155698,10,,51.58042700000000,EH/00008954,118,customerservices@rochford.gov.uk,Rochford,http://www.rochford.gov.uk,0.72434300000000,SS4 2AQ,2014-03-10,fhrs_2_en-GB,2,,FHRS,15
30613,Not published,,,,Brunch Box,Mobile caterer,7846,5,,155728,5,,,EH/00013435,118,customerservices@rochford.gov.uk,Rochford,http://www.rochford.gov.uk,,,2014-02-18,fhrs_5_en-GB,5,,FHRS,5
30614,1 - 9 Ferry Road Hullbridge Hockley Essex,,,,Budgens,Retailers - supermarkets/hypermarkets,7840,0,,26108,0,,51.61827900000000,08/00198/COMM,118,customerservices@rochford.gov.uk,Rochford,http://www.rochford.gov.uk,0.61253500000000,SS5 6DN,2014-09-27,fhrs_5_en-GB,5,,FHRS,5
30615,88 Bull Lane Rayleigh Essex,,,,Bull Lane Stores,Retailers - other,4613,10,,155600,0,,51.58756700000000,EH/00004270,118,customerservices@rochford.gov.uk,Rochford,http://www.rochford.gov.uk,0.61816400000000,SS6 8NQ,2012-11-03,fhrs_4_en-GB,4,,FHRS,0
30616,Not published,,,,Burridge's Fish Van,Mobile caterer,7846,5,,155572,0,,,EH/00002260,118,customerservices@rochford.gov.uk,Rochford,http://www.rochford.gov.uk,,,2014-09-01,fhrs_5_en-GB,5,,FHRS,5
30617,29 High Street Rayleigh Essex,,,,Byfords,Retailers - other,4613,0,,25139,0,,51.58711800000000,08/00048/COMM,118,customerservices@rochford.gov.uk,Rochford,http://www.rochford.gov.uk,0.60719500000000,SS6 7EW,2014-01-29,fhrs_5_en-GB,5,,FHRS,0
30618,77 Grove Road Rayleigh Essex,,,,Byron News,Retailers - other,4613,0,,155620,0,,51.58445300000000,EH/00005181,118,customerservices@rochford.gov.uk,Rochford,http://www.rochford.gov.uk,0.62388900000000,SS6 8RA,2013-11-13,fhrs_5_en-GB,5,,FHRS,0
30619,6 Purdeys Way Rochford Essex,,,,Cafe Elite,Restaurant/Cafe/Canteen,1,0,,409036,0,,51.57678100000000,12/00056/COMM,118,customerservices@rochford.gov.uk,Rochford,http://www.rochford.gov.uk,0.71673400000000,SS4 1ND,2012-06-18,fhrs_5_en-GB,5,,FHRS,0
30620,5 Berrys Arcade High Street Rayleigh Essex,,,,Cafe Tiere,Restaurant/Cafe/Canteen,1,5,,208850,5,,51.58768400000000,11/00155/COMM,118,customerservices@rochford.gov.uk,Rochford,http://www.rochford.gov.uk,0.60722700000000,SS6 7EQ,2013-05-08,fhrs_5_en-GB,5,,FHRS,5
30621,Canewdon Endowed County Primary School Anchor Lane Canewdon Rochford Essex,,,,Canewdon Endowed County Primary School,School/college/university,7845,5,,155542,0,,51.61543700000000,EH/00000462,118,customerservices@rochford.gov.uk,Rochford,http://www.rochford.gov.uk,0.74373200000000,SS4 3PA,2014-06-06,fhrs_5_en-GB,5,,FHRS,5
30622,The Sweyne Park School Sir Walter Raleigh Drive Rayleigh Essex,,,,Cater Link Ltd,School/college/university,7845,0,,34073,0,,51.59553600000000,10/00087/COMM,118,customerservices@rochford.gov.uk,Rochford,http://www.rochford.gov.uk,0.59869600000000,SS6 9BZ,2013-09-13,fhrs_5_en-GB,5,,FHRS,0
30623,Hullbridge Community Association Pooles Lane Hullbridge Essex,,,,Catering Franchise,Other catering premises,7841,0,,46180,5,,51.62818400000000,11/00051/COMM,118,customerservices@rochford.gov.uk,Rochford,http://www.rochford.gov.uk,0.61599400000000,SS5 6PA,2014-11-12,fhrs_5_en-GB,5,,FHRS,0
30624,Coachman Court 35 Ashingdon Road Rochford Essex,,,,Caterplus Services LTD,Restaurant/Cafe/Canteen,1,0,,356622,0,,51.58460600000000,12/00028/COMM,118,customerservices@rochford.gov.uk,Rochford,http://www.rochford.gov.uk,0.69999800000000,,2013-11-14,fhrs_5_en-GB,5,,FHRS,5
30625,Not published,,,,Centre Oaks Catering,Mobile caterer,7846,5,,536905,0,,,13/00020/COMM,118,customerservices@rochford.gov.uk,Rochford,http://www.rochford.gov.uk,,,2013-04-15,fhrs_5_en-GB,5,,FHRS,5
30626,Chandos Service Station Greensward Lane Ashingdon Hockley Essex,,,,Chandos Service Station,Retailers - other,4613,5,,18374,5,,51.60415700000000,06/00116/COMM,118,customerservices@rochford.gov.uk,Rochford,http://www.rochford.gov.uk,0.66185400000000,SS5 5HA,2012-04-20,fhrs_5_en-GB,5,,FHRS,5
30627,5 Spa Road Hockley Essex,,,,Charlie Wong,Takeaway/sandwich shop,7844,5,,29753,5,,51.60172300000000,09/00108/COMM,118,customerservices@rochford.gov.uk,Rochford,http://www.rochford.gov.uk,0.65535700000000,SS5 4AZ,2014-03-19,fhrs_5_en-GB,5,,FHRS,5
30628,86 The Chase Rayleigh Essex,,,,Chase Fruit & Convenience Store,Retailers - other,4613,10,,155604,0,,51.58360400000000,EH/00004378,118,customerservices@rochford.gov.uk,Rochford,http://www.rochford.gov.uk,0.62241100000000,SS6 8RW,2013-08-09,fhrs_4_en-GB,4,,FHRS,5
30629,90 The Chase Rayleigh Essex,,,,Chasers,Retailers - other,4613,5,,155605,0,,51.58533300000000,EH/00004380,118,customerservices@rochford.gov.uk,Rochford,http://www.rochford.gov.uk,0.62352100000000,SS6 8QP,2012-12-05,fhrs_5_en-GB,5,,FHRS,5
30630,216 Main Road Hawkwell Hockley Essex,,,,Chelmsford Star Co - Op Soc. Ltd,Retailers - supermarkets/hypermarkets,7840,0,,155735,5,,51.59762700000000,EH/00015005,118,customerservices@rochford.gov.uk,Rochford,http://www.rochford.gov.uk,0.66544300000000,SS5 4EG,2014-11-19,fhrs_5_en-GB,5,,FHRS,5
30631,Not published,,,,Chengs Doughnuts,Mobile caterer,7846,5,,486106,0,,,12/00105/COMM,118,customerservices@rochford.gov.uk,Rochford,http://www.rochford.gov.uk,,,2012-12-10,fhrs_5_en-GB,5,,FHRS,0
30632,255 Ferry Road Hullbridge Hockley Essex,,,,China City Restuarant,Restaurant/Cafe/Canteen,1,5,,18302,5,,51.62788800000000,06/00101/COMM,118,customerservices@rochford.gov.uk,Rochford,http://www.rochford.gov.uk,0.61353500000000,SS5 6NA,2014-03-25,fhrs_5_en-GB,5,,FHRS,5
30633,122 High Street Rayleigh Essex,,,,Choi Yin,Restaurant/Cafe/Canteen,1,10,,356623,5,,51.58711800000000,12/00047/COMM,118,customerservices@rochford.gov.uk,Rochford,http://www.rochford.gov.uk,0.60719500000000,SS6 7EW,2014-06-30,fhrs_2_en-GB,2,,FHRS,15
30634,81 Grove Road Rayleigh Essex,,,,"Chris' Fish, Chicken And Ribs",Takeaway/sandwich shop,7844,5,,34087,0,,51.58445300000000,10/00088/COMM,118,customerservices@rochford.gov.uk,Rochford,http://www.rochford.gov.uk,0.62388900000000,SS6 8RA,2013-11-25,fhrs_5_en-GB,5,,FHRS,0
30635,8 - 10 Eldon Way Hockley Essex,,,,CJ's Bowling Ltd,Other catering premises,7841,5,,21945,5,,51.60307400000000,07/00095/COMM,118,customerservices@rochford.gov.uk,Rochford,http://www.rochford.gov.uk,0.65565300000000,SS5 4AD,2014-06-30,fhrs_5_en-GB,5,,FHRS,5
30636,Not published,,,,Clare's Cakes,Other catering premises,7841,0,,47188,0,,,11/00113/COMM,118,customerservices@rochford.gov.uk,Rochford,http://www.rochford.gov.uk,,,2011-09-22,fhrs_5_en-GB,5,,FHRS,0
30637,Chichester Hall Old London Road Rawreth Essex,,,,Clare's DD Cafe,Restaurant/Cafe/Canteen,1,10,,208860,5,,51.60474200000000,11/00152/COMM,118,customerservices@rochford.gov.uk,Rochford,http://www.rochford.gov.uk,0.56819900000000,SS11 8UE,2011-12-02,fhrs_4_en-GB,4,,FHRS,5
30638,Not published,,,,Classic Catering,Other catering premises,7841,5,,10060,0,,,04/00116/COMM,118,customerservices@rochford.gov.uk,Rochford,http://www.rochford.gov.uk,,,2012-06-11,fhrs_5_en-GB,5,,FHRS,5
30639,Hawkwell Village Hall Main Road Hawkwell Hockley Essex,,,,Clever Cloggs Pre-School,Hospitals/Childcare/Caring Premises,5,5,,155563,0,,51.59597400000000,EH/00001506,118,customerservices@rochford.gov.uk,Rochford,http://www.rochford.gov.uk,0.66694900000000,SS5 4EH,2013-01-03,fhrs_5_en-GB,5,,FHRS,5
30640,Not published,,,,Cole And Sons Traditional Ice Creams,Mobile caterer,7846,5,,33132,0,,,10/00027/COMM,118,customerservices@rochford.gov.uk,Rochford,http://www.rochford.gov.uk,,,2013-04-05,fhrs_5_en-GB,5,,FHRS,0
30641,2C Eastwood Road Rayleigh Essex,,,,Coles Vintage Tea Rooms,Restaurant/Cafe/Canteen,1,10,,543040,10,,51.58455600000000,13/00014/COMM,118,customerservices@rochford.gov.uk,Rochford,http://www.rochford.gov.uk,0.60593700000000,SS6 7JQ,2013-04-26,fhrs_3_en-GB,3,,FHRS,5
30642,Not published,,,,Colettes Petit Tresors,Other catering premises,7841,5,,682775,0,,,13/00076/COMM,118,customerservices@rochford.gov.uk,Rochford,http://www.rochford.gov.uk,,,2013-09-25,fhrs_5_en-GB,5,,FHRS,0
30643,Hockley Railway Station Station Approach Hockley Essex,,,,Collect Coffee Ltd,Takeaway/sandwich shop,7844,0,,29318,0,,51.60336500000000,09/00072/COMM,118,customerservices@rochford.gov.uk,Rochford,http://www.rochford.gov.uk,0.65907800000000,SS5 4BG,2014-08-22,fhrs_5_en-GB,5,,FHRS,0
30644,Not published,,,,Cookie Delicious,Other catering premises,7841,0,,449789,5,,,12/00063/COMM,118,customerservices@rochford.gov.uk,Rochford,http://www.rochford.gov.uk,,,2012-09-10,fhrs_5_en-GB,5,,FHRS,5
30645,75 High Street Rayleigh Essex,,,,Costa,Restaurant/Cafe/Canteen,1,0,,21965,0,,51.58592600000000,07/00098/COMM,118,customerservices@rochford.gov.uk,Rochford,http://www.rochford.gov.uk,0.60579800000000,SS6 7EJ,2015-01-27,fhrs_5_en-GB,5,,FHRS,5
30646,36 Main Road Hockley Essex,,,,Costcutter,Retailers - supermarkets/hypermarkets,7840,0,,34783,5,,51.60136000000000,10/00154/COMM,118,customerservices@rochford.gov.uk,Rochford,http://www.rochford.gov.uk,0.65189900000000,SS5 4QS,2013-01-04,fhrs_5_en-GB,5,,FHRS,5
30647,Forge General Stores High Street Canewdon Rochford Essex,,,,Costcutters,Retailers - other,4613,5,,155549,0,,51.61749300000000,EH/00000572,118,customerservices@rochford.gov.uk,Rochford,http://www.rochford.gov.uk,0.74272900000000,SS4 3QA,2013-04-03,fhrs_5_en-GB,5,,FHRS,5
30648,14 Main Road Hockley Essex,,,,Cottage Bakery,Retailers - other,4613,20,,155573,15,,51.60136000000000,EH/00002402,118,customerservices@rochford.gov.uk,Rochford,http://www.rochford.gov.uk,0.65189900000000,SS5 4QS,2014-06-05,fhrs_1_en-GB,1,,FHRS,15
30649,5 Golden Cross Parade Ashingdon Road Rochford Essex,,,,Cottage Bakery,Retailers - other,4613,10,,155681,10,,51.59632300000000,EH/00007980,118,customerservices@rochford.gov.uk,Rochford,http://www.rochford.gov.uk,0.69615400000000,SS4 1UB,2014-06-05,fhrs_3_en-GB,3,,FHRS,10
30650,Not published,,,,Country Cottage Teas,Other catering premises,7841,5,,695925,5,,,14/00058/COMM,118,customerservices@rochford.gov.uk,Rochford,http://www.rochford.gov.uk,,,2014-07-21,fhrs_5_en-GB,5,,FHRS,5
30651,106 Lower Road Hullbridge Hockley Essex,,,,Coventry Hill Service Station,Retailers - other,4613,5,,155587,0,,51.61719300000000,EH/00003392,118,customerservices@rochford.gov.uk,Rochford,http://www.rochford.gov.uk,0.61445200000000,SS5 6DD,2012-07-17,fhrs_5_en-GB,5,,FHRS,5
30652,Not published,,,,Creative Cakes,Other catering premises,7841,5,,637165,5,,,13/00068/COMM,118,customerservices@rochford.gov.uk,Rochford,http://www.rochford.gov.uk,,,2014-03-18,fhrs_5_en-GB,5,,FHRS,5
30653,Cupids Country Club Cupids Chase Great Wakering Southend On Sea Essex,,,,Cupids Country Club Ltd,Pub/bar/nightclub,7843,5,,155560,0,,51.54562600000000,EH/00001156,118,customerservices@rochford.gov.uk,Rochford,http://www.rochford.gov.uk,0.81442000000000,SS3 0AX,2013-02-18,fhrs_5_en-GB,5,,FHRS,5
30654,Not published,,,,Cuppa Cakey Bakery,Other catering premises,7841,0,,486103,0,,,12/00100/COMM,118,customerservices@rochford.gov.uk,Rochford,http://www.rochford.gov.uk,,,2012-11-27,fhrs_5_en-GB,5,,FHRS,0
30655,82 The Chase Rayleigh Essex,,,,D W Parkin,Retailers - other,4613,0,,155603,0,,51.58360400000000,EH/00004376,118,customerservices@rochford.gov.uk,Rochford,http://www.rochford.gov.uk,0.62241100000000,SS6 8RW,2014-11-07,fhrs_5_en-GB,5,,FHRS,5
30656,Rear Of 128 High Street Rayleigh Essex,,,,Dairy Crest Ltd,Distributors/Transporters,7,5,,155638,5,,51.58569400000000,EH/00005547,118,customerservices@rochford.gov.uk,Rochford,http://www.rochford.gov.uk,0.60451500000000,SS6 7BY,2012-10-22,fhrs_5_en-GB,5,,FHRS,5
30657,Day Centre Back Lane Rochford Essex,,,,Day Centre,Hospitals/Childcare/Caring Premises,5,0,,155673,5,,51.58190300000000,EH/00007640,118,customerservices@rochford.gov.uk,Rochford,http://www.rochford.gov.uk,0.70604000000000,SS4 1AY,2014-11-26,fhrs_5_en-GB,5,,FHRS,5
30658,2 - 3 Apex Court 125 Plumberow Avenue Hockley Essex,,,,Deepa Convenience Store,Retailers - other,4613,10,,155575,0,,51.60874300000000,EH/00002669,118,customerservices@rochford.gov.uk,Rochford,http://www.rochford.gov.uk,0.65789000000000,SS5 5AT,2012-11-09,fhrs_4_en-GB,4,,FHRS,0
30659,Not published,,,,Denas Cakes,Other catering premises,7841,0,,559693,0,,,13/00002/COMM,118,customerservices@rochford.gov.uk,Rochford,http://www.rochford.gov.uk,,,2013-06-17,fhrs_5_en-GB,5,,FHRS,0
30660,Not published,,,,Denise's Celebration Cakes,Other catering premises,7841,5,,682778,5,,,13/00088/COMM,118,customerservices@rochford.gov.uk,Rochford,http://www.rochford.gov.uk,,,2013-11-26,fhrs_5_en-GB,5,,FHRS,0
30661,Market Square West Street Rochford Essex,,,,Diddy Donuts,Retailers - other,4613,0,,559701,5,,,13/00041/COMM,118,customerservices@rochford.gov.uk,Rochford,http://www.rochford.gov.uk,,,2013-06-11,fhrs_5_en-GB,5,,FHRS,0
30662,40 Spa Road Hockley Essex,,,,Dominos Pizza,Takeaway/sandwich shop,7844,0,,486108,0,,51.60144900000000,12/00109/COMM,118,customerservices@rochford.gov.uk,Rochford,http://www.rochford.gov.uk,0.65593400000000,SS5 4PH,2015-01-05,fhrs_5_en-GB,5,,FHRS,5
30663,41 Eastwood Road Rayleigh Essex,,,,Dominos Pizza,Restaurant/Cafe/Canteen,1,0,,34249,0,,51.58480600000000,10/00102/COMM,118,customerservices@rochford.gov.uk,Rochford,http://www.rochford.gov.uk,0.60644200000000,SS6 7JE,2014-11-21,fhrs_5_en-GB,5,,FHRS,5
30664,5 - 7 Dorset Gardens Rochford Essex,,,,Dorset Lodge Ltd,Hospitals/Childcare/Caring Premises,5,5,,155679,5,,51.59793500000000,EH/00007852,118,customerservices@rochford.gov.uk,Rochford,http://www.rochford.gov.uk,0.68939000000000,SS4 3AH,2012-09-17,fhrs_5_en-GB,5,,FHRS,5
30665,21 Down Hall Road Rayleigh Essex,,,,Down Hall Stores,Retailers - other,4613,10,,21378,0,,51.59345200000000,07/00015/COMM,118,customerservices@rochford.gov.uk,Rochford,http://www.rochford.gov.uk,0.60465500000000,SS6 9JT,2012-03-29,fhrs_4_en-GB,4,,FHRS,5
30666,Downhall Primary School Brooklyn Drive Rayleigh Essex,,,,Downhall Primary School,School/college/university,7845,0,,155599,0,,51.59808200000000,EH/00004240,118,customerservices@rochford.gov.uk,Rochford,http://www.rochford.gov.uk,0.60715900000000,SS6 9LW,2014-06-18,fhrs_5_en-GB,5,,FHRS,0
30667,Hall Ferndale Road Rayleigh Essex,,,,Downhall Under Fives,Hospitals/Childcare/Caring Premises,5,10,,32765,5,,51.60173300000000,10/00004/COMM,118,customerservices@rochford.gov.uk,Rochford,http://www.rochford.gov.uk,0.61537900000000,,2012-11-20,fhrs_4_en-GB,4,,FHRS,0
30668,367 - 369 Little Wakering Road Great Wakering Southend-on-Sea Essex,,,,Eastern County Care,Hospitals/Childcare/Caring Premises,5,10,,45497,10,,51.56479200000000,11/00011/COMM,118,customerservices@rochford.gov.uk,Rochford,http://www.rochford.gov.uk,0.78390000000000,SS3 0LB,2014-11-24,fhrs_3_en-GB,3,,FHRS,10
30669,Not published,,,,Edesias Banquet,Other catering premises,7841,0,,625036,5,,,14/00003/COMM,118,customerservices@rochford.gov.uk,Rochford,http://www.rochford.gov.uk,,,2014-01-07,fhrs_5_en-GB,5,,FHRS,5
30670,Edward Francis School Uplands Park Road Rayleigh Essex,,,,Edward Francis School,School/college/university,7845,0,,155663,0,,51.59168900000000,EH/00007037,118,customerservices@rochford.gov.uk,Rochford,http://www.rochford.gov.uk,0.61233700000000,SS6 8AZ,2013-04-03,fhrs_5_en-GB,5,,FHRS,0
30671,Not published,,,,Egg & Potato Man,Mobile caterer,7846,0,,155539,0,,,EH/00000141,118,customerservices@rochford.gov.uk,Rochford,http://www.rochford.gov.uk,,,2014-02-12,fhrs_5_en-GB,5,,FHRS,0
30672,6 Purdeys Way Rochford Essex,,,,Elite Health,Retailers - other,4613,0,,409026,0,,51.57678100000000,12/00038/COMM,118,customerservices@rochford.gov.uk,Rochford,http://www.rochford.gov.uk,0.71673400000000,SS4 1ND,2012-06-18,fhrs_5_en-GB,5,,FHRS,0
30673,Elizabeth Fitzroy Homes London Road Rayleigh Essex,,,,Elizabeth Fitzroy Homes,Hospitals/Childcare/Caring Premises,5,20,,155653,10,,51.59545800000000,EH/00006136,118,customerservices@rochford.gov.uk,Rochford,http://www.rochford.gov.uk,0.59001300000000,SS6 9DT,2014-06-19,fhrs_1_en-GB,1,,FHRS,20
30674,Not published,,,,Emma's Sweet Sugary Goodness,Other catering premises,7841,0,,625033,0,,,13/00071/COMM,118,customerservices@rochford.gov.uk,Rochford,http://www.rochford.gov.uk,,,2013-11-26,fhrs_5_en-GB,5,,FHRS,0
30675,34 Purdeys Way Rochford Essex,,,,Enjoy Cafe,Restaurant/Cafe/Canteen,1,30,,559699,15,,51.57679300000000,13/00036/COMM,118,customerservices@rochford.gov.uk,Rochford,http://www.rochford.gov.uk,0.71853900000000,SS4 1NE,2014-11-05,fhrs_0_en-GB,0,,FHRS,15
30676,Not published,,,,Essex Cakes Boutique,Other catering premises,7841,5,,208859,0,,,12/00005/COMM,118,customerservices@rochford.gov.uk,Rochford,http://www.rochford.gov.uk,,,2014-01-06,fhrs_5_en-GB,5,,FHRS,0
30677,Unit 3A Essex Marina Wallasea Island Rochford Essex,,,,Essex Marina Bar,Pub/bar/nightclub,7843,10,,29964,5,,51.62174400000000,09/00130/COMM,118,customerservices@rochford.gov.uk,Rochford,http://www.rochford.gov.uk,0.79622800000000,SS4 2HF,2013-09-26,fhrs_4_en-GB,4,,FHRS,5
30678,Essex Marina Wallasea Island Rochford Essex,,,,Essex Marina Yacht Club,Pub/bar/nightclub,7843,10,,155546,0,,51.62174400000000,EH/00000525,118,customerservices@rochford.gov.uk,Rochford,http://www.rochford.gov.uk,0.79622800000000,SS4 2HF,2013-09-11,fhrs_4_en-GB,4,,FHRS,0
30679,Land Fronting 61 To 85 High Street Rayleigh Essex,,,,Essex Pie Man,Retailers - other,4613,0,,559698,5,,,13/00032/COMM,118,customerservices@rochford.gov.uk,Rochford,http://www.rochford.gov.uk,,,2013-06-05,fhrs_5_en-GB,5,,FHRS,0
30680,Qinetiq Churchend Foulness Island Essex,,,,ETC,Restaurant/Cafe/Canteen,1,0,,409022,0,,51.59965000000000,12/00004/COMM,118,customerservices@rochford.gov.uk,Rochford,http://www.rochford.gov.uk,0.89135300000000,,2012-05-18,fhrs_5_en-GB,5,,FHRS,0
30681,Sweyne Court Hockley Road Rayleigh Essex,,,,Excelcare,Hospitals/Childcare/Caring Premises,5,5,,155643,0,,51.58863600000000,EH/00005772,118,customerservices@rochford.gov.uk,Rochford,http://www.rochford.gov.uk,0.61054500000000,SS6 8EB,2014-07-14,fhrs_5_en-GB,5,,FHRS,0
30682,241 High Street Great Wakering Southend-On-Sea Essex,,,,Exhibition Inn,Pub/bar/nightclub,7843,10,,155556,10,,51.55346800000000,EH/00000929,118,customerservices@rochford.gov.uk,Rochford,http://www.rochford.gov.uk,0.79301800000000,SS3 0HZ,2014-11-24,fhrs_3_en-GB,3,,FHRS,10
30683,Edward Francis Primary School Uplands Park Road Rayleigh Essex,,,,Fairview Under 5's,Hospitals/Childcare/Caring Premises,5,0,,682781,0,,51.59328800000000,14/00030/COMM,118,customerservices@rochford.gov.uk,Rochford,http://www.rochford.gov.uk,0.61000300000000,SS6 8AJ,2014-06-20,fhrs_5_en-GB,5,,FHRS,0
30684,The Fairways Diner Fairways Garden Centre Hullbridge Road Rayleigh Essex,,,,Fairways Diner,Restaurant/Cafe/Canteen,1,5,,155645,0,,51.61256700000000,EH/00005853,118,customerservices@rochford.gov.uk,Rochford,http://www.rochford.gov.uk,0.60772900000000,SS6 9QS,2014-01-13,fhrs_5_en-GB,5,,FHRS,5
30685,54 High Street Rayleigh Essex,,,,Favorite Chicken & Ribs,Takeaway/sandwich shop,7844,0,,155630,5,,51.58672000000000,EH/00005441,118,customerservices@rochford.gov.uk,Rochford,http://www.rochford.gov.uk,0.60570000000000,SS6 7EA,2013-06-21,fhrs_5_en-GB,5,,FHRS,0
30686,Not published,,,,Finesse Cakes,Other catering premises,7841,0,,28921,0,,,09/00037/COMM,118,customerservices@rochford.gov.uk,Rochford,http://www.rochford.gov.uk,,,2012-03-29,fhrs_5_en-GB,5,,FHRS,0
30687,10 North Street Rochford Essex,,,,Fish 4 U LTD,Takeaway/sandwich shop,7844,5,,606632,5,,51.58309100000000,13/00063/COMM,118,customerservices@rochford.gov.uk,Rochford,http://www.rochford.gov.uk,0.70680300000000,SS4 1AB,2013-10-17,fhrs_5_en-GB,5,,FHRS,5
30688,Fitzwimarc Secondary School Hockley Road Rayleigh Essex,,,,Fitzwimarc Secondary School,School/college/university,7845,5,,155642,10,,51.58863600000000,EH/00005771,118,customerservices@rochford.gov.uk,Rochford,http://www.rochford.gov.uk,0.61054500000000,SS6 8EB,2014-12-21,fhrs_3_en-GB,3,,FHRS,10
30689,Not published,,,,Five Star Snacks,Mobile caterer,7846,0,,208856,0,,,12/00012/COMM,118,customerservices@rochford.gov.uk,Rochford,http://www.rochford.gov.uk,,,2015-01-30,fhrs_5_en-GB,5,,FHRS,0
30690,Not published,,,,Food For Thought,Other catering premises,7841,0,,155733,0,,,EH/00014676,118,customerservices@rochford.gov.uk,Rochford,http://www.rochford.gov.uk,,,2014-05-14,fhrs_5_en-GB,5,,FHRS,0
30691,Foulness Post Office And Store Churchend Foulness Island Southend-on-Sea Essex,,,,Foulness Post Office And Store,Retailers - other,4613,5,,155711,0,,51.59889900000000,EH/00009439,118,customerservices@rochford.gov.uk,Rochford,http://www.rochford.gov.uk,0.89125000000000,SS3 9XQ,2012-12-20,fhrs_5_en-GB,5,,FHRS,5
30692,Four Seasons Nursery Southend Road Rochford Essex,,,,Four Seasons Nursery,Retailers - other,4613,0,,333377,0,,51.57890800000000,12/00013/COMM,118,customerservices@rochford.gov.uk,Rochford,http://www.rochford.gov.uk,0.70759400000000,SS4 1HA,2011-08-09,fhrs_5_en-GB,5,,FHRS,0
30693,Freight House Bradley Way Rochford Essex,,,,Freight House,Pub/bar/nightclub,7843,0,,155675,0,,51.58240400000000,EH/00007670,118,customerservices@rochford.gov.uk,Rochford,http://www.rochford.gov.uk,0.70224400000000,SS4 1AU,2014-01-08,fhrs_5_en-GB,5,,FHRS,0
30694,11 North Street Rochford Essex,,,,Fresh Fruit Company,Retailers - other,4613,5,,29656,10,,51.58309100000000,09/00099/COMM,118,customerservices@rochford.gov.uk,Rochford,http://www.rochford.gov.uk,0.70680300000000,SS4 1AB,2012-08-06,fhrs_4_en-GB,4,,FHRS,5
30695,50 Eastwood Road Rayleigh Essex,,,,Fresh Oriental,Takeaway/sandwich shop,7844,10,,644213,10,,51.58279200000000,14/00015/COMM,118,customerservices@rochford.gov.uk,Rochford,http://www.rochford.gov.uk,0.60925700000000,SS6 7JP,2014-03-28,fhrs_4_en-GB,4,,FHRS,0
30696,Not published,,,,Funky Party Supplies And More,Other catering premises,7841,0,,590092,0,,,13/00058/COMM,118,customerservices@rochford.gov.uk,Rochford,http://www.rochford.gov.uk,,,2013-08-06,fhrs_5_en-GB,5,,FHRS,0
30697,Clements Hall Leisure Centre Clements Hall Way Hawkwell Essex,,,,Fusion Lifestyle,Restaurant/Cafe/Canteen,1,5,,695923,5,,51.59478400000000,14/00051/COMM,118,customerservices@rochford.gov.uk,Rochford,http://www.rochford.gov.uk,0.67178900000000,SS5 4LN,2014-08-06,fhrs_5_en-GB,5,,FHRS,5
30698,89 High Street Rayleigh Essex,,,,G & D Trading,Retailers - other,4613,0,,10158,0,,51.58592600000000,04/00134/COMM,118,customerservices@rochford.gov.uk,Rochford,http://www.rochford.gov.uk,0.60579800000000,SS6 7EJ,2011-01-05,fhrs_5_en-GB,5,,FHRS,0
30699,London Southend Airport Southend Airport Rochford Essex,,,,Gate Aviation Services,Other catering premises,7841,0,,409037,0,,51.77044677734375,12/00057/COMM,118,customerservices@rochford.gov.uk,Rochford,http://www.rochford.gov.uk,0.70727801322937,SS2 6YF,2012-05-30,fhrs_5_en-GB,5,,FHRS,0
30700,Gazelle Personal Development St Lukes Place Dalys Road Rochford Essex,,,,Gazelle Personal Development Ltd,Hospitals/Childcare/Caring Premises,5,5,,21411,0,,51.58579521321340,07/00020/COMM,118,customerservices@rochford.gov.uk,Rochford,http://www.rochford.gov.uk,0.70369411314142,,2013-01-31,fhrs_5_en-GB,5,,FHRS,0
30701,St Lukes Place Dalys Road Rochford Essex,,,,Genesis,Hospitals/Childcare/Caring Premises,5,0,,155678,5,,51.58509600000000,EH/00007796,118,customerservices@rochford.gov.uk,Rochford,http://www.rochford.gov.uk,0.70331300000000,SS4 1RA,2014-03-13,fhrs_5_en-GB,5,,FHRS,5
30702,22 West Street Rochford Essex,,,,Gleadell Meats,Retailers - other,4613,5,,155732,5,,51.58246000000000,EH/00014606,118,customerservices@rochford.gov.uk,Rochford,http://www.rochford.gov.uk,0.70569700000000,SS4 1AJ,2014-07-09,fhrs_5_en-GB,5,,FHRS,0
30703,Glebe County Infant School Creswick Avenue Rayleigh Essex,,,,Glebe Infant School,School/college/university,7845,0,,428860,0,,51.59180000000000,12/00044/COMM,118,customerservices@rochford.gov.uk,Rochford,http://www.rochford.gov.uk,0.60087900000000,SS6 9HG,2014-01-15,fhrs_5_en-GB,5,,FHRS,0
30704,Lower Barn Farm London Road Rayleigh Essex,,,,Glenys Cafe,Restaurant/Cafe/Canteen,1,5,,155654,0,,51.59720000000000,EH/00006138,118,customerservices@rochford.gov.uk,Rochford,http://www.rochford.gov.uk,0.58238600000000,SS6 9ET,2013-08-21,fhrs_5_en-GB,5,,FHRS,0
30705,Not published,,,,Glitterati Good Boutique Ltd,Other catering premises,7841,0,,409025,5,,,12/00033/COMM,118,customerservices@rochford.gov.uk,Rochford,http://www.rochford.gov.uk,,,2012-06-25,fhrs_5_en-GB,5,,FHRS,0
30706,Not published,,,,Glitterati Good Boutique Ltd,Other catering premises,7841,0,,409027,5,,,12/00039/COMM,118,customerservices@rochford.gov.uk,Rochford,http://www.rochford.gov.uk,,,2012-06-25,fhrs_5_en-GB,5,,FHRS,0
30707,131 Ferry Road Hullbridge Essex,,,,Gold Lion,Takeaway/sandwich shop,7844,10,,637171,5,,51.62263600000000,14/00019/COMM,118,customerservices@rochford.gov.uk,Rochford,http://www.rochford.gov.uk,0.61271300000000,SS5 6ET,2014-02-28,fhrs_3_en-GB,3,,FHRS,10
30708,1 Golden Cross Parade Ashingdon Road Rochford Essex,,,,Golden Cross Cafe,Restaurant/Cafe/Canteen,1,5,,21794,5,,51.59632300000000,07/00069/COMM,118,customerservices@rochford.gov.uk,Rochford,http://www.rochford.gov.uk,0.69615400000000,SS4 1UB,2013-04-19,fhrs_5_en-GB,5,,FHRS,5
30709,9 Golden Cross Parade Ashingdon Road Rochford Essex,,,,Golden Cross News Agents,Retailers - other,4613,5,,155682,0,,51.59632300000000,EH/00007985,118,customerservices@rochford.gov.uk,Rochford,http://www.rochford.gov.uk,0.69615400000000,SS4 1UB,2012-11-20,fhrs_5_en-GB,5,,FHRS,5
30710,121 Ferry Road Hullbridge Hockley Essex,,,,Golden Crust Bakery,Retailers - other,4613,20,,155581,10,,51.62263600000000,EH/00003233,118,customerservices@rochford.gov.uk,Rochford,http://www.rochford.gov.uk,0.61271300000000,SS5 6ET,2014-02-18,fhrs_1_en-GB,1,,FHRS,10
30711,117 Southend Road Rochford Essex,,,,Golden Dragon,Takeaway/sandwich shop,7844,20,,155727,20,,51.57310600000000,EH/00013412,118,customerservices@rochford.gov.uk,Rochford,http://www.rochford.gov.uk,0.70685900000000,SS4 1HX,2014-07-02,fhrs_1_en-GB,1,,FHRS,10
30712,The Golden Lion 35 North Street Rochford Essex,,,,Golden Lion,Pub/bar/nightclub,7843,10,,33584,10,,51.58309100000000,10/00053/COMM,118,customerservices@rochford.gov.uk,Rochford,http://www.rochford.gov.uk,0.70680300000000,SS4 1AB,2012-04-20,fhrs_3_en-GB,3,,FHRS,5
30713,7 London Road Rayleigh Essex,,,,Golden Palace,Takeaway/sandwich shop,7844,5,,155648,0,,51.59151500000000,EH/00006058,118,customerservices@rochford.gov.uk,Rochford,http://www.rochford.gov.uk,0.60236400000000,SS6 9HN,2013-09-11,fhrs_5_en-GB,5,,FHRS,0
30714,14 High Street Great Wakering Essex,,,,Gossip,Restaurant/Cafe/Canteen,1,5,,669431,5,,51.55320000000000,14/00007/COMM,118,customerservices@rochford.gov.uk,Rochford,http://www.rochford.gov.uk,0.80838100000000,SS3 0EQ,2014-06-04,fhrs_5_en-GB,5,,FHRS,0
30715,Sutton Bridge Farm Sutton Road Rochford Essex,,,,Gowlands,Hospitals/Childcare/Caring Premises,5,5,,155702,0,,51.57402000000000,EH/00009096,118,customerservices@rochford.gov.uk,Rochford,http://www.rochford.gov.uk,0.71906600000000,SS4 1XS,2014-08-28,fhrs_5_en-GB,5,,FHRS,0
30716,Grange Filling Station London Road Rayleigh Essex,,,,Grange Filling Station,Retailers - other,4613,5,,155655,0,,51.62396300000000,EH/00006142,118,customerservices@rochford.gov.uk,Rochford,http://www.rochford.gov.uk,-0.08627600000000,,2014-10-01,fhrs_5_en-GB,5,,FHRS,0
30717,111 London Road Rayleigh Essex,,,,Grange Foodstore,Retailers - other,4613,10,,155651,5,,51.59380800000000,EH/00006087,118,customerservices@rochford.gov.uk,Rochford,http://www.rochford.gov.uk,0.59469800000000,SS6 9AX,2012-02-04,fhrs_4_en-GB,4,,FHRS,0
30718,Great Wakering Community Centre High Street Great Wakering Essex,,,,Great Wakering Pre School,Hospitals/Childcare/Caring Premises,5,5,,45874,5,,51.55305600000000,11/00033/COMM,118,customerservices@rochford.gov.uk,Rochford,http://www.rochford.gov.uk,0.80534200000000,SS3 0EJ,2014-05-29,fhrs_5_en-GB,5,,FHRS,0
30719,Great Wakering Rovers Football Club Little Wakering Hall Lane Great Wakering Southend-On-Sea Essex,,,,Great Wakering Rovers Football Club,Pub/bar/nightclub,7843,0,,155716,0,,51.55974600000000,EH/00009894,118,customerservices@rochford.gov.uk,Rochford,http://www.rochford.gov.uk,0.79828000000000,SS3 0HH,2014-04-23,fhrs_5_en-GB,5,,FHRS,0
30720,6 East Street Rochford Essex,,,,Great Wall Chinese Restaurant,Restaurant/Cafe/Canteen,1,5,,155680,15,,51.58263700000000,EH/00007917,118,customerservices@rochford.gov.uk,Rochford,http://www.rochford.gov.uk,0.70891300000000,SS4 1DB,2014-03-13,fhrs_2_en-GB,2,,FHRS,10
30721,3A Great Wheatley Road Rayleigh Essex,,,,Great Wheatleys Home,Hospitals/Childcare/Caring Premises,5,10,,155619,10,,51.58131600000000,EH/00005144,118,customerservices@rochford.gov.uk,Rochford,http://www.rochford.gov.uk,0.59755200000000,SS6 7AL,2014-01-20,fhrs_3_en-GB,3,,FHRS,10
30722,Greensward College Greensward Lane Ashingdon Hockley Essex,,,,Greensward Academy,School/college/university,7845,0,,155569,0,,51.60668400000000,EH/00002072,118,customerservices@rochford.gov.uk,Rochford,http://www.rochford.gov.uk,0.66542500000000,SS5 5HG,2013-03-19,fhrs_5_en-GB,5,,FHRS,0
30723,12 West Street Rochford Essex,,,,Greggs,Retailers - other,4613,5,,155705,5,,51.58246000000000,EH/00009215,118,customerservices@rochford.gov.uk,Rochford,http://www.rochford.gov.uk,0.70569700000000,SS4 1AJ,2014-07-04,fhrs_5_en-GB,5,,FHRS,5
30724,81 High Street Rayleigh Essex,,,,Greggs,Retailers - other,4613,0,,155633,0,,51.58592600000000,EH/00005475,118,customerservices@rochford.gov.uk,Rochford,http://www.rochford.gov.uk,0.60579800000000,SS6 7EJ,2014-03-04,fhrs_5_en-GB,5,,FHRS,0
30725,Not published,,,,Griddled Snacks,Mobile caterer,7846,0,,155722,0,,,EH/00012758,118,customerservices@rochford.gov.uk,Rochford,http://www.rochford.gov.uk,,,2014-09-30,fhrs_5_en-GB,5,,FHRS,0
30726,56 High Street Rayleigh Essex,,,,Grouts The Bakers,Retailers - other,4613,0,,155632,0,,51.58672000000000,EH/00005445,118,customerservices@rochford.gov.uk,Rochford,http://www.rochford.gov.uk,0.60570000000000,SS6 7EA,2013-08-21,fhrs_5_en-GB,5,,FHRS,5
30727,Nursery School Grove Wood Primary School Grove Road Rayleigh Essex,,,,Grove Road Pre-School,Hospitals/Childcare/Caring Premises,5,5,,155622,0,,,EH/00005203,118,customerservices@rochford.gov.uk,Rochford,http://www.rochford.gov.uk,,,2013-08-09,fhrs_5_en-GB,5,,FHRS,0
30728,Grove Junior  School Grove Road Rayleigh Essex,,,,Grove Wood Primary School,School/college/university,7845,0,,155621,0,,51.58259000000000,EH/00005201,118,customerservices@rochford.gov.uk,Rochford,http://www.rochford.gov.uk,0.63075500000000,SS6 8UA,2014-06-19,fhrs_5_en-GB,5,,FHRS,5
30729,Great Wakering Primary School High Street Great Wakering Southend-On-Sea Essex,,,,Gt Wakering Primary School,School/college/university,7845,0,,155558,0,,51.55305600000000,EH/00000955,118,customerservices@rochford.gov.uk,Rochford,http://www.rochford.gov.uk,0.80534200000000,SS3 0EJ,2014-11-18,fhrs_5_en-GB,5,,FHRS,0
30730,204 High Street Great Wakering Southend-On-Sea Essex,,,,Gt. Wakering Royal British Legion,Pub/bar/nightclub,7843,5,,155555,5,,51.55337100000000,EH/00000920,118,customerservices@rochford.gov.uk,Rochford,http://www.rochford.gov.uk,0.80008100000000,SS3 0HF,2013-09-19,fhrs_5_en-GB,5,,FHRS,5
30731,5 Hambro Parade Rawreth Lane Rayleigh Essex,,,,Hambro News  Convenience,Retailers - other,4613,0,,155714,5,,51.60146100000000,EH/00009702,118,customerservices@rochford.gov.uk,Rochford,http://www.rochford.gov.uk,0.60970600000000,SS6 9PU,2012-10-30,fhrs_5_en-GB,5,,FHRS,5
30732,Hambro Parade Hullbridge Road Rayleigh Essex,,,,Hambro Post Office And General Stores,Retailers - other,4613,10,,155644,0,,51.60028800000000,EH/00005824,118,customerservices@rochford.gov.uk,Rochford,http://www.rochford.gov.uk,0.60945100000000,SS6 9NL,2012-02-04,fhrs_4_en-GB,4,,FHRS,0
30733,11 The Nursery Lubards Lodge Farm Hullbridge Road Rayleigh Essex,,,,Happy Days Nursery,Hospitals/Childcare/Caring Premises,5,5,,155739,5,,51.59975007000001,EH/00015646,118,customerservices@rochford.gov.uk,Rochford,http://www.rochford.gov.uk,0.61083265000000,,2012-10-24,fhrs_5_en-GB,5,,FHRS,0
30734,83 Eastwood Road Rayleigh Essex,,,,Hattons,Retailers - other,4613,5,,155614,0,,51.58343200000000,EH/00004898,118,customerservices@rochford.gov.uk,Rochford,http://www.rochford.gov.uk,0.60878800000000,SS6 7JN,2012-07-17,fhrs_5_en-GB,5,,FHRS,5
30735,Hullbridge Community Association Pooles Lane Hullbridge Hockley Essex,,,,HCA Pre-School,Hospitals/Childcare/Caring Premises,5,5,,155591,5,,51.62818400000000,EH/00003573,118,customerservices@rochford.gov.uk,Rochford,http://www.rochford.gov.uk,0.61599400000000,SS5 6PA,2013-01-03,fhrs_5_en-GB,5,,FHRS,5
30736,War Memorial Hall High Street Great Wakering Southend-On-Sea Essex SS3 OEF,,,,Helping Hands,Hospitals/Childcare/Caring Premises,5,0,,155738,0,,,EH/00015199,118,customerservices@rochford.gov.uk,Rochford,http://www.rochford.gov.uk,,,2014-11-24,fhrs_5_en-GB,5,,FHRS,5
30737,Holy Trinity Church Hall Rectory Garth Rayleigh Essex,,,,Hilltop Pre - School,Hospitals/Childcare/Caring Premises,5,0,,155659,0,,51.77044677734375,EH/00006702,118,customerservices@rochford.gov.uk,Rochford,http://www.rochford.gov.uk,0.70727801322937,SS6 8BB,2013-05-10,fhrs_5_en-GB,5,,FHRS,0
30738,Hockley And Hawkwell Day Centre Southend Road Hockley Essex,,,,Hockley & Hawkwell 55 Plus Centre,Hospitals/Childcare/Caring Premises,5,0,,155577,0,,51.60028600000000,EH/00002812,118,customerservices@rochford.gov.uk,Rochford,http://www.rochford.gov.uk,0.65647200000000,SS5 4PZ,2014-03-19,fhrs_5_en-GB,5,,FHRS,5
30739,32 Spa Road Hockley Essex,,,,Hockley Charcoal Grill,Takeaway/sandwich shop,7844,20,,155741,15,,51.60144900000000,EH/00015823,118,customerservices@rochford.gov.uk,Rochford,http://www.rochford.gov.uk,0.65593400000000,SS5 4PH,2014-11-25,fhrs_1_en-GB,1,,FHRS,10
30740,6 Aldermans Hill Hockley Essex,,,,Hockley Food & Off Licence,Retailers - other,4613,5,,155565,0,,51.60124000000000,EH/00001706,118,customerservices@rochford.gov.uk,Rochford,http://www.rochford.gov.uk,0.64088800000000,SS5 4RW,2013-07-18,fhrs_5_en-GB,5,,FHRS,0
30741,1 Broad Parade Hockley Essex,,,,Hockley Food & Wine,Retailers - other,4613,5,,637167,5,,51.60468500000000,13/00090/COMM,118,customerservices@rochford.gov.uk,Rochford,http://www.rochford.gov.uk,0.66312700000000,SS5 5DA,2014-03-18,fhrs_5_en-GB,5,,FHRS,0
30742,United Reformed Church Bramerton Road Hockley Essex,,,,Hockley Preschool Playgroup,Hospitals/Childcare/Caring Premises,5,0,,155566,0,,51.60251000000000,EH/00001761,118,customerservices@rochford.gov.uk,Rochford,http://www.rochford.gov.uk,0.65395900000000,SS5 4PJ,2014-05-20,fhrs_5_en-GB,5,,FHRS,0
30743,Hockley Primary School Chevening Gardens Hockley Essex,,,,Hockley Primary School,School/college/university,7845,5,,155568,10,,51.60330200000000,EH/00001891,118,customerservices@rochford.gov.uk,Rochford,http://www.rochford.gov.uk,0.64597500000000,SS5 4UR,2014-11-19,fhrs_3_en-GB,3,,FHRS,10
30744,42 Spa Road Hockley Essex,,,,Hockley Tandoori,Restaurant/Cafe/Canteen,1,0,,155579,15,,51.60144900000000,EH/00002857,118,customerservices@rochford.gov.uk,Rochford,http://www.rochford.gov.uk,0.65593400000000,SS5 4PH,2013-09-25,fhrs_1_en-GB,1,,FHRS,20
30745,55A High Street Rayleigh Essex,,,,Holland & Barrett,Retailers - other,4613,0,,155631,5,,51.58711800000000,EH/00005444,118,customerservices@rochford.gov.uk,Rochford,http://www.rochford.gov.uk,0.60719500000000,SS6 7EW,2012-08-03,fhrs_5_en-GB,5,,FHRS,5
30746,Holt Farm Infants School Ashingdon Road Rochford Essex,,,,Holt Farm County School,School/college/university,7845,5,,155669,0,,51.59252300000000,EH/00007540,118,customerservices@rochford.gov.uk,Rochford,http://www.rochford.gov.uk,0.69792100000000,SS4 1RS,2013-09-06,fhrs_5_en-GB,5,,FHRS,0
30747,Holy Trinity Church Hall Rectory Garth Rayleigh Essex,,,,Holy Trinity Coffee Shop,Restaurant/Cafe/Canteen,1,5,,155660,0,,51.77044677734375,EH/00006703,118,customerservices@rochford.gov.uk,Rochford,http://www.rochford.gov.uk,0.70727801322937,SS6 8BB,2014-06-20,fhrs_5_en-GB,5,,FHRS,0
30748,Unit 5 Airport Retail Park Rochford Essex,,,,Home Bargains,Retailers - supermarkets/hypermarkets,7840,0,,486112,0,,51.56765000000000,12/00113/COMM,118,customerservices@rochford.gov.uk,Rochford,http://www.rochford.gov.uk,0.70323000000000,SS2 6FW,2012-11-14,fhrs_5_en-GB,5,,FHRS,0
30749,1 Southend Road Rochford Essex,,,,Horse And Groom,Pub/bar/nightclub,7843,10,,21889,5,,51.57890800000000,07/00083/COMM,118,customerservices@rochford.gov.uk,Rochford,http://www.rochford.gov.uk,0.70759400000000,SS4 1HA,2014-06-30,fhrs_4_en-GB,4,,FHRS,5
30750,Canteen Rochford Hospital Union Lane Rochford Essex,,,,Hospital Wards,Hospitals/Childcare/Caring Premises,5,5,,669443,5,,51.58255100000000,14/00042/COMM,118,customerservices@rochford.gov.uk,Rochford,http://www.rochford.gov.uk,0.70390600000000,,2014-05-13,fhrs_5_en-GB,5,,FHRS,5
30751,Hullbridge Community Association Pooles Lane Hullbridge Hockley Essex,,,,Hullbridge Community Centre (Bar),Pub/bar/nightclub,7843,0,,155590,5,,51.62818400000000,EH/00003500,118,customerservices@rochford.gov.uk,Rochford,http://www.rochford.gov.uk,0.61599400000000,SS5 6PA,2014-04-07,fhrs_5_en-GB,5,,FHRS,0
30752,Hullbridge Senior Citizens Day Centre Windermere Avenue Hullbridge Hockley Essex,,,,Hullbridge Day Centre,Hospitals/Childcare/Caring Premises,5,0,,155592,0,,51.62472600000000,EH/00003682,118,customerservices@rochford.gov.uk,Rochford,http://www.rochford.gov.uk,0.61096900000000,SS5 6JR,2015-01-15,fhrs_5_en-GB,5,,FHRS,0
30753,Hullbridge Sports Club Lower Road Hullbridge Hockley Essex,,,,Hullbridge Sports Association,Pub/bar/nightclub,7843,0,,4,0,,51.61696900000000,.EH/00003422,118,customerservices@rochford.gov.uk,Rochford,http://www.rochford.gov.uk,0.61965400000000,SS5 6BJ,2013-02-27,fhrs_5_en-GB,5,,FHRS,0
30754,Hullbridge Yacht Club Pooles Lane Hullbridge Essex,,,,Hullbridge Yacht Club Tea Rooms,Restaurant/Cafe/Canteen,1,5,,590090,5,,,13/00051/COMM,118,customerservices@rochford.gov.uk,Rochford,http://www.rochford.gov.uk,,,2013-09-06,fhrs_5_en-GB,5,,FHRS,0
30755,145 - 153 High Street Rayleigh Essex,,,,Iceland Frozen Food,Retailers - supermarkets/hypermarkets,7840,5,,155639,0,,51.58459400000000,EH/00005589,118,customerservices@rochford.gov.uk,Rochford,http://www.rochford.gov.uk,0.60381700000000,SS6 7QA,2013-04-05,fhrs_5_en-GB,5,,FHRS,5
30756,21 Imperial Park Rawreth Lane Rayleigh Essex,,,,Imperial Park Tandoori,Takeaway/sandwich shop,7844,10,,695922,10,,51.60279600000000,14/00048/COMM,118,customerservices@rochford.gov.uk,Rochford,http://www.rochford.gov.uk,0.59899500000000,SS6 9RS,2014-07-16,fhrs_3_en-GB,3,,FHRS,5
30757,40 Ashingdon Road Rochford Essex,,,,Jacko's,Takeaway/sandwich shop,7844,5,,15253,5,,51.58703200000000,05/00148/COMM,118,customerservices@rochford.gov.uk,Rochford,http://www.rochford.gov.uk,0.70046900000000,SS4 1RD,2014-06-20,fhrs_5_en-GB,5,,FHRS,5
30758,259 Ferry Road Hullbridge Hockley Essex,,,,Jays Stores,Retailers - other,4613,5,,155585,5,,51.62788800000000,EH/00003279,118,customerservices@rochford.gov.uk,Rochford,http://www.rochford.gov.uk,0.61353500000000,SS5 6NA,2012-08-10,fhrs_5_en-GB,5,,FHRS,0
30759,Not published,,,,Jeannes Cakes,Other catering premises,7841,0,,155721,0,,,EH/00012364,118,customerservices@rochford.gov.uk,Rochford,http://www.rochford.gov.uk,,,2014-09-01,fhrs_5_en-GB,5,,FHRS,0
30760,Catholic Church Of St Pius X Southend Road Hockley Essex,,,,Jelly Beans Nursery,Hospitals/Childcare/Caring Premises,5,0,,449787,0,,51.60070500000000,12/00060/COMM,118,customerservices@rochford.gov.uk,Rochford,http://www.rochford.gov.uk,0.65661200000000,SS5 4QH,2012-09-19,fhrs_5_en-GB,5,,FHRS,0
30761,Not published,,,,Jennifer's Cakes,Other catering premises,7841,5,,47432,0,,,11/00133/COMM,118,customerservices@rochford.gov.uk,Rochford,http://www.rochford.gov.uk,,,2011-11-09,fhrs_5_en-GB,5,,FHRS,5
30762,26 Spa Road Hockley Essex,,,,Jon Boys,Restaurant/Cafe/Canteen,1,0,,26336,0,,51.60144900000000,08/00260/COMM,118,customerservices@rochford.gov.uk,Rochford,http://www.rochford.gov.uk,0.65593400000000,SS5 4PH,2012-05-24,fhrs_5_en-GB,5,,FHRS,0
30763,Lubards Lodge Farm Hullbridge Road Rayleigh Essex,,,,Jon Gold Butchers,Retailers - other,4613,10,,682780,10,,51.60620300000000,14/00012/COMM,118,customerservices@rochford.gov.uk,Rochford,http://www.rochford.gov.uk,0.60514000000000,SS6 9QG,2014-05-07,fhrs_2_en-GB,2,,FHRS,15
30764,119 Southend Road Rochford Essex,,,,K2 Balti House,Takeaway/sandwich shop,7844,5,,29666,5,,51.57310600000000,09/00100/COMM,118,customerservices@rochford.gov.uk,Rochford,http://www.rochford.gov.uk,0.70685900000000,SS4 1HX,2014-01-16,fhrs_5_en-GB,5,,FHRS,5
30765,48 Ashingdon Road Rochford Essex,,,,Kailash News Agents,Retailers - other,4613,10,,155666,0,,51.58703200000000,EH/00007432,118,customerservices@rochford.gov.uk,Rochford,http://www.rochford.gov.uk,0.70046900000000,SS4 1RD,2013-03-19,fhrs_4_en-GB,4,,FHRS,5
30766,Britton Court Finchfield Rayleigh Essex,,,,Keep Fit Club,Hospitals/Childcare/Caring Premises,5,0,,409029,0,,51.58343929089380,12/00046/COMM,118,customerservices@rochford.gov.uk,Rochford,http://www.rochford.gov.uk,0.60695149469715,,2014-04-23,fhrs_5_en-GB,5,,FHRS,0
30767,Kent Elms Tennis Club Aviation Way Southend-On-Sea Essex,,,,Kent Elms Tennis Club,Pub/bar/nightclub,7843,0,,333383,0,,51.57266600000000,EH/00007606,118,customerservices@rochford.gov.uk,Rochford,http://www.rochford.gov.uk,0.68691600000000,SS2 6UN,2012-04-11,fhrs_5_en-GB,5,,FHRS,0
30768,King Edmund School Vaughan Close Rochford Essex,,,,King Edmund School,School/college/university,7845,0,,155703,0,,51.59643400000000,EH/00009119,118,customerservices@rochford.gov.uk,Rochford,http://www.rochford.gov.uk,0.69951000000000,SS4 1TL,2013-06-06,fhrs_5_en-GB,5,,FHRS,0
30769,70 High Street Rayleigh Essex,,,,Kings Fish Restaurant,Restaurant/Cafe/Canteen,1,0,,18349,0,,51.58672000000000,06/00111/COMM,118,customerservices@rochford.gov.uk,Rochford,http://www.rochford.gov.uk,0.60570000000000,SS6 7EA,2014-08-13,fhrs_5_en-GB,5,,FHRS,5
30770,La Vallee Farm Wadham Park Avenue Hockley Essex,,,,La Valley Farm Shop,Retailers - other,4613,5,,155571,0,,51.61582900000000,EH/00002253,118,customerservices@rochford.gov.uk,Rochford,http://www.rochford.gov.uk,0.63162200000000,SS5 6AL,2012-10-11,fhrs_4_en-GB,4,,FHRS,10
30771,3 Broad Parade Hockley Essex,,,,Law's Takeaway,Takeaway/sandwich shop,7844,5,,637172,10,,51.60464800000000,14/00024/COMM,118,customerservices@rochford.gov.uk,Rochford,http://www.rochford.gov.uk,0.66318300000000,SS5 5DA,2014-03-19,fhrs_4_en-GB,4,,FHRS,5
30772,11 Golden Cross Parade Ashingdon Road Rochford Essex,,,,Lin Lam,Takeaway/sandwich shop,7844,5,,155683,10,,51.59632300000000,EH/00007988,118,customerservices@rochford.gov.uk,Rochford,http://www.rochford.gov.uk,0.69615400000000,SS4 1UB,2013-07-05,fhrs_4_en-GB,4,,FHRS,5
30773,106 - 108 High Street Rayleigh Essex,,,,Linx,Pub/bar/nightclub,7843,0,,494039,0,,51.58569400000000,12/00121/COMM,118,customerservices@rochford.gov.uk,Rochford,http://www.rochford.gov.uk,0.60451500000000,SS6 7BY,2012-12-14,fhrs_5_en-GB,5,,FHRS,0
30774,Little Buskins Farm Canewdon Road Rochford Essex,,,,Little Buskins Farm Shop,Retailers - other,4613,5,,18731,0,,51.61396600000000,06/00213/COMM,118,customerservices@rochford.gov.uk,Rochford,http://www.rochford.gov.uk,0.70209600000000,SS4 3JN,2014-10-01,fhrs_5_en-GB,5,,FHRS,5
30775,45 Rectory Road Hawkwell Hockley Essex,,,,Londis,Retailers - other,4613,10,,29851,0,,51.59547200000000,09/00119/COMM,118,customerservices@rochford.gov.uk,Rochford,http://www.rochford.gov.uk,0.69168400000000,SS4 1UE,2014-04-10,fhrs_4_en-GB,4,,FHRS,0
30776,111 Ashingdon Road Rochford Essex,,,,Londis/Starthill Service Station,Retailers - other,4613,5,,18638,0,,51.58852500000000,06/00181/COMM,118,customerservices@rochford.gov.uk,Rochford,http://www.rochford.gov.uk,0.69927200000000,SS4 1RF,2014-07-09,fhrs_5_en-GB,5,,FHRS,0
30777,2 Eastwood Road Rayleigh Essex,,,,Lovely Home Interiors   Gifts,Restaurant/Cafe/Canteen,1,5,,669441,0,,,14/00038/COMM,118,customerservices@rochford.gov.uk,Rochford,http://www.rochford.gov.uk,,SS6 7JG,2014-06-24,fhrs_5_en-GB,5,,FHRS,0
30778,109 London Road Rayleigh Essex,,,,M & J Berrett,Retailers - other,4613,5,,18655,0,,51.59380800000000,06/00186/COMM,118,customerservices@rochford.gov.uk,Rochford,http://www.rochford.gov.uk,0.59469800000000,SS6 9AX,2014-03-10,fhrs_5_en-GB,5,,FHRS,0
30779,17A London Road Rayleigh Essex,,,,M & S Confectioners,Retailers - other,4613,10,,155649,5,,51.59151500000000,EH/00006064,118,customerservices@rochford.gov.uk,Rochford,http://www.rochford.gov.uk,0.60236400000000,SS6 9HN,2014-01-03,fhrs_4_en-GB,4,,FHRS,5
30780,Not published,,,,Made By Mollie,Other catering premises,7841,0,,590095,0,,,13/00064/COMM,118,customerservices@rochford.gov.uk,Rochford,http://www.rochford.gov.uk,,,2013-09-19,fhrs_5_en-GB,5,,FHRS,0
30781,Makro Rawreth Industrial Estate Rawreth Lane Rayleigh Essex,,,,Makro,Distributors/Transporters,7,0,,155658,0,,51.60071300000000,EH/00006558,118,customerservices@rochford.gov.uk,Rochford,http://www.rochford.gov.uk,0.59152500000000,SS6 9RL,2014-06-27,fhrs_5_en-GB,5,,FHRS,0
30782,7 High Street Rayleigh Essex,,,,Mango Lounge,Restaurant/Cafe/Canteen,1,0,,409024,0,,51.58711800000000,12/00030/COMM,118,customerservices@rochford.gov.uk,Rochford,http://www.rochford.gov.uk,0.60719500000000,SS6 7EW,2014-05-29,fhrs_5_en-GB,5,,FHRS,0
30783,30 Eastwood Road Rayleigh Essex,,,,Marcos Bar,Restaurant/Cafe/Canteen,1,0,,155610,0,,51.58455600000000,EH/00004849,118,customerservices@rochford.gov.uk,Rochford,http://www.rochford.gov.uk,0.60593700000000,SS6 7JQ,2013-08-21,fhrs_5_en-GB,5,,FHRS,5
30784,61 High Street Great Wakering Southend-On-Sea Essex,,,,Marsh Butchers,Retailers - other,4613,0,,155552,0,,51.55289300000000,EH/00000870,118,customerservices@rochford.gov.uk,Rochford,http://www.rochford.gov.uk,0.80804400000000,SS3 0EF,2013-10-30,fhrs_5_en-GB,5,,FHRS,5
30785,14 West Street Rochford Essex,,,,Martin McColl Ltd,Retailers - other,4613,5,,18540,0,,51.58246000000000,06/00153/COMM,118,customerservices@rochford.gov.uk,Rochford,http://www.rochford.gov.uk,0.70569700000000,SS4 1AJ,2012-11-08,fhrs_4_en-GB,4,,FHRS,10
30786,71 High Street Rayleigh Essex,,,,Martin McColl Ltd,Retailers - other,4613,5,,18437,5,,51.58592600000000,06/00128/COMM,118,customerservices@rochford.gov.uk,Rochford,http://www.rochford.gov.uk,0.60579800000000,SS6 7EJ,2012-10-15,fhrs_5_en-GB,5,,FHRS,5
30787,24 South Street Rochford Essex,,,,Masonic Lodge,Other catering premises,7841,5,,29406,0,,51.58143400000000,09/00079/COMM,118,customerservices@rochford.gov.uk,Rochford,http://www.rochford.gov.uk,0.70689200000000,SS4 1BQ,2013-01-29,fhrs_5_en-GB,5,,FHRS,0
30788,Not published,,,,Maureen Fowler,Other catering premises,7841,5,,18796,0,,,06/00240/COMM,118,customerservices@rochford.gov.uk,Rochford,http://www.rochford.gov.uk,,,2012-11-13,fhrs_5_en-GB,5,,FHRS,0
30789,Potash Wood Hall Road Rochford Essex,,,,Mayhem South East,Retailers - other,4613,5,,356617,5,,51.58903100000000,04/00037/COMM,118,customerservices@rochford.gov.uk,Rochford,http://www.rochford.gov.uk,0.66963000000000,,2012-05-24,fhrs_5_en-GB,5,,FHRS,5
30790,296 Ashingdon Road Rochford Essex,,,,Mencap Homes Foundation,Hospitals/Childcare/Caring Premises,5,0,,155668,0,,51.59742800000000,EH/00007489,118,customerservices@rochford.gov.uk,Rochford,http://www.rochford.gov.uk,0.69698400000000,SS4 1TR,2013-03-19,fhrs_5_en-GB,5,,FHRS,0
30791,23 Eldon Way Hockley Essex,,,,Mikes Catering Company,Manufacturers/packers,7839,0,,155745,0,,51.60307400000000,EH/00017379,118,customerservices@rochford.gov.uk,Rochford,http://www.rochford.gov.uk,0.65565300000000,SS5 4AD,2012-12-07,fhrs_5_en-GB,5,,FHRS,0
30792,32 High Street Great Wakering Essex,,,,Mim Spice,Restaurant/Cafe/Canteen,1,0,,530414,0,,51.55320000000000,13/00019/COMM,118,customerservices@rochford.gov.uk,Rochford,http://www.rochford.gov.uk,0.80838100000000,SS3 0EQ,2014-12-04,fhrs_5_en-GB,5,,FHRS,5
30793,45 North Street Rochford Essex,,,,Monsoon,Restaurant/Cafe/Canteen,1,10,,18287,10,,51.58309100000000,06/00099/COMM,118,customerservices@rochford.gov.uk,Rochford,http://www.rochford.gov.uk,0.70680300000000,SS4 1AB,2014-06-20,fhrs_3_en-GB,3,,FHRS,10
30794,Morley Nurseries Southend Road Great Wakering Southend-On-Sea Essex,,,,Morley Nurseries (Wakering) Ltd,Retailers - other,4613,5,,155561,5,,51.55280400000000,EH/00001177,118,customerservices@rochford.gov.uk,Rochford,http://www.rochford.gov.uk,0.76750000000000,SS3 0PU,2014-11-18,fhrs_5_en-GB,5,,FHRS,5
30795,139 - 141 High Street Rayleigh Essex,,,,Morrison M Local Rayleigh,Retailers - supermarkets/hypermarkets,7840,0,,606634,0,,51.58466400000000,13/00072/COMM,118,customerservices@rochford.gov.uk,Rochford,http://www.rochford.gov.uk,0.60392200000000,SS6 7QA,2013-10-16,fhrs_5_en-GB,5,,FHRS,0
30796,42 Ashingdon Road Rochford Essex,,,,Mr Sandwich Ltd,Manufacturers/packers,7839,0,,155749,0,,51.58703200000000,EH/00018082,118,customerservices@rochford.gov.uk,Rochford,http://www.rochford.gov.uk,0.70046900000000,SS4 1RD,2013-02-11,fhrs_5_en-GB,5,,FHRS,0
30797,100 High Street Rayleigh Essex,,,,Mr Simms Of Rayleigh LTD,Retailers - other,4613,0,,486109,0,,51.58569400000000,12/00110/COMM,118,customerservices@rochford.gov.uk,Rochford,http://www.rochford.gov.uk,0.60451500000000,SS6 7BY,2012-12-04,fhrs_5_en-GB,5,,FHRS,5
30798,Not published,,,,Mrs B Botta,Other catering premises,7841,0,,155623,0,,,EH/00005299,118,customerservices@rochford.gov.uk,Rochford,http://www.rochford.gov.uk,,,2013-05-07,fhrs_5_en-GB,5,,FHRS,0
30799,Not published,,,,Mrs B Sibson,Other catering premises,7841,0,,155596,0,,,EH/00004130,118,customerservices@rochford.gov.uk,Rochford,http://www.rochford.gov.uk,,,2014-05-20,fhrs_5_en-GB,5,,FHRS,0
30800,Not published,,,,Mrs Browns Cakes,Other catering premises,7841,0,,590097,0,,,13/00069/COMM,118,customerservices@rochford.gov.uk,Rochford,http://www.rochford.gov.uk,,,2013-09-05,fhrs_5_en-GB,5,,FHRS,0
30801,Not published,,,,Mrs B's Creations,Other catering premises,7841,0,,669436,0,,,14/00028/COMM,118,customerservices@rochford.gov.uk,Rochford,http://www.rochford.gov.uk,,,2014-05-13,fhrs_5_en-GB,5,,FHRS,0
30802,Albon Engineering Rochehall Way Rochford Essex,,,,Mrs C's Cafe,Restaurant/Cafe/Canteen,1,10,,47216,0,,51.57752400000000,11/00115/COMM,118,customerservices@rochford.gov.uk,Rochford,http://www.rochford.gov.uk,0.72349000000000,SS4 1JU,2013-08-20,fhrs_4_en-GB,4,,FHRS,5
30803,Not published,,,,Mrs Jean Kebbell,Other catering premises,7841,5,,155647,0,,,EH/00006041,118,customerservices@rochford.gov.uk,Rochford,http://www.rochford.gov.uk,,,2013-10-21,fhrs_5_en-GB,5,,FHRS,0
30804,Not published,,,,Mrs Judith Prescott,Other catering premises,7841,0,,155661,0,,,EH/00006857,118,customerservices@rochford.gov.uk,Rochford,http://www.rochford.gov.uk,,,2014-02-12,fhrs_5_en-GB,5,,FHRS,0
30805,Not published,,,,Mrs L Roberts,Other catering premises,7841,5,,155593,0,,,EH/00003695,118,customerservices@rochford.gov.uk,Rochford,http://www.rochford.gov.uk,,,2014-05-20,fhrs_5_en-GB,5,,FHRS,0
30806,Not published,,,,Mrs P Coy,Other catering premises,7841,0,,155650,0,,,EH/00006077,118,customerservices@rochford.gov.uk,Rochford,http://www.rochford.gov.uk,,,2013-05-07,fhrs_5_en-GB,5,,FHRS,0
30807,Scout Hut Magnolia Road Rochford Essex,,,,Mucky Pups Pre School,Hospitals/Childcare/Caring Premises,5,0,,15306,0,,51.59667100000000,05/00168/COMM,118,customerservices@rochford.gov.uk,Rochford,http://www.rochford.gov.uk,0.68564700000000,SS4 3AD,2012-03-28,fhrs_5_en-GB,5,,FHRS,0
30808,2 Golden Cross Parade Ashingdon Road Rochford Essex,,,,Munch Kings,Takeaway/sandwich shop,7844,10,,25427,10,,51.59632300000000,08/00083/COMM,118,customerservices@rochford.gov.uk,Rochford,http://www.rochford.gov.uk,0.69615400000000,SS4 1UB,2014-11-05,fhrs_3_en-GB,3,,FHRS,10
30809,The Lawns Hall Road Rochford Essex,,,,Mussel Ltd,Restaurant/Cafe/Canteen,1,0,,15018,0,,51.58366300000000,05/00088/COMM,118,customerservices@rochford.gov.uk,Rochford,http://www.rochford.gov.uk,0.67006800000000,SS4 1PL,2014-11-19,fhrs_5_en-GB,5,,FHRS,0
30810,Not published,,,,My Big Fat Gypsy Cupcake Co,Other catering premises,7841,0,,669439,0,,,14/00033/COMM,118,customerservices@rochford.gov.uk,Rochford,http://www.rochford.gov.uk,,,2014-04-14,fhrs_5_en-GB,5,,FHRS,0
30811,63 High Street Great Wakering Essex,,,,Nanny Egg's Tea Room & Bakery,Restaurant/Cafe/Canteen,1,5,,682777,5,,51.55279800000000,13/00082/COMM,118,customerservices@rochford.gov.uk,Rochford,http://www.rochford.gov.uk,0.80525400000000,SS3 0ED,2013-12-05,fhrs_5_en-GB,5,,FHRS,5
30812,57 West Street Rochford Essex,,,,Natural Health,Retailers - other,4613,0,,155707,0,,51.58217500000000,EH/00009261,118,customerservices@rochford.gov.uk,Rochford,http://www.rochford.gov.uk,0.70555100000000,SS4 1BE,2013-04-03,fhrs_5_en-GB,5,,FHRS,5
30813,215 London Road Rayleigh Essex,,,,Newsbox,Retailers - other,4613,5,,155652,5,,51.59523100000000,EH/00006110,118,customerservices@rochford.gov.uk,Rochford,http://www.rochford.gov.uk,0.58848400000000,SS6 9DN,2012-06-12,fhrs_5_en-GB,5,,FHRS,5
30814,161 High Street Rayleigh Essex,,,,Newsflash Newsagent,Retailers - other,4613,0,,155641,0,,51.58459400000000,EH/00005603,118,customerservices@rochford.gov.uk,Rochford,http://www.rochford.gov.uk,0.60381700000000,SS6 7QA,2014-01-03,fhrs_5_en-GB,5,,FHRS,0
30815,Unit Adjacent 99 London Road Rayleigh Essex,,,,NGL Catering Ltd,Takeaway/sandwich shop,7844,10,,409028,5,,51.59380116000000,12/00042/COMM,118,customerservices@rochford.gov.uk,Rochford,http://www.rochford.gov.uk,0.59550606000000,,2012-05-14,fhrs_4_en-GB,4,,FHRS,5
30816,89 High Street Rayleigh Essex,,,,Nigels Fresh Fish,Retailers - other,4613,5,,47315,5,,51.58592600000000,11/00123/COMM,118,customerservices@rochford.gov.uk,Rochford,http://www.rochford.gov.uk,0.60579800000000,SS6 7EJ,2013-04-05,fhrs_5_en-GB,5,,FHRS,5
30817,Not published,,,,Nightingales Catering,Mobile caterer,7846,0,,155740,0,,,EH/00015663,118,customerservices@rochford.gov.uk,Rochford,http://www.rochford.gov.uk,,,2014-06-17,fhrs_5_en-GB,5,,FHRS,0
30818,Not published,,,,Nixan Wines,Mobile caterer,7846,0,,559700,0,,,13/00037/COMM,118,customerservices@rochford.gov.uk,Rochford,http://www.rochford.gov.uk,,,2013-06-10,fhrs_5_en-GB,5,,FHRS,0
30819,Not published,,,,No Bake Like Home,Other catering premises,7841,0,,536904,0,,,13/00018/COMM,118,customerservices@rochford.gov.uk,Rochford,http://www.rochford.gov.uk,,,2013-04-17,fhrs_5_en-GB,5,,FHRS,0
30820,Unit 1 68 - 72 West Street Rochford Essex,,,,Oaklees,Pub/bar/nightclub,7843,0,,466236,0,,,12/00076/COMM,118,customerservices@rochford.gov.uk,Rochford,http://www.rochford.gov.uk,,,2012-10-31,fhrs_5_en-GB,5,,FHRS,0
30821,Hullbridge Post Office 141 Ferry Road Hullbridge Hockley Essex,,,,One Stop,Retailers - supermarkets/hypermarkets,7840,5,,155583,5,,51.62263600000000,EH/00003254,118,customerservices@rochford.gov.uk,Rochford,http://www.rochford.gov.uk,0.61271300000000,SS5 6ET,2012-10-24,fhrs_5_en-GB,5,,FHRS,5
30822,Not published,,,,Oooo... I Do Love A Cake,Other catering premises,7841,0,,47477,0,,,11/00137/COMM,118,customerservices@rochford.gov.uk,Rochford,http://www.rochford.gov.uk,,,2014-10-17,fhrs_5_en-GB,5,,FHRS,0
30823,Burtons Farm Barling Road Barling Magna Southend-On-Sea Essex,,,,P R Splett (Butchers) Ltd,Retailers - other,4613,5,,155541,0,,51.56616100000000,EH/00000331,118,customerservices@rochford.gov.uk,Rochford,http://www.rochford.gov.uk,0.76822500000000,SS3 0LZ,2014-11-20,fhrs_5_en-GB,5,,FHRS,0
30824,129 High Street Rayleigh Essex,,,,Panchos Cantina,Restaurant/Cafe/Canteen,1,20,,34134,10,,51.58459400000000,10/00092/COMM,118,customerservices@rochford.gov.uk,Rochford,http://www.rochford.gov.uk,0.60381700000000,SS6 7QA,2014-11-21,fhrs_1_en-GB,1,,FHRS,15
30825,20 High Street Rayleigh Essex,,,,Papa Johns,Takeaway/sandwich shop,7844,0,,26311,0,,51.58733400000000,08/00252/COMM,118,customerservices@rochford.gov.uk,Rochford,http://www.rochford.gov.uk,0.60680300000000,SS6 7EF,2013-01-24,fhrs_5_en-GB,5,,FHRS,0
30826,Not published,,,,Party Perfect,Other catering premises,7841,10,,155726,5,,,EH/00013326,118,customerservices@rochford.gov.uk,Rochford,http://www.rochford.gov.uk,,,2012-05-24,fhrs_4_en-GB,4,,FHRS,5
30827,View Gardens Chelmsford Road Rawreth Essex,,,,Passing Thyme,Restaurant/Cafe/Canteen,1,10,,669433,15,,51.60672500000000,14/00017/COMM,118,customerservices@rochford.gov.uk,Rochford,http://www.rochford.gov.uk,0.57579200000000,SS11 8SJ,2014-05-14,fhrs_2_en-GB,2,,FHRS,15
30828,Paul Pry 14 High Road Rayleigh Essex,,,,Paul Pry,Pub/bar/nightclub,7843,0,,21438,0,,51.58249100000000,07/00023/COMM,118,customerservices@rochford.gov.uk,Rochford,http://www.rochford.gov.uk,0.59969800000000,SS6 7AA,2013-01-11,fhrs_5_en-GB,5,,FHRS,5
30829,2 Packhouse Lubards Lodge Farm Hullbridge Road Rayleigh Essex,,,,Peafs Farm Shop,Retailers - other,4613,10,,33901,10,,51.59953773000000,10/00074/COMM,118,customerservices@rochford.gov.uk,Rochford,http://www.rochford.gov.uk,0.61112523000000,,2015-01-15,fhrs_3_en-GB,3,,FHRS,10
30830,Unit A Saxon Court Priory Chase Rayleigh Essex,,,,Peggottys,Takeaway/sandwich shop,7844,5,,449793,0,,51.59308800000000,12/00071/COMM,118,customerservices@rochford.gov.uk,Rochford,http://www.rochford.gov.uk,0.60198100000000,SS6 9GX,2014-10-24,fhrs_5_en-GB,5,,FHRS,0
30831,111 Southend Road Rochford Essex,,,,Peking Garden,Takeaway/sandwich shop,7844,5,,208853,10,,51.57310600000000,11/00162/COMM,118,customerservices@rochford.gov.uk,Rochford,http://www.rochford.gov.uk,0.70685900000000,SS4 1HX,2013-09-19,fhrs_4_en-GB,4,,FHRS,5
30832,79 Grove Road Rayleigh Essex,,,,Phoenix Takeaway,Takeaway/sandwich shop,7844,5,,14918,0,,51.58445300000000,05/00070/COMM,118,customerservices@rochford.gov.uk,Rochford,http://www.rochford.gov.uk,0.62388900000000,SS6 8RA,2014-06-06,fhrs_4_en-GB,4,,FHRS,10
30833,47 Eastwood Road Rayleigh Essex,,,,Pizza Go Go,Takeaway/sandwich shop,7844,5,,155613,0,,51.58480600000000,EH/00004866,118,customerservices@rochford.gov.uk,Rochford,http://www.rochford.gov.uk,0.60644200000000,SS6 7JE,2014-11-11,fhrs_5_en-GB,5,,FHRS,5
30834,Plough And Sail East End Paglesham Rochford Essex,,,,Plough & Sail,Pub/bar/nightclub,7843,5,,155712,5,,51.59578700000000,EH/00009467,118,customerservices@rochford.gov.uk,Rochford,http://www.rochford.gov.uk,0.80416400000000,SS4 2EQ,2014-03-21,fhrs_5_en-GB,5,,FHRS,5
30835,Plumberow Primary School Hamilton Gardens Hockley Essex,,,,Plumberow Primary School,School/college/university,7845,0,,155570,0,,51.77044677734375,EH/00002103,118,customerservices@rochford.gov.uk,Rochford,http://www.rochford.gov.uk,0.70727801322937,SS5 5BX,2014-11-19,fhrs_5_en-GB,5,,FHRS,0
30836,St Edmund Chapel Little Wakering Road Great Wakering Southend-On-Sea Essex,,,,Poppets Pre-School,Hospitals/Childcare/Caring Premises,5,5,,155594,0,,51.55554600000000,EH/00003729,118,customerservices@rochford.gov.uk,Rochford,http://www.rochford.gov.uk,0.78995700000000,SS3 0JB,2013-04-05,fhrs_5_en-GB,5,,FHRS,5
30837,103 London Road Rayleigh Essex,,,,Pot Herbs,Retailers - other,4613,5,,46342,0,,51.59380800000000,11/00060/COMM,118,customerservices@rochford.gov.uk,Rochford,http://www.rochford.gov.uk,0.59469800000000,SS6 9AX,2014-01-13,fhrs_5_en-GB,5,,FHRS,0
30838,30 High Street Great Wakering Southend-On-Sea Essex,,,,Precious,Takeaway/sandwich shop,7844,10,,155551,10,,51.55320000000000,EH/00000856,118,customerservices@rochford.gov.uk,Rochford,http://www.rochford.gov.uk,0.80838100000000,SS3 0EQ,2014-11-23,fhrs_3_en-GB,3,,FHRS,10
30839,39 - 41 High Street Rayleigh Essex,,,,Prezzo,Restaurant/Cafe/Canteen,1,5,,590088,10,,51.58706600000000,13/00007/COMM,118,customerservices@rochford.gov.uk,Rochford,http://www.rochford.gov.uk,0.60713400000000,SS6 7EW,2013-09-02,fhrs_4_en-GB,4,,FHRS,5
30840,Punch Bowl Inn Church End Paglesham Rochford Essex,,,,Punch Bowl,Pub/bar/nightclub,7843,0,,155713,0,,51.60422500000000,EH/00009478,118,customerservices@rochford.gov.uk,Rochford,http://www.rochford.gov.uk,0.77799300000000,SS4 2DP,2014-03-11,fhrs_5_en-GB,5,,FHRS,0
30841,85 Eastwood Road Rayleigh Essex,,,,Queens Fish Restaurant,Takeaway/sandwich shop,7844,10,,682782,5,,51.58343200000000,14/00035/COMM,118,customerservices@rochford.gov.uk,Rochford,http://www.rochford.gov.uk,0.60878800000000,SS6 7JN,2014-06-30,fhrs_2_en-GB,2,,FHRS,15
30842,Orchard House Apton Hall Road Canewdon Rochford Essex,,,,R & T Raven,Retailers - other,4613,5,,155545,0,,51.60048000000000,EH/00000477,118,customerservices@rochford.gov.uk,Rochford,http://www.rochford.gov.uk,0.72329000000000,SS4 3RJ,2013-10-03,fhrs_5_en-GB,5,,FHRS,5
30843,251 Ferry Road Hullbridge Hockley Essex,,,,R V Taber & Sons,Retailers - other,4613,0,,155584,5,,51.62788800000000,EH/00003273,118,customerservices@rochford.gov.uk,Rochford,http://www.rochford.gov.uk,0.61353500000000,SS5 6NA,2015-01-15,fhrs_5_en-GB,5,,FHRS,0
30844,Huntingdon Church Talbot Avenue Rayleigh Essex,,,,Rascals Childcare Ltd,Hospitals/Childcare/Caring Premises,5,0,,155723,0,,51.59266600000000,EH/00012824,118,customerservices@rochford.gov.uk,Rochford,http://www.rochford.gov.uk,0.59863200000000,,2015-01-06,fhrs_5_en-GB,5,,FHRS,0
30845,The Old School 400 Little Wakering Road Barling Magna Southend-on-Sea Essex,,,,Rascals Day Nursery,Hospitals/Childcare/Caring Premises,5,0,,34919,5,,51.56842100000000,10/00169/COMM,118,customerservices@rochford.gov.uk,Rochford,http://www.rochford.gov.uk,0.78409300000000,SS3 0LN,2014-11-24,fhrs_5_en-GB,5,,FHRS,0
30846,W R V S Rayleigh Retired Residents Centre Castle Road Rayleigh Essex,,,,Rayleigh Age Concern Day Centre,Hospitals/Childcare/Caring Premises,5,0,,155602,0,,51.58306300000000,EH/00004330,118,customerservices@rochford.gov.uk,Rochford,http://www.rochford.gov.uk,0.60432100000000,SS6 7QF,2012-11-08,fhrs_5_en-GB,5,,FHRS,0
30847,7 London Hill Rayleigh Essex,,,,Rayleigh Conservative Club - Bar,Pub/bar/nightclub,7843,0,,18531,0,,51.58921200000000,06/00151/COMM,118,customerservices@rochford.gov.uk,Rochford,http://www.rochford.gov.uk,0.60604400000000,SS6 7HW,2013-08-28,fhrs_5_en-GB,5,,FHRS,0
30848,Rayleigh County Junior And Infant School Love Lane Rayleigh Essex,,,,Rayleigh County Junior And Infant School,School/college/university,7845,0,,155657,0,,51.58503700000000,EH/00006195,118,customerservices@rochford.gov.uk,Rochford,http://www.rochford.gov.uk,0.60167700000000,SS6 7DD,2013-08-21,fhrs_5_en-GB,5,,FHRS,0
30849,23 Castle Road Rayleigh Essex,,,,Rayleigh Elim Church,Retailers - other,4613,10,,576062,0,,51.58347400000000,13/00039/COMM,118,customerservices@rochford.gov.uk,Rochford,http://www.rochford.gov.uk,0.60446000000000,SS6 7QD,2013-06-26,fhrs_4_en-GB,4,,FHRS,10
30850,22 - 24 High Street Rayleigh Essex,,,,Rayleigh Food And Wine,Retailers - other,4613,0,,33856,0,,51.58733400000000,10/00071/COMM,118,customerservices@rochford.gov.uk,Rochford,http://www.rochford.gov.uk,0.60680300000000,SS6 7EF,2013-09-05,fhrs_5_en-GB,5,,FHRS,0
30851,9 Berrys Arcade High Street Rayleigh Essex,,,,Rayleigh Fruit And Veg,Retailers - other,4613,0,,29896,0,,51.58768400000000,09/00124/COMM,118,customerservices@rochford.gov.uk,Rochford,http://www.rochford.gov.uk,0.60722700000000,SS6 7EQ,2014-04-10,fhrs_5_en-GB,5,,FHRS,0
30852,401 Eastwood Road Rayleigh Essex,,,,Rayleigh Garden Centre,Retailers - other,4613,0,,155618,0,,51.57598600000000,EH/00004970,118,customerservices@rochford.gov.uk,Rochford,http://www.rochford.gov.uk,0.63370700000000,SS6 7LU,2014-08-20,fhrs_5_en-GB,5,,FHRS,0
30853,Rayleigh Indoor Go Karting Brook Road Rayleigh Essex,,,,Rayleigh Indoor Karting,Retailers - other,4613,5,,155598,5,,51.57744800000000,EH/00004151,118,customerservices@rochford.gov.uk,Rochford,http://www.rochford.gov.uk,0.60486600000000,SS6 7UT,2015-01-06,fhrs_5_en-GB,5,,FHRS,0
30854,89 High Street Rayleigh Essex,,,,Rayleigh Lanes Butchers,Retailers - other,4613,0,,155635,0,,51.58592600000000,EH/00005494,118,customerservices@rochford.gov.uk,Rochford,http://www.rochford.gov.uk,0.60579800000000,SS6 7EJ,2013-09-05,fhrs_5_en-GB,5,,FHRS,5
30855,89 High Street Rayleigh Essex,,,,Rayleigh Lanes Snooker,Pub/bar/nightclub,7843,10,,46287,10,,51.58592600000000,11/00057/COMM,118,customerservices@rochford.gov.uk,Rochford,http://www.rochford.gov.uk,0.60579800000000,SS6 7EJ,2013-03-08,fhrs_3_en-GB,3,,FHRS,5
30856,Rayleigh Lodge The Chase Rayleigh Essex,,,,Rayleigh Lodge,Restaurant/Cafe/Canteen,1,5,,18630,0,,51.58360400000000,06/00179/COMM,118,customerservices@rochford.gov.uk,Rochford,http://www.rochford.gov.uk,0.62241100000000,SS6 8RW,2014-07-30,fhrs_4_en-GB,4,,FHRS,10
30857,78 Eastwood Road Rayleigh Essex,,,,"Rayleigh Methodist Pre School, Methodist Church Hall",Hospitals/Childcare/Caring Premises,5,5,,155750,0,,51.58279200000000,EH/00018230,118,customerservices@rochford.gov.uk,Rochford,http://www.rochford.gov.uk,0.60925700000000,SS6 7JP,2014-08-22,fhrs_5_en-GB,5,,FHRS,0
30858,159 High Street Rayleigh Essex,,,,Rayleigh Spicy,Takeaway/sandwich shop,7844,20,,155640,15,,51.58459400000000,EH/00005600,118,customerservices@rochford.gov.uk,Rochford,http://www.rochford.gov.uk,0.60381700000000,SS6 7QA,2014-11-24,fhrs_1_en-GB,1,,FHRS,10
30859,Raymonds Farm Creeksea Road Canewdon Rochford Essex,,,,Raymonds Farm,Retailers - other,4613,0,,155547,0,,51.61712700000000,EH/00000538,118,customerservices@rochford.gov.uk,Rochford,http://www.rochford.gov.uk,0.77665700000000,SS4 2EY,2012-11-02,fhrs_5_en-GB,5,,FHRS,5
30860,69 High Street Great Wakering Southend-On-Sea Essex,,,,Red Lion Public House,Pub/bar/nightclub,7843,10,,155553,10,,51.55279800000000,EH/00000876,118,customerservices@rochford.gov.uk,Rochford,http://www.rochford.gov.uk,0.80525400000000,SS3 0ED,2013-02-18,fhrs_3_en-GB,3,,FHRS,10
30861,The Old Bakehouse Back Lane Rochford Essex,,,,Regency Spice,Takeaway/sandwich shop,7844,0,,30047,0,,51.58190300000000,09/00140/COMM,118,customerservices@rochford.gov.uk,Rochford,http://www.rochford.gov.uk,0.70604000000000,SS4 1AY,2013-01-23,fhrs_5_en-GB,5,,FHRS,0
30862,Not published,,,,Richies,Mobile caterer,7846,5,,590091,10,,,13/00052/COMM,118,customerservices@rochford.gov.uk,Rochford,http://www.rochford.gov.uk,,,2013-08-21,fhrs_4_en-GB,4,,FHRS,0
30863,Not published,,,,Rildo   Sandra Ice Cream,Mobile caterer,7846,5,,682784,5,,,14/00047/COMM,118,customerservices@rochford.gov.uk,Rochford,http://www.rochford.gov.uk,,,2014-06-17,fhrs_5_en-GB,5,,FHRS,5
30864,Riverside Primary School Ferry Road Hullbridge Essex,,,,Riverside Primary School,School/college/university,7845,0,,669442,0,,,14/00041/COMM,118,customerservices@rochford.gov.uk,Rochford,http://www.rochford.gov.uk,,,2014-05-13,fhrs_5_en-GB,5,,FHRS,5
30865,Rochford Rugby Club Magnolia Road Rochford Essex,,,,Rochford 100 Rugby Club,Pub/bar/nightclub,7843,5,,155562,5,,51.59667100000000,EH/00001440,118,customerservices@rochford.gov.uk,Rochford,http://www.rochford.gov.uk,0.68564700000000,SS4 3AD,2013-03-21,fhrs_5_en-GB,5,,FHRS,5
30866,Canteen Rochford Hospital Union Lane Rochford Essex,,,,Rochford Hospital,Hospitals/Childcare/Caring Premises,5,5,,24957,5,,51.58255100000000,08/00030/COMM,118,customerservices@rochford.gov.uk,Rochford,http://www.rochford.gov.uk,0.70390600000000,,2014-04-28,fhrs_5_en-GB,5,,FHRS,0
30867,Rochford Hundred Golf Club Hall Road Rochford Essex,,,,Rochford Hundred Golf Club,Pub/bar/nightclub,7843,0,,155686,5,,51.58093500000000,EH/00008060,118,customerservices@rochford.gov.uk,Rochford,http://www.rochford.gov.uk,0.69807200000000,SS4 1NW,2014-10-01,fhrs_5_en-GB,5,,FHRS,0
30868,69 West Street Rochford Essex,,,,Rochford News,Retailers - other,4613,0,,449792,0,,51.58217500000000,12/00070/COMM,118,customerservices@rochford.gov.uk,Rochford,http://www.rochford.gov.uk,0.70555100000000,SS4 1BE,2012-08-06,fhrs_5_en-GB,5,,FHRS,0
30869,17 North Street Rochford Essex,,,,Rochford Premier,Retailers - other,4613,10,,682776,5,,51.59769600000000,13/00077/COMM,118,customerservices@rochford.gov.uk,Rochford,http://www.rochford.gov.uk,0.75412300000000,SS4 1AA,2013-12-18,fhrs_4_en-GB,4,,FHRS,5
30870,Rochford Primary School Ashingdon Road Rochford Essex,,,,Rochford Primary & Nursery School,School/college/university,7845,0,,155671,0,,51.58443100000000,EH/00007552,118,customerservices@rochford.gov.uk,Rochford,http://www.rochford.gov.uk,0.70092100000000,SS4 1NJ,2013-04-04,fhrs_5_en-GB,5,,FHRS,0
30871,Petrol Filling Station Cherry Orchard Way Rochford Essex,,,,Rochford Service Station,Retailers - other,4613,0,,26103,5,,51.56983600000000,08/00197/COMM,118,customerservices@rochford.gov.uk,Rochford,http://www.rochford.gov.uk,0.68070800000000,,2014-01-10,fhrs_5_en-GB,5,,FHRS,5
30872,36 West Street Rochford Essex,,,,Rochford Takeaway,Takeaway/sandwich shop,7844,0,,155706,0,,51.58246000000000,EH/00009241,118,customerservices@rochford.gov.uk,Rochford,http://www.rochford.gov.uk,0.70569700000000,SS4 1AJ,2013-03-08,fhrs_5_en-GB,5,,FHRS,0
30873,Rochford Sports Club Church Walk Rochford Essex,,,,Rochford Tennis Club,Pub/bar/nightclub,7843,0,,155677,0,,51.58162600000000,EH/00007763,118,customerservices@rochford.gov.uk,Rochford,http://www.rochford.gov.uk,0.70167800000000,SS4 1NL,2014-05-29,fhrs_5_en-GB,5,,FHRS,0
30874,16 Imperial Park Rawreth Lane Rayleigh Essex,,,,Rockit Pizza Ltd,Takeaway/sandwich shop,7844,5,,682774,5,,51.60279600000000,13/00054/COMM,118,customerservices@rochford.gov.uk,Rochford,http://www.rochford.gov.uk,0.59899500000000,SS6 9RS,2014-01-23,fhrs_4_en-GB,4,,FHRS,10
30875,12 Purdeys Way Rochford Essex,,,,Rollacity,Retailers - other,4613,10,,208858,10,,51.57679300000000,11/00126/COMM,118,customerservices@rochford.gov.uk,Rochford,http://www.rochford.gov.uk,0.71853900000000,SS4 1NE,2014-01-26,fhrs_3_en-GB,3,,FHRS,10
30876,42 - 44 North Street Rochford Essex,,,,Rose And Crown Public House,Pub/bar/nightclub,7843,5,,46406,0,,51.58441300000000,11/00064/COMM,118,customerservices@rochford.gov.uk,Rochford,http://www.rochford.gov.uk,0.70637700000000,SS4 1AD,2014-01-21,fhrs_5_en-GB,5,,FHRS,0
30877,Elderly Persons Residential Care Home Hockley Road Rayleigh Essex,,,,Rosedale Court,Hospitals/Childcare/Caring Premises,5,5,,14725,0,,51.59435200000000,05/00045/COMM,118,customerservices@rochford.gov.uk,Rochford,http://www.rochford.gov.uk,0.61657100000000,,2015-01-23,fhrs_5_en-GB,5,,FHRS,5
30878,Not published,,,,Rossi,Mobile caterer,7846,0,,33554,0,,,10/00051/COMM,118,customerservices@rochford.gov.uk,Rochford,http://www.rochford.gov.uk,,,2013-05-07,fhrs_5_en-GB,5,,FHRS,0
30879,2 London Hill Rayleigh Essex,,,,Royal British Legion (Bar),Pub/bar/nightclub,7843,5,,155646,5,,51.58950700000000,EH/00006031,118,customerservices@rochford.gov.uk,Rochford,http://www.rochford.gov.uk,0.60656700000000,SS6 7HP,2012-10-18,fhrs_5_en-GB,5,,FHRS,5
30880,Royal Oak Stambridge Road Stambridge Rochford Essex,,,,Royal Oak,Pub/bar/nightclub,7843,0,,155700,5,,51.59292500000000,EH/00008968,118,customerservices@rochford.gov.uk,Rochford,http://www.rochford.gov.uk,0.74071400000000,SS4 2AX,2012-12-18,fhrs_5_en-GB,5,,FHRS,5
30881,Not published,,,,S   G Lunchbox,Mobile caterer,7846,0,,18837,5,,,06/00250/COMM,118,customerservices@rochford.gov.uk,Rochford,http://www.rochford.gov.uk,,,2014-03-17,fhrs_5_en-GB,5,,FHRS,5
30882,Rawreth Court Rawreth Lane Rayleigh Essex,,,,S.E.P.T.,Hospitals/Childcare/Caring Premises,5,0,,9770,0,,51.60523300000000,04/00061/COMM,118,customerservices@rochford.gov.uk,Rochford,http://www.rochford.gov.uk,0.59657700000000,SS6 9RN,2014-05-07,fhrs_5_en-GB,5,,FHRS,0
30883,32 Eastwood Road Rayleigh Essex,,,,Saffron Tandoori,Restaurant/Cafe/Canteen,1,5,,155611,5,,51.58455600000000,EH/00004852,118,customerservices@rochford.gov.uk,Rochford,http://www.rochford.gov.uk,0.60593700000000,SS6 7JQ,2013-08-21,fhrs_5_en-GB,5,,FHRS,5
30884,239 - 241 Eastwood Road Rayleigh Essex,,,,Sainsburys,Retailers - supermarkets/hypermarkets,7840,0,,576058,0,,51.57874400000000,12/00117/COMM,118,customerservices@rochford.gov.uk,Rochford,http://www.rochford.gov.uk,0.62097700000000,SS6 7LF,2013-04-12,fhrs_5_en-GB,5,,FHRS,0
30885,40 Spa Road Hockley Essex,,,,Sainsburys,Retailers - supermarkets/hypermarkets,7840,0,,409021,0,,51.60144900000000,11/00160/COMM,118,customerservices@rochford.gov.uk,Rochford,http://www.rochford.gov.uk,0.65593400000000,SS5 4PH,2012-06-21,fhrs_5_en-GB,5,,FHRS,0
30886,74 - 78 West Street Rochford Essex,,,,Sainsbury's Supermarkets Ltd,Retailers - supermarkets/hypermarkets,7840,0,,34885,0,,51.58224000000000,10/00166/COMM,118,customerservices@rochford.gov.uk,Rochford,http://www.rochford.gov.uk,0.70535400000000,,2012-06-07,fhrs_5_en-GB,5,,FHRS,0
30887,531 - 533 Ashingdon Road Ashingdon Essex,,,,Sanders Food   Wine,Retailers - other,4613,5,,409023,5,,51.60819925000000,12/00017/COMM,118,customerservices@rochford.gov.uk,Rochford,http://www.rochford.gov.uk,0.69104634000000,,2013-11-13,fhrs_5_en-GB,5,,FHRS,5
30888,9 London Road Rayleigh Essex,,,,Sandwich Pod,Takeaway/sandwich shop,7844,5,,682779,0,,51.59151500000000,14/00002/COMM,118,customerservices@rochford.gov.uk,Rochford,http://www.rochford.gov.uk,0.60236400000000,SS6 9HN,2014-02-04,fhrs_5_en-GB,5,,FHRS,0
30889,Old Parish Rooms Hockley Road Rayleigh Essex,,,,Santa Lucia,Restaurant/Cafe/Canteen,1,5,,15086,5,,51.58845600000000,05/00104/COMM,118,customerservices@rochford.gov.uk,Rochford,http://www.rochford.gov.uk,0.60932200000000,SS6 8BA,2013-03-05,fhrs_5_en-GB,5,,FHRS,5
30890,Not published,,,,Sarah's Farmhouse Fancies,Other catering premises,7841,0,,33053,0,,,10/00022/COMM,118,customerservices@rochford.gov.uk,Rochford,http://www.rochford.gov.uk,,,2013-09-06,fhrs_5_en-GB,5,,FHRS,5
30891,Saxon Hall Aviation Way Southend-On-Sea Essex,,,,Saxon Hall,Other catering premises,7841,10,,15352,10,,51.57266600000000,05/00190/COMM,118,customerservices@rochford.gov.uk,Rochford,http://www.rochford.gov.uk,0.68691600000000,SS2 6UN,2014-11-13,fhrs_3_en-GB,3,,FHRS,5
30892,Not published,,,,Schucks,Other catering premises,7841,10,,486101,5,,,11/00105/COMM,118,customerservices@rochford.gov.uk,Rochford,http://www.rochford.gov.uk,,,2011-09-30,fhrs_4_en-GB,4,,FHRS,0
30893,Not published,,,,Scotts Hall Farm,Mobile caterer,7846,0,,28543,10,,,09/00007/COMM,118,customerservices@rochford.gov.uk,Rochford,http://www.rochford.gov.uk,,,2012-05-15,fhrs_4_en-GB,4,,FHRS,0
30894,200 Main Road Hawkwell Hockley Essex,,,,Shadhona,Restaurant/Cafe/Canteen,1,5,,155744,5,,51.59597400000000,EH/00017377,118,customerservices@rochford.gov.uk,Rochford,http://www.rochford.gov.uk,0.66694900000000,SS5 4EH,2014-03-19,fhrs_5_en-GB,5,,FHRS,5
30895,Not published,,,,Sharons Diner,Mobile caterer,7846,10,,625034,5,,,13/00074/COMM,118,customerservices@rochford.gov.uk,Rochford,http://www.rochford.gov.uk,,,2013-11-13,fhrs_4_en-GB,4,,FHRS,0
30896,113 High Road Rayleigh Essex,,,,Shell UK Ltd,Retailers - other,4613,5,,155624,5,,51.57822900000000,EH/00005369,118,customerservices@rochford.gov.uk,Rochford,http://www.rochford.gov.uk,0.59968500000000,SS6 7SL,2012-08-02,fhrs_5_en-GB,5,,FHRS,0
30897,63 Southend Road Hockley Essex,,,,Shuhag Tandoori Restaurant,Restaurant/Cafe/Canteen,1,10,,155576,15,,51.60028600000000,EH/00002802,118,customerservices@rochford.gov.uk,Rochford,http://www.rochford.gov.uk,0.65647200000000,SS5 4PZ,2014-12-03,fhrs_2_en-GB,2,,FHRS,15
30898,217 London Road Rayleigh Essex,,,,Silver City,Takeaway/sandwich shop,7844,5,,21668,0,,51.59523100000000,07/00050/COMM,118,customerservices@rochford.gov.uk,Rochford,http://www.rochford.gov.uk,0.58848400000000,SS6 9DN,2014-03-26,fhrs_5_en-GB,5,,FHRS,5
30899,Simla Restaurant 301 Ferry Road Hullbridge Hockley Essex,,,,Simla Tandoori Restaurant,Restaurant/Cafe/Canteen,1,5,,30040,5,,51.62788800000000,09/00139/COMM,118,customerservices@rochford.gov.uk,Rochford,http://www.rochford.gov.uk,0.61353500000000,SS5 6NA,2014-09-27,fhrs_5_en-GB,5,,FHRS,5
30900,15 Star Lane Industrial Estate Star Lane Great Wakering Essex,,,,Simply Shellys,Takeaway/sandwich shop,7844,0,,486102,0,,,12/00064/COMM,118,customerservices@rochford.gov.uk,Rochford,http://www.rochford.gov.uk,,,2014-11-12,fhrs_5_en-GB,5,,FHRS,0
30901,Warehouse Centre Brook Road Rayleigh Essex,,,,S-Kape Youth Club (Active Christian Trust),Other catering premises,7841,0,,155747,0,,51.57744800000000,EH/00017700,118,customerservices@rochford.gov.uk,Rochford,http://www.rochford.gov.uk,0.60486600000000,SS6 7UT,2013-01-21,fhrs_5_en-GB,5,,FHRS,0
30902,Essex County Hotel Aviation Way Rochford Essex,,,,Skylark Hotel,Hotel/bed & breakfast/guest house,7842,5,,333376,5,,51.57266600000000,11/00159/COMM,118,customerservices@rochford.gov.uk,Rochford,http://www.rochford.gov.uk,0.68691600000000,SS2 6UN,2013-07-24,fhrs_4_en-GB,4,,FHRS,10
30903,Not published,,,,Smarshmellow,Other catering premises,7841,0,,590094,0,,,13/00061/COMM,118,customerservices@rochford.gov.uk,Rochford,http://www.rochford.gov.uk,,,2013-09-13,fhrs_5_en-GB,5,,FHRS,0
30904,Not published,,,,Smart Eats   Treats Ltd,Other catering premises,7841,5,,682783,0,,,14/00040/COMM,118,customerservices@rochford.gov.uk,Rochford,http://www.rochford.gov.uk,,,2014-06-25,fhrs_5_en-GB,5,,FHRS,0
30905,Smugglers Den 315 Ferry Road Hullbridge Hockley Essex,,,,Smugglers Den Club,Pub/bar/nightclub,7843,10,,26289,0,,51.62788800000000,08/00246/COMM,118,customerservices@rochford.gov.uk,Rochford,http://www.rochford.gov.uk,0.61353500000000,SS5 6NA,2013-11-13,fhrs_4_en-GB,4,,FHRS,5
30906,9 Spa Road Hockley Essex,,,,Spa Convenience Store,Retailers - other,4613,10,,155578,0,,51.60172300000000,EH/00002828,118,customerservices@rochford.gov.uk,Rochford,http://www.rochford.gov.uk,0.65535700000000,SS5 4AZ,2011-09-28,fhrs_4_en-GB,4,,FHRS,5
30907,Spa Public House 60 Southend Road Hockley Essex,,,,Spa Public House,Pub/bar/nightclub,7843,5,,18648,0,,51.60070500000000,06/00184/COMM,118,customerservices@rochford.gov.uk,Rochford,http://www.rochford.gov.uk,0.65661200000000,SS5 4QH,2012-10-30,fhrs_5_en-GB,5,,FHRS,5
30908,59 Hullbridge Road Rayleigh Essex,,,,Spice Hut,Takeaway/sandwich shop,7844,20,,18745,15,,51.60028800000000,06/00218/COMM,118,customerservices@rochford.gov.uk,Rochford,http://www.rochford.gov.uk,0.60945100000000,SS6 9NL,2014-12-03,fhrs_1_en-GB,1,,FHRS,15
30909,140 High Street Rayleigh Essex,,,,Spice Zone,Takeaway/sandwich shop,7844,0,,625035,0,,51.58500800000000,13/00079/COMM,118,customerservices@rochford.gov.uk,Rochford,http://www.rochford.gov.uk,0.60339300000000,SS6 7BU,2013-11-26,fhrs_5_en-GB,5,,FHRS,0
30910,93 High Street Rayleigh Essex,,,,Spread Eagle,Pub/bar/nightclub,7843,0,,34124,0,,51.58592600000000,10/00091/COMM,118,customerservices@rochford.gov.uk,Rochford,http://www.rochford.gov.uk,0.60579800000000,SS6 7EJ,2013-09-24,fhrs_5_en-GB,5,,FHRS,0
30911,11 High Street Rayleigh Essex,,,,Squires,Restaurant/Cafe/Canteen,1,5,,155627,0,,51.58711800000000,EH/00005386,118,customerservices@rochford.gov.uk,Rochford,http://www.rochford.gov.uk,0.60719500000000,SS6 7EW,2013-03-05,fhrs_5_en-GB,5,,FHRS,0
30912,St Lukes Place Day Care Centre Dalys Road Rochford Essex,,,,St Lukes Day Centre,Hospitals/Childcare/Caring Premises,5,0,,15044,0,,51.58579521321340,05/00093/COMM,118,customerservices@rochford.gov.uk,Rochford,http://www.rochford.gov.uk,0.70369411314142,,2014-09-17,fhrs_5_en-GB,5,,FHRS,0
30913,St Nicholas Primary School Priory Chase Rayleigh Essex,,,,St Nicholas C Of E Primary School,School/college/university,7845,0,,21650,5,,51.60199300000000,07/00048/COMM,118,customerservices@rochford.gov.uk,Rochford,http://www.rochford.gov.uk,0.59503500000000,SS6 9NE,2014-03-11,fhrs_5_en-GB,5,,FHRS,0
30914,109 Ashingdon Road Rochford Essex,,,,St Teresa's Pre-school,Hospitals/Childcare/Caring Premises,5,5,,155667,5,,51.58852500000000,EH/00007447,118,customerservices@rochford.gov.uk,Rochford,http://www.rochford.gov.uk,0.69927200000000,SS4 1RF,2012-11-20,fhrs_5_en-GB,5,,FHRS,5
30915,St Teresa's Roman Catholic School Ashingdon Road Rochford Essex,,,,St Teresa's Primary School,School/college/university,7845,0,,155670,0,,51.58852500000000,EH/00007542,118,customerservices@rochford.gov.uk,Rochford,http://www.rochford.gov.uk,0.69927200000000,SS4 1RF,2014-09-30,fhrs_5_en-GB,5,,FHRS,5
30916,Stambridge Memorial Hall Stambridge Road Stambridge Rochford Essex,,,,Stambridge Community Centre,Other catering premises,7841,0,,356624,0,,51.59292500000000,EH/00008966,118,customerservices@rochford.gov.uk,Rochford,http://www.rochford.gov.uk,0.74071400000000,SS4 2AX,2012-05-01,fhrs_5_en-GB,5,,FHRS,0
30917,Stambridge Meadows Stambridge Road Stambridge Rochford Essex,,,,Stambridge Meadows Care Home,Hospitals/Childcare/Caring Premises,5,5,,18431,5,,51.59011500000000,06/00127/COMM,118,customerservices@rochford.gov.uk,Rochford,http://www.rochford.gov.uk,0.73933200000000,SS4 2AR,2014-11-26,fhrs_5_en-GB,5,,FHRS,5
30918,Stambridge Primary School Stambridge Road Stambridge Rochford Essex,,,,Stambridge Primary School,School/college/university,7845,0,,155699,0,,51.58389900000000,EH/00008964,118,customerservices@rochford.gov.uk,Rochford,http://www.rochford.gov.uk,0.73324100000000,SS4 2AP,2013-05-01,fhrs_5_en-GB,5,,FHRS,0
30919,74 High Street Rayleigh Essex,,,,Star Cafe Pie   Mash,Restaurant/Cafe/Canteen,1,10,,669434,5,,51.58672000000000,14/00021/COMM,118,customerservices@rochford.gov.uk,Rochford,http://www.rochford.gov.uk,0.60570000000000,SS6 7EA,2014-04-24,fhrs_4_en-GB,4,,FHRS,0
30920,Unit 3 Station Approach Station Road Rayleigh Essex,,,,Station Grill,Takeaway/sandwich shop,7844,20,,682773,15,,51.58938600000000,13/00025/COMM,118,customerservices@rochford.gov.uk,Rochford,http://www.rochford.gov.uk,0.60023600000000,SS6 7HJ,2014-11-24,fhrs_1_en-GB,1,,FHRS,10
30921,Station House Station Approach Station Road Rayleigh Essex,,,,Station News,Retailers - other,4613,10,,155662,0,,51.58938600000000,EH/00006880,118,customerservices@rochford.gov.uk,Rochford,http://www.rochford.gov.uk,0.60023600000000,SS6 7HJ,2013-04-03,fhrs_4_en-GB,4,,FHRS,5
30922,Not published,,,,Stavros Kebabs,Mobile caterer,7846,20,,155708,10,,,EH/00009274,118,customerservices@rochford.gov.uk,Rochford,http://www.rochford.gov.uk,,,2014-12-03,fhrs_1_en-GB,1,,FHRS,5
30923,London Southend Airport Southend Airport Rochford Essex,,,,Stobart Airport Shopping,Retailers - other,4613,0,,333380,0,,51.77044677734375,12/00022/COMM,118,customerservices@rochford.gov.uk,Rochford,http://www.rochford.gov.uk,0.70727801322937,SS2 6YF,2012-03-19,fhrs_5_en-GB,5,,FHRS,0
30924,52 High Street Rayleigh Essex,,,,Subway,Restaurant/Cafe/Canteen,1,0,,669430,0,,51.58672000000000,13/00084/COMM,118,customerservices@rochford.gov.uk,Rochford,http://www.rochford.gov.uk,0.60570000000000,SS6 7EA,2014-04-25,fhrs_5_en-GB,5,,FHRS,0
30925,31 Spa Road Hockley Essex,,,,Sunrise Health Foods Ltd,Retailers - other,4613,10,,155731,0,,51.60172300000000,EH/00014412,118,customerservices@rochford.gov.uk,Rochford,http://www.rochford.gov.uk,0.65535700000000,SS5 4AZ,2012-02-04,fhrs_4_en-GB,4,,FHRS,0
30926,Not published,,,,Sushi Man,Other catering premises,7841,5,,409033,5,,,12/00052/COMM,118,customerservices@rochford.gov.uk,Rochford,http://www.rochford.gov.uk,,,2013-12-16,fhrs_5_en-GB,5,,FHRS,0
30927,Not published,,,,Sweet E's Cupcakes,Other catering premises,7841,0,,47139,0,,,11/00108/COMM,118,customerservices@rochford.gov.uk,Rochford,http://www.rochford.gov.uk,,,2014-10-09,fhrs_5_en-GB,5,,FHRS,0
30928,Not published,,,,Sweet-Art Cakes,Other catering premises,7841,5,,449783,0,,,12/00034/COMM,118,customerservices@rochford.gov.uk,Rochford,http://www.rochford.gov.uk,,,2012-04-16,fhrs_5_en-GB,5,,FHRS,5
30929,17 - 19 Eldon Way Hockley Essex,,,,Tabletop Nation,Retailers - other,4613,10,,559696,0,,,13/00023/COMM,118,customerservices@rochford.gov.uk,Rochford,http://www.rochford.gov.uk,,,2013-06-24,fhrs_4_en-GB,4,,FHRS,10
30930,4 Brook Road Industrial Estate Sirdar Road Rayleigh Essex,,,,Takeout Central,Takeaway/sandwich shop,7844,20,,26259,15,,51.57780300000000,08/00240/COMM,118,customerservices@rochford.gov.uk,Rochford,http://www.rochford.gov.uk,0.61073200000000,SS6 7XF,2014-11-19,fhrs_1_en-GB,1,,FHRS,15
30931,Adjacent Unit 15 Brook Road Industrial Estate Brook Road Rayleigh Essex,,,,Taker Break,Takeaway/sandwich shop,7844,5,,21709,0,,51.57728100000000,07/00056/COMM,118,customerservices@rochford.gov.uk,Rochford,http://www.rochford.gov.uk,0.60954700000000,SS6 7XL,2013-06-28,fhrs_5_en-GB,5,,FHRS,0
30932,2 Berrys Arcade High Street Rayleigh Essex,,,,Tamarind,Takeaway/sandwich shop,7844,0,,208861,0,,51.58768400000000,11/00150/COMM,118,customerservices@rochford.gov.uk,Rochford,http://www.rochford.gov.uk,0.60722700000000,SS6 7EQ,2013-08-06,fhrs_5_en-GB,5,,FHRS,5
30933,8 East Street Rochford Essex,,,,Taste Of Raj,Restaurant/Cafe/Canteen,1,20,,155720,15,,51.58263700000000,EH/00011768,118,customerservices@rochford.gov.uk,Rochford,http://www.rochford.gov.uk,0.70891300000000,SS4 1DB,2014-11-26,fhrs_1_en-GB,1,,FHRS,15
30934,253 Ferry Road Hullbridge Essex,,,,Taverna Besimoo,Takeaway/sandwich shop,7844,5,,644214,10,,51.62788800000000,14/00018/COMM,118,customerservices@rochford.gov.uk,Rochford,http://www.rochford.gov.uk,0.61353500000000,SS5 6NA,2014-04-07,fhrs_4_en-GB,4,,FHRS,5
30935,Not published,,,,Terra Farmer Ltd,Mobile caterer,7846,5,,625031,0,,,13/00062/COMM,118,customerservices@rochford.gov.uk,Rochford,http://www.rochford.gov.uk,,,2013-12-18,fhrs_5_en-GB,5,,FHRS,5
30936,132 London Road Rayleigh Essex,,,,Tesco Express,Retailers - supermarkets/hypermarkets,7840,0,,208865,0,,51.59419132000001,12/00018/COMM,118,customerservices@rochford.gov.uk,Rochford,http://www.rochford.gov.uk,0.59405220000000,,2012-02-28,fhrs_5_en-GB,5,,FHRS,0
30937,Former Boiler House Lubbards Lodge Farm Hullbridge Road Rayleigh Essex,,,,Thamanna Tandoori,Takeaway/sandwich shop,7844,10,,18664,10,,51.60742200000000,06/00189/COMM,118,customerservices@rochford.gov.uk,Rochford,http://www.rochford.gov.uk,0.61106300000000,,2014-11-24,fhrs_3_en-GB,3,,FHRS,5
30938,The Anchor 284 Ferry Road Hullbridge Hockley Essex,,,,The Anchor,Restaurant/Cafe/Canteen,1,5,,33663,5,,51.62775600000000,10/00058/COMM,118,customerservices@rochford.gov.uk,Rochford,http://www.rochford.gov.uk,0.61420700000000,SS5 6ND,2014-11-05,fhrs_5_en-GB,5,,FHRS,5
30939,Anchor Inn High Street Great Wakering Southend-on-Sea Essex,,,,The Anchor Public House,Pub/bar/nightclub,7843,5,,34443,5,,51.55289300000000,10/00118/COMM,118,customerservices@rochford.gov.uk,Rochford,http://www.rochford.gov.uk,0.80804400000000,SS3 0EF,2013-12-05,fhrs_5_en-GB,5,,FHRS,0
30940,The Athenaeum Health Club Aviation Way Southend-On-Sea Essex,,,,The Athenaeum Health Club,Pub/bar/nightclub,7843,5,,155719,5,,51.57266600000000,EH/00011356,118,customerservices@rochford.gov.uk,Rochford,http://www.rochford.gov.uk,0.68691600000000,SS2 6UN,2014-11-13,fhrs_5_en-GB,5,,FHRS,5
30941,4 Steel House Lubards Lodge Farm Hullbridge Road Rayleigh Essex,,,,The Bagelry,Other catering premises,7841,10,,637166,5,,51.59959137000000,13/00085/COMM,118,customerservices@rochford.gov.uk,Rochford,http://www.rochford.gov.uk,0.61105013000000,,2014-01-09,fhrs_3_en-GB,3,,FHRS,10
30942,13 Golden Cross Parade Ashingdon Road Rochford Essex,,,,The Bakers Dozen,Retailers - other,4613,0,,155684,0,,51.59632300000000,EH/00007991,118,customerservices@rochford.gov.uk,Rochford,http://www.rochford.gov.uk,0.69615400000000,SS4 1UB,2014-09-30,fhrs_5_en-GB,5,,FHRS,5
30943,Hockley Market Garden Centre Lower Road Hockley Essex,,,,The Bay Tree Cafe And Farm Shop,Restaurant/Cafe/Canteen,1,5,,543041,0,,,13/00022/COMM,118,customerservices@rochford.gov.uk,Rochford,http://www.rochford.gov.uk,,,2014-11-19,fhrs_5_en-GB,5,,FHRS,0
30944,12 South Street Rochford Essex,,,,The Beehive Tea Rooms,Restaurant/Cafe/Canteen,1,5,,155693,5,,51.58143400000000,EH/00008784,118,customerservices@rochford.gov.uk,Rochford,http://www.rochford.gov.uk,0.70689200000000,SS4 1BQ,2014-06-27,fhrs_5_en-GB,5,,FHRS,5
30945,Rayleigh Railway Station Station Approach Station Road Rayleigh Essex,,,,The Brilliant Coffee Co,Restaurant/Cafe/Canteen,1,0,,45925,0,,51.58938600000000,11/00036/COMM,118,customerservices@rochford.gov.uk,Rochford,http://www.rochford.gov.uk,0.60023600000000,SS6 7HJ,2014-02-04,fhrs_5_en-GB,5,,FHRS,5
