,businessname,ratingvalue,structural,hygiene,confidenceinmanagement,ratingdate,latitude,longitude
288683,4Children,5,0,0,0,2013-09-27,51.710168,-1.962451
288684,7A Coffee Shop And Cafe,3,10,10,10,2014-02-26,51.707334,-1.779905
288685,99P Stores,5,0,0,0,2014-10-29,,
288686,A J Whiddett,5,5,5,5,2013-07-25,51.715824,-1.967209
288687,A J Whiddett Bakery,3,10,10,10,2014-07-22,51.718918,-1.969957
288688,Abbey Road Garage,3,5,10,10,2014-02-11,51.735445,-1.977751
288689,Abbeyfield Cirencester Society,4,5,5,10,2013-01-16,51.708803,-1.970977
288690,Abbeyfield Society,5,5,5,5,2013-11-14,51.930431,-1.722431
288691,Abbeyfield Society,5,0,5,0,2014-05-22,51.885834,-1.757663
288692,Abbeyfield UK,5,5,5,5,2010-03-01,51.639346,-2.161591
288693,Abbeymead Guest House,5,0,5,5,2010-01-12,51.713269,-1.960712
288694,Absolutely Delicious,4,10,0,10,2014-08-12,51.710296,-1.969905
288695,Acacia,5,5,0,5,2012-03-29,51.991213,-1.701828
288696,Acorns Nursery School,5,5,5,0,2014-09-03,51.716985,-1.97074
288697,Adlestrop Post Office,4,10,5,5,2012-04-19,51.941507,-1.647983
288698,Aldi,5,0,0,0,2014-10-29,51.70592,-1.952759
288699,Alis Snack Bar,5,5,5,5,2012-01-19,51.7641716003,-2.16174006462
288700,Ambleside B And B,5,5,5,5,2012-06-11,51.654828,-2.174612
288701,American Pizza,2,15,0,10,2014-08-05,51.709654,-1.960498
288702,Amethyst Fish Bar,5,5,5,5,2013-11-19,51.673182,-1.930754
288703,Ampney Crucis C Of E School,5,5,5,5,2013-05-17,51.718131,-1.896843
288704,Andrea Wiltshire,5,5,5,5,2010-09-13,,
288705,Andrew Butler Butchers,4,5,10,5,2014-08-05,51.707902,-1.781017
288706,Ann Edwards School,5,0,0,5,2014-09-09,51.669785,-1.933651
288707,Ann Griffin,4,5,5,10,2014-07-09,51.688713,-1.794808
288708,Anny's Tearoom,2,15,10,10,2014-02-13,51.717389,-1.966904
288709,Apsley Villa,4,0,5,10,2010-02-19,51.713269,-1.960712
288710,Aroma,2,10,15,10,2014-07-31,51.891292,-1.758055
288711,Ashas Kitchen,5,5,5,5,2012-05-10,51.849357,-1.910655
288712,Ashcroft Church Centre,Exempt,nan,nan,nan,2013-03-25,51.715006,-1.967904
288713,Ashley House Nursing Home,5,0,0,0,2014-02-11,51.720141,-1.970116
288714,Ask,4,10,0,10,2013-10-23,51.990334,-1.702911
288715,Aston House,4,0,5,10,2010-08-20,51.947644,-1.705521
288716,Avon Cottage Bed And Breakfast,5,0,5,0,2007-03-28,51.63767,-2.157409
288717,Aylworth Manor,5,0,0,5,2010-08-24,51.896246,-1.843029
288718,Badgers Croft Care Home,4,0,5,10,2010-10-18,52.048512,-1.780597
288719,Badgers Field,Exempt,nan,nan,nan,,52.049417,-1.778712
288720,Badgers Hall Tea Rooms,5,5,0,5,2013-10-08,52.050929,-1.77974
288721,Baked At 55,5,0,0,0,2014-09-26,51.712645,-1.951869
288722,Bakers Arms,3,10,10,10,2013-02-28,52.03956,-1.772535
288723,Bakery On The Water,3,10,10,10,2013-10-24,51.884093,-1.759474
288724,Bantam Tea Rooms,4,10,5,5,2014-12-12,52.050929,-1.77974
288725,Barnsley House,4,5,10,5,2014-05-08,51.7430496216,-1.89123892784
288726,Baz And Fred,4,10,0,10,2012-05-29,51.764956,-1.877957
288727,Beech View Care Home,4,10,5,5,2011-05-24,51.706267,-1.777074
288728,Beeches Stores,5,5,5,5,2012-06-12,51.715273,-1.956686
288729,Bees Knees,4,5,10,5,2014-01-17,51.708772,-1.957937
288730,Bell Inn,1,10,15,20,2014-01-29,51.99083,-1.70349
288731,Bell Inn,4,5,10,5,2013-08-19,51.7273139954,-2.07651185989
288732,Bella Dorma,5,0,5,5,2008-06-25,51.885951,-1.753493
288733,Bensons Apple Juice,Exempt,nan,nan,nan,2014-01-09,51.835063,-1.762449
288734,Bespoke Hotels Ltd,3,10,10,5,2014-08-22,52.0506,-1.781798
288735,Best Kebab,3,10,10,10,2013-09-25,51.709654,-1.960498
288736,Bibury C Of E School,5,0,0,0,2014-09-16,51.757364,-1.83121
288737,Bibury Court Hotel,2,10,15,10,2014-05-21,51.75817,-1.828831
288738,Bibury Football Club,3,10,10,10,2013-09-05,51.762868,-1.826176
288739,Birchwood Price Tools,Exempt,nan,nan,nan,2014-09-17,51.704403,-1.959128
288740,Birdlip School,5,5,0,0,2013-10-01,51.8275299072,-2.10754585266
288741,Black Cat Cafe,5,5,5,5,2013-10-02,51.829732,-1.837441
288742,Blanchworth Community Care,3,10,10,10,2014-11-19,51.829776,-1.836338
288743,Bledington County Primary School,5,0,0,0,2014-02-07,51.90045,-1.64031
288744,Bledington Village Hall,5,0,5,0,2011-03-17,51.902636,-1.646761
288745,Blockley C Of E School,5,5,5,5,2013-07-05,52.015114,-1.763028
288746,Blockley Heritage Centre,Exempt,nan,nan,nan,2006-11-24,52.015114,-1.763028
288747,Blockley Nursery School,5,5,5,5,2012-03-20,52.012534,-1.762954
288748,Blockley Village Shop And Cafe,3,10,10,10,2013-10-23,52.012534,-1.762954
288749,Blue Close Bungalow B And B,5,5,5,5,2013-07-31,51.853533,-1.715035
288750,Blue Zucchini,5,5,0,0,2015-01-05,51.636219,-2.15999
288751,Bourton Market,4,10,5,5,2011-11-24,51.817516,-1.814607
288752,Bourton On The Water Primary Academy,5,5,5,0,2011-11-11,51.887703,-1.761809
288753,Bourton Rovers Football And Social Club,Exempt,nan,nan,nan,2012-05-02,51.8807,-1.752745
288754,Bramley House,5,0,5,5,2010-08-18,52.056585,-1.780252
288755,Bramleys,Exempt,nan,nan,nan,2014-02-13,51.716058,-1.968323
288756,Bran Mill Cottage,5,0,0,0,2007-03-24,52.0311508179,-1.72042405605
288757,Bright Eyes Early Years Centre,5,0,0,5,2014-01-20,51.712573,-1.986215
288758,Broadlands Guest House,4,5,10,0,2013-04-25,51.881988,-1.758686
288759,Broadway Golf Club,4,10,10,0,2014-12-18,52.041209,-1.827477
288760,Brothers Baguettes,4,5,10,5,2014-05-08,51.991213,-1.701828
288761,Brown Bears Kitchen,1,10,15,20,2014-10-02,51.693922,-1.693077
288762,Brymbo,5,0,0,5,2012-05-26,52.09328,-1.792377
288763,Bull Hotel,5,5,5,5,2015-01-05,51.707877,-1.781827
288764,Burford Road Filling Station,Exempt,nan,nan,nan,2012-05-28,51.720288,-1.953497
288765,Burger King,5,5,5,0,2014-01-21,51.720288,-1.953497
288766,Butchers Arms,3,10,10,10,2012-02-03,52.090486,-1.769124
288767,Butts Farm Shop,3,10,10,10,2014-08-06,51.684871,-1.906117
288768,Butty Hut,4,10,10,0,2013-10-02,52.073136,-1.822262
288769,Cacao Bean,5,5,0,5,2013-04-15,51.991969,-1.702362
288770,Cafe 53,4,5,10,5,2013-10-02,51.638043,-2.160806
288771,Cafe Edge,5,5,5,5,2013-07-23,51.636219,-2.15999
288772,Cafe Mosaic,4,5,10,0,2013-12-17,51.717011,-1.964921
288773,Caffe Nero,4,10,5,5,2014-12-03,51.716939,-1.967454
288774,Cake Baby,5,0,0,0,2013-07-01,,
288775,Cakes By Corrin,5,5,0,0,2010-08-20,,
288776,Calcot Manor,5,5,5,5,2014-04-29,51.6525268555,-2.2319586277
288777,Cambrai Lodge,4,5,5,10,2008-09-09,51.697497,-1.691881
288778,Caminetto Restaurant,3,10,10,10,2014-12-05,52.050929,-1.77974
288779,Campden Deli,3,10,10,10,2014-01-10,52.04922,-1.784181
288780,Campden Fruit And Veg,5,5,5,5,2014-07-02,52.049981,-1.782151
288781,Caravan Club Site,4,5,5,10,2013-04-08,51.988725,-1.710276
288782,Card Factory,Exempt,nan,nan,nan,2013-01-10,51.715824,-1.967209
288783,Caroline's Cakery Bakery,5,0,0,0,2014-04-10,51.641412,-2.156309
288784,Catherine Wheel,4,5,10,5,2014-02-17,51.758899,-1.84223
288785,Caumpedene Berkshire Pigs,5,5,5,5,2012-10-10,52.054802,-1.759989
288786,Centurion Services,2,15,10,10,2014-02-13,51.782052,-2.034234
288787,Chalo India,3,5,10,10,2014-09-05,51.886231,-1.754058
288788,Chamberlayne House,4,5,10,5,2012-05-17,51.926348,-1.721657
288789,Chapel Cafe,5,5,5,5,2014-12-16,51.638043,-2.160805
288790,Charingworth Eggs,Exempt,nan,nan,nan,2013-12-19,,
288791,Charingworth Manor,5,5,0,5,2012-08-30,52.0548324585,-1.71292614937
288792,Chatsworth Cottage,5,0,5,5,2012-08-17,52.092475,-1.765684
288793,Chavenage Catering,4,5,10,5,2014-01-14,51.655358,-2.18654
288794,Chavenage House,4,10,0,0,2007-03-15,51.6553573608,-2.18653988838
288795,Chedworth Pre School,5,0,0,0,2014-12-10,51.795756,-1.915081
288796,Cherry Trees Bed And Breakfast,4,5,5,10,2012-09-27,52.056585,-1.780252
288797,Chester House Hotel,4,5,10,5,2014-11-24,51.883676,-1.757922
288798,Chesterton Busy Bees,4,0,0,10,2014-09-23,51.706888,-1.971181
288799,Chesterton Farm Butchers Shop,4,10,5,5,2014-08-12,51.701927,-1.982413
288800,Chesterton Halt Day Centre,4,0,10,5,2012-05-22,51.708955,-1.965868
288801,Chesterton Primary School,5,5,5,5,2013-10-01,51.706888,-1.971181
288802,Chesterton Store,5,0,0,0,2014-09-30,51.705252,-1.972122
288803,Chestnut Tree Tearoom,4,10,5,5,2014-05-23,51.884989,-1.757827
288804,China Town,3,10,10,10,2014-10-16,51.883209,-1.757822
288805,Chinese Experience,1,20,10,10,2014-10-29,51.716239,-1.970031
288806,Chipping Campden Academy,5,0,0,0,2014-09-15,52.053863,-1.776342
288807,Chipping Campden Bowling Club,5,0,5,5,2011-02-05,52.053356,-1.765305
288808,Chocolate Tree,Exempt,nan,nan,nan,2008-02-02,51.95188,-1.872388
288809,Chrissy At The Marlborough Arms,5,5,0,0,2014-10-23,51.714998,-1.971089
288810,Circus Sauce,4,5,10,5,2014-05-14,51.888983,-1.819109
288811,Cirencester Bowling Club Limited,5,0,0,0,2013-03-15,51.714836,-1.969222
288812,Cirencester Golf Club,4,10,5,5,2014-04-07,51.746099,-1.971822
288813,Cirencester Hospital,5,0,0,0,2014-08-20,51.712131,-1.975968
288814,Cirencester Kingshill School,4,10,0,0,2014-09-09,51.716904,-1.944338
288815,Cirencester Opportunity Group,5,0,5,0,2014-12-16,51.715192,-1.958814
288816,Cirencester Park Caravan Club,Exempt,nan,nan,nan,2011-06-06,51.713931,-1.983812
288817,Cirencester Primary School,5,5,5,5,2014-04-04,51.713269,-1.960712
288818,Cirencester Rugby Club,3,5,10,10,2013-03-21,51.7641716003,-2.16174006462
288819,Claire Booth Cooks,5,5,5,5,2013-09-26,51.798127,-1.912104
288820,Clare Goodwin T/A Hobbs House Bakery,2,10,15,10,2013-11-06,51.71675,-1.96702
288821,Clements Plaice,5,0,5,0,2014-08-12,51.709654,-1.960498
288822,Coach And Horses,2,10,15,10,2014-07-03,51.964686,-1.742029
288823,Coach And Horses,4,5,10,5,2014-08-15,51.960947,-1.75087
288824,Coach And Horses,3,10,10,5,2015-01-13,51.7641716003,-2.16174006462
288825,Coffee #1,5,0,0,0,2013-02-07,51.717066,-1.969061
288826,Cold Aston C Of E School,5,5,0,5,2012-01-18,51.7641716003,-2.16174006462
288827,Colesbourne Filling Station,2,10,15,10,2013-10-01,51.819783,-2.00381
288828,Colesbourne Inn,5,5,5,0,2014-10-20,51.8197822571,-2.00381016731
288829,Colleys Lechlade,4,10,0,10,2014-09-23,51.694137,-1.692916
288830,Coln Community Store,5,0,5,5,2014-07-22,51.744198,-1.79001
288831,Coln House School,4,0,10,0,2013-09-24,51.706779,-1.786174
288832,Congregational Church Halls,Exempt,nan,nan,nan,2013-12-05,51.886841,-1.852277
288833,Coombe House,5,0,0,0,2010-03-12,51.879239,-1.751132
288834,Co-Op,4,5,10,5,2012-02-22,52.050929,-1.77974
288835,Co-Op,5,5,0,0,2010-05-28,51.638043,-2.160806
288836,Co-Op,5,5,5,5,2013-03-26,,
288837,Co-Op,4,10,5,5,2014-02-06,51.722828,-1.948845
288838,Co-Op,3,10,10,10,2014-08-14,51.930431,-1.722431
288839,Co-Op,4,10,5,5,2014-11-24,51.887832,-1.754296
288840,Co-Op,5,0,0,0,2013-10-08,51.990309,-1.703727
288841,Co-Op,5,5,5,5,2012-06-27,51.707902,-1.781017
288842,Cor Blimey,5,5,5,5,2013-11-15,51.883835,-1.756497
288843,Corinium Ales,4,0,10,5,2012-09-21,51.725185,-1.969128
288844,Corinium Hotel,4,10,5,5,2014-09-26,51.720303,-1.970709
288845,Corinium Stadium,3,10,10,10,2014-02-21,51.716904,-1.944338
288846,Corner Stone,5,0,0,5,2012-09-28,51.718495,-1.968872
288847,Corsham Field Farmhouse,5,5,0,0,2007-03-27,51.923324,-1.685002
288848,Costa Coffee,5,5,0,0,2015-01-12,51.715824,-1.967209
288849,Costa Coffee,5,0,0,0,2015-01-06,51.716023,-1.968613
288850,Cotswold Antiques And Tearoom,5,0,0,0,2014-04-11,51.883766,-1.758008
288851,Cotswold Artisan Coffee,4,10,0,0,2013-09-23,51.716058,-1.968323
288852,Cotswold Baguettes,5,0,0,0,2014-08-29,51.929482,-1.723804
288853,Cotswold Cheese Co,5,0,0,0,2011-01-11,51.990309,-1.703727
288854,Cotswold Diner,5,5,5,5,2014-04-11,,
288855,Cotswold Farm Fayre Ltd,5,nan,nan,nan,2014-11-13,51.795756,-1.915081
288856,Cotswold Farm Park Cafe,5,5,0,5,2014-02-24,51.953473,-1.781425
288857,Cotswold Finest Cakes,5,5,5,5,2012-02-01,51.716612,-1.957033
288858,Cotswold Foodstore,3,10,10,10,2013-11-21,51.960947,-1.75087
288859,Cotswold Garden Tea Room,4,0,10,5,2013-03-08,51.929602,-1.721578
288860,Cotswold Gliding Club,3,5,10,10,2013-10-17,51.704052,-2.128061
288861,Cotswold Hills Ice Cream,Exempt,nan,nan,nan,2013-07-10,51.931372,-1.709889
288862,Cotswold Hoburne,3,5,10,10,2013-08-29,51.7174491882,-1.98442995548
288863,Cotswold Home,4,0,10,10,2013-12-19,51.88897,-1.752866
288864,Cotswold Leisure Tetbury,Exempt,nan,nan,nan,2008-02-02,51.646766,-2.160186
288865,Cotswold Lion Cafe,5,0,0,0,2013-12-12,51.83304,-1.843321
288866,Cotswold Paintballing,3,10,10,5,2013-03-14,51.995765,-1.776209
288867,Cotswold Paleo Kitchen,4,0,10,0,2014-04-15,51.707634,-1.968836
288868,Cotswold Stores,3,10,5,10,2013-03-26,51.829875,-1.836541
288869,Cotswold View Guest House,4,10,5,5,2012-05-02,51.880733,-1.674506
288870,Cotswold Water Park Four Pillars Hotel,5,nan,nan,nan,2013-12-10,51.670623,-1.899004
288871,Cotteswold House,5,0,0,5,2013-03-05,51.7588996887,-1.84223008156
288872,Country Company Ltd,5,0,5,5,2014-12-15,51.658345,-2.024511
288873,Countrywide,5,0,0,0,2014-07-22,51.688464,-1.901886
288874,Cowley Manor Hotel,2,15,15,10,2014-10-20,51.830552,-2.052744
288875,Cranbourne House,5,5,5,5,2009-05-19,51.886452,-1.756744
288876,Cripps Catering,4,5,10,5,2014-03-14,51.764956,-1.877957
288877,Croft Cottage Restaurant,4,5,10,5,2014-11-14,51.884127,-1.758297
288878,Cross Keys,5,5,5,5,2012-05-21,51.928995,-1.719357
288879,Crown Catering,4,10,10,0,2013-11-08,51.705006,-1.960184
288880,Crown Inn,Exempt,nan,nan,nan,2013-03-06,51.694137,-1.692916
288881,Crown Inn,2,10,15,10,2014-09-16,51.661112,-1.890697
288882,Crystal Palace,3,10,10,10,2014-10-10,52.04903,-1.783307
288883,Cupsadaisy,4,5,10,5,2012-04-16,,
288884,Curry King,2,15,10,5,2013-10-15,51.707227,-1.780484
288885,Cutler And Bayliss,4,5,10,5,2014-07-15,51.696319,-1.69186
288886,Cygnet Catering,4,0,10,5,2014-01-07,51.720249,-1.971491
288887,D And J Catering,3,10,10,10,2014-05-20,,
288888,Daglingworth Village Hall,Exempt,nan,nan,nan,2014-01-08,51.745004,-2.010944
288889,Dales Stores,3,10,10,5,2014-01-10,51.877339,-1.969751
288890,Danish Tea Room,4,10,5,5,2013-08-06,51.886452,-1.756744
288891,David Moore Family Butcher Ltd,4,10,5,5,2014-10-14,52.092475,-1.765684
288892,Daylesford Organic Cheese,Exempt,nan,nan,nan,2014-07-02,51.929057,-1.642714
288893,Daylesford Organic Farm Shop,5,5,5,5,2013-08-07,51.929057,-1.642714
288894,Deer Park School,5,5,0,0,2013-09-03,51.727318,-1.871726
288895,Dial House Hotel,5,5,5,5,2013-02-21,51.884989,-1.757827
288896,Didmarton Village Hall,4,0,0,10,2012-09-25,51.585172,-2.262141
288897,Digbeths At Stow,5,0,0,0,2014-02-28,51.929602,-1.721578
288898,Dixs Barn,Exempt,nan,nan,nan,2013-01-22,51.7694168091,-2.04383182526
288899,Dobbies Garden Centre PLc,4,5,10,5,2014-12-09,51.7185401917,-1.95353996754
288900,Dolci Di Lechlade,4,5,5,10,2010-09-20,51.694443,-1.689514
288901,Dominos Pizza,5,0,5,0,2014-12-10,,
288902,Dormer House School,5,5,5,5,2014-12-09,51.992196,-1.702928
288903,Dormy House Hotel,5,5,0,0,2014-01-03,52.041209,-1.827477
288904,Down Ampney Football Club,Exempt,nan,nan,nan,2006-11-20,51.677948,-1.853821
288905,Duke Of Wellington,5,5,5,5,2013-02-21,51.884093,-1.759474
288906,Early Years Foundation Stage Unit,3,5,10,10,2014-10-16,51.887703,-1.761809
288907,Eat Wild,4,5,5,10,2014-05-30,51.717066,-1.969061
288908,Ebrington Arms,3,10,10,10,2014-06-13,52.058023,-1.73191
288909,Ebrington C Of E School,5,5,5,0,2010-04-16,52.05842,-1.732608
288910,Ebrington Cricket Club,Exempt,nan,nan,nan,2013-11-14,52.059196,-1.733945
288911,Edgeworth Polo Club,Exempt,nan,nan,nan,2008-08-12,51.750332,-2.086213
288912,Edinburgh Woollen Mill,Exempt,nan,nan,nan,2011-06-09,51.717209,-1.9688
288913,Edwards And Ward,5,0,5,0,2014-09-10,51.730049,-1.711004
288914,Edwards And Ward,5,0,0,5,2013-09-26,51.8432,-2.056228
288915,Edwards And Ward,5,0,0,0,2014-09-26,51.698055,-1.829029
288916,Edwards And Ward,Exempt,nan,nan,nan,2006-11-23,51.696931,-1.958889
288917,Edwards And Ward,5,0,0,0,2014-09-15,52.048512,-1.780597
288918,Edwards And Ward Ltd,5,0,0,0,2014-09-18,51.853533,-1.711565
288919,Edwards And Ward Ltd,5,0,0,0,2014-09-16,51.964763,-1.740413
288920,Edwards And Ward Ltd,5,0,0,0,2014-09-17,51.681147,-2.083275
288921,Edwards And Ward Ltd,5,0,0,0,2014-09-15,51.988912,-1.702178
288922,Edwards And Ward Ltd,5,0,0,0,2014-09-10,51.64273,-2.159493
288923,Edwards And Ward Ltd,5,0,0,0,2014-10-10,52.055171,-1.846601
288924,Eight Bells,Exempt,nan,nan,nan,2013-01-02,51.706585,-1.774019
288925,Eliot Arms,3,10,10,5,2014-09-10,51.673182,-1.930754
288926,Elm Grove Residential Nursing Home,5,5,0,0,2014-10-21,51.704451,-1.96726
288927,Esso Marsh,5,0,0,0,2012-06-25,51.984066,-1.705661
288928,Eurest Catering,5,5,5,5,2013-11-12,52.055374,-1.754167
288929,Expresso's,5,0,0,0,2014-05-22,51.992243,-1.700496
288930,Fair And Square Chocolate Brownies,5,5,5,5,2013-03-13,51.935902,-1.822528
288931,Fairford Community Centre,Exempt,nan,nan,nan,2014-01-30,51.708792,-1.780969
288932,Fairford Fish Bar,4,10,5,5,2015-01-05,51.707902,-1.781017
288933,Fairford Football Club,Exempt,nan,nan,nan,2014-08-04,51.708785,-1.767915
288934,Fairford Kebab And Pizza,4,5,10,5,2014-02-14,51.707227,-1.780484
288935,Fairford Market,5,0,0,0,2003-06-25,51.707582,-1.781242
288936,Fairford Pre School,5,0,5,0,2013-11-19,51.714679,-1.779754
288937,Fairford Primary School,4,5,10,5,2013-11-19,51.714679,-1.779754
288938,Falafeleat Street Trader,4,5,5,10,2013-11-05,51.874192,-1.967226
288939,Farmcote Farm,Exempt,nan,nan,nan,2012-04-10,51.9570159912,-1.92732214928
288940,Farmors School,5,5,0,0,2014-10-22,51.714679,-1.779754
288941,Farncombe  Conference Centre,5,5,5,5,2014-09-16,52.049649,-1.838819
288942,Farriers Arms,0,20,20,20,2014-11-28,52.0242996216,-1.64696991444
288943,Fast Food      A40 Tunnel Hill Lay By,4,10,5,5,2014-02-19,51.886944,-1.980526
288944,Fieldways,5,0,0,5,2010-07-09,,
288945,Five Mile House,5,5,5,5,2014-03-19,51.782052,-2.034234
288946,Flamingo Point,4,0,10,0,2014-02-19,51.883099,-1.756922
288947,Fleece Hotel And 1651 Restaurant,4,10,5,5,2013-12-03,51.717011,-1.966209
288948,Flying Start,5,5,5,0,2014-05-01,51.707902,-1.781017
288949,FOMO (Fear Of Missing Out),4,5,0,10,2013-07-24,51.717209,-1.9688
288950,Food By Mary Rose,5,0,0,5,2014-12-11,51.769416,-2.043831
288951,Force Brewery,5,0,0,5,2014-10-14,51.703164,-1.962732
288952,Fosse Construction,Exempt,nan,nan,nan,2013-07-11,,
288953,Fosse Manor Hotel,5,5,5,5,2014-04-10,51.7641716003,-2.16174006462
288954,Fosseway Farm,5,0,0,5,2012-06-25,51.984066,-1.705661
288955,Four Seasons Mickleton Ltd,4,10,5,5,2014-03-12,52.091466,-1.769426
288956,Four Shires Cafe,5,0,0,5,2014-11-27,51.984066,-1.705661
288957,Fox Hill,5,5,5,5,2013-03-05,51.901258,-1.86897
288958,Fox Inn,4,10,5,5,2014-12-08,51.8162574768,-1.70453476906
288959,Fox Inn,4,10,5,5,2014-08-07,51.93227005,-1.66277420521
288960,Foxhill Manor,5,0,5,5,2014-08-21,52.049649,-1.838819
288961,Foxy Ladies Canape Company Ltd,5,0,0,5,2014-11-06,,
288962,Foxy Ladies Catering,4,5,10,5,2013-11-20,51.862759,-1.98238
288963,Fratello's Restaurant,4,5,10,5,2014-02-21,51.714998,-1.971089
288964,Fresh 4 Lunch,5,0,0,0,2014-07-31,51.883494,-1.756644
288965,Friar Tuck,4,5,10,5,2014-07-21,51.716201,-1.964893
288966,Friends Of Chesterton School,5,0,0,5,2014-12-11,51.706888,-1.971181
288967,Fruitcakes,5,5,0,0,2014-12-03,51.829875,-1.836541
288968,Garden Terrace Cafe,5,5,5,0,2014-10-07,52.002544,-1.72924
288969,Garniche At The Puesdown,4,5,10,5,2014-05-07,51.854307,-1.89556
288970,Gingerbread Joy,5,0,0,5,2014-11-04,51.852647,-2.090082
288971,Giraffe,5,0,0,0,2014-07-29,51.70592,-1.952759
288972,Glider Cafe,5,5,5,5,2013-10-07,51.718923,-2.136615
288973,Glorious Cups,5,5,5,5,2012-01-31,51.704903,-1.687171
288974,Gloucestershire Country Markets Ltd,5,5,5,5,2012-11-23,51.71622,-1.968164
288975,Golden Ball,2,10,15,10,2013-11-29,51.7641716003,-2.16174006462
288976,Golden Cross,1,10,20,20,2014-01-22,51.717381,-1.969973
288977,Golden Farm,4,10,0,5,2015-01-12,51.714624,-1.955934
288978,Gooseberry Bush After School Club,5,0,0,0,2013-03-05,51.669785,-1.933651
288979,Grace Tea And Coffee Lounge & Cotswold Cricket Museum,4,0,10,5,2013-11-15,51.929038,-1.722614
288980,Grapevine Hotel,4,10,5,5,2014-04-25,51.928964,-1.721466
288981,Graysons Education Ltd,5,5,5,5,2013-07-12,52.053863,-1.776342
288982,Graysons Restaurants Ltd,4,5,10,5,2014-08-11,51.708772,-1.957937
288983,"Graze Bar, Brasserie And Chophouse",2,10,15,10,2014-01-23,51.71792,-1.968916
288984,Great Western Arms,3,10,10,10,2013-11-21,52.014152,-1.758778
288985,Greedys Fish And Chip Shop,4,10,5,5,2013-12-12,51.928995,-1.719357
288986,Greek Deli In The Cotswolds,4,5,10,5,2013-12-12,51.990711,-1.702428
288987,Green And Pleasant,3,10,10,10,2014-10-23,51.7641716003,-2.16174006462
288988,Green Sleeves,5,5,5,5,2014-01-23,51.735194,-1.980879
288989,Greenfig,5,0,5,5,2014-11-11,51.653202,-1.971836
288990,Greenside Catering Co Ltd,5,5,5,5,2013-10-01,51.849991,-2.082789
288991,Guiting Guest House,5,0,0,5,2010-11-26,51.9213104248,-1.86311006546
288992,Guiting Manor Nursery School Limited,Exempt,nan,nan,nan,2013-12-09,51.920754,-1.863926
288993,Halfway House,3,10,10,10,2012-08-29,51.9393310547,-1.8592004776
288994,Halls Quality Bakers,5,0,5,5,2013-04-09,51.717066,-1.969061
288995,Hamptons Delicatessen,3,10,10,5,2014-07-25,51.929602,-1.721578
288996,Happy Times Child Care,4,0,0,10,2010-11-02,,
288997,Hare And Hounds,2,10,15,10,2014-11-11,51.780726,-1.919473
288998,Hare And Hounds Hotel,3,nan,nan,nan,2014-11-19,51.6124763489,-2.19975137711
288999,Harnhill Centre Of Christian Healing,4,0,10,0,2013-03-05,51.702193,-1.901393
289000,Harrington House Hotel,4,5,10,5,2013-07-26,51.884093,-1.759474
289001,Hassan Balti,2,15,10,10,2014-08-27,51.992196,-1.702928
289002,Hatherop Castle School,4,10,5,5,2014-04-09,51.7446365356,-1.77956461906
289003,Hawtreys Kiosk,3,10,10,10,2013-12-18,51.885951,-1.753493
289004,He Says She Waffles,5,5,5,5,2014-09-18,51.717381,-1.969973
289005,Heathers,5,5,5,5,2014-04-24,51.717488,-1.969886
289006,Highway Chef Ltd,2,15,10,10,2014-02-13,51.782052,-2.034234
289007,Hillview Residential Home,Exempt,nan,nan,nan,2012-05-28,51.745799,-1.713728
289008,Hobbs House Bakery,4,10,5,5,2014-05-19,51.636219,-2.15999
289009,Holland & Barrett,Exempt,nan,nan,nan,2014-08-21,51.716058,-1.968323
289010,Hollow Bottom,3,10,10,10,2013-08-16,51.923537,-1.868847
289011,Holly House,5,5,5,5,2013-07-07,52.0588188171,-1.72992157936
289012,Holly House,5,5,0,0,2010-03-12,51.891292,-1.758055
289013,Holroyd Howe Ltd,5,5,0,0,2014-11-07,51.744637,-1.779565
289014,Home Bargains,5,0,0,5,2014-12-11,,
289015,Home Chef/Road Chef,3,10,10,10,2014-11-12,51.709654,-1.960498
289016,Home Farm B And B,5,0,0,5,2010-08-12,52.058818,-1.729922
289017,Home Farm Trust Limited,5,5,5,5,2014-02-28,51.995004,-1.697156
289018,Home Farm Trust Ltd,5,0,0,5,2010-05-10,51.683234,-2.172755
289019,HomegrownbyCathy,5,0,0,5,2014-11-03,51.710604,-1.95012
289020,Homelea,4,10,5,5,2014-01-17,51.677084,-1.931095
289021,Honeysuckle Catering,5,5,5,5,2014-10-24,51.757518,-2.024856
289022,Hong Kong Kitchen,1,15,15,20,2014-11-24,51.709654,-1.960498
289023,"Hop,Skip And Jump, Cotswold",4,5,5,10,2014-05-14,51.85053,-2.051156
289024,Horse And Groom,4,5,10,5,2014-02-19,51.991481781,-1.74805009365
289025,Horse And Groom,4,10,5,5,2014-10-23,51.928908,-1.678477
289026,House Of Cheese,5,5,5,5,2014-03-04,51.636219,-2.15999
289027,Huffkins,3,5,10,10,2014-11-13,51.930272,-1.723363
289028,Hunters Care Centre,5,5,5,5,2013-07-26,51.723718,-1.942997
289029,Hunters Hall Inn,2,15,15,10,2015-01-09,51.6641921997,-2.26703619957
289030,Huxleys,5,5,0,0,2014-12-18,52.050233,-1.782645
289031,Hyperion House,5,5,5,5,2013-02-11,51.707227,-1.780484
289032,Il Colosseo,3,10,10,10,2014-04-30,51.707227,-1.780484
289033,Ilsom House Nursing Home,5,5,5,5,2014-07-17,51.648157,-2.140954
289034,Imperial Chinese Cuisine,3,10,10,5,2014-01-20,51.636219,-2.15999
289035,Indian Rasoi,4,5,10,5,2014-05-14,51.718495,-1.968872
289036,Ingleside Heritage Ltd (Vaults),4,0,10,5,2014-11-19,51.715678,-1.958756
289037,Inn At Fossebridge,5,0,0,5,2014-12-11,51.799103,-1.88642
289038,Inn For All Seasons,2,15,10,10,2014-05-09,51.8068466187,-1.70533597469
289039,Inn On The Marsh,4,10,5,5,2014-01-16,51.987191,-1.704257
289040,Ivy House,5,5,5,5,2010-01-16,51.715337,-1.961854
289041,J B's Fruity Blossom,5,0,0,5,2014-09-25,51.929644,-1.72424
289042,J Hall And Son Bakers Ltd,3,10,10,10,2014-09-19,51.637254,-2.159416
289043,Jacks,3,10,5,10,2014-12-18,51.717381,-1.969973
289044,Jade Garden Chinese Takeaway,4,5,10,5,2014-06-01,51.928995,-1.719357
289045,Jakes Catering Ltd,4,5,10,5,2014-03-28,,
289046,Jesse Smith Butchers,2,5,15,10,2014-08-12,51.717381,-1.969973
289047,Jesse Smiths,4,10,0,10,2015-01-16,51.692895,-1.938508
289048,Jesse Smiths,4,10,10,0,2014-01-14,51.638043,-2.160806
289049,Jesses Bistro,4,5,10,5,2014-08-22,51.717381,-1.969973
289050,Joanna Hicks Catering,4,5,5,10,2014-08-05,,
289051,Jolly Nice Butchery,3,10,10,10,2014-12-05,51.71486,-2.10997
289052,Jolly Nice Cafe And Farm Shop,3,10,10,10,2013-11-07,51.71486,-2.10997
289053,Jubilee 77 Social Club Ltd,4,5,10,5,2011-09-27,51.714836,-1.969222
289054,Jubilee Lodge,5,0,5,0,2013-08-21,51.745621,-2.241254
289055,Junes Cakes,4,5,0,10,2012-05-25,52.041425,-1.731499
289056,Kaz's Breakfast Van,0,15,20,20,2014-07-21,,
289057,Keepers Arms,3,10,10,10,2014-10-22,51.736067,-1.788773
289058,Keiths Tea & Coffee Specialists,5,5,5,5,2014-01-10,51.717381,-1.969973
289059,Kemble And District Playgroup,4,5,5,10,2012-10-12,51.674162,-2.018374
289060,Kemble Post Office & Stores,4,5,0,10,2007-03-20,51.676626,-2.019633
289061,Kemble Primary School,5,0,5,0,2013-10-10,51.674162,-2.018374
289062,Kemble Village Hall,Exempt,nan,nan,nan,2013-03-18,51.672724,-2.018214
289063,Kempsford After School Club,4,5,5,10,2010-09-06,51.671751,-1.777387
289064,Kempsford C Of E Primary School,5,0,0,0,2013-03-19,51.671751,-1.777387
289065,Kempsford Manor,4,0,5,10,2010-03-30,51.6709709167,-1.77318334579
289066,KFC,4,10,0,0,2014-11-07,,
289067,Khushi,4,10,0,0,2014-08-05,51.694827,-1.691783
289068,Kiddywinks,5,5,5,0,2014-08-27,52.055374,-1.754167
289069,Kiftsgate Court,5,5,0,5,2012-05-23,52.086301,-1.749779
289070,Kings Arms,4,5,10,5,2014-08-14,51.930431,-1.722431
289071,Kings Arms Inn,2,15,10,10,2013-10-02,52.088984,-1.76903
289072,Kings Head,4,5,10,5,2014-03-13,51.902636,-1.646761
289073,Kings Head Cirencester LLp,3,5,10,10,2014-09-23,51.716939,-1.967454
289074,Kings Head Inn,4,10,5,5,2012-03-06,51.836739,-1.949372
289075,Kingsley House Nursing Home,5,0,0,0,2014-08-27,51.63767,-2.157409
289076,Kooky Kream,5,0,0,0,2014-10-01,51.641715,-2.152062
289077,L Smith And Son,5,5,0,5,2014-08-27,52.049981,-1.782151
289078,La Attica,5,0,0,0,2011-07-27,51.707092,-1.961123
289079,Lady Lamb Farm,5,5,5,5,2009-01-02,51.703807,-1.804334
289080,Lakeside Brasserie,3,10,10,10,2013-12-13,51.668097,-1.910663
289081,Lambournes,1,10,15,20,2014-07-31,51.929602,-1.721578
289082,Lambournes Fine Foods,4,0,5,10,2014-07-31,51.929602,-1.721578
289083,Lansdown Villa Guest House,4,5,10,5,2011-09-29,51.886913,-1.762379
289084,Larks Rise,5,0,0,5,2010-07-06,51.884386,-1.77589
289085,Lavender House,4,0,5,10,2013-06-18,51.732389,-1.981474
289086,Lazy Ballerina,3,10,10,5,2013-11-27,51.638043,-2.160806
289087,Le Beaujolais,4,10,5,5,2013-09-17,51.716239,-1.970031
289088,Lechlade Baptist Chapel,5,0,5,0,2013-12-06,51.695271,-1.693297
289089,Lechlade Cricket Club,3,10,5,10,2013-08-30,,
289090,Lechlade Fish Bar,3,10,10,10,2013-08-13,51.69938,-1.689813
289091,Lechlade Garden Centre,5,5,5,0,2014-10-21,51.694422,-1.698702
289092,Lechlade Little Learners,5,0,0,0,2013-10-11,51.693642,-1.689245
289093,Lechlade News,3,10,10,10,2013-07-11,51.694827,-1.691783
289094,Leighterton County Primary School,5,5,5,5,2014-04-29,51.619871,-2.257228
289095,Lemington Lakes,4,0,5,10,2013-03-18,52.000859,-1.674291
289096,Lewis Lane Playgroup,5,0,0,0,2013-11-25,51.712019,-1.959367
289097,Lidl,5,0,5,0,2014-01-16,51.705006,-1.960184
289098,Little Broom,5,5,5,5,2010-03-15,51.924174,-1.714894
289099,Little Chef (Cirencester),4,10,5,5,2014-01-21,51.720288,-1.953497
289100,Little Gidding Bed And Breakfast,5,0,0,5,2012-05-25,52.058818,-1.729922
289101,Little Red Hen,4,0,0,10,2010-10-01,51.708454,-1.975044
289102,Lloyds Pharmacy,Exempt,nan,nan,nan,2012-09-21,51.638043,-2.160806
289103,Locojos,5,5,0,0,2014-12-17,51.929945,-1.686497
289104,Londis,5,5,0,0,2014-04-24,51.883835,-1.756497
289105,Londis,5,0,0,5,2014-07-16,51.707227,-1.780484
289106,Londis Stores,4,5,5,10,2010-07-21,51.668812,-1.931007
289107,Londis Stores (Cotswold Food Company),5,5,5,5,2014-01-14,51.694944,-1.691754
289108,Longborough C Of E School,3,10,10,5,2014-12-11,51.9646873474,-1.74202895164
289109,Longborough Village Hall,4,0,10,10,2012-09-12,51.963343,-1.740552
289110,Longborough Village Shop & Cafe,5,5,5,0,2014-02-27,51.964563,-1.739221
289111,Lords Of The Manor Hotel,4,5,5,10,2014-05-02,51.907194,-1.774614
289112,Lower Brook House,5,5,0,0,2012-08-30,52.012367,-1.760522
289113,Lower Field Farm,5,5,0,0,2010-04-16,52.064931,-1.857975
289114,Lower Mill Estate  Farm Shop,4,10,10,0,2014-02-18,,
289115,Lower Slaughter Manor,4,5,10,5,2013-11-21,51.901156,-1.758613
289116,Lucias Cafebar,5,0,0,0,2013-04-10,51.716201,-1.964893
289117,Lucys Tea Room,5,0,0,0,2014-08-07,51.930272,-1.723363
289118,Luellas,3,10,10,10,2013-12-05,51.990223,-1.701718
289119,Lygon Arms Hotel,4,5,5,10,2014-10-21,52.050929,-1.77974
289120,Lyndsey's,1,5,5,20,2013-09-24,51.636219,-2.15999
289121,MacArthur Road Care Home,3,10,10,10,2013-11-15,51.831348,-1.835447
289122,Mace Stores,5,5,0,5,2014-09-02,51.727803,-1.976467
289123,Mad Hatter Wine Bar,4,10,5,5,2013-01-10,51.716428,-1.97061
289124,Made By Bob,4,10,5,5,2014-09-09,51.716939,-1.967454
289125,Magic Land,5,5,0,0,2014-07-16,51.708955,-1.965868
289126,Maharaja,3,10,10,10,2013-12-20,52.04922,-1.784181
289127,Majestic Wine Warehouse,Exempt,nan,nan,nan,2014-04-01,,
289128,Mallin,4,0,5,10,2014-01-09,51.672446,-1.934399
289129,Mandys Childcare,Exempt,nan,nan,nan,2013-01-16,52.093739,-1.759503
289130,Manor Close Bed And Breakfast,5,5,5,5,2008-02-02,51.885423,-1.759118
289131,Manor Farm Bed And Breakfast,5,5,5,0,2012-08-17,52.068825,-1.81926
289132,Manor Farm Nursery,5,5,5,5,2014-05-01,51.699955,-1.689636
289133,Manor House Hotel,4,0,10,10,2014-01-22,51.988438,-1.703142
289134,Market Canteen,5,0,0,5,2014-07-22,51.688464,-1.901886
289135,Marks And Spencer,5,0,0,0,2010-01-05,51.716201,-1.964893
289136,Marks Kitchen,3,10,10,10,2013-11-13,51.716435,-1.964125
289137,Marlborough Arms,4,5,10,5,2014-02-28,51.70619,-1.789056
289138,Martha's Coffee House,5,5,5,5,2014-02-28,51.99083,-1.70349
289139,Martin McColl Ltd,5,5,5,5,2012-01-18,51.716435,-1.964125
289140,Matara Centre,3,10,10,10,2013-12-06,51.663209,-2.269127
289141,Maxwells Piece Bed And Breakfast,5,0,0,0,2014-08-18,52.004739,-1.679362
289142,Mayfield Caravan Park Shop,Exempt,nan,nan,nan,2012-09-21,51.746099,-1.971822
289143,Maylams Deli,3,10,10,10,2013-10-08,52.050929,-1.77974
289144,McDonalds Restaurants Limited,5,0,5,0,2013-12-09,51.70592,-1.952759
289145,Meadow Rise,4,0,10,10,2010-08-10,51.883557,-1.761278
289146,Meals To Go,4,10,0,10,2014-12-15,51.703262,-1.961285
289147,Meg Rivers Retail Ltd,4,5,10,5,2014-10-08,52.03956,-1.772535
289148,Memorial Hall Avening,4,10,5,5,2013-11-13,51.68055771,-2.17339707
289149,Mermaid Fish Bar,4,10,5,0,2014-10-10,51.99083,-1.70349
289150,M'hencha Company,5,0,0,0,2010-05-21,51.88897,-1.752866
289151,Michael Hart And Son Ltd,5,0,0,0,2013-10-31,51.716058,-1.968323
289152,Mickleton Cricket And Social Club,3,10,10,10,2004-09-29,52.103759,-1.766092
289153,Mickleton Post Office Stores,4,10,0,10,2014-01-07,52.089853,-1.767303
289154,Mickleton Primary School,5,5,5,5,2013-11-21,52.090486,-1.769124
289155,Midcounties Co-operative Foodstore,4,0,10,5,2014-10-28,51.691303,-1.678556
289156,Mill Dene Gardens,4,5,10,5,2013-04-20,52.010987,-1.762743
289157,Mill House,5,5,5,5,2014-04-24,52.047887,-1.782992
289158,Mill View Guest House,5,0,0,5,2010-06-30,51.909573,-1.825568
289159,Minchinhampton Golf Club (Kitchen),5,5,5,5,2014-07-15,51.686799,-2.163814
289160,Miyukis Kitchen,5,0,0,0,2014-09-25,51.927914,-1.680025
289161,Moghul Tandoori,4,10,10,0,2014-10-01,51.709654,-1.960498
289162,Monicas Plaice,3,10,5,10,2013-10-01,51.694137,-1.692916
289163,Moreton  In Marsh Royal Charter Market,4,5,0,10,2007-03-27,51.991261,-1.702983
289164,Moreton In Marsh Bowls Club,5,0,5,0,2012-01-06,51.985901,-1.706478
289165,Moreton In Marsh Cricket Club,Exempt,nan,nan,nan,2014-05-14,51.993551,-1.702162
289166,Morrisons Supermarket PLC,5,0,0,0,2014-02-17,51.716435,-1.964125
289167,Mounties,2,0,15,10,2013-08-06,51.709729,-1.970296
289168,Mrs Berry's Montessori Nursery,5,0,0,5,2010-03-01,51.726577,-1.965044
289169,Mrs T Potts Tearoom,5,5,5,5,2013-06-06,51.990309,-1.703727
289170,Mulberry Court Cafe Ltd,5,5,0,0,2015-01-07,,
289171,Murco,4,5,5,10,2014-02-19,51.864308,-1.959028
289172,Murco Fosseway Service Station,5,0,5,0,2012-09-07,51.902096,-1.748114
289173,Muzzys Kebabs,3,10,10,10,2013-10-02,51.831128,-1.838626
289174,Muzzy's Kebabs,4,5,10,5,2013-03-01,51.7641716003,-2.16174006462
289175,National Star College,5,0,0,5,2014-11-06,51.850169,-2.084299
289176,National Star College And Wiggly Worm Partnership,5,5,5,5,2014-04-02,51.849414,-2.084254
289177,National Trust Enterprises Limited,Exempt,nan,nan,nan,2011-09-14,51.8208885193,-1.91890799999
289178,National Trust Enterprises Ltd,5,5,5,5,2014-10-17,,
289179,National Trust Tea Rooms And Restaurant,5,5,5,5,2014-03-19,52.083369,-1.74463
289180,Naunton Coffee Shop,5,0,0,0,2014-08-13,51.9098930359,-1.83662927151
289181,Naunton Village Hall,4,10,0,0,2011-02-17,51.7641716003,-2.16174006462
289182,Nelson Inn,3,5,10,10,2014-03-25,51.720906,-1.971606
289183,New Brewery Arts Cafe,4,5,5,10,2013-11-04,51.71622,-1.968164
289184,New England Coffee House,4,10,5,5,2014-10-15,51.929602,-1.721578
289185,New Inn Hotel,4,nan,nan,nan,2014-12-01,51.693944,-1.690994
289186,New Peking House,2,15,15,10,2013-10-15,51.707227,-1.780484
289187,New Wave The Fish Shop Ltd,3,10,10,10,2014-01-07,51.716201,-1.964893
289188,Newlands Nursing Home,5,0,0,0,2014-08-14,51.935096,-1.725384
289189,Nisa,4,10,10,0,2013-11-12,52.091145,-1.766362
289190,Noel Arms Hotel,5,5,5,0,2013-02-05,52.049981,-1.782151
289191,North Cerney C Of E School,5,0,0,0,2014-12-10,51.7641716003,-2.16174006462
289192,North Cerney Memorial Hall,Exempt,nan,nan,nan,2011-07-05,51.770023,-1.970455
289193,Northleach C Of E Primary School,5,5,0,5,2013-03-08,51.828682,-1.838432
289194,Northleach Charter Market,3,10,10,10,2011-02-02,51.829672,-1.837376
289195,Northleach Playgroup,5,0,5,0,2011-05-13,51.828682,-1.838432
289196,Norths Bakery,2,10,15,10,2014-04-11,51.929606,-1.723047
289197,Number 65 Restaurant,4,5,10,5,2013-03-21,51.638043,-2.160806
289198,Number Four At Stow,4,5,10,5,2014-07-31,51.7641716003,-2.16174006462
289199,Number Nine,5,0,0,5,2010-03-15,51.928995,-1.719357
289200,Oak House,5,5,5,5,2009-04-20,51.637832,-2.157915
289201,Oak Trees  Nursing Home  - HC-One,4,5,10,5,2013-05-13,51.990841,-1.704029
289202,Oddington Village Hall,5,0,5,0,2011-03-04,51.93151474,-1.66467058659
289203,Officers Mess,Exempt,nan,nan,nan,2014-02-25,,
289204,Old Bakery Tea Rooms,5,5,0,0,2014-11-19,51.929602,-1.721578
289205,Old Barn House,5,5,0,5,2012-06-25,52.090017,-1.768703
289206,Old Farm,4,0,10,5,2014-10-01,52.0042037964,-1.70520853996
289207,Old George Inn,4,10,5,5,2015-01-13,51.674431,-1.929986
289208,Old Manse Hotel,3,10,10,5,2014-10-09,51.884127,-1.758297
289209,Old Mill Tearooms,5,5,5,5,2013-03-20,51.902001,-1.762852
289210,Old New Inn,5,5,5,5,2014-04-24,51.883047,-1.753799
289211,Old Stocks Hotel,5,5,5,5,2013-02-22,51.930431,-1.722431
289212,Oldbury Hill Garage,4,10,0,0,2014-02-27,51.590948,-2.247927
289213,Orange Bowl,5,0,0,0,2014-10-07,51.745865,-1.89284
289214,Orchard Bank,4,10,5,5,2012-04-23,52.009976,-1.765313
289215,Orchard Layne,4,10,5,5,2014-12-12,,
289216,Organic Farm Shop,4,5,5,10,2013-11-26,51.738024,-1.944297
289217,Organic Shop,5,5,5,5,2014-01-22,51.930272,-1.723363
289218,Orient Chinese T/Away And Fish Bar,3,10,10,10,2013-10-18,51.707227,-1.780484
289219,Over The Bridge B And B,5,5,5,5,2013-11-28,51.881226,-1.760114
289220,Over The Way At Royal Cottage,5,5,5,5,2006-11-22,51.8432,-2.056228
289221,Oxfam,Exempt,nan,nan,nan,2014-08-12,51.717209,-1.9688
289222,P G Checketts,4,10,10,0,2014-06-10,51.99083,-1.70349
289223,Paddock House,5,5,5,5,2012-01-17,51.745865,-1.89284
289224,Parklife Entertainments Ltd,3,10,10,10,2013-09-18,51.66158,-1.964038
289225,Paternoster House,5,0,5,0,2014-05-22,51.712632,-1.964548
289226,Paternoster School,5,5,0,0,2014-12-16,51.708772,-1.957937
289227,Peoples Pod,3,5,10,10,2013-03-15,,
289228,Peppers,5,0,0,5,2014-04-24,51.717523,-1.965586
289229,Piazza Fontana,2,5,15,10,2013-08-27,51.716428,-1.97061
289230,Pillow Adventure Travel,4,5,10,5,2014-06-09,51.641412,-2.156309
289231,Pino's,3,10,10,10,2014-05-22,51.693922,-1.693077
289232,Pizza Express,4,10,0,0,2014-10-21,51.716428,-1.97061
289233,Pizza Planet,5,5,5,5,2013-09-02,51.641412,-2.156309
289234,Pizza Planet,5,0,0,5,2013-09-18,51.714709,-1.966558
289235,Plough Inn,4,5,10,5,2013-12-05,51.72962,-1.980389
289236,Plough Inn,3,5,10,10,2014-11-13,51.876497,-1.814685
289237,Plough Inn,3,10,10,10,2013-11-29,51.962761,-1.874424
289238,Pot Of What Ltd,5,5,5,5,2012-11-27,51.789218,-1.77626
289239,Poulton Provisions,5,0,0,5,2014-07-28,51.707971,-1.854882
289240,Poundland,5,5,5,5,2012-10-30,51.715824,-1.967209
289241,Premier Hampton Stores,3,5,10,10,2013-10-30,51.640136,-2.16262
289242,Prescott Shooting School,4,5,0,10,2014-10-22,51.956826,-1.890869
289243,Priory Cakes Ltd,Exempt,nan,nan,nan,2014-08-20,51.928848,-1.749913
289244,Priory Inn Hotel,3,10,10,5,2014-08-21,51.63977,-2.160797
289245,Pure And Simple,4,0,10,10,2013-11-28,51.930987,-1.718007
289246,Pure Pie /Barnaby Sykes,5,5,5,5,2013-05-30,51.720556,-2.11408
289247,Quayles,4,5,5,10,2014-01-06,51.638043,-2.160806
289248,Queens Head,3,10,10,5,2013-12-13,51.930272,-1.723363
289249,Quest Partnership Ltd,5,0,0,0,2010-05-12,51.666654,-1.93127
289250,Quinces And Medlars,3,5,10,10,2014-04-28,51.706881,-1.978909
289251,Rachel's Chocolate Kitchen,5,0,5,0,2013-01-31,51.784541,-2.060474
289252,Railway Inn,5,5,5,5,2013-08-22,51.709127,-1.772573
289253,Rajdoot Tandoori,1,15,15,20,2014-05-19,51.716239,-1.970031
289254,Raspberry Corner Farm Shop,5,0,5,0,2014-10-10,52.072086,-1.800893
289255,Rave Coffee Ltd,5,5,0,5,2012-05-28,51.705006,-1.960184
289256,Readymade Catering,4,10,10,0,2014-12-15,51.705006,-1.960184
289257,Real Life Services Ltd,5,5,0,0,2009-09-02,51.714828,-1.972362
289258,Rebecca Isles,5,0,0,5,2012-05-22,,
289259,Rectory Farm,5,5,5,5,2014-05-28,51.773715,-2.042111
289260,Red Lion Inn,3,5,10,10,2014-10-30,52.049613,-1.782852
289261,Red Lion Inn,4,0,10,5,2013-03-19,51.829875,-1.836541
289262,Red Onion,5,5,5,5,2014-01-21,51.673182,-1.930754
289263,Redesdale Arms,2,15,10,10,2013-12-06,51.9896,-1.704067
289264,Regal Wedding Cakes,5,0,0,0,2013-07-15,51.636985,-2.165368
289265,Relish,5,5,5,5,2014-05-13,51.716239,-1.970031
289266,Relish Contemporary Food Ltd,4,0,10,5,2014-05-02,51.714828,-1.972362
289267,Relish Contemporary Foods Ltd Gateway Centre,2,5,15,10,2014-01-09,51.671022,-1.902314
289268,Rendcomb College,5,0,0,0,2014-10-16,51.7873878479,-1.9764649868
289269,Rendcomb Stores,5,5,5,5,2014-10-16,51.786702,-1.971116
289270,Rendcomb Village Hall,Exempt,nan,nan,nan,2000-11-21,51.7641716003,-2.16174006462
289271,Reva,Exempt,nan,nan,nan,2012-03-26,51.71622,-1.968164
289272,Riverside Inn,4,10,5,5,2011-05-24,51.693203,-1.693241
289273,Rivervale Restaurant,2,15,10,10,2013-11-13,51.696319,-1.69186
289274,Rockall And Harding,5,0,5,5,2013-11-25,51.724123,-1.966856
289275,Rodmarton Manor,5,0,0,0,2014-09-10,51.678198,-2.083573
289276,Royal AgriculturalUniversity,4,5,10,0,2014-09-02,51.709499,-1.995015
289277,Royal George Hotel,4,10,5,5,2014-03-19,51.8275299072,-2.10754585266
289278,Royal Oak,4,5,10,0,2013-03-19,51.670738,-1.934489
289279,Sally Armstrong,4,5,10,5,2013-12-11,51.655358,-2.18654
289280,Sandra Webb,Exempt,nan,nan,nan,2006-11-24,51.694422,-1.698702
289281,Sandra's,Exempt,nan,nan,nan,2013-02-15,51.644216,-2.15733
289282,Sarah Beecham,Exempt,nan,nan,nan,2012-11-01,51.930604,-1.711886
289283,Saucy Catering,5,5,0,5,2013-10-08,52.05138,-1.77945
289284,Seafare,4,5,10,5,2013-10-16,51.708606,-1.971845
289285,Sergeants Mess,Exempt,nan,nan,nan,2014-02-25,,
289286,Seven Springs Inn - Hungry Horse,4,10,10,0,2014-04-25,51.85053,-2.051156
289287,Seymour House,5,0,5,5,2013-07-31,52.051146,-1.780176
289288,Sezincote House,3,10,10,10,2012-09-13,51.9760055542,-1.75087368488
289289,Shalom The Rainbow Shop,4,5,10,5,2013-08-30,51.886452,-1.756744
289290,Sharons Delight,4,5,10,5,2012-02-24,51.966432,-1.738715
289291,Sherborne Arms,2,15,10,10,2013-12-18,51.829732,-1.837441
289292,Sherborne Pre School,5,5,0,0,2014-10-06,51.828297,-1.747219
289293,Sherborne Village Shop And Tea Room,5,5,5,5,2014-09-16,51.828297,-1.747219
289294,Shipton Moyne Post Office,Exempt,nan,nan,nan,2013-02-15,51.603943,-2.158202
289295,Siddington Post Office And Stores,4,5,5,10,2010-02-19,51.697944,-1.950944
289296,Simple Suppers Shop,5,5,5,5,2014-08-21,52.026181,-1.672665
289297,Sir William Romneys School,5,5,5,5,2014-02-27,51.646766,-2.160186
289298,Sitara,4,0,10,10,2013-10-23,51.988735,-1.70314
289299,Small Talk Tearooms,3,5,10,10,2014-07-31,51.884989,-1.757827
289300,Smiths Family Catering,5,5,5,5,2014-05-13,51.79658,-2.07437
289301,Smiths Of Bourton,4,0,5,10,2014-09-08,51.883271,-1.75772
289302,Snix Snax,5,5,5,5,2014-01-08,51.578843,-2.094267
289303,Snooty Fox  Hotel,4,10,5,5,2014-12-10,51.636861,-2.157868
289304,Somewhere Else,5,5,5,5,2014-02-18,51.716239,-1.970031
289305,Soushi Ltd,4,5,10,5,2013-07-25,51.716239,-1.970031
289306,South Cerney Golf Club,2,15,5,10,2014-02-07,51.680983,-1.926056
289307,South Cerney News,Exempt,nan,nan,nan,2012-09-21,51.673182,-1.930754
289308,South Cerney Sailing Club,4,5,5,10,2013-10-23,,
289309,South Cerney Tandoori,4,10,5,0,2014-10-08,51.673182,-1.930754
289310,South Hill Farm House B And B,4,0,0,10,2007-03-27,51.923661,-1.726225
289311,Southlands,5,5,0,0,2010-03-12,51.879239,-1.751132
289312,Special Occasions,Exempt,nan,nan,nan,2012-05-25,52.049981,-1.782151
289313,Spice Room,2,10,15,10,2013-08-16,51.990223,-1.701718
289314,St Andrews Primary School,5,0,0,0,2013-10-01,51.7641716003,-2.16174006462
289315,St Catharines RC School,4,10,5,5,2014-12-18,52.049543,-1.783946
289316,St Davids Centre,4,0,10,5,2011-05-25,51.988196,-1.699911
289317,St Edwards Cafe,3,10,10,10,2014-01-31,51.930272,-1.723363
289318,St Lawrence C Of E,5,5,5,5,2014-02-26,51.703193,-1.689874
289319,St Mary's Playgroup,5,5,5,5,2012-02-22,51.6393013,-2.15584993362
289320,St Peter And St Paul Church Blockley,5,5,5,5,2014-10-30,52.011169,-1.763966
289321,Stable Nursery,5,5,5,5,2014-09-19,51.653902,-2.16887
289322,Stacked,5,5,5,5,2015-01-06,51.717066,-1.969061
289323,Starbucks,4,10,5,5,2014-01-07,51.717389,-1.966904
289324,Stepping Stones Nursery,5,5,5,5,2014-10-21,51.715006,-1.967904
289325,Stepping Stones Nursery  And Woodland Adventure Holiday Club,5,0,0,0,2014-08-08,51.903878,-1.785619
289326,Stone Barn,4,0,10,5,2013-11-22,51.802607,-1.758834
289327,Stoneys,5,5,5,5,2013-12-17,51.716023,-1.970118
289328,Stow Farmers Market,5,0,0,5,2002-11-14,,
289329,Stow Lodge Hotel,3,10,10,10,2014-11-19,51.930272,-1.723363
289330,Stow Masonic Club,4,5,5,10,2011-03-10,51.929482,-1.723804
289331,Stow On The Woild Social Club,2,15,10,10,2014-03-21,51.930903,-1.720203
289332,Stow On The Wold Nursery School,5,0,0,0,2010-03-15,51.92976,-1.715905
289333,Stow On The Wold Primary School,5,0,0,5,2014-09-04,51.92976,-1.715905
289334,Stow RFC,Exempt,nan,nan,nan,2004-09-29,51.929946,-1.686497
289335,Stratton C Of E School,3,10,5,10,2013-11-26,51.733657,-1.979649
289336,Stratton House Hotel,4,10,5,5,2012-10-24,51.7298,-1.981519
289337,Stratton Village Hall,Exempt,nan,nan,nan,2010-01-28,,
289338,Subway,5,5,0,0,2013-12-04,51.716023,-1.968613
289339,Sultan,4,5,10,5,2014-08-06,51.716435,-1.964125
289340,Susan Jessop,5,0,0,5,2009-12-10,,
289341,Susies Snacks,5,5,5,5,2014-04-25,51.847463,-2.059807
289342,Swan Inn,2,15,10,10,2014-07-28,51.694827,-1.691783
289343,Swan Inn,3,5,10,10,2014-10-28,51.730049,-1.711004
289344,Swan Inn Moreton Ltd,2,15,10,10,2014-12-29,51.988566,-1.703942
289345,Swan Yard Cafe,5,0,5,0,2013-08-14,51.717209,-1.9688
289346,Sweet Thoughts,Exempt,nan,nan,nan,2008-02-02,51.990711,-1.702428
289347,Talbot Inn,3,10,10,5,2014-09-09,51.715337,-1.961854
289348,Talland School Of Equitation,3,10,10,5,2014-10-27,51.736782,-1.891326
289349,Taplins,5,0,5,0,2010-04-22,52.056585,-1.780252
289350,Taste Buds,5,0,0,5,2013-10-17,51.712573,-1.986215
289351,Temple Guiting C Of E School,5,5,5,5,2014-01-30,51.949665,-1.868873
289352,Temple Guiting Shop,4,10,5,5,2012-04-19,51.951225,-1.86494
289353,Temptation Bakery,5,5,0,0,2011-06-14,51.695383,-1.774552
289354,Tesco,5,5,5,0,2014-12-10,51.6425111272,-2.15792585501
289355,Tesco,5,5,0,5,2013-10-16,51.716023,-1.970118
289356,Tesco Express,5,5,5,5,2006-02-20,51.990309,-1.703727
289357,Tesco Express,5,0,0,0,2010-10-11,51.708606,-1.971845
289358,Tesco Staff Restaurant,4,10,10,0,2013-11-05,51.70592,-1.952759
289359,Tesco Stores Limited,5,5,0,0,2014-07-31,51.91805,-1.725619
289360,Tesco Stores Retail,5,5,0,0,2008-03-17,51.70592,-1.952759
289361,Tetbury Bowls Club,Exempt,nan,nan,nan,2002-09-05,51.640136,-2.16262
289362,Tetbury Fire Station,Exempt,nan,nan,nan,2006-11-20,51.637218,-2.165687
289363,Tetbury Fish & Chips,5,5,0,5,2013-08-13,51.637317,-2.159315
289364,Tetbury Kebabs,5,5,5,5,2014-08-05,51.643329,-2.148353
289365,Tetbury Nursery Playgroup,5,5,0,5,2013-03-07,51.638727,-2.160548
289366,Tetbury Rugby Club,5,5,5,5,2013-10-02,51.640136,-2.16262
289367,Tetbury Sweets And  Treats,5,0,5,5,2014-09-10,51.636219,-2.15999
289368,Tetbury Town F C,Exempt,nan,nan,nan,2013-03-18,51.638678,-2.163322
289369,Tetbury United Service Club Limited,Exempt,nan,nan,nan,2013-02-15,51.637317,-2.159315
289370,Thai Emerald Restaurant,5,5,5,5,2013-08-19,51.716428,-1.97061
289371,Thames Head,4,5,5,10,2013-10-30,51.690535,-2.021838
289372,The  Old Bungalow,5,0,0,0,2010-01-22,51.713269,-1.960712
289373,The Aga Shop,Exempt,nan,nan,nan,2012-03-30,51.716428,-1.97061
289374,The Air Balloon,5,5,5,5,2014-08-28,51.843318,-2.096653
289375,The Bakers Arms,3,10,5,10,2014-09-22,51.657788,-1.974406
289376,The Bathurst Arms,3,10,10,10,2014-04-11,51.7707519531,-1.97208237648
289377,The Bear Inn,2,15,10,5,2014-08-27,51.716201,-1.964893
289378,The Bedlodge,Exempt,nan,nan,nan,2009-11-25,51.634988,-2.153021
289379,The Bell At Stow,4,10,5,5,2013-11-15,51.928614,-1.71821
289380,The Bell Inn,3,10,10,10,2014-11-19,52.054129,-1.847684
289381,The Bengal Lancer,4,5,10,5,2013-11-27,51.636707,-2.158691
289382,The Black Bear Inn,5,5,5,5,2014-01-16,51.990334,-1.702911
289383,The Black Horse,4,10,10,0,2013-09-17,51.716239,-1.970031
289384,The Black Horse Inn,1,10,15,20,2014-02-26,51.9100532532,-1.82805192471
289385,The Burrow Cafe,5,0,5,5,2014-07-25,51.929038,-1.722614
289386,The Cabin Cafe,5,5,5,5,2013-05-09,51.759594,-1.838142
289387,The Cake House,5,5,0,5,2013-11-04,51.71622,-1.968164
289388,The Candy  Man,5,0,0,0,2013-07-25,51.717381,-1.969973
289389,The Cat And Custard Pot Inn,4,5,5,10,2014-02-27,51.6045875549,-2.16015315056
289390,The Chance,5,0,5,5,2010-06-23,52.056585,-1.780252
289391,The Chefs Dozen,5,5,0,0,2014-10-22,52.050233,-1.782645
289392,The Churchill Arms,3,10,10,10,2013-03-14,52.0385932922,-1.73104929924
289393,The Close Hotel,2,15,5,5,2015-01-05,51.637701,-2.161036
289394,The Coffee Bean @ Hortensia,4,5,0,10,2014-04-08,51.636707,-2.158691
289395,The Coffee House,4,5,10,5,2014-02-13,51.929482,-1.723804
289396,The Cotswold Brewing Company,Exempt,nan,nan,nan,2012-11-02,51.893451,-1.725682
289397,The Cotswold Cheese Company,5,0,5,5,2014-10-22,51.929602,-1.721578
289398,The Cotswold Chocolate Company,4,5,5,10,2012-09-07,51.929602,-1.721578
289399,The Cotswold Port Company,Exempt,nan,nan,nan,2008-09-26,52.019529,-1.714434
289400,The Cotswold School,5,5,5,0,2013-11-14,51.888766,-1.758141
289401,The Courtyard,3,10,10,5,2014-01-16,51.990711,-1.702428
289402,The Craven Arms,4,10,5,5,2013-08-06,51.8992347717,-1.95026159286
289403,The Crown,4,10,5,5,2014-02-06,51.717209,-1.9688
289404,The Crown Hotel,3,10,5,10,2014-10-15,52.011169,-1.763966
289405,The Crown Inn,4,0,10,10,2014-09-03,51.723711,-2.115623
289406,The Crown Of Crucis,5,5,5,5,2014-01-15,51.713925,-1.899457
289407,The Dragonfly Maze,Exempt,nan,nan,nan,2014-08-15,,
289408,The Drillmans Arms,4,10,0,5,2014-08-06,51.728055,-1.978233
289409,The Eight Bells,5,5,5,5,2014-06-13,52.052175,-1.777794
289410,The Falcon  Inn,5,5,5,5,2014-02-26,51.70778,-1.859861
289411,The Farmers Arms,3,10,10,10,2013-08-30,51.9213104248,-1.86311006546
289412,The Feathered Nest Inn,5,0,5,5,2012-03-30,51.880733,-1.674506
289413,The Fire Service College,4,5,10,5,2014-02-11,51.991586,-1.67315
289414,The Fishermans Rest,5,5,5,0,2013-10-24,51.668812,-1.931007
289415,The Fox Inn,5,5,5,5,2014-05-23,51.945542,-1.706189
289416,The Frogmill Hotel,4,10,5,5,2014-06-02,51.863311,-1.96202
289417,The Garden Room At Strathspey,5,0,0,5,2014-09-18,51.886913,-1.762379
289418,The George Catering,5,5,5,5,2014-11-04,51.670673,-1.773402
289419,The Golden Heart,3,10,10,5,2014-05-07,51.82229,-2.081577
289420,The Grape Store,Exempt,nan,nan,nan,2013-11-15,52.088068,-1.769823
289421,The Great Tythe Barn,5,0,0,0,2014-08-06,51.634988,-2.153021
289422,The Green Dragon Inn,4,5,10,5,2013-09-26,51.824272,-2.038793
289423,The Greyhound Inn,3,10,10,10,2014-05-28,51.695247,-1.951208
289424,The Greyhound Inn,5,5,5,5,2010-01-04,51.640136,-2.16262
289425,The Highwayman,4,5,10,5,2014-05-13,51.791956,-2.045826
289426,The Hot Pan Pizza Company,3,10,10,10,2013-10-02,51.893133,-1.752814
289427,The Kilkeney Inn,3,10,10,10,2014-05-21,51.866391,-1.980389
289428,The Kings Arms,3,10,10,10,2015-01-09,51.585172,-2.262141
289429,The Kings Hotel,3,10,10,5,2013-08-16,52.050683,-1.782658
289430,The Kingsbridge Inn,3,10,10,10,2014-09-05,51.7641716003,-2.16174006462
289431,The Kingscote Barn,5,0,0,5,2008-05-12,51.672867,-2.268663
289432,The Kiosk,Exempt,nan,nan,nan,2013-11-05,,
289433,The Lamb Inn,4,10,5,5,2014-12-30,51.7641716003,-2.16174006462
289434,The Lawns,5,0,0,5,2013-02-11,51.891292,-1.758055
289435,The Light House,5,0,5,0,2013-07-29,51.640706,-2.1532
289436,The Limes,5,0,0,5,2012-07-13,51.935096,-1.725384
289437,The Little Pickle,5,0,0,0,2014-12-17,51.987836,-1.699855
289438,"The Long House Bed And Breakfast,",4,0,5,10,2014-10-09,51.661112,-1.890697
289439,The Malins,5,5,5,5,2010-10-29,52.01739,-1.754987
289440,The Malt House,5,5,5,5,2012-03-28,52.037495,-1.769382
289441,The Market Garden,5,0,0,0,2011-06-09,51.716201,-1.964893
289442,The Marshmallow,2,10,15,10,2014-02-11,51.991969,-1.702362
289443,The Masons Arms,4,10,10,0,2014-05-23,51.697074,-1.828454
289444,The Mill Inn,5,5,5,5,2013-05-13,51.836993,-1.95509
289445,The Mousetrap Inn,4,10,5,5,2014-09-05,51.7641716003,-2.16174006462
289446,The New Inn,1,10,15,20,2014-11-05,51.7441978455,-1.7900094986
289447,The New Inn,2,10,15,10,2014-10-14,52.054129,-1.847684
289448,The Norcote Salesrooms,4,5,10,5,2013-08-29,51.720226,-1.935286
289449,The North Cotswold Hospital,5,0,0,0,2013-12-13,51.984066,-1.705661
289450,The Northleach Wine Company,4,10,5,5,2014-04-13,51.830038,-1.837455
289451,The Oddfellows,3,10,10,10,2014-01-14,51.713701,-1.962709
289452,The Old Boathouse,5,5,5,0,2013-10-22,51.670623,-1.899004
289453,The Old Brew House,5,5,0,0,2009-12-02,51.716596,-1.961505
289454,The Old Butchers,3,10,5,10,2014-08-29,51.928959,-1.719866
289455,The Old House,5,5,5,5,2013-09-03,51.7766189575,-1.93549573421
289456,The Old Post Office,1,10,10,20,2014-08-18,51.921645,-1.864665
289457,The Old Rectory Restaurant,2,15,15,5,2014-02-06,51.819783,-2.00381
289458,The Old Station B And  B,5,0,0,5,2013-03-08,51.889766,-1.867419
289459,The Ormond At Tetbury,2,15,10,10,2014-08-07,51.638043,-2.160806
289460,The Outside Inn Company,5,5,5,5,2014-07-09,51.692154,-1.783653
289461,The Oxford Wine Company,Exempt,nan,nan,nan,2013-01-31,51.71542,-1.966457
289462,The Pastry Chef,4,5,5,10,2012-12-01,51.714606,-1.953401
289463,The Pippins,4,0,5,10,2014-01-09,51.670061,-1.930513
289464,The Plough Inn,3,10,10,10,2014-02-04,51.707334,-1.779905
289465,The Porch House,4,5,10,0,2014-05-01,51.929602,-1.721578
289466,The Potted Game Company,3,10,10,10,2011-03-02,51.7641716003,-2.16174006462
289467,The Prince Of India Restaurant,4,5,10,5,2014-06-01,51.928995,-1.719357
289468,The Priory Nursing Home,5,0,0,0,2014-11-19,51.638055,-2.159173
289469,The Ridge,5,5,0,0,2010-03-12,51.883696,-1.772494
289470,The Riverside Cafe,3,10,5,10,2014-08-15,51.883548,-1.756731
289471,The Rose Tree Restaurant,5,5,5,5,2014-11-14,51.877145,-1.743401
289472,The Royal Oak,4,0,10,10,2013-09-24,51.639831,-2.155249
289473,The Royal Oak,4,5,5,10,2014-11-19,51.617345,-2.256896
289474,The Salvation Army,5,0,5,5,2014-02-13,51.719224,-1.971274
289475,The Sherborne Arms,4,10,10,0,2013-10-10,51.7891044617,-1.77436089516
289476,The Slaughters Country Inn,4,5,10,5,2015-01-14,51.9010391235,-1.76258111
289477,The Swaledale Mutton Co,Exempt,nan,nan,nan,2013-11-20,52.01938,-1.658419
289478,The Swan Hotel,4,10,10,0,2014-05-15,51.760804,-1.83495
289479,The Tavern,2,10,15,10,2013-08-13,51.675987,-2.023856
289480,The Tea Chest,5,5,5,5,2013-10-01,51.693203,-1.693241
289481,The Victoria Inn,4,5,10,5,2013-10-16,51.745799,-1.713728
289482,The Village Bar,5,0,5,0,2013-03-14,52.068825,-1.81926
289483,The Village Pub,4,nan,nan,nan,2013-09-20,51.745098114,-1.89036488533
289484,The Village Shop,5,0,0,5,2013-07-30,51.6739578247,-1.8547590971
289485,The Vine Leaf,5,5,5,0,2014-02-27,51.92956,-1.722553
289486,The Waffle House (2011) Ltd,5,0,0,5,2012-06-26,51.883905,-1.707986
289487,The Waggon And Horses,5,5,5,5,2013-02-20,51.716596,-1.961505
289488,The Wheatsheaf Inn,4,10,5,5,2014-02-18,51.714709,-1.966558
289489,The White Hart Royal Hotel,4,5,10,5,2014-05-08,51.989616,-1.703076
289490,The White Hart Stow Ltd,3,10,10,5,2014-02-27,51.930431,-1.722431
289491,The Wiggly Worm Charity Ltd,5,0,5,5,2013-09-25,51.850169,-2.084299
289492,The Wild Duck,1,20,15,0,2013-08-06,51.678317,-1.990535
289493,The William Morris,4,0,10,10,2013-08-14,51.758833,-1.833421
289494,The Youth Hostel,5,5,5,5,2014-07-22,51.930431,-1.722431
289495,Thomas Panton (Wine Merchants) Limited,Exempt,nan,nan,nan,2010-05-21,51.640136,-2.16262
289496,Three Ways Hotel,5,5,5,5,2013-03-07,52.090486,-1.769124
289497,Thyme At Southrop Ltd,4,0,10,10,2009-10-09,51.729368,-1.708359
289498,Tiggers,5,5,0,0,2012-07-04,51.713269,-1.960712
289499,Tiggers Nurseries Ltd,5,0,5,0,2014-01-06,,
289500,Tillys,4,10,5,5,2014-01-10,51.99083,-1.70349
289501,Timothys Tea Room,5,5,5,5,2013-10-17,51.984066,-1.705661
289502,Tiny Tots Day Nursery And Night Care Ltd,5,5,5,0,2014-05-13,51.705006,-1.960184
289503,Todenham Manor Farm,5,5,5,0,2014-01-22,52.028554,-1.641456
289504,Top Nosh Mobile,3,10,10,10,2013-10-03,51.893133,-1.752814
289505,Town And Country News,Exempt,nan,nan,nan,2010-05-21,51.638043,-2.160806
289506,Tree Tops,4,0,0,10,2010-03-29,51.990873,-1.695539
289507,Treebus Tearooms Ltd,5,5,5,0,2014-04-10,51.929602,-1.721578
289508,Trevone,Exempt,nan,nan,nan,2010-03-30,51.886452,-1.756744
289509,Troopers Lodge Shop  Londis,3,10,10,5,2013-12-05,51.995765,-1.776209
289510,Trouble House Catering Ltd,4,5,5,10,2014-03-04,51.657291,-2.126107
289511,Trout Inn,4,10,5,0,2014-09-15,51.689563,-1.680203
289512,Tunnel House Inn,4,10,0,0,2013-10-07,51.7042198181,-2.05124998093
289513,Twelve Bells,5,5,5,5,2013-11-01,51.714664,-1.965661
289514,Unicorn Hotel,3,10,10,5,2014-04-25,51.7641716003,-2.16174006462
289515,Verano Trading,4,5,5,10,2010-06-21,51.990664,-1.74389
289516,Vernes Restaurant And Tea Rooms,3,10,10,10,2014-05-22,51.883099,-1.756922
289517,Victoria Coffee House,3,5,10,10,2014-08-21,51.990633,-1.703637
289518,Village Hall,Exempt,nan,nan,nan,2002-09-25,51.7641716003,-2.16174006462
289519,Village Hall,5,5,5,0,2011-03-17,51.874912262,-1.81396508217
289520,Village Hall,Exempt,nan,nan,nan,2003-12-15,51.7641716003,-2.16174006462
289521,Village Hall,4,0,10,0,2011-06-16,52.062261,-1.737734
289522,Village Hall,3,10,10,10,2013-09-04,51.670969,-1.773183
289523,Village Hall,5,0,0,5,2010-11-26,51.901038,-1.762581
289524,Village Tearoom,4,10,0,0,2014-08-08,51.883835,-1.756497
289525,Vintage Me,4,5,5,10,2010-06-28,51.674826,-1.852139
289526,Volunteer Inn,4,10,10,0,2013-04-15,52.04922,-1.784181
289527,W J Castle,4,10,5,5,2014-05-17,51.829228,-1.836616
289528,Waffle Corner,5,0,5,0,2014-04-24,51.883611,-1.7566
289529,Waitenhill Farm,Exempt,nan,nan,nan,2014-06-10,51.7103,-1.784348
289530,Waitrose,5,5,0,0,2013-08-28,51.713443,-1.971408
289531,Walkers Day Nursery,4,5,10,5,2014-09-05,51.988179,-1.700494
289532,Warners Budgens,5,0,0,0,2013-11-14,51.990246,-1.703713
289533,Warwick House,5,5,0,5,2012-06-25,51.990363,-1.693125
289534,Waterfront Tea Room And Restaurant,4,5,10,5,2012-02-29,51.884127,-1.758297
289535,Watermoor House Residential Home,5,0,0,0,2014-09-23,51.712632,-1.964548
289536,Watermoor Primary School,5,5,5,5,2013-03-05,51.710168,-1.962451
289537,Waterside Cafe,4,10,0,10,2014-01-21,51.661112,-1.890697
289538,Webbys Windrush Walk,5,5,5,5,2013-11-18,51.883047,-1.753799
289539,Well Cottage B And B,5,0,0,5,2010-06-29,51.6766281128,-1.99578523636
289540,Well House,5,5,5,5,2013-02-15,51.922381,-1.863892
289541,Wellbank Cottage,4,5,10,5,2012-05-21,52.023298,-1.651787
289542,West Cornwall Pasty Co. Ltd,5,0,5,0,2013-12-17,51.71622,-1.968164
289543,Westonbirt Restaurant And Cafe,3,5,10,10,2014-11-19,51.605023,-2.209075
289544,Westonbirt School,4,10,5,5,2014-10-17,51.605285,-2.198232
289545,Wheatsheaf Inn,3,10,10,10,2014-07-31,51.831128,-1.838626
289546,Whittington Lodge Farm,5,5,5,5,2012-01-18,51.888968,-1.985436
289547,Wild Rock Ltd,5,0,0,0,2009-12-22,51.810503,-1.868203
289548,Willersey Stores,3,10,5,10,2014-10-10,52.054129,-1.847684
289549,Willows,5,0,5,5,2014-08-04,51.675583,-2.018389
289550,Windrush Fish And Chip Bar,4,10,5,5,2014-01-17,51.886833,-1.762569
289551,Windrush Garden Cafe,5,5,5,5,2014-01-17,51.884989,-1.757827
289552,Windy  Ridge Estate,5,5,5,5,2012-05-18,51.96112,-1.747856
289553,Winstone Glebe,4,5,10,5,2010-03-30,51.783869,-2.056298
289554,Winstones News Ltd,5,5,5,5,2010-01-05,51.709654,-1.960498
289555,Withington C Of E School,5,5,5,5,2009-06-15,51.838252,-1.958166
289556,Woodlands,5,0,0,5,2012-07-13,51.9398078918,-1.74516808987
289557,Wren House B And B,5,5,0,5,2013-07-31,51.951655,-1.720656
289558,Wyck Hill House And Spa,4,10,5,5,2014-12-04,51.898065,-1.711585
289559,Yara's Fudge,Exempt,nan,nan,nan,2013-03-11,51.70615,-2.033105
289560,Yew Tree Cottage,4,5,10,0,2011-03-11,51.8556900024,-1.84589993954
289561,Yilmaz Kebab,1,5,10,20,2014-11-26,51.714506,-1.974552
289562,York House,5,0,5,5,2012-03-20,51.636438,-2.158026
289563,Zapuzino Care Home,5,5,5,5,2013-07-10,51.703472,-1.971516
289564,Zen,2,10,15,5,2013-10-23,51.709654,-1.960498
