,addressline1,addressline2,addressline3,addressline4,businessname,businesstype,businesstypeid,confidenceinmanagement,extractdate,fhrsid,hygiene,itemcount,latitude,localauthoritybusinessid,localauthoritycode,localauthorityemailaddress,localauthorityname,localauthoritywebsite,longitude,postcode,ratingdate,ratingkey,ratingvalue,returncode,schemetype,structural
288683,Early Years Centre,Watermoor Primary School,Watermoor Road,Cirencester,4Children,Hospitals/Childcare/Caring Premises,5,0,,34743,0,,51.71016800000000,10/00149/FOOD,125,foodandsafetymail@cotswold.gov.uk,Cotswold,http://www.cotswold.gov.uk,-1.96245100000000,GL7 1JU,2013-09-27,fhrs_5_en-GB,5,,FHRS,0
288684,7A Coffee Shop and Cafe,7A London Street,Fairford,Gloucestershire,7A Coffee Shop And Cafe,Restaurant/Cafe/Canteen,1,10,,9876,10,,51.70733400000000,04/00079/BOTH,125,foodandsafetymail@cotswold.gov.uk,Cotswold,http://www.cotswold.gov.uk,-1.77990500000000,GL7 4AQ,2014-02-26,fhrs_3_en-GB,3,,FHRS,10
288685,Unit 1,Cirencester Retail Park,Bridge Road,Cirencester,99P Stores,Retailers - other,4613,0,,710463,0,,,14/00138/BOTH,125,foodandsafetymail@cotswold.gov.uk,Cotswold,http://www.cotswold.gov.uk,,,2014-10-29,fhrs_5_en-GB,5,,FHRS,0
288686,51 Cricklade Street,Cirencester,Gloucestershire,,A J Whiddett,Retailers - other,4613,5,,17296,5,,51.71582400000000,05810/0051/0/000,125,foodandsafetymail@cotswold.gov.uk,Cotswold,http://www.cotswold.gov.uk,-1.96720900000000,GL7 1HY,2013-07-25,fhrs_5_en-GB,5,,FHRS,5
288687,11 Dollar Street,Cirencester,Gloucestershire,,A J Whiddett Bakery,Retailers - other,4613,10,,17001,10,,51.71891800000000,05450/0011/0/000,125,foodandsafetymail@cotswold.gov.uk,Cotswold,http://www.cotswold.gov.uk,-1.96995700000000,GL7 2AS,2014-07-22,fhrs_3_en-GB,3,,FHRS,10
288688,Gloucester Street,Cirencester,Gloucestershire,,Abbey Road Garage,Retailers - other,4613,10,,635844,10,,51.73544500000000,05280/2000/2/000,125,foodandsafetymail@cotswold.gov.uk,Cotswold,http://www.cotswold.gov.uk,-1.97775100000000,GL7 2ND,2014-02-11,fhrs_3_en-GB,3,,FHRS,5
288689,Abbeyfield (Cirencester) Society,Sewell House,45 Chesterton Lane,Cirencester,Abbeyfield Cirencester Society,Restaurant/Cafe/Canteen,1,10,,672045,5,,51.70880300000000,05980/0045/2/000,125,foodandsafetymail@cotswold.gov.uk,Cotswold,http://www.cotswold.gov.uk,-1.97097700000000,GL7 1XJ,2013-01-16,fhrs_4_en-GB,4,,FHRS,5
288690,Abbeyfield House,Kings Arms Lane,Stow-On-The-Wold,Cheltenham,Abbeyfield Society,Hospitals/Childcare/Caring Premises,5,5,,28427,5,,51.93043100000000,08960/2001/2/000,125,foodandsafetymail@cotswold.gov.uk,Cotswold,http://www.cotswold.gov.uk,-1.72243100000000,GL54 1AF,2013-11-14,fhrs_5_en-GB,5,,FHRS,5
288691,Alistair Robertson House,Rectory Lane,Bourton-On-The-Water,CHELTENHAM,Abbeyfield Society,Hospitals/Childcare/Caring Premises,5,0,,77384,5,,51.88583400000000,18170/2015/0/000,125,foodandsafetymail@cotswold.gov.uk,Cotswold,http://www.cotswold.gov.uk,-1.75766300000000,GL54 2AX,2014-05-22,fhrs_5_en-GB,5,,FHRS,0
288692,Abbeyfield House,1 London Road,Tetbury,Gloucestershire,Abbeyfield UK,Hospitals/Childcare/Caring Premises,5,5,,2070,5,,51.63934600000000,00620/0001/2/000,125,foodandsafetymail@cotswold.gov.uk,Cotswold,http://www.cotswold.gov.uk,-2.16159100000000,GL8 8JQ,2010-03-01,fhrs_5_en-GB,5,,FHRS,5
288693,39A Victoria Road,Cirencester,Gloucestershire,,Abbeymead Guest House,Hotel/bed & breakfast/guest house,7842,5,,9294,5,,51.71326900000000,03960/0039/2/000,125,foodandsafetymail@cotswold.gov.uk,Cotswold,http://www.cotswold.gov.uk,-1.96071200000000,GL7 1ES,2010-01-12,fhrs_5_en-GB,5,,FHRS,0
288694,1 Mount Street,Cirencester,Gloucestershire,,Absolutely Delicious,Restaurant/Cafe/Canteen,1,10,,699501,0,,51.71029600000000,14/00096/FOOD,125,foodandsafetymail@cotswold.gov.uk,Cotswold,http://www.cotswold.gov.uk,-1.96990500000000,GL7 1TH,2014-08-12,fhrs_4_en-GB,4,,FHRS,10
288695,Acacia Guesthouse,New Road,Moreton-In-Marsh,Gloucestershire,Acacia,Hotel/bed & breakfast/guest house,7842,5,,44668,0,,51.99121300000000,10830/0002/0/000,125,foodandsafetymail@cotswold.gov.uk,Cotswold,http://www.cotswold.gov.uk,-1.70182800000000,GL56 0AS,2012-03-29,fhrs_5_en-GB,5,,FHRS,5
288696,10 Park Street,Cirencester,Gloucestershire,,Acorns Nursery School,Hospitals/Childcare/Caring Premises,5,0,,14199,5,,51.71698500000000,04810/0010/0/000,125,foodandsafetymail@cotswold.gov.uk,Cotswold,http://www.cotswold.gov.uk,-1.97074000000000,GL7 2BN,2014-09-03,fhrs_5_en-GB,5,,FHRS,5
288697,The Adlestrop Post Office,6 - 7 Main Street,Adlestrop,Moreton-In-Marsh,Adlestrop Post Office,Retailers - other,4613,5,,434314,5,,51.94150700000000,13050/2008/2/000,125,foodandsafetymail@cotswold.gov.uk,Cotswold,http://www.cotswold.gov.uk,-1.64798300000000,GL56 0UN,2012-04-19,fhrs_4_en-GB,4,,FHRS,10
288698,Cricklade Road,Cirencester,Gloucestershire,,Aldi,Retailers - supermarkets/hypermarkets,7840,0,,710457,0,,51.70592000000000,14/00092/BOTH,125,foodandsafetymail@cotswold.gov.uk,Cotswold,http://www.cotswold.gov.uk,-1.95275900000000,GL7 1NP,2014-10-29,fhrs_5_en-GB,5,,FHRS,0
288699,Lay By,Stratford Road,Moreton-In-Marsh,Gloucestershire,Alis Snack Bar,Mobile caterer,7846,5,,146668,5,,51.76417160034180,90000/0016/2/000,125,foodandsafetymail@cotswold.gov.uk,Cotswold,http://www.cotswold.gov.uk,-2.16174006462097,,2012-01-19,fhrs_5_en-GB,5,,FHRS,5
288700,Ambleside,Upton Lane,Tetbury Upton,Tetbury,Ambleside B And B,Hotel/bed & breakfast/guest house,7842,5,,21510,5,,51.65482800000000,07/00031/FOOD,125,foodandsafetymail@cotswold.gov.uk,Cotswold,http://www.cotswold.gov.uk,-2.17461200000000,GL8 8LP,2012-06-11,fhrs_5_en-GB,5,,FHRS,5
288701,101 Watermoor Road,Cirencester,Gloucestershire,,American Pizza,Takeaway/sandwich shop,7844,10,,9329,0,,51.70965400000000,03990/0101/2/000,125,foodandsafetymail@cotswold.gov.uk,Cotswold,http://www.cotswold.gov.uk,-1.96049800000000,GL7 1LD,2014-08-05,fhrs_2_en-GB,2,,FHRS,15
288702,Amethyst,Clarks Hay,South Cerney,Cirencester,Amethyst Fish Bar,Takeaway/sandwich shop,7844,5,,5127,5,,51.67318200000000,01570/2015/2/000,125,foodandsafetymail@cotswold.gov.uk,Cotswold,http://www.cotswold.gov.uk,-1.93075400000000,GL7 5UA,2013-11-19,fhrs_5_en-GB,5,,FHRS,5
288703,School Lane,Ampney Crucis,Cirencester,Gloucestershire,Ampney Crucis C Of E School,School/college/university,7845,5,,84086,5,,51.71813100000000,20790/0000/2/000,125,foodandsafetymail@cotswold.gov.uk,Cotswold,http://www.cotswold.gov.uk,-1.89684300000000,GL7 5SD,2013-05-17,fhrs_5_en-GB,5,,FHRS,5
288704,,,,,Andrea Wiltshire,Hospitals/Childcare/Caring Premises,5,5,,33390,5,,,10/00041/FOOD,125,foodandsafetymail@cotswold.gov.uk,Cotswold,http://www.cotswold.gov.uk,,,2010-09-13,fhrs_5_en-GB,5,,FHRS,5
288705,3 Market Place,Fairford,Gloucestershire,,Andrew Butler Butchers,Retailers - other,4613,5,,69971,10,,51.70790200000000,15820/0003/0/001,125,foodandsafetymail@cotswold.gov.uk,Cotswold,http://www.cotswold.gov.uk,-1.78101700000000,GL7 4AB,2014-08-05,fhrs_4_en-GB,4,,FHRS,5
288706,Ann Edwards County Primary School,Berkeley Close,South Cerney,Cirencester,Ann Edwards School,School/college/university,7845,5,,4930,0,,51.66978500000000,01450/2003/2/000,125,foodandsafetymail@cotswold.gov.uk,Cotswold,http://www.cotswold.gov.uk,-1.93365100000000,GL7 5UW,2014-09-09,fhrs_5_en-GB,5,,FHRS,0
288707,Rhymes Barn Farm,Rhymes Lane,Fairford,Gloucestershire,Ann Griffin,Mobile caterer,7846,10,,699493,5,,51.68871300000000,11/00082/BOTH,125,foodandsafetymail@cotswold.gov.uk,Cotswold,http://www.cotswold.gov.uk,-1.79480800000000,GL7 4BU,2014-07-09,fhrs_4_en-GB,4,,FHRS,5
288708,25 Market Place,Cirencester,Gloucestershire,,Anny's Tearoom,Restaurant/Cafe/Canteen,1,10,,637188,10,,51.71738900000000,13/00163/BOTH,125,foodandsafetymail@cotswold.gov.uk,Cotswold,http://www.cotswold.gov.uk,-1.96690400000000,GL7 2NX,2014-02-13,fhrs_2_en-GB,2,,FHRS,15
288709,Apsley Villa Guest House,16 Victoria Road,Cirencester,Gloucestershire,Apsley Villa,Hotel/bed & breakfast/guest house,7842,10,,9293,5,,51.71326900000000,03960/0016/0/001,125,foodandsafetymail@cotswold.gov.uk,Cotswold,http://www.cotswold.gov.uk,-1.96071200000000,GL7 1ES,2010-02-19,fhrs_4_en-GB,4,,FHRS,0
288710,3 Station Road,Bourton-On-The-Water,Cheltenham,Gloucestershire,Aroma,Restaurant/Cafe/Canteen,1,10,,699495,15,,51.89129200000000,13/00115/BOTH,125,foodandsafetymail@cotswold.gov.uk,Cotswold,http://www.cotswold.gov.uk,-1.75805500000000,GL54 2ER,2014-07-31,fhrs_2_en-GB,2,,FHRS,10
288711,Wheel House,Compton Abdale,Cheltenham,Gloucestershire,Ashas Kitchen,Other catering premises,7841,5,,375964,5,,51.84935700000000,12/00069/FOOD,125,foodandsafetymail@cotswold.gov.uk,Cotswold,http://www.cotswold.gov.uk,-1.91065500000000,GL54 4DR,2012-05-10,fhrs_5_en-GB,5,,FHRS,5
288712,Methodist Chapel And Manse,Ashcroft Road,Cirencester,Gloucestershire,Ashcroft Church Centre,Restaurant/Cafe/Canteen,1,,,546610,,,51.71500600000000,06280/2004/0/000,125,foodandsafetymail@cotswold.gov.uk,Cotswold,http://www.cotswold.gov.uk,-1.96790400000000,GL7 1RA,2013-03-25,fhrs_exempt_en-GB,Exempt,,FHRS,
288713,Ashley House,Spitalgate Lane,Cirencester,Gloucestershire,Ashley House Nursing Home,Hospitals/Childcare/Caring Premises,5,0,,13843,0,,51.72014100000000,04460/2000/2/000,125,foodandsafetymail@cotswold.gov.uk,Cotswold,http://www.cotswold.gov.uk,-1.97011600000000,GL7 2DE,2014-02-11,fhrs_5_en-GB,5,,FHRS,0
288714,High Street,Moreton-In-Marsh,Gloucestershire,,Ask,Restaurant/Cafe/Canteen,1,10,,44204,0,,51.99033400000000,10730/2122/2/000,125,foodandsafetymail@cotswold.gov.uk,Cotswold,http://www.cotswold.gov.uk,-1.70291100000000,GL56 0AX,2013-10-23,fhrs_4_en-GB,4,,FHRS,10
288715,Kennel Lane,Broadwell,Moreton-In-Marsh,Gloucestershire,Aston House,Hotel/bed & breakfast/guest house,7842,10,,77278,5,,51.94764400000000,18120/0000/2/000,125,foodandsafetymail@cotswold.gov.uk,Cotswold,http://www.cotswold.gov.uk,-1.70552100000000,GL56 0TJ,2010-08-20,fhrs_4_en-GB,4,,FHRS,0
288716,Avon Cottage,6 Gumstool Hill,Tetbury,Gloucestershire,Avon Cottage Bed And Breakfast,Hotel/bed & breakfast/guest house,7842,0,,2144,5,,51.63767000000000,00680/0006/0/000,125,foodandsafetymail@cotswold.gov.uk,Cotswold,http://www.cotswold.gov.uk,-2.15740900000000,GL8 8DG,2007-03-28,fhrs_5_en-GB,5,,FHRS,0
288717,Aylworth Lane,Naunton,CHELTENHAM,Gloucestershire,Aylworth Manor,Hotel/bed & breakfast/guest house,7842,5,,25507,0,,51.89624600000000,08/00093/FOOD,125,foodandsafetymail@cotswold.gov.uk,Cotswold,http://www.cotswold.gov.uk,-1.84302900000000,GL54 3AH,2010-08-24,fhrs_5_en-GB,5,,FHRS,0
288718,Badgers Croft,Pear Tree Close,Chipping Campden,Gloucestershire,Badgers Croft Care Home,Hospitals/Childcare/Caring Premises,5,10,,74547,5,,52.04851200000000,17210/2002/2/000,125,foodandsafetymail@cotswold.gov.uk,Cotswold,http://www.cotswold.gov.uk,-1.78059700000000,GL55 6DB,2010-10-18,fhrs_4_en-GB,4,,FHRS,0
288719,George Lane,Chipping Campden,Gloucestershire,,Badgers Field,Hospitals/Childcare/Caring Premises,5,,,699503,,,52.04941700000000,17330/2006/2/000,125,foodandsafetymail@cotswold.gov.uk,Cotswold,http://www.cotswold.gov.uk,-1.77871200000000,GL55 6EL,,fhrs_exempt_en-GB,Exempt,,FHRS,
288720,Badgers Hall,High Street,Chipping Campden,Gloucestershire,Badgers Hall Tea Rooms,Restaurant/Cafe/Canteen,1,5,,75034,0,,52.05092900000000,17420/2089/2/000,125,foodandsafetymail@cotswold.gov.uk,Cotswold,http://www.cotswold.gov.uk,-1.77974000000000,GL55 6HB,2013-10-08,fhrs_5_en-GB,5,,FHRS,5
288721,55 Queen Elizabeth Road,Cirencester,Gloucestershire,,Baked At 55,Other catering premises,7841,0,,704591,0,,51.71264500000000,14/00100/FOOD,125,foodandsafetymail@cotswold.gov.uk,Cotswold,http://www.cotswold.gov.uk,-1.95186900000000,GL7 1DH,2014-09-26,fhrs_5_en-GB,5,,FHRS,0
288722,The Bakers Arms,Broad Campden,Chipping Campden,Gloucestershire,Bakers Arms,Pub/bar/nightclub,7843,10,,78909,10,,52.03956000000000,18910/2069/2/000,125,foodandsafetymail@cotswold.gov.uk,Cotswold,http://www.cotswold.gov.uk,-1.77253500000000,GL55 6UR,2013-02-28,fhrs_3_en-GB,3,,FHRS,10
288723,Sherborne Street,Bourton-On-The-Water,CHELTENHAM,Gloucestershire,Bakery On The Water,Restaurant/Cafe/Canteen,1,10,,606386,10,,51.88409300000000,13/00058/BOTH,125,foodandsafetymail@cotswold.gov.uk,Cotswold,http://www.cotswold.gov.uk,-1.75947400000000,GL54 2BY,2013-10-24,fhrs_3_en-GB,3,,FHRS,10
288724,Bantam Tearooms,High Street,Chipping Campden,Gloucestershire,Bantam Tea Rooms,Restaurant/Cafe/Canteen,1,5,,75035,5,,52.05092900000000,17420/2090/2/000,125,foodandsafetymail@cotswold.gov.uk,Cotswold,http://www.cotswold.gov.uk,-1.77974000000000,GL55 6HB,2014-12-12,fhrs_4_en-GB,4,,FHRS,10
288725,Barnsley,Cirencester,Gloucestershire,,Barnsley House,Hotel/bed & breakfast/guest house,7842,5,,80833,10,,51.74304962158203,19640/2024/2/000,125,foodandsafetymail@cotswold.gov.uk,Cotswold,http://www.cotswold.gov.uk,-1.89123892784119,GL7 5EE,2014-05-08,fhrs_4_en-GB,4,,FHRS,5
288726,Cripps Barn,Hay Lane,Bibury,CIRENCESTER,Baz And Fred,Mobile caterer,7846,10,,409508,0,,51.76495600000000,12/00079/BOTH,125,foodandsafetymail@cotswold.gov.uk,Cotswold,http://www.cotswold.gov.uk,-1.87795700000000,GL7 5BA,2012-05-29,fhrs_4_en-GB,4,,FHRS,10
288727,13 - 14 The Plies,Fairford,Gloucestershire,,Beech View Care Home,Restaurant/Cafe/Canteen,1,5,,69175,5,,51.70626700000000,15530/2003/0/000,125,foodandsafetymail@cotswold.gov.uk,Cotswold,http://www.cotswold.gov.uk,-1.77707400000000,GL7 4AJ,2011-05-24,fhrs_4_en-GB,4,,FHRS,10
288728,The Beeches Store,42 - 44 Upper Churnside,Cirencester,Gloucestershire,Beeches Stores,Retailers - other,4613,5,,13721,5,,51.71527300000000,04310/4244/2/000,125,foodandsafetymail@cotswold.gov.uk,Cotswold,http://www.cotswold.gov.uk,-1.95668600000000,GL7 1AP,2012-06-12,fhrs_5_en-GB,5,,FHRS,5
288729,The Bees Knees,133 Watermoor Road,Cirencester,Gloucestershire,Bees Knees,Hotel/bed & breakfast/guest house,7842,5,,635849,10,,51.70877200000000,14/00010/BOTH,125,foodandsafetymail@cotswold.gov.uk,Cotswold,http://www.cotswold.gov.uk,-1.95793700000000,GL7 1LF,2014-01-17,fhrs_4_en-GB,4,,FHRS,5
288730,High Street,Moreton-In-Marsh,Gloucestershire,,Bell Inn,Pub/bar/nightclub,7843,20,,44197,15,,51.99083000000000,10730/2086/2/000,125,foodandsafetymail@cotswold.gov.uk,Cotswold,http://www.cotswold.gov.uk,-1.70349000000000,GL56 0AF,2014-01-29,fhrs_1_en-GB,1,,FHRS,10
288731,Sapperton,Cirencester,Gloucestershire,,Bell Inn,Pub/bar/nightclub,7843,5,,6592,10,,51.72731399536133,02300/2031/2/000,125,foodandsafetymail@cotswold.gov.uk,Cotswold,http://www.cotswold.gov.uk,-2.07651185989380,GL7 6LE,2013-08-19,fhrs_4_en-GB,4,,FHRS,5
288732,Station Road,Bourton-On-The-Water,Cheltenham,Gloucestershire,Bella Dorma,Hotel/bed & breakfast/guest house,7842,5,,22609,5,,51.88595100000000,07/00244/FOOD,125,foodandsafetymail@cotswold.gov.uk,Cotswold,http://www.cotswold.gov.uk,-1.75349300000000,GL54 2EN,2008-06-25,fhrs_5_en-GB,5,,FHRS,0
288733,Sandyhill Farm,Sherborne,Cheltenham,Gloucestershire,Bensons Apple Juice,Manufacturers/packers,7839,,,434308,,,51.83506300000000,12/00053/FOOD,125,foodandsafetymail@cotswold.gov.uk,Cotswold,http://www.cotswold.gov.uk,-1.76244900000000,GL54 3DS,2014-01-09,fhrs_exempt_en-GB,Exempt,,FHRS,
288734,Cotswold House Hotel,High Street,Chipping Campden,Gloucestershire,Bespoke Hotels Ltd,Hotel/bed & breakfast/guest house,7842,5,,75030,10,,52.05060000000000,17420/2070/2/000,125,foodandsafetymail@cotswold.gov.uk,Cotswold,http://www.cotswold.gov.uk,-1.78179800000000,GL55 6AN,2014-08-22,fhrs_3_en-GB,3,,FHRS,10
288735,103 Watermoor Road,Cirencester,Gloucestershire,,Best Kebab,Takeaway/sandwich shop,7844,10,,21512,10,,51.70965400000000,07/00032/BOTH,125,foodandsafetymail@cotswold.gov.uk,Cotswold,http://www.cotswold.gov.uk,-1.96049800000000,GL7 1LD,2013-09-25,fhrs_3_en-GB,3,,FHRS,10
288736,Church Road,Bibury,CIRENCESTER,Gloucestershire,Bibury C Of E School,School/college/university,7845,0,,704588,0,,51.75736400000000,14/00059/FOOD,125,foodandsafetymail@cotswold.gov.uk,Cotswold,http://www.cotswold.gov.uk,-1.83121000000000,GL7 5NR,2014-09-16,fhrs_5_en-GB,5,,FHRS,0
288737,Church Road,Bibury,CIRENCESTER,Gloucestershire,Bibury Court Hotel,Hotel/bed & breakfast/guest house,7842,10,,55898,15,,51.75817000000000,12620/2031/2/000,125,foodandsafetymail@cotswold.gov.uk,Cotswold,http://www.cotswold.gov.uk,-1.82883100000000,GL7 5NT,2014-05-21,fhrs_2_en-GB,2,,FHRS,10
288738,Aldsworth Road,Bibury,Cirencester,Gloucestershire,Bibury Football Club,Pub/bar/nightclub,7843,10,,55653,10,,51.76286800000000,12560/2002/0/000,125,foodandsafetymail@cotswold.gov.uk,Cotswold,http://www.cotswold.gov.uk,-1.82617600000000,GL7 5PA,2013-09-05,fhrs_3_en-GB,3,,FHRS,10
288739,Travis Perkins Trading Co Ltd,12 Love Lane,Cirencester,Gloucestershire,Birchwood Price Tools,Retailers - other,4613,,,704590,,,51.70440300000000,14/00098/FOOD,125,foodandsafetymail@cotswold.gov.uk,Cotswold,http://www.cotswold.gov.uk,-1.95912800000000,GL7 1WW,2014-09-17,fhrs_exempt_en-GB,Exempt,,FHRS,
288740,Birdlip,Gloucester,Gloucestershire,,Birdlip School,School/college/university,7845,0,,9074,0,,51.82752990722656,03590/2071/2/000,125,foodandsafetymail@cotswold.gov.uk,Cotswold,http://www.cotswold.gov.uk,-2.10754585266113,GL4 8JH,2013-10-01,fhrs_5_en-GB,5,,FHRS,5
288741,The Old Wool House,Market Place,Northleach,CHELTENHAM,Black Cat Cafe,Restaurant/Cafe/Canteen,1,5,,594281,5,,51.82973200000000,13/00059/BOTH,125,foodandsafetymail@cotswold.gov.uk,Cotswold,http://www.cotswold.gov.uk,-1.83744100000000,GL54 3EE,2013-10-02,fhrs_5_en-GB,5,,FHRS,5
288742,Northleach Court Residential Nursin,High Street,Northleach,CHELTENHAM,Blanchworth Community Care,Hospitals/Childcare/Caring Premises,5,10,,39873,10,,51.82977600000000,10040/2040/2/000,125,foodandsafetymail@cotswold.gov.uk,Cotswold,http://www.cotswold.gov.uk,-1.83633800000000,GL54 3PQ,2014-11-19,fhrs_3_en-GB,3,,FHRS,10
288743,Bledington Primary School,Old Burford Road,Bledington,Chipping Norton,Bledington County Primary School,School/college/university,7845,0,,54148,0,,51.90045000000000,12200/2012/2/000,125,foodandsafetymail@cotswold.gov.uk,Cotswold,http://www.cotswold.gov.uk,-1.64031000000000,OX7 6US,2014-02-07,fhrs_5_en-GB,5,,FHRS,0
288744,Village Hall,Bledington,Chipping Norton,,Bledington Village Hall,Restaurant/Cafe/Canteen,1,0,,55004,5,,51.90263600000000,12400/2027/2/000,125,foodandsafetymail@cotswold.gov.uk,Cotswold,http://www.cotswold.gov.uk,-1.64676100000000,OX7 6XQ,2011-03-17,fhrs_5_en-GB,5,,FHRS,0
288745,Park Road,Blockley,Moreton-In-Marsh,Gloucestershire,Blockley C Of E School,School/college/university,7845,5,,52677,5,,52.01511400000000,11920/2006/2/000,125,foodandsafetymail@cotswold.gov.uk,Cotswold,http://www.cotswold.gov.uk,-1.76302800000000,GL56 9BY,2013-07-05,fhrs_5_en-GB,5,,FHRS,5
288746,Park Road,Blockley,Moreton-In-Marsh,Gloucestershire,Blockley Heritage Centre,Pub/bar/nightclub,7843,,,672047,,,52.01511400000000,11920/2008/2/000,125,foodandsafetymail@cotswold.gov.uk,Cotswold,http://www.cotswold.gov.uk,-1.76302800000000,GL56 9BY,2006-11-24,fhrs_exempt_en-GB,Exempt,,FHRS,
288747,Old Coach House,Bell Lane,Blockley,Moreton-In-Marsh,Blockley Nursery School,Hospitals/Childcare/Caring Premises,5,5,,9431,5,,52.01253400000000,04/00012/BOTH,125,foodandsafetymail@cotswold.gov.uk,Cotswold,http://www.cotswold.gov.uk,-1.76295400000000,GL56 9BB,2012-03-20,fhrs_5_en-GB,5,,FHRS,5
288748,Blockley Village Shop,Old Coach House,Bell Lane,Blockley,Blockley Village Shop And Cafe,Retailers - other,4613,10,,24839,10,,52.01253400000000,08/00019/BOTH,125,foodandsafetymail@cotswold.gov.uk,Cotswold,http://www.cotswold.gov.uk,-1.76295400000000,GL56 9BB,2013-10-23,fhrs_3_en-GB,3,,FHRS,10
288749,Blue Close Bungalow,Rectory Lane,Great Rissington,CHELTENHAM,Blue Close Bungalow B And B,Hotel/bed & breakfast/guest house,7842,5,,658430,5,,51.85353300000000,13/00012/FOOD,125,foodandsafetymail@cotswold.gov.uk,Cotswold,http://www.cotswold.gov.uk,-1.71503500000000,GL54 2LL,2013-07-31,fhrs_5_en-GB,5,,FHRS,5
288750,Church Street,Tetbury,Gloucestershire,,Blue Zucchini,Restaurant/Cafe/Canteen,1,0,,9439,0,,51.63621900000000,04/00013/BOTH,125,foodandsafetymail@cotswold.gov.uk,Cotswold,http://www.cotswold.gov.uk,-2.15999000000000,GL8 8JG,2015-01-05,fhrs_5_en-GB,5,,FHRS,5
288751,The Victoria Hall,Riverside,Bourton-On-The-Water,Cheltenham,Bourton Market,Restaurant/Cafe/Canteen,1,5,,77425,5,,51.81751600000000,18190/2004/2/000,125,foodandsafetymail@cotswold.gov.uk,Cotswold,http://www.cotswold.gov.uk,-1.81460700000000,GL54 3PN,2011-11-24,fhrs_4_en-GB,4,,FHRS,10
288752,Bourton On The Water C P School,School Hill,Bourton-On-The-Water,CHELTENHAM,Bourton On The Water Primary Academy,School/college/university,7845,0,,29185,5,,51.88770300000000,09/00059/FOOD,125,foodandsafetymail@cotswold.gov.uk,Cotswold,http://www.cotswold.gov.uk,-1.76180900000000,GL54 2AU,2011-11-11,fhrs_5_en-GB,5,,FHRS,5
288753,Bourton Football Club,Rissington Road,Bourton-On-The-Water,Gloucestershire,Bourton Rovers Football And Social Club,Pub/bar/nightclub,7843,,,434316,,,51.88070000000000,18180/2068/2/000,125,foodandsafetymail@cotswold.gov.uk,Cotswold,http://www.cotswold.gov.uk,-1.75274500000000,,2012-05-02,fhrs_exempt_en-GB,Exempt,,FHRS,
288754,6 Aston Road,Chipping Campden,Gloucestershire,,Bramley House,Hotel/bed & breakfast/guest house,7842,5,,375955,5,,52.05658500000000,08/00082/FOOD,125,foodandsafetymail@cotswold.gov.uk,Cotswold,http://www.cotswold.gov.uk,-1.78025200000000,GL55 6HR,2010-08-18,fhrs_5_en-GB,5,,FHRS,0
288755,3A Bishops Walk,Cirencester,Gloucestershire,,Bramleys,Retailers - other,4613,,,637189,,,51.71605800000000,14/00004/BOTH,125,foodandsafetymail@cotswold.gov.uk,Cotswold,http://www.cotswold.gov.uk,-1.96832300000000,GL7 1JH,2014-02-13,fhrs_exempt_en-GB,Exempt,,FHRS,
288756,MORETON-IN-MARSH,Gloucestershire,,,Bran Mill Cottage,Hotel/bed & breakfast/guest house,7842,0,,51745,0,,52.03115081787109,11610/2012/2/000,125,foodandsafetymail@cotswold.gov.uk,Cotswold,http://www.cotswold.gov.uk,-1.72042405605316,GL56 9QW,2007-03-24,fhrs_5_en-GB,5,,FHRS,0
288757,Cirencester College,Stroud Road,Cirencester,Gloucestershire,Bright Eyes Early Years Centre,Hospitals/Childcare/Caring Premises,5,5,,9447,0,,51.71257300000000,04/00014/BOTH,125,foodandsafetymail@cotswold.gov.uk,Cotswold,http://www.cotswold.gov.uk,-1.98621500000000,GL7 1XA,2014-01-20,fhrs_5_en-GB,5,,FHRS,0
288758,The Broadlands,Bourton-On-The-Water,CHELTENHAM,Gloucestershire,Broadlands Guest House,Hotel/bed & breakfast/guest house,7842,0,,51474,10,,51.88198800000000,11530/2030/2/000,125,foodandsafetymail@cotswold.gov.uk,Cotswold,http://www.cotswold.gov.uk,-1.75868600000000,GL54 2DL,2013-04-25,fhrs_4_en-GB,4,,FHRS,5
288759,Willersey Hill,Willersey,Broadway,Gloucestershire,Broadway Golf Club,Pub/bar/nightclub,7843,0,,32460,10,,52.04120900000000,09650/2002/0/000,125,foodandsafetymail@cotswold.gov.uk,Cotswold,http://www.cotswold.gov.uk,-1.82747700000000,WR12 7LF,2014-12-18,fhrs_4_en-GB,4,,FHRS,10
288760,3 New Road,Moreton-In-Marsh,Gloucestershire,,Brothers Baguettes,Retailers - other,4613,5,,672050,10,,51.99121300000000,14/00016/BOTH,125,foodandsafetymail@cotswold.gov.uk,Cotswold,http://www.cotswold.gov.uk,-1.70182800000000,GL56 0AS,2014-05-08,fhrs_4_en-GB,4,,FHRS,5
288761,Marlborough House,High Street,Lechlade,Gloucestershire,Brown Bears Kitchen,Restaurant/Cafe/Canteen,1,20,,710459,15,,51.69392200000000,14/00112/BOTH,125,foodandsafetymail@cotswold.gov.uk,Cotswold,http://www.cotswold.gov.uk,-1.69307700000000,GL7 3AD,2014-10-02,fhrs_1_en-GB,1,,FHRS,10
288762,Honeybourne Lane,Mickleton,Chipping Campden,Gloucestershire,Brymbo,Hotel/bed & breakfast/guest house,7842,5,,24576,0,,52.09328000000000,07940/2002/2/000,125,foodandsafetymail@cotswold.gov.uk,Cotswold,http://www.cotswold.gov.uk,-1.79237700000000,GL55 6PU,2012-05-26,fhrs_5_en-GB,5,,FHRS,0
288763,The Bull Hotel,Market Place,Fairford,Gloucestershire,Bull Hotel,Hotel/bed & breakfast/guest house,7842,5,,69979,5,,51.70787700000000,15820/2010/2/000,125,foodandsafetymail@cotswold.gov.uk,Cotswold,http://www.cotswold.gov.uk,-1.78182700000000,GL7 4AA,2015-01-05,fhrs_5_en-GB,5,,FHRS,5
288764,Petrol Filling Station And Premises,Burford Road,Cirencester,Gloucestershire,Burford Road Filling Station,Retailers - other,4613,,,409502,,,51.72028800000000,05840/2002/2/000,125,foodandsafetymail@cotswold.gov.uk,Cotswold,http://www.cotswold.gov.uk,-1.95349700000000,GL7 5DS,2012-05-28,fhrs_exempt_en-GB,Exempt,,FHRS,
288765,Harebushes,Burford Road,Cirencester,Gloucestershire,Burger King,Restaurant/Cafe/Canteen,1,0,,631237,5,,51.72028800000000,13/00150/BOTH,125,foodandsafetymail@cotswold.gov.uk,Cotswold,http://www.cotswold.gov.uk,-1.95349700000000,GL7 5DS,2014-01-21,fhrs_5_en-GB,5,,FHRS,5
288766,Chapel Lane,Mickleton,Chipping Campden,Gloucestershire,Butchers Arms,Pub/bar/nightclub,7843,10,,50421,10,,52.09048600000000,11230/2025/2/000,125,foodandsafetymail@cotswold.gov.uk,Cotswold,http://www.cotswold.gov.uk,-1.76912400000000,GL55 6SD,2012-02-03,fhrs_3_en-GB,3,,FHRS,10
288767,Butts Farm,Cricklade Road,South Cerney,Cirencester,Butts Farm Shop,Retailers - other,4613,10,,4653,10,,51.68487100000000,01250/2006/2/000,125,foodandsafetymail@cotswold.gov.uk,Cotswold,http://www.cotswold.gov.uk,-1.90611700000000,GL7 5QE,2014-08-06,fhrs_3_en-GB,3,,FHRS,10
288768,The Weigh Bridge,Weston Industrial Estate,Weston Subedge,,Butty Hut,Takeaway/sandwich shop,7844,0,,84894,10,,52.07313600000000,21130/2004/2/000,125,foodandsafetymail@cotswold.gov.uk,Cotswold,http://www.cotswold.gov.uk,-1.82226200000000,WR11 7QB,2013-10-02,fhrs_4_en-GB,4,,FHRS,10
288769,Carfax,High Street,Moreton-In-Marsh,Gloucestershire,Cacao Bean,Restaurant/Cafe/Canteen,1,5,,28663,0,,51.99196900000000,09/00017/BOTH,125,foodandsafetymail@cotswold.gov.uk,Cotswold,http://www.cotswold.gov.uk,-1.70236200000000,GL56 0AT,2013-04-15,fhrs_5_en-GB,5,,FHRS,5
288770,53 Long Street,Tetbury,Gloucestershire,,Cafe 53,Restaurant/Cafe/Canteen,1,5,,15077,10,,51.63804300000000,05/00102/BOTH,125,foodandsafetymail@cotswold.gov.uk,Cotswold,http://www.cotswold.gov.uk,-2.16080600000000,GL8 8AA,2013-10-02,fhrs_4_en-GB,4,,FHRS,5
288771,25A Church Street,Tetbury,Gloucestershire,,Cafe Edge,Restaurant/Cafe/Canteen,1,5,,1209,5,,51.63621900000000,00100/0025/A/000,125,foodandsafetymail@cotswold.gov.uk,Cotswold,http://www.cotswold.gov.uk,-2.15999000000000,GL8 8JG,2013-07-23,fhrs_5_en-GB,5,,FHRS,5
288772,12 The Wool Market,Dyer Street,Cirencester,Gloucestershire,Cafe Mosaic,Restaurant/Cafe/Canteen,1,0,,29299,10,,51.71701100000000,09/00069BOTH,125,foodandsafetymail@cotswold.gov.uk,Cotswold,http://www.cotswold.gov.uk,-1.96492100000000,GL7 2PR,2013-12-17,fhrs_4_en-GB,4,,FHRS,5
288773,18 Market Place,Cirencester,Gloucestershire,,Caffe Nero,Restaurant/Cafe/Canteen,1,5,,29981,5,,51.71693900000000,09/00132/BOTH,125,foodandsafetymail@cotswold.gov.uk,Cotswold,http://www.cotswold.gov.uk,-1.96745400000000,GL7 2NW,2014-12-03,fhrs_4_en-GB,4,,FHRS,10
288774,,,,,Cake Baby,Retailers - other,4613,0,,564110,0,,,13/00057/FOOD,125,foodandsafetymail@cotswold.gov.uk,Cotswold,http://www.cotswold.gov.uk,,,2013-07-01,fhrs_5_en-GB,5,,FHRS,0
288775,,,,,Cakes By Corrin,Retailers - other,4613,0,,34451,0,,,10/00118/FOOD,125,foodandsafetymail@cotswold.gov.uk,Cotswold,http://www.cotswold.gov.uk,,,2010-08-20,fhrs_5_en-GB,5,,FHRS,5
288776,Calcot Manor Hotel,Calcot,Tetbury,Gloucestershire,Calcot Manor,Hotel/bed & breakfast/guest house,7842,5,,7125,5,,51.65252685546875,02690/2011/2/000,125,foodandsafetymail@cotswold.gov.uk,Cotswold,http://www.cotswold.gov.uk,-2.23195862770081,GL8 8YJ,2014-04-29,fhrs_5_en-GB,5,,FHRS,5
288777,Oak Street,Lechlade,Gloucestershire,,Cambrai Lodge,Hotel/bed & breakfast/guest house,7842,10,,64274,5,,51.69749700000000,14250/2007/2/000,125,foodandsafetymail@cotswold.gov.uk,Cotswold,http://www.cotswold.gov.uk,-1.69188100000000,GL7 3AY,2008-09-09,fhrs_4_en-GB,4,,FHRS,5
288778,Old Kings Arms,High Street,Chipping Campden,Gloucestershire,Caminetto Restaurant,Restaurant/Cafe/Canteen,1,10,,574185,10,,52.05092900000000,17420/2091/2/000,125,foodandsafetymail@cotswold.gov.uk,Cotswold,http://www.cotswold.gov.uk,-1.77974000000000,GL55 6HB,2014-12-05,fhrs_3_en-GB,3,,FHRS,10
288779,Pedlars House,Lower High Street,Chipping Campden,Gloucestershire,Campden Deli,Retailers - other,4613,10,,627890,10,,52.04922000000000,13/00112/BOTH,125,foodandsafetymail@cotswold.gov.uk,Cotswold,http://www.cotswold.gov.uk,-1.78418100000000,GL55 6DY,2014-01-10,fhrs_3_en-GB,3,,FHRS,10
288780,High Street,Chipping Campden,Gloucestershire,,Campden Fruit And Veg,Retailers - other,4613,5,,409514,5,,52.04998100000000,17420/2081/2/000,125,foodandsafetymail@cotswold.gov.uk,Cotswold,http://www.cotswold.gov.uk,-1.78215100000000,GL55 6AT,2014-07-02,fhrs_5_en-GB,5,,FHRS,5
288781,Bourton Road,Moreton-In-Marsh,Gloucestershire,,Caravan Club Site,Retailers - other,4613,10,,546618,5,,51.98872500000000,18880/2004/2/000,125,foodandsafetymail@cotswold.gov.uk,Cotswold,http://www.cotswold.gov.uk,-1.71027600000000,GL56 0BT,2013-04-08,fhrs_4_en-GB,4,,FHRS,5
288782,31 Cricklade Street,Cirencester,GL7 1HY,Gloucestershire,Card Factory,Retailers - other,4613,,,508215,,,51.71582400000000,05810/0031/0/000,125,foodandsafetymail@cotswold.gov.uk,Cotswold,http://www.cotswold.gov.uk,-1.96720900000000,GL7 1HY,2013-01-10,fhrs_exempt_en-GB,Exempt,,FHRS,
288783,Oaksey,Magdalen Works,Priory Industrial Estate,Tetbury,Caroline's Cakery Bakery,Manufacturers/packers,7839,0,,644246,0,,51.64141200000000,14/00007/FOOD,125,foodandsafetymail@cotswold.gov.uk,Cotswold,http://www.cotswold.gov.uk,-2.15630900000000,GL8 8HZ,2014-04-10,fhrs_5_en-GB,5,,FHRS,0
288784,The Catherine Wheel Inn,Arlington,Bibury,Cirencester,Catherine Wheel,Pub/bar/nightclub,7843,5,,55686,10,,51.75889900000000,12570/2080/2/000,125,foodandsafetymail@cotswold.gov.uk,Cotswold,http://www.cotswold.gov.uk,-1.84223000000000,GL7 5ND,2014-02-17,fhrs_4_en-GB,4,,FHRS,5
288785,Orchardleigh,Station Road,Chipping Campden,Gloucestershire,Caumpedene Berkshire Pigs,Other catering premises,7841,5,,73643,5,,52.05480200000000,16960/2014/2/000,125,foodandsafetymail@cotswold.gov.uk,Cotswold,http://www.cotswold.gov.uk,-1.75998900000000,GL55 6LB,2012-10-10,fhrs_5_en-GB,5,,FHRS,5
288786,Centurion Garage,Gloucester Road,Duntisbourne Abbots,Cirencester,Centurion Services,Retailers - other,4613,10,,8578,10,,51.78205200000000,03050/2002/2/000,125,foodandsafetymail@cotswold.gov.uk,Cotswold,http://www.cotswold.gov.uk,-2.03423400000000,GL7 7JR,2014-02-13,fhrs_2_en-GB,2,,FHRS,15
288787,Saffrons Indian Retaurant,Station Road,Bourton-On-The-Water,Cheltenham,Chalo India,Restaurant/Cafe/Canteen,1,10,,699494,10,,51.88623100000000,13/00088/BOTH,125,foodandsafetymail@cotswold.gov.uk,Cotswold,http://www.cotswold.gov.uk,-1.75405800000000,GL54 2EN,2014-09-05,fhrs_3_en-GB,3,,FHRS,5
288788,Chamberlayne Close,Stow-On-The-Wold,Cheltenham,Gloucestershire,Chamberlayne House,Hospitals/Childcare/Caring Premises,5,5,,28191,10,,51.92634800000000,08710/2000/2/000,125,foodandsafetymail@cotswold.gov.uk,Cotswold,http://www.cotswold.gov.uk,-1.72165700000000,GL54 1DZ,2012-05-17,fhrs_4_en-GB,4,,FHRS,5
288789,Old Chapel,Long Street,Tetbury,Gloucestershire,Chapel Cafe,Restaurant/Cafe/Canteen,1,5,,729797,5,,51.63804300000000,15/00001/BOTH,125,foodandsafetymail@cotswold.gov.uk,Cotswold,http://www.cotswold.gov.uk,-2.16080500000000,GL8 8AA,2014-12-16,fhrs_5_en-GB,5,,FHRS,5
288790,Stow Hill Barn Farm,Dog Lane,Charingworth,Ebrington,Charingworth Eggs,Manufacturers/packers,7839,,,658422,,,,11/00132/FOOD,125,foodandsafetymail@cotswold.gov.uk,Cotswold,http://www.cotswold.gov.uk,,,2013-12-19,fhrs_exempt_en-GB,Exempt,,FHRS,
288791,The Manor,Charingworth,Ebrington,Chipping Campden,Charingworth Manor,Hotel/bed & breakfast/guest house,7842,5,,72036,0,,52.05483245849609,16390/2018/2/000,125,foodandsafetymail@cotswold.gov.uk,Cotswold,http://www.cotswold.gov.uk,-1.71292614936829,GL55 6NS,2012-08-30,fhrs_5_en-GB,5,,FHRS,5
288792,High Street,Mickleton,Chipping Campden,Gloucestershire,Chatsworth Cottage,Hotel/bed & breakfast/guest house,7842,5,,50720,5,,52.09247500000000,11310/2046/2/000,125,foodandsafetymail@cotswold.gov.uk,Cotswold,http://www.cotswold.gov.uk,-1.76568400000000,GL55 6SL,2012-08-17,fhrs_5_en-GB,5,,FHRS,0
288793,The Wing,Chavenage House,Chavenage,Tetbury,Chavenage Catering,Other catering premises,7841,5,,21442,10,,51.65535800000000,07/00023/FOOD,125,foodandsafetymail@cotswold.gov.uk,Cotswold,http://www.cotswold.gov.uk,-2.18654000000000,GL8 8XP,2014-01-14,fhrs_4_en-GB,4,,FHRS,5
288794,Chavenage,Tetbury,,,Chavenage House,Other catering premises,7841,0,,21373,0,,51.65535736083984,07/00014/FOOD,125,foodandsafetymail@cotswold.gov.uk,Cotswold,http://www.cotswold.gov.uk,-2.18653988838196,GL8 8XP,2007-03-15,fhrs_4_en-GB,4,,FHRS,10
288795,Village Hall,Fields Road,Chedworth,Cheltenham,Chedworth Pre School,Hospitals/Childcare/Caring Premises,5,0,,46811,0,,51.79575600000000,11/00087/BOTH,125,foodandsafetymail@cotswold.gov.uk,Cotswold,http://www.cotswold.gov.uk,-1.91508100000000,GL54 4NQ,2014-12-10,fhrs_5_en-GB,5,,FHRS,0
288796,Cherry Trees,Aston Road,Chipping Campden,Gloucestershire,Cherry Trees Bed And Breakfast,Hotel/bed & breakfast/guest house,7842,10,,465381,5,,52.05658500000000,11/00125/FOOD,125,foodandsafetymail@cotswold.gov.uk,Cotswold,http://www.cotswold.gov.uk,-1.78025200000000,GL55 6HR,2012-09-27,fhrs_4_en-GB,4,,FHRS,5
288797,The Chester House Hotel,Victoria Street,Bourton-On-The-Water,Cheltenham,Chester House Hotel,Hotel/bed & breakfast/guest house,7842,5,,77057,10,,51.88367600000000,18020/2031/2/000,125,foodandsafetymail@cotswold.gov.uk,Cotswold,http://www.cotswold.gov.uk,-1.75792200000000,GL54 2BU,2014-11-24,fhrs_4_en-GB,4,,FHRS,5
288798,Chesterton Junior School,Apsley Road,Cirencester,Gloucestershire,Chesterton Busy Bees,Hospitals/Childcare/Caring Premises,5,10,,33685,0,,51.70688800000000,10/00059/FOOD,125,foodandsafetymail@cotswold.gov.uk,Cotswold,http://www.cotswold.gov.uk,-1.97118100000000,GL7 1SS,2014-09-23,fhrs_4_en-GB,4,,FHRS,0
288799,Chesterton Lane,Cirencester,,,Chesterton Farm Butchers Shop,Retailers - other,4613,5,,2044,5,,51.70192700000000,005980/2000/2/000,125,foodandsafetymail@cotswold.gov.uk,Cotswold,http://www.cotswold.gov.uk,-1.98241300000000,GL7 6JP,2014-08-12,fhrs_4_en-GB,4,,FHRS,10
288800,Chesterton Halt Adult Training Cent,Meadow Road,Cirencester,Gloucestershire,Chesterton Halt Day Centre,Hospitals/Childcare/Caring Premises,5,5,,14362,10,,51.70895500000000,04930/2002/2/000,125,foodandsafetymail@cotswold.gov.uk,Cotswold,http://www.cotswold.gov.uk,-1.96586800000000,GL7 1YA,2012-05-22,fhrs_4_en-GB,4,,FHRS,0
288801,Apsley Road,Cirencester,Gloucestershire,,Chesterton Primary School,School/college/university,7845,5,,28989,5,,51.70688800000000,09/00043/FOOD,125,foodandsafetymail@cotswold.gov.uk,Cotswold,http://www.cotswold.gov.uk,-1.97118100000000,GL7 1SS,2013-10-01,fhrs_5_en-GB,5,,FHRS,5
288802,35 Countess Lilias Road,Cirencester,Gloucestershire,,Chesterton Store,Retailers - other,4613,0,,710446,0,,51.70525200000000,05740/0033/0/000,125,foodandsafetymail@cotswold.gov.uk,Cotswold,http://www.cotswold.gov.uk,-1.97212200000000,GL7 1UD,2014-09-30,fhrs_5_en-GB,5,,FHRS,0
288803,Chestnut Tea Rooms,1 The Chestnuts,High Street,Bourton-On-The-Water,Chestnut Tree Tearoom,Restaurant/Cafe/Canteen,1,5,,85285,5,,51.88498900000000,21400/0000/2/000,125,foodandsafetymail@cotswold.gov.uk,Cotswold,http://www.cotswold.gov.uk,-1.75782700000000,GL54 2AN,2014-05-23,fhrs_4_en-GB,4,,FHRS,10
288804,1A Victoria Street,Bourton-On-The-Water,Cheltenham,Gloucestershire,China Town,Restaurant/Cafe/Canteen,1,10,,77052,10,,51.88320900000000,18020/0001/A/000,125,foodandsafetymail@cotswold.gov.uk,Cotswold,http://www.cotswold.gov.uk,-1.75782200000000,GL54 2BT,2014-10-16,fhrs_3_en-GB,3,,FHRS,10
288805,27 Castle Street,Cirencester,Gloucestershire,,Chinese Experience,Restaurant/Cafe/Canteen,1,10,,47116,10,,51.71623900000000,11/00105/FOOD,125,foodandsafetymail@cotswold.gov.uk,Cotswold,http://www.cotswold.gov.uk,-1.97003100000000,GL7 1QD,2014-10-29,fhrs_1_en-GB,1,,FHRS,20
288806,Cider Mill Lane,Chipping Campden,Gloucestershire,,Chipping Campden Academy,School/college/university,7845,0,,704598,0,,52.05386300000000,14/00114/FOOD,125,foodandsafetymail@cotswold.gov.uk,Cotswold,http://www.cotswold.gov.uk,-1.77634200000000,GL55 6HU,2014-09-15,fhrs_5_en-GB,5,,FHRS,0
288807,Station Road,Chipping Campden,Gloucestershire,,Chipping Campden Bowling Club,Pub/bar/nightclub,7843,5,,22508,5,,52.05335600000000,07/00215/BOTH,125,foodandsafetymail@cotswold.gov.uk,Cotswold,http://www.cotswold.gov.uk,-1.76530500000000,GL55 6JT,2011-02-05,fhrs_5_en-GB,5,,FHRS,0
288808,Springbank,Temple Guiting,Cheltenham,,Chocolate Tree,Retailers - other,4613,,,22189,,,51.95188000000000,07/00140/FOOD,125,foodandsafetymail@cotswold.gov.uk,Cotswold,http://www.cotswold.gov.uk,-1.87238800000000,GL54 5RT,2008-02-02,fhrs_exempt_en-GB,Exempt,,FHRS,
288809,Marlborough Arms,1 Sheep Street,Cirencester,Gloucestershire,Chrissy At The Marlborough Arms,Restaurant/Cafe/Canteen,1,0,,710461,0,,51.71499800000000,14/00131/BOTH,125,foodandsafetymail@cotswold.gov.uk,Cotswold,http://www.cotswold.gov.uk,-1.97108900000000,GL7 1QW,2014-10-23,fhrs_5_en-GB,5,,FHRS,5
288810,The Garden,Folly Farm,Notgrove,Bourton On The Water,Circus Sauce,Mobile caterer,7846,5,,672049,10,,51.88898300000000,14/00013/BOTH,125,foodandsafetymail@cotswold.gov.uk,Cotswold,http://www.cotswold.gov.uk,-1.81910900000000,GL54 3BY,2014-05-14,fhrs_4_en-GB,4,,FHRS,5
288811,Cirencester Bowling Club,Ashcroft Road,Cirencester,Gloucestershire,Cirencester Bowling Club Limited,Pub/bar/nightclub,7843,0,,530472,0,,51.71483600000000,06280/2000/2/000,125,foodandsafetymail@cotswold.gov.uk,Cotswold,http://www.cotswold.gov.uk,-1.96922200000000,GL7 1QX,2013-03-15,fhrs_5_en-GB,5,,FHRS,0
288812,Cirencester Golf Club Ltd,Cheltenham Road,Bagendon,Cirencester,Cirencester Golf Club,Pub/bar/nightclub,7843,5,,21160,5,,51.74609900000000,06890/2003/2/000,125,foodandsafetymail@cotswold.gov.uk,Cotswold,http://www.cotswold.gov.uk,-1.97182200000000,GL7 7BH,2014-04-07,fhrs_4_en-GB,4,,FHRS,10
288813,Tetbury Road,Cirencester,Gloucestershire,,Cirencester Hospital,Hospitals/Childcare/Caring Premises,5,0,,13617,0,,51.71213100000000,04230/2027/2/000,125,foodandsafetymail@cotswold.gov.uk,Cotswold,http://www.cotswold.gov.uk,-1.97596800000000,GL7 1UY,2014-08-20,fhrs_5_en-GB,5,,FHRS,0
288814,Kingshill Comprehensive School,Kingshill,Cirencester,Gloucestershire,Cirencester Kingshill School,School/college/university,7845,0,,16583,0,,51.71690400000000,05120/0000/2/000,125,foodandsafetymail@cotswold.gov.uk,Cotswold,http://www.cotswold.gov.uk,-1.94433800000000,GL7 1HS,2014-09-09,fhrs_4_en-GB,4,,FHRS,10
288815,Beeches Road,Cirencester,,,Cirencester Opportunity Group,Hospitals/Childcare/Caring Premises,5,0,,20461,5,,51.71519200000000,06010/2005/2/000,125,foodandsafetymail@cotswold.gov.uk,Cotswold,http://www.cotswold.gov.uk,-1.95881400000000,GL7 1BW,2014-12-16,fhrs_5_en-GB,5,,FHRS,0
288816,The Caravan Club,Cirencester Park Caravan Club Site,Stroud Road,Cirencester,Cirencester Park Caravan Club,Retailers - other,4613,,,13607,,,51.71393100000000,04220/2027/2/000,125,foodandsafetymail@cotswold.gov.uk,Cotswold,http://www.cotswold.gov.uk,-1.98381200000000,GL7 1UT,2011-06-06,fhrs_exempt_en-GB,Exempt,,FHRS,
288817,Cirencester Primary,Victoria Road,Cirencester,Gloucestershire,Cirencester Primary School,School/college/university,7845,5,,9300,5,,51.71326900000000,03960/2005/2/000,125,foodandsafetymail@cotswold.gov.uk,Cotswold,http://www.cotswold.gov.uk,-1.96071200000000,GL7 1ES,2014-04-04,fhrs_5_en-GB,5,,FHRS,5
288818,Cirencester Rugby Football Club,The Whiteway,Cirencester,Gloucestershire,Cirencester Rugby Club,Pub/bar/nightclub,7843,10,,81236,10,,51.76417160034180,19800/2006/2/000,125,foodandsafetymail@cotswold.gov.uk,Cotswold,http://www.cotswold.gov.uk,-2.16174006462097,GL7 7BA,2013-03-21,fhrs_3_en-GB,3,,FHRS,5
288819,Hartpury Farm,Chedworth,Cheltenham,Gloucestershire,Claire Booth Cooks,Other catering premises,7841,5,,594289,5,,51.79812700000000,13/00100/FOOD,125,foodandsafetymail@cotswold.gov.uk,Cotswold,http://www.cotswold.gov.uk,-1.91210400000000,GL54 4AL,2013-09-26,fhrs_5_en-GB,5,,FHRS,5
288820,Unit 3,The Corn Hall,Market Place,Cirencester,Clare Goodwin T/A Hobbs House Bakery,Retailers - other,4613,10,,28897,15,,51.71675000000000,09/00035/BOTH,125,foodandsafetymail@cotswold.gov.uk,Cotswold,http://www.cotswold.gov.uk,-1.96702000000000,GL7 2NY,2013-11-06,fhrs_2_en-GB,2,,FHRS,10
288821,105 Watermoor Road,Cirencester,Gloucestershire,,Clements Plaice,Takeaway/sandwich shop,7844,0,,690606,5,,51.70965400000000,14/00052/BOTH,125,foodandsafetymail@cotswold.gov.uk,Cotswold,http://www.cotswold.gov.uk,-1.96049800000000,GL7 1LD,2014-08-12,fhrs_5_en-GB,5,,FHRS,0
288822,Coach And Horses Inn,Ganborough Road,Longborough,MORETON-IN-MARSH,Coach And Horses,Pub/bar/nightclub,7843,10,,79707,15,,51.96468600000000,19210/2080/2/000,125,foodandsafetymail@cotswold.gov.uk,Cotswold,http://www.cotswold.gov.uk,-1.74202900000000,GL56 0QU,2014-07-03,fhrs_2_en-GB,2,,FHRS,10
288823,Coach And Horses Inn A424,Ganborough,Longborough,Moreton-In-Marsh,Coach And Horses,Pub/bar/nightclub,7843,5,,62503,10,,51.96094700000000,13800/2004/2/000,125,foodandsafetymail@cotswold.gov.uk,Cotswold,http://www.cotswold.gov.uk,-1.75087000000000,GL56 0QZ,2014-08-15,fhrs_4_en-GB,4,,FHRS,5
288824,Fosseway,Bourton-On-The-Water,Cheltenham,Gloucestershire,Coach And Horses,Pub/bar/nightclub,7843,5,,690607,10,,51.76417160034180,14/00053/BOTH,125,foodandsafetymail@cotswold.gov.uk,Cotswold,http://www.cotswold.gov.uk,-2.16174006462097,GL54 2HN,2015-01-13,fhrs_3_en-GB,3,,FHRS,10
288825,Unit 2,The Old Post Office,12 Castle Street,Cirencester,Coffee #1,Restaurant/Cafe/Canteen,1,0,,508226,0,,51.71706600000000,13/00002/BOTH,125,foodandsafetymail@cotswold.gov.uk,Cotswold,http://www.cotswold.gov.uk,-1.96906100000000,GL7 1QA,2013-02-07,fhrs_5_en-GB,5,,FHRS,0
288826,Cold Aston C Of E Primary School,Cold Aston,Cheltenham,Gloucestershire,Cold Aston C Of E School,School/college/university,7845,5,,200297,0,,51.76417160034180,17070/2065/2/000,125,foodandsafetymail@cotswold.gov.uk,Cotswold,http://www.cotswold.gov.uk,-2.16174006462097,GL54 3BN,2012-01-18,fhrs_5_en-GB,5,,FHRS,5
288827,Colesbourne Filling Station Shop,Colesbourne,Cheltenham,Gloucestershire,Colesbourne Filling Station,Retailers - other,4613,10,,375966,15,,51.81978300000000,19660/2025/2/000,125,foodandsafetymail@cotswold.gov.uk,Cotswold,http://www.cotswold.gov.uk,-2.00381000000000,GL53 9NP,2013-10-01,fhrs_2_en-GB,2,,FHRS,10
288828,Colesbourne,Cheltenham,Gloucestershire,,Colesbourne Inn,Pub/bar/nightclub,7843,0,,80879,5,,51.81978225708008,19660/2027/2/000,125,foodandsafetymail@cotswold.gov.uk,Cotswold,http://www.cotswold.gov.uk,-2.00381016731262,GL53 9NP,2014-10-20,fhrs_5_en-GB,5,,FHRS,5
288829,Colleys,High Street,Lechlade,Gloucestershire,Colleys Lechlade,Restaurant/Cafe/Canteen,1,10,,64878,0,,51.69413700000000,14510/2029/2/000,125,foodandsafetymail@cotswold.gov.uk,Cotswold,http://www.cotswold.gov.uk,-1.69291600000000,GL7 3AE,2014-09-23,fhrs_4_en-GB,4,,FHRS,10
288830,Main Street,Coln St Aldwyns,Cirencester,Gloucestershire,Coln Community Store,Retailers - other,4613,5,,622488,5,,51.74419800000000,13/00008/BOTH,125,foodandsafetymail@cotswold.gov.uk,Cotswold,http://www.cotswold.gov.uk,-1.79001000000000,GL7 5AN,2014-07-22,fhrs_5_en-GB,5,,FHRS,0
288831,Milton Street,Fairford,,,Coln House School,School/college/university,7845,0,,70068,10,,51.70677900000000,15850/2026/0/000,125,foodandsafetymail@cotswold.gov.uk,Cotswold,http://www.cotswold.gov.uk,-1.78617400000000,GL7 4DB,2013-09-24,fhrs_4_en-GB,4,,FHRS,0
288832,Congregational Church,Oxford Street,Moreton-In-Marsh,,Congregational Church Halls,Restaurant/Cafe/Canteen,1,,,44855,,,51.88684100000000,10870/2029/0/000,125,foodandsafetymail@cotswold.gov.uk,Cotswold,http://www.cotswold.gov.uk,-1.85227700000000,GL54 0LA,2013-12-05,fhrs_exempt_en-GB,Exempt,,FHRS,
288833,Nethercot,Rissington Road,Bourton-On-The-Water,Cheltenham,Coombe House,Hotel/bed & breakfast/guest house,7842,0,,77402,0,,51.87923900000000,18180/2013/2/000,125,foodandsafetymail@cotswold.gov.uk,Cotswold,http://www.cotswold.gov.uk,-1.75113200000000,GL54 2DT,2010-03-12,fhrs_5_en-GB,5,,FHRS,0
288834,12 - 14 High Street,Chipping Campden,Gloucestershire,,Co-Op,Retailers - other,4613,5,,221249,10,,52.05092900000000,04/00083/BOTH,125,foodandsafetymail@cotswold.gov.uk,Cotswold,http://www.cotswold.gov.uk,-1.77974000000000,GL55 6HB,2012-02-22,fhrs_4_en-GB,4,,FHRS,5
288835,17 Long Street,Tetbury,Gloucestershire,,Co-Op,Retailers - supermarkets/hypermarkets,7840,0,,2064,0,,51.63804300000000,00610/2014/0/000,125,foodandsafetymail@cotswold.gov.uk,Cotswold,http://www.cotswold.gov.uk,-2.16080600000000,GL8 8AA,2010-05-28,fhrs_5_en-GB,5,,FHRS,5
288836,8A/8B Sopwith Road,Upper Rissington,Cheltenham,Gloucestershire,Co-Op,Retailers - other,4613,5,,63147,5,,,13990/0008/2/000,125,foodandsafetymail@cotswold.gov.uk,Cotswold,http://www.cotswold.gov.uk,,,2013-03-26,fhrs_5_en-GB,5,,FHRS,5
288837,Burford Road,Cirencester,Gloucestershire,,Co-Op,Retailers - other,4613,5,,17326,5,,51.72282800000000,05840/2006/0/000,125,foodandsafetymail@cotswold.gov.uk,Cotswold,http://www.cotswold.gov.uk,-1.94884500000000,,2014-02-06,fhrs_4_en-GB,4,,FHRS,10
288838,Co-Op Stores,Pine House,The Square,Stow-On-The-Wold,Co-Op,Retailers - other,4613,10,,28277,10,,51.93043100000000,08800/2082/2/000,125,foodandsafetymail@cotswold.gov.uk,Cotswold,http://www.cotswold.gov.uk,-1.72243100000000,GL54 1AF,2014-08-14,fhrs_3_en-GB,3,,FHRS,10
288839,Co-Op Stores,Station Road,Bourton-On-The-Water,Cheltenham,Co-Op,Retailers - other,4613,5,,77024,5,,51.88783200000000,18010/2079/2/000,125,foodandsafetymail@cotswold.gov.uk,Cotswold,http://www.cotswold.gov.uk,-1.75429600000000,GL54 2EP,2014-11-24,fhrs_4_en-GB,4,,FHRS,10
288840,Co-Operative Society,15 High Street,Moreton-In-Marsh,Gloucestershire,Co-Op,Retailers - other,4613,0,,44198,0,,51.99030900000000,10730/2093/2/000,125,foodandsafetymail@cotswold.gov.uk,Cotswold,http://www.cotswold.gov.uk,-1.70372700000000,GL56 0AH,2013-10-08,fhrs_5_en-GB,5,,FHRS,0
288841,Market Place,Fairford,Gloucestershire,,Co-Op,Retailers - other,4613,5,,69980,5,,51.70790200000000,15820/2013/2/000,125,foodandsafetymail@cotswold.gov.uk,Cotswold,http://www.cotswold.gov.uk,-1.78101700000000,GL7 4AB,2012-06-27,fhrs_5_en-GB,5,,FHRS,5
288842,High Street,Bourton-On-The-Water,Cheltenham,Gloucestershire,Cor Blimey,Takeaway/sandwich shop,7844,5,,78234,5,,51.88383500000000,18570/4203/2/000,125,foodandsafetymail@cotswold.gov.uk,Cotswold,http://www.cotswold.gov.uk,-1.75649700000000,GL54 2AQ,2013-11-15,fhrs_5_en-GB,5,,FHRS,5
288843,22 Bowling Green Avenue,Cirencester,Gloucestershire,,Corinium Ales,Manufacturers/packers,7839,5,,465387,10,,51.72518500000000,12/00116/FOOD,125,foodandsafetymail@cotswold.gov.uk,Cotswold,http://www.cotswold.gov.uk,-1.96912800000000,GL7 2HB,2012-09-21,fhrs_4_en-GB,4,,FHRS,0
288844,12 Gloucester Street,Cirencester,Gloucestershire,,Corinium Hotel,Hotel/bed & breakfast/guest house,7842,5,,16769,5,,51.72030300000000,05280/2003/2/000,125,foodandsafetymail@cotswold.gov.uk,Cotswold,http://www.cotswold.gov.uk,-1.97070900000000,GL7 2DG,2014-09-26,fhrs_4_en-GB,4,,FHRS,10
288845,Cirencester Town Football Club,The Corinium Stadium,Kingshill Lane,Cirencester,Corinium Stadium,Pub/bar/nightclub,7843,10,,16622,10,,51.71690400000000,05130/2001/2/000,125,foodandsafetymail@cotswold.gov.uk,Cotswold,http://www.cotswold.gov.uk,-1.94433800000000,GL7 1HS,2014-02-21,fhrs_3_en-GB,3,,FHRS,10
288846,3 Dollar Street,Cirencester,Gloucestershire,,Corner Stone,Restaurant/Cafe/Canteen,1,5,,465378,0,,51.71849500000000,05450/0003/0/000,125,foodandsafetymail@cotswold.gov.uk,Cotswold,http://www.cotswold.gov.uk,-1.96887200000000,GL7 2AJ,2012-09-28,fhrs_5_en-GB,5,,FHRS,0
288847,Bledington Road,Stow-On-The-Wold,Cheltenham,Gloucestershire,Corsham Field Farmhouse,Hotel/bed & breakfast/guest house,7842,0,,32668,0,,51.92332400000000,09960/2002/2/000,125,foodandsafetymail@cotswold.gov.uk,Cotswold,http://www.cotswold.gov.uk,-1.68500200000000,GL54 1JH,2007-03-27,fhrs_5_en-GB,5,,FHRS,5
288848,35 Cricklade Street,Cirencester,Gloucestershire,,Costa Coffee,Restaurant/Cafe/Canteen,1,0,,21238,0,,51.71582400000000,07/00001/BOTH,125,foodandsafetymail@cotswold.gov.uk,Cotswold,http://www.cotswold.gov.uk,-1.96720900000000,GL7 1HY,2015-01-12,fhrs_5_en-GB,5,,FHRS,5
288849,Costa  Coffee,2 The Exchange,Brewery Court,Cirencester,Costa Coffee,Restaurant/Cafe/Canteen,1,0,,84145,0,,51.71602300000000,20820/2006/2/000,125,foodandsafetymail@cotswold.gov.uk,Cotswold,http://www.cotswold.gov.uk,-1.96861300000000,GL7 1JL,2015-01-06,fhrs_5_en-GB,5,,FHRS,0
288850,2 Victoria Street,Bourton-On-The-Water,CHELTENHAM,Gloucestershire,Cotswold Antiques And Tearoom,Restaurant/Cafe/Canteen,1,0,,657799,0,,51.88376600000000,14/00027/BOTH,125,foodandsafetymail@cotswold.gov.uk,Cotswold,http://www.cotswold.gov.uk,-1.75800800000000,GL54 2BU,2014-04-11,fhrs_5_en-GB,5,,FHRS,0
288851,5 Bishops Walk,Cirencester,Gloucestershire,,Cotswold Artisan Coffee,Restaurant/Cafe/Canteen,1,0,,594287,0,,51.71605800000000,13/00097/BOTH,125,foodandsafetymail@cotswold.gov.uk,Cotswold,http://www.cotswold.gov.uk,-1.96832300000000,GL7 1JH,2013-09-23,fhrs_4_en-GB,4,,FHRS,10
288852,Unit 2,Barbers House,Church Street,Stow-On-The-Wold,Cotswold Baguettes,Retailers - other,4613,0,,434310,0,,51.92948200000000,12/00087/BOTH,125,foodandsafetymail@cotswold.gov.uk,Cotswold,http://www.cotswold.gov.uk,-1.72380400000000,GL54 1BB,2014-08-29,fhrs_5_en-GB,5,,FHRS,0
288853,5 High Street,Moreton-In-Marsh,Gloucestershire,,Cotswold Cheese Co,Retailers - other,4613,0,,15112,0,,51.99030900000000,05/00110/BOTH,125,foodandsafetymail@cotswold.gov.uk,Cotswold,http://www.cotswold.gov.uk,-1.70372700000000,GL56 0AH,2011-01-11,fhrs_5_en-GB,5,,FHRS,0
288854,Chatcombe Pitch Layby,A436,Cheltenham,,Cotswold Diner,Mobile caterer,7846,5,,146670,5,,,90000/0022/2/000,125,foodandsafetymail@cotswold.gov.uk,Cotswold,http://www.cotswold.gov.uk,,,2014-04-11,fhrs_5_en-GB,5,,FHRS,5
288855,Denfurlong Farm,Fields Road,Chedworth,Cheltenham,Cotswold Farm Fayre Ltd,Retailers - other,4613,,,18172,,,51.79575600000000,06/00082/FOOD,125,foodandsafetymail@cotswold.gov.uk,Cotswold,http://www.cotswold.gov.uk,-1.91508100000000,GL54 4NQ,2014-11-13,fhrs_5_en-GB,5,,FHRS,
288856,Cotswold Farm Park,Guiting Power,Cheltenham,Gloucestershire,Cotswold Farm Park Cafe,Restaurant/Cafe/Canteen,1,5,,80082,0,,51.95347300000000,19340/2003/2/000,125,foodandsafetymail@cotswold.gov.uk,Cotswold,http://www.cotswold.gov.uk,-1.78142500000000,GL54 1ES,2014-02-24,fhrs_5_en-GB,5,,FHRS,5
288857,4 Queen Annes Road,Cirencester,Gloucestershire,,Cotswold Finest Cakes,Retailers - other,4613,5,,221247,5,,51.71661200000000,12/00005/FOOD,125,foodandsafetymail@cotswold.gov.uk,Cotswold,http://www.cotswold.gov.uk,-1.95703300000000,GL7 1AN,2012-02-01,fhrs_5_en-GB,5,,FHRS,5
288858,Cotswold Food Store,Ganborough,Longborough,Moreton-In-Marsh,Cotswold Foodstore,Retailers - other,4613,10,,622490,10,,51.96094700000000,13/00045/BOTH,125,foodandsafetymail@cotswold.gov.uk,Cotswold,http://www.cotswold.gov.uk,-1.75087000000000,GL56 0QZ,2013-11-21,fhrs_3_en-GB,3,,FHRS,10
288859,Digbeth Street,Stow-On-The-Wold,CHELTENHAM,Gloucestershire,Cotswold Garden Tea Room,Restaurant/Cafe/Canteen,1,5,,530480,10,,51.92960200000000,13/00038/BOTH,125,foodandsafetymail@cotswold.gov.uk,Cotswold,http://www.cotswold.gov.uk,-1.72157800000000,GL54 1BN,2013-03-08,fhrs_4_en-GB,4,,FHRS,0
288860,Aston Down Airfield,Frampton Mansell,Stroud,Gloucestershire,Cotswold Gliding Club,Restaurant/Cafe/Canteen,1,10,,34144,10,,51.70405200000000,10/00093/BOTH,125,foodandsafetymail@cotswold.gov.uk,Cotswold,http://www.cotswold.gov.uk,-2.12806100000000,GL6 8HR,2013-10-17,fhrs_3_en-GB,3,,FHRS,5
288861,14 Griffin Close,Stow-On-The-Wold,Cheltenham,Gloucestershire,Cotswold Hills Ice Cream,Retailers - other,4613,,,658415,,,51.93137200000000,10/00094/FOOD,125,foodandsafetymail@cotswold.gov.uk,Cotswold,http://www.cotswold.gov.uk,-1.70988900000000,GL54 1AY,2013-07-10,fhrs_exempt_en-GB,Exempt,,FHRS,
288862,Cotswold Hoborne,Broadway Lane,South Cerney,Cirencester,Cotswold Hoburne,Pub/bar/nightclub,7843,10,,5050,10,,51.71744918823242,01530/2035/0/000,125,foodandsafetymail@cotswold.gov.uk,Cotswold,http://www.cotswold.gov.uk,-1.98442995548248,,2013-08-29,fhrs_3_en-GB,3,,FHRS,5
288863,56 Roman Way,Bourton-On-The-Water,Cheltenham,Gloucestershire,Cotswold Home,Hotel/bed & breakfast/guest house,7842,10,,622496,10,,51.88897000000000,13/00122/FOOD,125,foodandsafetymail@cotswold.gov.uk,Cotswold,http://www.cotswold.gov.uk,-1.75286600000000,GL54 2EW,2013-12-19,fhrs_4_en-GB,4,,FHRS,0
288864,Tetbury Sport And Leisure Centre,Lowfield Road,Tetbury,Gloucestershire,Cotswold Leisure Tetbury,Retailers - other,4613,,,2027,,,51.64676600000000,00580/2002/0/000,125,foodandsafetymail@cotswold.gov.uk,Cotswold,http://www.cotswold.gov.uk,-2.16018600000000,GL8 8AE,2008-02-02,fhrs_exempt_en-GB,Exempt,,FHRS,
288865,The Old Prison,Fosseway,Northleach,CHELTENHAM,Cotswold Lion Cafe,Restaurant/Cafe/Canteen,1,0,,622497,0,,51.83304000000000,13/00141/BOTH,125,foodandsafetymail@cotswold.gov.uk,Cotswold,http://www.cotswold.gov.uk,-1.84332100000000,GL54 3JH,2013-12-12,fhrs_5_en-GB,5,,FHRS,0
288866,Bourton Woods,Bourton-On-The-Hill,Moreton-In-Marsh,Gloucestershire,Cotswold Paintballing,Restaurant/Cafe/Canteen,1,5,,18293,10,,51.99576500000000,06/00100/BOTH,125,foodandsafetymail@cotswold.gov.uk,Cotswold,http://www.cotswold.gov.uk,-1.77620900000000,GL56 9TE,2013-03-14,fhrs_3_en-GB,3,,FHRS,10
288867,18 Chesterton Grove,Cirencester,Gloucestershire,,Cotswold Paleo Kitchen,Mobile caterer,7846,0,,644249,10,,51.70763400000000,14/00040/BOTH,125,foodandsafetymail@cotswold.gov.uk,Cotswold,http://www.cotswold.gov.uk,-1.96883600000000,GL7 1XN,2014-04-15,fhrs_4_en-GB,4,,FHRS,0
288868,Market Place,Northleach,Cheltenham,Gloucestershire,Cotswold Stores,Retailers - other,4613,10,,40115,5,,51.82987500000000,10080/2020/2/000,125,foodandsafetymail@cotswold.gov.uk,Cotswold,http://www.cotswold.gov.uk,-1.83654100000000,GL54 3EJ,2013-03-26,fhrs_3_en-GB,3,,FHRS,10
288869,Nether Westcote,Chipping Norton,Oxfordshire,,Cotswold View Guest House,Hotel/bed & breakfast/guest house,7842,5,,27669,5,,51.88073300000000,08140/2002/2/000,125,foodandsafetymail@cotswold.gov.uk,Cotswold,http://www.cotswold.gov.uk,-1.67450600000000,OX7 6SD,2012-05-02,fhrs_4_en-GB,4,,FHRS,10
288870,Four Pillars Hotel,Lake 6,Spine Road,South Cerney,Cotswold Water Park Four Pillars Hotel,Hotel/bed & breakfast/guest house,7842,,,21649,,,51.67062300000000,07/00048/BOTH,125,foodandsafetymail@cotswold.gov.uk,Cotswold,http://www.cotswold.gov.uk,-1.89900400000000,GL7 5FP,2013-12-10,fhrs_5_en-GB,5,,FHRS,
288871,Arlington,Bibury,Cirencester,Gloucestershire,Cotteswold House,Hotel/bed & breakfast/guest house,7842,5,,55687,0,,51.75889968872070,12570/2087/2/000,125,foodandsafetymail@cotswold.gov.uk,Cotswold,http://www.cotswold.gov.uk,-1.84223008155823,GL7 5ND,2013-03-05,fhrs_5_en-GB,5,,FHRS,0
288872,Kemble Wick Farm,Kemble Wick,Kemble,Cirencester,Country Company Ltd,Retailers - other,4613,5,,729786,5,,51.65834500000000,12/00161/FOOD,125,foodandsafetymail@cotswold.gov.uk,Cotswold,http://www.cotswold.gov.uk,-2.02451100000000,GL7 6EQ,2014-12-15,fhrs_5_en-GB,5,,FHRS,0
288873,Countrywide Farmers Ltd,Fosse Farm,Driffield,Cirencester,Countrywide,Retailers - supermarkets/hypermarkets,7840,0,,15055,0,,51.68846400000000,05/00096/BOTH,125,foodandsafetymail@cotswold.gov.uk,Cotswold,http://www.cotswold.gov.uk,-1.90188600000000,GL7 5QA,2014-07-22,fhrs_5_en-GB,5,,FHRS,0
288874,Cowley Manor,Cowley,Cheltenham,Gloucestershire,Cowley Manor Hotel,Hotel/bed & breakfast/guest house,7842,10,,9083,15,,51.83055200000000,03610/2042/2/000,125,foodandsafetymail@cotswold.gov.uk,Cotswold,http://www.cotswold.gov.uk,-2.05274400000000,GL53 9NL,2014-10-20,fhrs_2_en-GB,2,,FHRS,15
288875,Moore Road,Bourton-On-The-Water,Cheltenham,Gloucestershire,Cranbourne House,Hotel/bed & breakfast/guest house,7842,5,,28548,5,,51.88645200000000,09/00007/FOOD,125,foodandsafetymail@cotswold.gov.uk,Cotswold,http://www.cotswold.gov.uk,-1.75674400000000,GL54 2AZ,2009-05-19,fhrs_5_en-GB,5,,FHRS,5
288876,Cripps Barn,Winson,Cirencester,Gloucestershire,Cripps Catering,Other catering premises,7841,5,,72757,10,,51.76495600000000,16590/2004/2/000,125,foodandsafetymail@cotswold.gov.uk,Cotswold,http://www.cotswold.gov.uk,-1.87795700000000,GL7 5BA,2014-03-14,fhrs_4_en-GB,4,,FHRS,5
288877,Victoria Street,Bourton-On-The-Water,Cheltenham,Gloucestershire,Croft Cottage Restaurant,Restaurant/Cafe/Canteen,1,5,,77058,10,,51.88412700000000,18020/2041/0/000,125,foodandsafetymail@cotswold.gov.uk,Cotswold,http://www.cotswold.gov.uk,-1.75829700000000,GL54 2BX,2014-11-14,fhrs_4_en-GB,4,,FHRS,5
288878,Crosskeys Cottage,Park Street,Stow-On-The-Wold,Cheltenham,Cross Keys,Hotel/bed & breakfast/guest house,7842,5,,28198,5,,51.92899500000000,08720/2008/2/000,125,foodandsafetymail@cotswold.gov.uk,Cotswold,http://www.cotswold.gov.uk,-1.71935700000000,GL54 1AQ,2012-05-21,fhrs_5_en-GB,5,,FHRS,5
288879,Unit 301,Cirencester Business Park,Love Lane,Cirencester,Crown Catering,Other catering premises,7841,0,,28527,10,,51.70500600000000,09/00006/BOTH,125,foodandsafetymail@cotswold.gov.uk,Cotswold,http://www.cotswold.gov.uk,-1.96018400000000,GL7 1YG,2013-11-08,fhrs_4_en-GB,4,,FHRS,10
288880,High Street,Lechlade,Gloucestershire,,Crown Inn,Pub/bar/nightclub,7843,,,64879,,,51.69413700000000,14510/2030/2/000,125,foodandsafetymail@cotswold.gov.uk,Cotswold,http://www.cotswold.gov.uk,-1.69291600000000,GL7 3AE,2013-03-06,fhrs_exempt_en-GB,Exempt,,FHRS,
288881,The Crown,The Street,Cerney Wick,South Cerney,Crown Inn,Pub/bar/nightclub,7843,10,,4640,15,,51.66111200000000,01240/2050/2/000,125,foodandsafetymail@cotswold.gov.uk,Cotswold,http://www.cotswold.gov.uk,-1.89069700000000,GL7 5QH,2014-09-16,fhrs_2_en-GB,2,,FHRS,10
288882,12 Sheep Street,Chipping Campden,Gloucestershire,,Crystal Palace,Takeaway/sandwich shop,7844,10,,74666,10,,52.04903000000000,17260/0012/0/000,125,foodandsafetymail@cotswold.gov.uk,Cotswold,http://www.cotswold.gov.uk,-1.78330700000000,GL55 6DS,2014-10-10,fhrs_3_en-GB,3,,FHRS,10
288883,,,,,Cupsadaisy,Hospitals/Childcare/Caring Premises,5,5,,28842,10,,,09/00030/FOOD,125,foodandsafetymail@cotswold.gov.uk,Cotswold,http://www.cotswold.gov.uk,,,2012-04-16,fhrs_4_en-GB,4,,FHRS,5
288884,19A London Street,Fairford,Gloucestershire,,Curry King,Takeaway/sandwich shop,7844,5,,69814,10,,51.70722700000000,15760/2023/2/000,125,foodandsafetymail@cotswold.gov.uk,Cotswold,http://www.cotswold.gov.uk,-1.78048400000000,GL7 4AH,2013-10-15,fhrs_2_en-GB,2,,FHRS,15
288885,Cutler Butchers,4 Oak Street,Lechlade,Gloucestershire,Cutler And Bayliss,Retailers - other,4613,5,,64272,10,,51.69631900000000,14250/0004/0/000,125,foodandsafetymail@cotswold.gov.uk,Cotswold,http://www.cotswold.gov.uk,-1.69186000000000,GL7 3AX,2014-07-15,fhrs_4_en-GB,4,,FHRS,5
288886,Powells C Of E School,Gloucester Street,Cirencester,Gloucestershire,Cygnet Catering,School/college/university,7845,5,,631236,10,,51.72024900000000,13/00014/FOOD,125,foodandsafetymail@cotswold.gov.uk,Cotswold,http://www.cotswold.gov.uk,-1.97149100000000,GL7 2DJ,2014-01-07,fhrs_4_en-GB,4,,FHRS,0
288887,MCC  Transport,Andoversford Industrial Estate,Andoversford,Gloucestershire,D And J Catering,Takeaway/sandwich shop,7844,10,,699498,10,,,14/00079/BOTH,125,foodandsafetymail@cotswold.gov.uk,Cotswold,http://www.cotswold.gov.uk,,,2014-05-20,fhrs_3_en-GB,3,,FHRS,10
288888,The Street,Daglingworth,CIRENCESTER,Gloucestershire,Daglingworth Village Hall,Other catering premises,7841,,,657795,,,51.74500400000000,03730/2036/2/000,125,foodandsafetymail@cotswold.gov.uk,Cotswold,http://www.cotswold.gov.uk,-2.01094400000000,GL7 7AF,2014-01-08,fhrs_exempt_en-GB,Exempt,,FHRS,
288889,Station Road,Andoversford,Cheltenham,Gloucestershire,Dales Stores,Retailers - other,4613,5,,58535,10,,51.87733900000000,13000/2013/2/000,125,foodandsafetymail@cotswold.gov.uk,Cotswold,http://www.cotswold.gov.uk,-1.96975100000000,GL54 4HP,2014-01-10,fhrs_3_en-GB,3,,FHRS,10
288890,Moore Road,Bourton-On-The-Water,Cheltenham,Gloucestershire,Danish Tea Room,Restaurant/Cafe/Canteen,1,5,,47272,5,,51.88645200000000,11/00120/BOTH,125,foodandsafetymail@cotswold.gov.uk,Cotswold,http://www.cotswold.gov.uk,-1.75674400000000,GL54 2AZ,2013-08-06,fhrs_4_en-GB,4,,FHRS,10
288891,David Moore Family Butcher,The Old Forge,High Street,Mickleton,David Moore Family Butcher Ltd,Retailers - other,4613,5,,34363,5,,52.09247500000000,10/00111/BOTH,125,foodandsafetymail@cotswold.gov.uk,Cotswold,http://www.cotswold.gov.uk,-1.76568400000000,GL55 6SL,2014-10-14,fhrs_4_en-GB,4,,FHRS,10
288892,Daylesford Organic Ltd,Moreton-In-Marsh,Gloucestershire,,Daylesford Organic Cheese,Manufacturers/packers,7839,,,658428,,,51.92905700000000,12/00159/FOOD,125,foodandsafetymail@cotswold.gov.uk,Cotswold,http://www.cotswold.gov.uk,-1.64271400000000,GL56 0YG,2014-07-02,fhrs_exempt_en-GB,Exempt,,FHRS,
288893,New Farm,Daylesford,Adlestrop,Moreton-In-Marsh,Daylesford Organic Farm Shop,Retailers - other,4613,5,,59218,5,,51.92905700000000,13060/2011/2/001,125,foodandsafetymail@cotswold.gov.uk,Cotswold,http://www.cotswold.gov.uk,-1.64271400000000,GL56 0YG,2013-08-07,fhrs_5_en-GB,5,,FHRS,5
288894,Stroud Road,Cirencester,Gloucestershire,,Deer Park School,School/college/university,7845,0,,13606,0,,51.72731800000000,04220/2024/2/000,125,foodandsafetymail@cotswold.gov.uk,Cotswold,http://www.cotswold.gov.uk,-1.87172600000000,GL7 2TP,2013-09-03,fhrs_5_en-GB,5,,FHRS,5
288895,High Street,Bourton-On-The-Water,CHELTENHAM,Gloucestershire,Dial House Hotel,Hotel/bed & breakfast/guest house,7842,5,,78232,5,,51.88498900000000,18570/2047/2/000,125,foodandsafetymail@cotswold.gov.uk,Cotswold,http://www.cotswold.gov.uk,-1.75782700000000,GL54 2AN,2013-02-21,fhrs_5_en-GB,5,,FHRS,5
288896,The Street,Didmarton,Badminton,Gloucestershire,Didmarton Village Hall,Pub/bar/nightclub,7843,10,,8963,0,,51.58517200000000,03470/2022/2/000,125,foodandsafetymail@cotswold.gov.uk,Cotswold,http://www.cotswold.gov.uk,-2.26214100000000,GL9 1DT,2012-09-25,fhrs_4_en-GB,4,,FHRS,0
288897,Fox Inn,Digbeth Street,Stow-On-The-Wold,Cheltenham,Digbeths At Stow,Pub/bar/nightclub,7843,0,,22297,0,,51.92960200000000,07/00167/BOTH,125,foodandsafetymail@cotswold.gov.uk,Cotswold,http://www.cotswold.gov.uk,-1.72157800000000,GL54 1BN,2014-02-28,fhrs_5_en-GB,5,,FHRS,0
288898,Duntisbourne Abbots,Cirencester,Gloucestershire,,Dixs Barn,Hotel/bed & breakfast/guest house,7842,,,8854,,,51.76941680908203,03370/2004/2/000,125,foodandsafetymail@cotswold.gov.uk,Cotswold,http://www.cotswold.gov.uk,-2.04383182525635,GL7 7JN,2013-01-22,fhrs_exempt_en-GB,Exempt,,FHRS,
288899,Siddington,Cirencester,Gloucestershire,,Dobbies Garden Centre PLc,Restaurant/Cafe/Canteen,1,5,,17581,10,,51.71854019165039,06/00011/BOTH,125,foodandsafetymail@cotswold.gov.uk,Cotswold,http://www.cotswold.gov.uk,-1.95353996753693,,2014-12-09,fhrs_4_en-GB,4,,FHRS,5
288900,Whistlers Gallery,High Street,Lechlade,Gloucestershire,Dolci Di Lechlade,Retailers - other,4613,10,,34566,5,,51.69444300000000,10/00129/BOTH,125,foodandsafetymail@cotswold.gov.uk,Cotswold,http://www.cotswold.gov.uk,-1.68951400000000,GL7 3AT,2010-09-20,fhrs_4_en-GB,4,,FHRS,5
288901,Dominos,Unit 7,Cirencester Retail Park,Bridge Road,Dominos Pizza,Takeaway/sandwich shop,7844,0,,729790,5,,,14/00147/BOTH,125,foodandsafetymail@cotswold.gov.uk,Cotswold,http://www.cotswold.gov.uk,,,2014-12-10,fhrs_5_en-GB,5,,FHRS,0
288902,High Street,Moreton-In-Marsh,Gloucestershire,,Dormer House School,School/college/university,7845,5,,44196,5,,51.99219600000000,10730/2076/2/000,125,foodandsafetymail@cotswold.gov.uk,Cotswold,http://www.cotswold.gov.uk,-1.70292800000000,GL56 0AD,2014-12-09,fhrs_5_en-GB,5,,FHRS,5
288903,Dormy House Hotel,Willersey Hill,Willersey,Broadway,Dormy House Hotel,Hotel/bed & breakfast/guest house,7842,0,,24234,0,,52.04120900000000,07530/2012/2/000,125,foodandsafetymail@cotswold.gov.uk,Cotswold,http://www.cotswold.gov.uk,-1.82747700000000,WR12 7LF,2014-01-03,fhrs_5_en-GB,5,,FHRS,5
288904,Broad Leaze,Down Ampney,Cirencester,Gloucestershire,Down Ampney Football Club,Pub/bar/nightclub,7843,,,9031,,,51.67794800000000,03560/0000/2/000,125,foodandsafetymail@cotswold.gov.uk,Cotswold,http://www.cotswold.gov.uk,-1.85382100000000,GL7 5QX,2006-11-20,fhrs_exempt_en-GB,Exempt,,FHRS,
288905,Sherborne Street,Bourton-On-The-Water,Cheltenham,Gloucestershire,Duke Of Wellington,Pub/bar/nightclub,7843,5,,77629,5,,51.88409300000000,18270/2004/2/000,125,foodandsafetymail@cotswold.gov.uk,Cotswold,http://www.cotswold.gov.uk,-1.75947400000000,GL54 2BY,2013-02-21,fhrs_5_en-GB,5,,FHRS,5
288906,The Bourton Pre School And OSC,Bourton On The Water CP School,School Hill,Bourton-On-The-Water,Early Years Foundation Stage Unit,Hospitals/Childcare/Caring Premises,5,10,,546617,10,,51.88770300000000,18290/2118/2/000,125,foodandsafetymail@cotswold.gov.uk,Cotswold,http://www.cotswold.gov.uk,-1.76180900000000,GL54 2AU,2014-10-16,fhrs_3_en-GB,3,,FHRS,5
288907,4 Castle Street,Cirencester,Gloucestershire,,Eat Wild,Restaurant/Cafe/Canteen,1,10,,672058,5,,51.71706600000000,14/00057/BOTH,125,foodandsafetymail@cotswold.gov.uk,Cotswold,http://www.cotswold.gov.uk,-1.96906100000000,GL7 1QA,2014-05-30,fhrs_4_en-GB,4,,FHRS,5
288908,The Ebrington Arms,Ebrington,Chipping Campden,Gloucestershire,Ebrington Arms,Pub/bar/nightclub,7843,10,,71695,10,,52.05802300000000,16290/2063/2/000,125,foodandsafetymail@cotswold.gov.uk,Cotswold,http://www.cotswold.gov.uk,-1.73191000000000,GL55 6NH,2014-06-13,fhrs_3_en-GB,3,,FHRS,10
288909,The Federated Primary School,Ebrington,Chipping Campden,Gloucestershire,Ebrington C Of E School,School/college/university,7845,0,,71694,5,,52.05842000000000,16290/2062/2/000,125,foodandsafetymail@cotswold.gov.uk,Cotswold,http://www.cotswold.gov.uk,-1.73260800000000,GL55 6NQ,2010-04-16,fhrs_5_en-GB,5,,FHRS,5
288910,Campden Road,Ebrington,CHIPPING CAMPDEN,Gloucestershire,Ebrington Cricket Club,Pub/bar/nightclub,7843,,,704601,,,52.05919600000000,16270/2005/2/000,125,foodandsafetymail@cotswold.gov.uk,Cotswold,http://www.cotswold.gov.uk,-1.73394500000000,GL55 6ND,2013-11-14,fhrs_exempt_en-GB,Exempt,,FHRS,
288911,Field Barn,Edgeworth,Stroud,Gloucestershire,Edgeworth Polo Club,Pub/bar/nightclub,7843,,,9832,,,51.75033200000000,04/00072/BOTH,125,foodandsafetymail@cotswold.gov.uk,Cotswold,http://www.cotswold.gov.uk,-2.08621300000000,GL6 7JF,2008-08-12,fhrs_exempt_en-GB,Exempt,,FHRS,
288912,1 West Market Place,Cirencester,Gloucestershire,,Edinburgh Woollen Mill,Retailers - other,4613,,,13367,,,51.71720900000000,04020/0001/0/000,125,foodandsafetymail@cotswold.gov.uk,Cotswold,http://www.cotswold.gov.uk,-1.96880000000000,GL7 2NH,2011-06-09,fhrs_exempt_en-GB,Exempt,,FHRS,
288913,C Of E School,Southrop,Southrop,Lechlade,Edwards And Ward,School/college/university,7845,0,,704603,5,,51.73004900000000,19250/2063/2/000,125,foodandsafetymail@cotswold.gov.uk,Cotswold,http://www.cotswold.gov.uk,-1.71100400000000,GL7 3NU,2014-09-10,fhrs_5_en-GB,5,,FHRS,0
288914,Coberley C Of E Primary School,Coberley,Cheltenham,Gloucestershire,Edwards And Ward,School/college/university,7845,5,,594280,0,,51.84320000000000,13/00052/FOOD,125,foodandsafetymail@cotswold.gov.uk,Cotswold,http://www.cotswold.gov.uk,-2.05622800000000,GL53 9QZ,2013-09-26,fhrs_5_en-GB,5,,FHRS,0
288915,Primary School,School Lane,Meysey Hampton,CIRENCESTER,Edwards And Ward,School/college/university,7845,0,,704586,0,,51.69805500000000,14/00041/FOOD,125,foodandsafetymail@cotswold.gov.uk,Cotswold,http://www.cotswold.gov.uk,-1.82902900000000,GL7 5JS,2014-09-26,fhrs_5_en-GB,5,,FHRS,0
288916,Siddington C Of E Primary School,Parkway,Siddington,CIRENCESTER,Edwards And Ward,School/college/university,7845,,,5519,,,51.69693100000000,01920/2028/2/000,125,foodandsafetymail@cotswold.gov.uk,Cotswold,http://www.cotswold.gov.uk,-1.95888900000000,GL7 6HL,2006-11-23,fhrs_exempt_en-GB,Exempt,,FHRS,
288917,St James C Of E Primary School,Pear Tree Close,Chipping Campden,Gloucestershire,Edwards And Ward,School/college/university,7845,0,,704584,0,,52.04851200000000,14/00008/FOOD,125,foodandsafetymail@cotswold.gov.uk,Cotswold,http://www.cotswold.gov.uk,-1.78059700000000,GL55 6DB,2014-09-15,fhrs_5_en-GB,5,,FHRS,0
288918,Great Rissington County Primary Sch,Great Rissington,Cheltenham,Gloucestershire,Edwards And Ward Ltd,School/college/university,7845,0,,704595,0,,51.85353300000000,14/00107/FOOD,125,foodandsafetymail@cotswold.gov.uk,Cotswold,http://www.cotswold.gov.uk,-1.71156500000000,GL54 2LP,2014-09-18,fhrs_5_en-GB,5,,FHRS,0
288919,Longborough C Of E School,Ganborough Road,Longborough,Moreton-In-Marsh,Edwards And Ward Ltd,School/college/university,7845,0,,704594,0,,51.96476300000000,14/00105/FOOD,125,foodandsafetymail@cotswold.gov.uk,Cotswold,http://www.cotswold.gov.uk,-1.74041300000000,GL56 0QD,2014-09-16,fhrs_5_en-GB,5,,FHRS,0
288920,Rodmarton School,Rodmarton,Cirencester,Gloucestershire,Edwards And Ward Ltd,School/college/university,7845,0,,704596,0,,51.68114700000000,14/00109/FOOD,125,foodandsafetymail@cotswold.gov.uk,Cotswold,http://www.cotswold.gov.uk,-2.08327500000000,GL7 6PE,2014-09-17,fhrs_5_en-GB,5,,FHRS,0
288921,St Davids School,Church Street,Moreton-In-Marsh,Gloucestershire,Edwards And Ward Ltd,School/college/university,7845,0,,704592,0,,51.98891200000000,14/00102/FOOD,125,foodandsafetymail@cotswold.gov.uk,Cotswold,http://www.cotswold.gov.uk,-1.70217800000000,GL56 0LQ,2014-09-15,fhrs_5_en-GB,5,,FHRS,0
288922,St Marys  Primary School,St Marys Road,Tetbury,Gloucestershire,Edwards And Ward Ltd,School/college/university,7845,0,,704593,0,,51.64273000000000,14/00103/FOOD,125,foodandsafetymail@cotswold.gov.uk,Cotswold,http://www.cotswold.gov.uk,-2.15949300000000,GL8 8BW,2014-09-10,fhrs_5_en-GB,5,,FHRS,0
288923,Willersey C Of E School,Church Street,Willersey,BROADWAY,Edwards And Ward Ltd,School/college/university,7845,0,,710458,0,,52.05517100000000,14/00110/FOOD,125,foodandsafetymail@cotswold.gov.uk,Cotswold,http://www.cotswold.gov.uk,-1.84660100000000,WR12 7PN,2014-10-10,fhrs_5_en-GB,5,,FHRS,0
288924,Eight Bells Inn,East End,Fairford,Gloucestershire,Eight Bells,Pub/bar/nightclub,7843,,,70315,,,51.70658500000000,15950/2021/2/000,125,foodandsafetymail@cotswold.gov.uk,Cotswold,http://www.cotswold.gov.uk,-1.77401900000000,GL7 4AP,2013-01-02,fhrs_exempt_en-GB,Exempt,,FHRS,
288925,The Eliot Arms,Clarks Hay,South Cerney,CIRENCESTER,Eliot Arms,Hotel/bed & breakfast/guest house,7842,5,,5128,10,,51.67318200000000,01570/2019/2/000,125,foodandsafetymail@cotswold.gov.uk,Cotswold,http://www.cotswold.gov.uk,-1.93075400000000,GL7 5UA,2014-09-10,fhrs_3_en-GB,3,,FHRS,10
288926,Elmgrove Nursing Home,42 Somerford Road,Cirencester,Gloucestershire,Elm Grove Residential Nursing Home,Hospitals/Childcare/Caring Premises,5,0,,13795,0,,51.70445100000000,04410/2008/2/000,125,foodandsafetymail@cotswold.gov.uk,Cotswold,http://www.cotswold.gov.uk,-1.96726000000000,GL7 1TX,2014-10-21,fhrs_5_en-GB,5,,FHRS,5
288927,Marsh Service Station,Stow Road,Moreton-In-Marsh,Gloucestershire,Esso Marsh,Retailers - other,4613,0,,434317,0,,51.98406600000000,19370/2006/2/000,125,foodandsafetymail@cotswold.gov.uk,Cotswold,http://www.cotswold.gov.uk,-1.70566100000000,GL56 0DS,2012-06-25,fhrs_5_en-GB,5,,FHRS,0
288928,Campden BRI,Station Road,Chipping Campden,Gloucestershire,Eurest Catering,Manufacturers/packers,7839,5,,73644,5,,52.05537400000000,16960/2048/0/000,125,foodandsafetymail@cotswold.gov.uk,Cotswold,http://www.cotswold.gov.uk,-1.75416700000000,GL55 6LD,2013-11-12,fhrs_5_en-GB,5,,FHRS,5
288929,Station Cafe,Station Road,Moreton-In-Marsh,Gloucestershire,Expresso's,Restaurant/Cafe/Canteen,1,0,,672051,0,,51.99224300000000,14/00030/BOTH,125,foodandsafetymail@cotswold.gov.uk,Cotswold,http://www.cotswold.gov.uk,-1.70049600000000,GL56 0AA,2014-05-22,fhrs_5_en-GB,5,,FHRS,0
288930,Kineton Thorns Cottage,Kineton Hill,Temple Guiting,Cheltenham,Fair And Square Chocolate Brownies,Retailers - other,4613,5,,34763,5,,51.93590200000000,10/00151/FOOD,125,foodandsafetymail@cotswold.gov.uk,Cotswold,http://www.cotswold.gov.uk,-1.82252800000000,GL54 1HA,2013-03-13,fhrs_5_en-GB,5,,FHRS,5
288931,Community Centre,High Street,Fairford,Gloucestershire,Fairford Community Centre,Restaurant/Cafe/Canteen,1,,,644250,,,51.70879200000000,16040/2013/2/000,125,foodandsafetymail@cotswold.gov.uk,Cotswold,http://www.cotswold.gov.uk,-1.78096900000000,GL7 4AD,2014-01-30,fhrs_exempt_en-GB,Exempt,,FHRS,
288932,2 Market Place,Fairford,Gloucestershire,,Fairford Fish Bar,Takeaway/sandwich shop,7844,5,,69981,5,,51.70790200000000,15820/2015/2/000,125,foodandsafetymail@cotswold.gov.uk,Cotswold,http://www.cotswold.gov.uk,-1.78101700000000,GL7 4AB,2015-01-05,fhrs_4_en-GB,4,,FHRS,10
288933,Cinder Lane,Fairford,Gloucestershire,,Fairford Football Club,Pub/bar/nightclub,7843,,,690608,,,51.70878500000000,15870/2004/2/000,125,foodandsafetymail@cotswold.gov.uk,Cotswold,http://www.cotswold.gov.uk,-1.76791500000000,GL7 4AX,2014-08-04,fhrs_exempt_en-GB,Exempt,,FHRS,
288934,Fairford Kebab And Pizzas,35 London Street,Fairford,Gloucestershire,Fairford Kebab And Pizza,Takeaway/sandwich shop,7844,5,,69815,10,,51.70722700000000,15760/2026/2/000,125,foodandsafetymail@cotswold.gov.uk,Cotswold,http://www.cotswold.gov.uk,-1.78048400000000,GL7 4AH,2014-02-14,fhrs_4_en-GB,4,,FHRS,5
288935,Market Place,Fairford,Gloucestershire,,Fairford Market,Retailers - other,4613,0,,146863,0,,51.70758200000000,90060/2000/0/000,125,foodandsafetymail@cotswold.gov.uk,Cotswold,http://www.cotswold.gov.uk,-1.78124200000000,,2003-06-25,fhrs_5_en-GB,5,,FHRS,0
288936,Fairford Primary School,Leafield Road,Fairford,Gloucestershire,Fairford Pre School,Hospitals/Childcare/Caring Premises,5,0,,47438,5,,51.71467900000000,11/00133/FOOD,125,foodandsafetymail@cotswold.gov.uk,Cotswold,http://www.cotswold.gov.uk,-1.77975400000000,GL7 4JQ,2013-11-19,fhrs_5_en-GB,5,,FHRS,0
288937,Leafield Road,Fairford,Gloucestershire,,Fairford Primary School,School/college/university,7845,5,,69709,10,,51.71467900000000,15720/0016/2/000,125,foodandsafetymail@cotswold.gov.uk,Cotswold,http://www.cotswold.gov.uk,-1.77975400000000,GL7 4JQ,2013-11-19,fhrs_4_en-GB,4,,FHRS,5
288938,Sunnyside,Gloucester Road,Andoversford,Cheltenham,Falafeleat Street Trader,Mobile caterer,7846,10,,622494,5,,51.87419200000000,13/00113/FOOD,125,foodandsafetymail@cotswold.gov.uk,Cotswold,http://www.cotswold.gov.uk,-1.96722600000000,GL54 4HR,2013-11-05,fhrs_4_en-GB,4,,FHRS,5
288939,Temple Guiting,CHELTENHAM,Gloucestershire,,Farmcote Farm,Distributors/Transporters,7,,,434307,,,51.95701599121090,08/00061/FOOD,125,foodandsafetymail@cotswold.gov.uk,Cotswold,http://www.cotswold.gov.uk,-1.92732214927673,GL54 5AY,2012-04-10,fhrs_exempt_en-GB,Exempt,,FHRS,
288940,Farmors Secondary School,Park Street,Fairford,Gloucestershire,Farmors School,School/college/university,7845,0,,69134,0,,51.71467900000000,15510/2016/2/000,125,foodandsafetymail@cotswold.gov.uk,Cotswold,http://www.cotswold.gov.uk,-1.77975400000000,GL7 4JQ,2014-10-22,fhrs_5_en-GB,5,,FHRS,5
288941,Farncombe Estate,Willersey Hill,Willersey,Broadway,Farncombe  Conference Centre,Hotel/bed & breakfast/guest house,7842,5,,24235,5,,52.04964900000000,07530/2019/0/000,125,foodandsafetymail@cotswold.gov.uk,Cotswold,http://www.cotswold.gov.uk,-1.83881900000000,WR12 7PF,2014-09-16,fhrs_5_en-GB,5,,FHRS,5
288942,Todenham,MORETON-IN-MARSH,Gloucestershire,,Farriers Arms,Pub/bar/nightclub,7843,20,,27913,20,,52.02429962158203,08310/2053/2/000,125,foodandsafetymail@cotswold.gov.uk,Cotswold,http://www.cotswold.gov.uk,-1.64696991443634,GL56 9PF,2014-11-28,fhrs_0_en-GB,0,,FHRS,20
288943,A40 Tunnel Hill Lay By,Whittington,Cheltenham,Gloucestershire,Fast Food      A40 Tunnel Hill Lay By,Mobile caterer,7846,5,,146669,5,,51.88694400000000,90000/0019/2/000,125,foodandsafetymail@cotswold.gov.uk,Cotswold,http://www.cotswold.gov.uk,-1.98052600000000,GL54 4HD,2014-02-19,fhrs_4_en-GB,4,,FHRS,10
288944,,,,,Fieldways,Hotel/bed & breakfast/guest house,7842,5,,29822,0,,,09/00115/FOOD,125,foodandsafetymail@cotswold.gov.uk,Cotswold,http://www.cotswold.gov.uk,,,2010-07-09,fhrs_5_en-GB,5,,FHRS,0
288945,Duntisbourne Abbotts,Cirencester,Gloucestershire,,Five Mile House,Hotel/bed & breakfast/guest house,7842,5,,644247,5,,51.78205200000000,14/00012/FOOD,125,foodandsafetymail@cotswold.gov.uk,Cotswold,http://www.cotswold.gov.uk,-2.03423400000000,GL7 7JR,2014-03-19,fhrs_5_en-GB,5,,FHRS,5
288946,Birdland,Rissington Road,Bourton-On-The-Water,Cheltenham,Flamingo Point,Restaurant/Cafe/Canteen,1,0,,77403,10,,51.88309900000000,18180/2020/2/000,125,foodandsafetymail@cotswold.gov.uk,Cotswold,http://www.cotswold.gov.uk,-1.75692200000000,GL54 2DP,2014-02-19,fhrs_4_en-GB,4,,FHRS,0
288947,Fleece Hotel,Market Place,Cirencester,Gloucestershire,Fleece Hotel And 1651 Restaurant,Hotel/bed & breakfast/guest house,7842,5,,16747,5,,51.71701100000000,05250/2007/2/000,125,foodandsafetymail@cotswold.gov.uk,Cotswold,http://www.cotswold.gov.uk,-1.96620900000000,GL7 2NZ,2013-12-03,fhrs_4_en-GB,4,,FHRS,10
288948,Gloucester House,Market Place,Fairford,Gloucestershire,Flying Start,Hospitals/Childcare/Caring Premises,5,0,,22294,5,,51.70790200000000,07/00166/BOTH,125,foodandsafetymail@cotswold.gov.uk,Cotswold,http://www.cotswold.gov.uk,-1.78101700000000,GL7 4AB,2014-05-01,fhrs_5_en-GB,5,,FHRS,5
288949,4 Swan Yard,West Market Place,Cirencester,Gloucestershire,FOMO (Fear Of Missing Out),Restaurant/Cafe/Canteen,1,10,,594279,0,,51.71720900000000,13/00039/BOTH,125,foodandsafetymail@cotswold.gov.uk,Cotswold,http://www.cotswold.gov.uk,-1.96880000000000,GL7 2NH,2013-07-24,fhrs_4_en-GB,4,,FHRS,5
288950,Well Hill House,Duntisbourne Abbotts,Cirencester,Gloucestershire,Food By Mary Rose,Other catering premises,7841,5,,729795,0,,51.76941600000000,14/00164/FOOD,125,foodandsafetymail@cotswold.gov.uk,Cotswold,http://www.cotswold.gov.uk,-2.04383100000000,GL7 7JN,2014-12-11,fhrs_5_en-GB,5,,FHRS,0
288951,2 Global Business Park,14 Wilkinson Road,Cirencester,Gloucestershire,Force Brewery,Manufacturers/packers,7839,5,,710449,0,,51.70316400000000,13/00105/BOTH,125,foodandsafetymail@cotswold.gov.uk,Cotswold,http://www.cotswold.gov.uk,-1.96273200000000,GL7 1YZ,2014-10-14,fhrs_5_en-GB,5,,FHRS,0
288952,,,,,Fosse Construction,Takeaway/sandwich shop,7844,,,574182,,,,13/00063/BOTH,125,foodandsafetymail@cotswold.gov.uk,Cotswold,http://www.cotswold.gov.uk,,,2013-07-11,fhrs_exempt_en-GB,Exempt,,FHRS,
288953,Fosseway,Stow-On-The-Wold,Cheltenham,Gloucestershire,Fosse Manor Hotel,Hotel/bed & breakfast/guest house,7842,5,,61155,5,,51.76417160034180,13400/2005/2/000,125,foodandsafetymail@cotswold.gov.uk,Cotswold,http://www.cotswold.gov.uk,-2.16174006462097,GL54 1JX,2014-04-10,fhrs_5_en-GB,5,,FHRS,5
288954,Stow Road,Moreton-In-Marsh,Gloucestershire,,Fosseway Farm,Hotel/bed & breakfast/guest house,7842,5,,80153,0,,51.98406600000000,19370/2001/2/000,125,foodandsafetymail@cotswold.gov.uk,Cotswold,http://www.cotswold.gov.uk,-1.70566100000000,GL56 0DS,2012-06-25,fhrs_5_en-GB,5,,FHRS,0
288955,Four Seasons,Back Lane,Mickleton,Chipping Campden,Four Seasons Mickleton Ltd,Restaurant/Cafe/Canteen,1,5,,60928,5,,52.09146600000000,13330/2004/2/000,125,foodandsafetymail@cotswold.gov.uk,Cotswold,http://www.cotswold.gov.uk,-1.76942600000000,GL55 6SJ,2014-03-12,fhrs_4_en-GB,4,,FHRS,10
288956,Four Shires Medical Centre,Stow Road,Moreton-In-Marsh,Gloucestershire,Four Shires Cafe,Restaurant/Cafe/Canteen,1,5,,722645,0,,51.98406600000000,14/00157/BOTH,125,foodandsafetymail@cotswold.gov.uk,Cotswold,http://www.cotswold.gov.uk,-1.70566100000000,GL56 0DS,2014-11-27,fhrs_5_en-GB,5,,FHRS,0
288957,Stow Road,Naunton,Cheltenham,Gloucestershire,Fox Hill,Hotel/bed & breakfast/guest house,7842,5,,78471,5,,51.90125800000000,18680/0000/2/000,125,foodandsafetymail@cotswold.gov.uk,Cotswold,http://www.cotswold.gov.uk,-1.86897000000000,GL54 5RL,2013-03-05,fhrs_5_en-GB,5,,FHRS,5
288958,Great Barrington,Burford,Gloucestershire,,Fox Inn,Pub/bar/nightclub,7843,5,,56460,5,,51.81625747680664,12770/2013/2/000,125,foodandsafetymail@cotswold.gov.uk,Cotswold,http://www.cotswold.gov.uk,-1.70453476905823,OX18 4TB,2014-12-08,fhrs_4_en-GB,4,,FHRS,10
288959,Lower Oddington,Moreton-In-Marsh,Gloucestershire,,Fox Inn,Pub/bar/nightclub,7843,5,,32529,5,,51.93227005004880,09700/2001/2/000,125,foodandsafetymail@cotswold.gov.uk,Cotswold,http://www.cotswold.gov.uk,-1.66277420520782,GL56 0UR,2014-08-07,fhrs_4_en-GB,4,,FHRS,10
288960,Farncombe Estate,Willersey,Broadway,Gloucestershire,Foxhill Manor,Hotel/bed & breakfast/guest house,7842,5,,699497,5,,52.04964900000000,14/00076/BOTH,125,foodandsafetymail@cotswold.gov.uk,Cotswold,http://www.cotswold.gov.uk,-1.83881900000000,WR12 7PF,2014-08-21,fhrs_5_en-GB,5,,FHRS,0
288961,Cabin Farm,Foxcote,Andoversford,Gloucestershire,Foxy Ladies Canape Company Ltd,Other catering premises,7841,5,,717990,0,,,14/00162/FOOD,125,foodandsafetymail@cotswold.gov.uk,Cotswold,http://www.cotswold.gov.uk,,,2014-11-06,fhrs_5_en-GB,5,,FHRS,0
288962,Cabin Farm,Foxcote,Andoversford,Cheltenham,Foxy Ladies Catering,Other catering premises,7841,5,,22565,10,,51.86275900000000,07/00229/FOOD,125,foodandsafetymail@cotswold.gov.uk,Cotswold,http://www.cotswold.gov.uk,-1.98238000000000,GL54 4LP,2013-11-20,fhrs_4_en-GB,4,,FHRS,5
288963,29 Sheep Street,Cirencester,Gloucestershire,,Fratello's Restaurant,Restaurant/Cafe/Canteen,1,5,,637187,10,,51.71499800000000,13/00157/BOTH,125,foodandsafetymail@cotswold.gov.uk,Cotswold,http://www.cotswold.gov.uk,-1.97108900000000,GL7 1QW,2014-02-21,fhrs_4_en-GB,4,,FHRS,5
288964,High Street,Bourton-On-The-Water,CHELTENHAM,Gloucestershire,Fresh 4 Lunch,Restaurant/Cafe/Canteen,1,0,,78230,0,,51.88349400000000,18570/2039/2/000,125,foodandsafetymail@cotswold.gov.uk,Cotswold,http://www.cotswold.gov.uk,-1.75664400000000,GL54 2AE,2014-07-31,fhrs_5_en-GB,5,,FHRS,0
288965,64 Dyer Street,Cirencester,Gloucestershire,,Friar Tuck,Takeaway/sandwich shop,7844,5,,17042,10,,51.71620100000000,05490/0064/0/000,125,foodandsafetymail@cotswold.gov.uk,Cotswold,http://www.cotswold.gov.uk,-1.96489300000000,GL7 2PF,2014-07-21,fhrs_4_en-GB,4,,FHRS,5
288966,Chesterton Junior School,Apsley Road,Cirencester,Gloucestershire,Friends Of Chesterton School,Other catering premises,7841,5,,729788,0,,51.70688800000000,14/00101/FOOD,125,foodandsafetymail@cotswold.gov.uk,Cotswold,http://www.cotswold.gov.uk,-1.97118100000000,GL7 1SS,2014-12-11,fhrs_5_en-GB,5,,FHRS,0
288967,The Island House,Market Place,Northleach,CHELTENHAM,Fruitcakes,Retailers - other,4613,0,,729791,0,,51.82987500000000,14/00151/BOTH,125,foodandsafetymail@cotswold.gov.uk,Cotswold,http://www.cotswold.gov.uk,-1.83654100000000,GL54 3EJ,2014-12-03,fhrs_5_en-GB,5,,FHRS,5
288968,Batsford Arboretum,Batsford,Moreton-In-Marsh,,Garden Terrace Cafe,Restaurant/Cafe/Canteen,1,0,,56627,5,,52.00254400000000,12810/2017/0/000,125,foodandsafetymail@cotswold.gov.uk,Cotswold,http://www.cotswold.gov.uk,-1.72924000000000,GL56 9QB,2014-10-07,fhrs_5_en-GB,5,,FHRS,5
288969,Garniche@The Puesdown,Compton Abdale,Cheltenham,,Garniche At The Puesdown,Pub/bar/nightclub,7843,5,,72912,10,,51.85430700000000,16650/2056/0/000,125,foodandsafetymail@cotswold.gov.uk,Cotswold,http://www.cotswold.gov.uk,-1.89556000000000,GL54 4DN,2014-05-07,fhrs_4_en-GB,4,,FHRS,5
288970,23 Ullenwood Court,Ullenwood,Cheltenham,Gloucestershire,Gingerbread Joy,Manufacturers/packers,7839,5,,716175,0,,51.85264700000000,14/00148/FOOD,125,foodandsafetymail@cotswold.gov.uk,Cotswold,http://www.cotswold.gov.uk,-2.09008200000000,GL53 9QS,2014-11-04,fhrs_5_en-GB,5,,FHRS,0
288971,Tesco Cafe,Cricklade Road,Cirencester,Gloucestershire,Giraffe,Restaurant/Cafe/Canteen,1,0,,84264,0,,51.70592000000000,20910/2004/3/001,125,foodandsafetymail@cotswold.gov.uk,Cotswold,http://www.cotswold.gov.uk,-1.95275900000000,GL7 1NP,2014-07-29,fhrs_5_en-GB,5,,FHRS,0
288972,Cowcombe Hill Layby,Stroud Road,Frampton Mansell,Stroud,Glider Cafe,Takeaway/sandwich shop,7844,5,,298611,5,,51.71892300000000,12/00008/BOTH,125,foodandsafetymail@cotswold.gov.uk,Cotswold,http://www.cotswold.gov.uk,-2.13661500000000,GL6 8HP,2013-10-07,fhrs_5_en-GB,5,,FHRS,5
288973,135 Perrinsfield,Lechlade,Gloucestershire,,Glorious Cups,Other catering premises,7841,5,,200301,5,,51.70490300000000,12/00009/FOOD,125,foodandsafetymail@cotswold.gov.uk,Cotswold,http://www.cotswold.gov.uk,-1.68717100000000,GL7 3SE,2012-01-31,fhrs_5_en-GB,5,,FHRS,5
288974,Brewery Court,Cirencester,Gloucestershire,,Gloucestershire Country Markets Ltd,Retailers - other,4613,5,,18107,5,,51.71622000000000,06/00071/BOTH,125,foodandsafetymail@cotswold.gov.uk,Cotswold,http://www.cotswold.gov.uk,-1.96816400000000,GL7 1JH,2012-11-23,fhrs_5_en-GB,5,,FHRS,5
288975,Golden Ball Inn,Lower Swell,CHELTENHAM,Gloucestershire,Golden Ball,Pub/bar/nightclub,7843,10,,28178,15,,51.76417160034180,08670/2075/2/000,125,foodandsafetymail@cotswold.gov.uk,Cotswold,http://www.cotswold.gov.uk,-2.16174006462097,GL54 1LF,2013-11-29,fhrs_2_en-GB,2,,FHRS,10
288976,Black Jack Street,Cirencester,Gloucestershire,,Golden Cross,Pub/bar/nightclub,7843,20,,20505,20,,51.71738100000000,06070/2001/2/000,125,foodandsafetymail@cotswold.gov.uk,Cotswold,http://www.cotswold.gov.uk,-1.96997300000000,GL7 2AA,2014-01-22,fhrs_1_en-GB,1,,FHRS,10
288977,Golden Farm Inn,Upper Churnside,Cirencester,Gloucestershire,Golden Farm,Hotel/bed & breakfast/guest house,7842,5,,729787,0,,51.71462400000000,14/00035/BOTH,125,foodandsafetymail@cotswold.gov.uk,Cotswold,http://www.cotswold.gov.uk,-1.95593400000000,GL7 1AR,2015-01-12,fhrs_4_en-GB,4,,FHRS,10
288978,Ann Edwards County Primary School,Berkeley Close,South Cerney,Cirencester,Gooseberry Bush After School Club,Hospitals/Childcare/Caring Premises,5,0,,530473,0,,51.66978500000000,07/00006/FOOD,125,foodandsafetymail@cotswold.gov.uk,Cotswold,http://www.cotswold.gov.uk,-1.93365100000000,GL7 5UW,2013-03-05,fhrs_5_en-GB,5,,FHRS,0
288979,Grace And Tea Coffee Lounge & Cotsw,7 Brewery Yard,Sheep Street,Stow-On-The-Wold,Grace Tea And Coffee Lounge & Cotswold Cricket Museum,Restaurant/Cafe/Canteen,1,5,,375967,10,,51.92903800000000,20610/0007/0/000,125,foodandsafetymail@cotswold.gov.uk,Cotswold,http://www.cotswold.gov.uk,-1.72261400000000,GL54 1AA,2013-11-15,fhrs_4_en-GB,4,,FHRS,0
288980,Sheep Street,Stow-On-The-Wold,Cheltenham,Gloucestershire,Grapevine Hotel,Hotel/bed & breakfast/guest house,7842,5,,28247,5,,51.92896400000000,08760/2058/2/000,125,foodandsafetymail@cotswold.gov.uk,Cotswold,http://www.cotswold.gov.uk,-1.72146600000000,GL54 1AU,2014-04-25,fhrs_4_en-GB,4,,FHRS,10
288981,Chipping Campden School,Cider Mill Lane,Chipping Campden,,Graysons Education Ltd,School/college/university,7845,5,,74693,5,,52.05386300000000,17270/2011/0/000,125,foodandsafetymail@cotswold.gov.uk,Cotswold,http://www.cotswold.gov.uk,-1.77634200000000,GL55 6HU,2013-07-12,fhrs_5_en-GB,5,,FHRS,5
288982,Mitsubishi Motors,Riverside House,Watermoor Road,Cirencester,Graysons Restaurants Ltd,Hotel/bed & breakfast/guest house,7842,5,,9333,10,,51.70877200000000,03990/2004/2/000,125,foodandsafetymail@cotswold.gov.uk,Cotswold,http://www.cotswold.gov.uk,-1.95793700000000,GL7 1LF,2014-08-11,fhrs_4_en-GB,4,,FHRS,5
288983,3 Gosditch Street,Cirencester,Gloucestershire,,"Graze Bar, Brasserie And Chophouse",Restaurant/Cafe/Canteen,1,10,,434312,15,,51.71792000000000,12/00112/BOTH,125,foodandsafetymail@cotswold.gov.uk,Cotswold,http://www.cotswold.gov.uk,-1.96891600000000,GL7 2AG,2014-01-23,fhrs_2_en-GB,2,,FHRS,10
288984,Station Road,Blockley,MORETON-IN-MARSH,Gloucestershire,Great Western Arms,Pub/bar/nightclub,7843,10,,53317,10,,52.01415200000000,12010/2033/2/000,125,foodandsafetymail@cotswold.gov.uk,Cotswold,http://www.cotswold.gov.uk,-1.75877800000000,GL56 9DT,2013-11-21,fhrs_3_en-GB,3,,FHRS,10
288985,11 Park Street,Stow-On-The-Wold,Cheltenham,Gloucestershire,Greedys Fish And Chip Shop,Takeaway/sandwich shop,7844,5,,28202,5,,51.92899500000000,08720/2035/2/000,125,foodandsafetymail@cotswold.gov.uk,Cotswold,http://www.cotswold.gov.uk,-1.71935700000000,GL54 1AQ,2013-12-12,fhrs_4_en-GB,4,,FHRS,10
288986,12 Old Market Way,Moreton-In-Marsh,Gloucestershire,,Greek Deli In The Cotswolds,Takeaway/sandwich shop,7844,5,,34765,10,,51.99071100000000,10/00152/BOTH,125,foodandsafetymail@cotswold.gov.uk,Cotswold,http://www.cotswold.gov.uk,-1.70242800000000,GL56 0AJ,2013-12-12,fhrs_4_en-GB,4,,FHRS,5
288987,Riverside,Bourton-On-The-Water,Cheltenham,Gloucestershire,Green And Pleasant,Retailers - other,4613,10,,46285,10,,51.76417160034180,11/00057/BOTH,125,foodandsafetymail@cotswold.gov.uk,Cotswold,http://www.cotswold.gov.uk,-2.16174006462097,GL54 2DP,2014-10-23,fhrs_3_en-GB,3,,FHRS,10
288988,Baunton Lane,Stratton,Cirencester,Gloucestershire,Green Sleeves,Hotel/bed & breakfast/guest house,7842,5,,25348,5,,51.73519400000000,08/00073/BOTH,125,foodandsafetymail@cotswold.gov.uk,Cotswold,http://www.cotswold.gov.uk,-1.98087900000000,GL7 2LN,2014-01-23,fhrs_5_en-GB,5,,FHRS,5
288989,Beech Cottage,Mill Lane,Somerford Keynes,Cirencester,Greenfig,Retailers - other,4613,5,,28845,5,,51.65320200000000,09/00031/BOTH,125,foodandsafetymail@cotswold.gov.uk,Cotswold,http://www.cotswold.gov.uk,-1.97183600000000,GL7 6DT,2014-11-11,fhrs_5_en-GB,5,,FHRS,0
288990,Cotswold Hills Golf Club,Ullenwood Manor Road,Ullenwood,CHELTENHAM,Greenside Catering Co Ltd,Pub/bar/nightclub,7843,5,,9291,5,,51.84999100000000,03950/2015/2/000,125,foodandsafetymail@cotswold.gov.uk,Cotswold,http://www.cotswold.gov.uk,-2.08278900000000,GL53 9QT,2013-10-01,fhrs_5_en-GB,5,,FHRS,5
288991,Guiting Power,Cheltenham,Gloucestershire,,Guiting Guest House,Hotel/bed & breakfast/guest house,7842,5,,67801,0,,51.92131042480469,15150/2062/2/000,125,foodandsafetymail@cotswold.gov.uk,Cotswold,http://www.cotswold.gov.uk,-1.86311006546021,GL54 5TZ,2010-11-26,fhrs_5_en-GB,5,,FHRS,0
288992,Guiting Manor Nursery School,Church Lane,Guiting Power,CHELTENHAM,Guiting Manor Nursery School Limited,Hospitals/Childcare/Caring Premises,5,,,67799,,,51.92075400000000,15150/2060/2/000,125,foodandsafetymail@cotswold.gov.uk,Cotswold,http://www.cotswold.gov.uk,-1.86392600000000,GL54 5TX,2013-12-09,fhrs_exempt_en-GB,Exempt,,FHRS,
288993,Kineton,Guiting Power,Cheltenham,Gloucestershire,Halfway House,Pub/bar/nightclub,7843,10,,28032,10,,51.93933105468750,08500/2012/2/000,125,foodandsafetymail@cotswold.gov.uk,Cotswold,http://www.cotswold.gov.uk,-1.85920047760010,GL54 5UG,2012-08-29,fhrs_3_en-GB,3,,FHRS,10
288994,4 Castle Street,Cirencester,Gloucestershire,,Halls Quality Bakers,Retailers - other,4613,5,,17363,5,,51.71706600000000,05890/0004/0/000,125,foodandsafetymail@cotswold.gov.uk,Cotswold,http://www.cotswold.gov.uk,-1.96906100000000,GL7 1QA,2013-04-09,fhrs_5_en-GB,5,,FHRS,0
288995,Hamptons,1 Digbeth Street,Stow-On-The-Wold,Cheltenham,Hamptons Delicatessen,Retailers - other,4613,5,,32017,10,,51.92960200000000,09130/2016/2/000,125,foodandsafetymail@cotswold.gov.uk,Cotswold,http://www.cotswold.gov.uk,-1.72157800000000,GL54 1BN,2014-07-25,fhrs_3_en-GB,3,,FHRS,10
288996,,,,,Happy Times Child Care,Hospitals/Childcare/Caring Premises,5,10,,34637,0,,,10/00137/FOOD,125,foodandsafetymail@cotswold.gov.uk,Cotswold,http://www.cotswold.gov.uk,,,2010-11-02,fhrs_4_en-GB,4,,FHRS,0
288997,Hare & Hounds,Fosse Cross,Chedworth,Cheltenham,Hare And Hounds,Pub/bar/nightclub,7843,10,,76274,15,,51.78072600000000,17960/2005/2/000,125,foodandsafetymail@cotswold.gov.uk,Cotswold,http://www.cotswold.gov.uk,-1.91947300000000,GL54 4NW,2014-11-11,fhrs_2_en-GB,2,,FHRS,10
288998,Westonbirt,Tetbury,Gloucestershire,,Hare And Hounds Hotel,Hotel/bed & breakfast/guest house,7842,,,81430,,,51.61247634887695,19870/2033/2/000,125,foodandsafetymail@cotswold.gov.uk,Cotswold,http://www.cotswold.gov.uk,-2.19975137710571,GL8 8QL,2014-11-19,fhrs_3_en-GB,3,,FHRS,
288999,The Harnhill Centre Of Christian He,Harnhill Manor,Church Lane,Harnhill,Harnhill Centre Of Christian Healing,Hotel/bed & breakfast/guest house,7842,0,,8850,10,,51.70219300000000,03360/2011/2/000,125,foodandsafetymail@cotswold.gov.uk,Cotswold,http://www.cotswold.gov.uk,-1.90139300000000,GL7 5PX,2013-03-05,fhrs_4_en-GB,4,,FHRS,0
289000,Harrington House,Sherborne Street,Bourton-On-The-Water,Cheltenham,Harrington House Hotel,Hotel/bed & breakfast/guest house,7842,5,,77631,10,,51.88409300000000,18270/2030/2/000,125,foodandsafetymail@cotswold.gov.uk,Cotswold,http://www.cotswold.gov.uk,-1.75947400000000,GL54 2BY,2013-07-26,fhrs_4_en-GB,4,,FHRS,5
289001,High Street,Moreton-In-Marsh,Gloucestershire,,Hassan Balti,Takeaway/sandwich shop,7844,10,,44206,10,,51.99219600000000,10730/2150/2/000,125,foodandsafetymail@cotswold.gov.uk,Cotswold,http://www.cotswold.gov.uk,-1.70292800000000,GL56 0AD,2014-08-27,fhrs_2_en-GB,2,,FHRS,15
289002,Hatherop,Cirencester,Gloucestershire,,Hatherop Castle School,School/college/university,7845,5,,79526,5,,51.74463653564453,19130/2006/2/000,125,foodandsafetymail@cotswold.gov.uk,Cotswold,http://www.cotswold.gov.uk,-1.77956461906433,GL7 3NB,2014-04-09,fhrs_4_en-GB,4,,FHRS,10
289003,Station Road,Bourton-On-The-Water,Cheltenham,Gloucestershire,Hawtreys Kiosk,Restaurant/Cafe/Canteen,1,10,,46474,10,,51.88595100000000,11/00067/FOOD,125,foodandsafetymail@cotswold.gov.uk,Cotswold,http://www.cotswold.gov.uk,-1.75349300000000,GL54 2EN,2013-12-18,fhrs_3_en-GB,3,,FHRS,10
289004,2 Templar Mews,Black Jack Street,Cirencester,Gloucestershire,He Says She Waffles,Restaurant/Cafe/Canteen,1,5,,446795,5,,51.71738100000000,12/00102/BOTH,125,foodandsafetymail@cotswold.gov.uk,Cotswold,http://www.cotswold.gov.uk,-1.96997300000000,GL7 2AA,2014-09-18,fhrs_5_en-GB,5,,FHRS,5
289005,The Stable Yard,Black Jack Street,Cirencester,Gloucestershire,Heathers,Restaurant/Cafe/Canteen,1,5,,657800,5,,51.71748800000000,14/00028/BOTH,125,foodandsafetymail@cotswold.gov.uk,Cotswold,http://www.cotswold.gov.uk,-1.96988600000000,GL7 2AA,2014-04-24,fhrs_5_en-GB,5,,FHRS,5
289006,Highway Chef,Duntisbourne Abbotts,Cirencester,Gloucestershire,Highway Chef Ltd,Restaurant/Cafe/Canteen,1,10,,34453,10,,51.78205200000000,10/00119/BOTH,125,foodandsafetymail@cotswold.gov.uk,Cotswold,http://www.cotswold.gov.uk,-2.03423400000000,GL7 7JR,2014-02-13,fhrs_2_en-GB,2,,FHRS,15
289007,33 Eastleach,Cirencester,Gloucestershire,,Hillview Residential Home,Hospitals/Childcare/Caring Premises,5,,,409512,,,51.74579900000000,16550/0033/0/000,125,foodandsafetymail@cotswold.gov.uk,Cotswold,http://www.cotswold.gov.uk,-1.71372800000000,GL7 3NQ,2012-05-28,fhrs_exempt_en-GB,Exempt,,FHRS,
289008,18-20 Church Street,Tetbury,Gloucestershire,,Hobbs House Bakery,Retailers - other,4613,5,,14519,5,,51.63621900000000,05/00014/BOTH,125,foodandsafetymail@cotswold.gov.uk,Cotswold,http://www.cotswold.gov.uk,-2.15999000000000,GL8 8JG,2014-05-19,fhrs_4_en-GB,4,,FHRS,10
289009,Holland & Barrett Ltd,24 Cricklade Street,Cirencester,Gloucestershire,Holland & Barrett,Retailers - other,4613,,,699492,,,51.71605800000000,05810/0024/0/000,125,foodandsafetymail@cotswold.gov.uk,Cotswold,http://www.cotswold.gov.uk,-1.96832300000000,GL7 1JH,2014-08-21,fhrs_exempt_en-GB,Exempt,,FHRS,
289010,Winchcombe Road,Guiting Power,CHELTENHAM,Gloucestershire,Hollow Bottom,Pub/bar/nightclub,7843,10,,67798,10,,51.92353700000000,15150/2042/2/000,125,foodandsafetymail@cotswold.gov.uk,Cotswold,http://www.cotswold.gov.uk,-1.86884700000000,GL54 5UX,2013-08-16,fhrs_3_en-GB,3,,FHRS,10
289011,Ebrington,Chipping Campden,Gloucestershire,,Holly House,Hotel/bed & breakfast/guest house,7842,5,,71692,5,,52.05881881713867,16290/2012/2/000,125,foodandsafetymail@cotswold.gov.uk,Cotswold,http://www.cotswold.gov.uk,-1.72992157936096,GL55 6NL,2013-07-07,fhrs_5_en-GB,5,,FHRS,5
289012,Station Road,Bourton-On-The-Water,Cheltenham,Gloucestershire,Holly House,Hotel/bed & breakfast/guest house,7842,0,,77026,0,,51.89129200000000,18010/2102/2/000,125,foodandsafetymail@cotswold.gov.uk,Cotswold,http://www.cotswold.gov.uk,-1.75805500000000,GL54 2ER,2010-03-12,fhrs_5_en-GB,5,,FHRS,5
289013,Hatherop Castle School,Hatherop,Cirencester,Gloucestershire,Holroyd Howe Ltd,School/college/university,7845,0,,716176,0,,51.74463700000000,14/00156/FOOD,125,foodandsafetymail@cotswold.gov.uk,Cotswold,http://www.cotswold.gov.uk,-1.77956500000000,GL7 3NB,2014-11-07,fhrs_5_en-GB,5,,FHRS,5
289014,Unit 7,Cirencester Retail Park,Bridge Road,Cirencester,Home Bargains,Restaurant/Cafe/Canteen,1,5,,729789,0,,,14/00146/BOTH,125,foodandsafetymail@cotswold.gov.uk,Cotswold,http://www.cotswold.gov.uk,,,2014-12-11,fhrs_5_en-GB,5,,FHRS,0
289015,Flat 1,103 Watermoor Road,Cirencester,Gloucestershire,Home Chef/Road Chef,Other catering premises,7841,10,,716173,10,,51.70965400000000,14/00056/FOOD,125,foodandsafetymail@cotswold.gov.uk,Cotswold,http://www.cotswold.gov.uk,-1.96049800000000,GL7 1LD,2014-11-12,fhrs_3_en-GB,3,,FHRS,10
289016,Home Farm House,Ebrington,CHIPPING CAMPDEN,Gloucestershire,Home Farm B And B,Hotel/bed & breakfast/guest house,7842,5,,25395,0,,52.05881800000000,08/00078/FOOD,125,foodandsafetymail@cotswold.gov.uk,Cotswold,http://www.cotswold.gov.uk,-1.72992200000000,GL55 6NL,2010-08-12,fhrs_5_en-GB,5,,FHRS,0
289017,Newcroft,Todenham Road,Moreton-In-Marsh,Gloucestershire,Home Farm Trust Limited,Hospitals/Childcare/Caring Premises,5,5,,78704,5,,51.99500400000000,18790/2018/0/000,125,foodandsafetymail@cotswold.gov.uk,Cotswold,http://www.cotswold.gov.uk,-1.69715600000000,GL56 9NJ,2014-02-28,fhrs_5_en-GB,5,,FHRS,5
289018,Old Quarries,Avening,Tetbury,Gloucestershire,Home Farm Trust Ltd,Hospitals/Childcare/Caring Premises,5,5,,23810,0,,51.68323400000000,07010/2012/2/000,125,foodandsafetymail@cotswold.gov.uk,Cotswold,http://www.cotswold.gov.uk,-2.17275500000000,GL8 8NJ,2010-05-10,fhrs_5_en-GB,5,,FHRS,0
289019,76 North Home Road,Cirencester,Gloucestershire,,HomegrownbyCathy,Other catering premises,7841,5,,714900,0,,51.71060400000000,14/00154/FOOD,125,foodandsafetymail@cotswold.gov.uk,Cotswold,http://www.cotswold.gov.uk,-1.95012000000000,GL7 1DR,2014-11-03,fhrs_5_en-GB,5,,FHRS,0
289020,Silver Street,South Cerney,Cirencester,Gloucestershire,Homelea,Other catering premises,7841,5,,635846,5,,51.67708400000000,13/00044/FOOD,125,foodandsafetymail@cotswold.gov.uk,Cotswold,http://www.cotswold.gov.uk,-1.93109500000000,GL7 5TR,2014-01-17,fhrs_4_en-GB,4,,FHRS,10
289021,Honeysuckle Cottage,Middle Duntisbourne,Cirencester,Gloucestershire,Honeysuckle Catering,Other catering premises,7841,5,,8591,5,,51.75751800000000,03070/2005/0/000,125,foodandsafetymail@cotswold.gov.uk,Cotswold,http://www.cotswold.gov.uk,-2.02485600000000,GL7 7AR,2014-10-24,fhrs_5_en-GB,5,,FHRS,5
289022,76 Watermoor Road,Cirencester,Gloucestershire,,Hong Kong Kitchen,Takeaway/sandwich shop,7844,20,,34413,15,,51.70965400000000,10/00115/BOTH,125,foodandsafetymail@cotswold.gov.uk,Cotswold,http://www.cotswold.gov.uk,-1.96049800000000,GL7 1LD,2014-11-24,fhrs_1_en-GB,1,,FHRS,15
289023,Hop Skip And Jump,Seven Springs Play & Support Centre,Coberley,Cheltenham,"Hop,Skip And Jump, Cotswold",School/college/university,7845,10,,9251,5,,51.85053000000000,03870/2055/2/000,125,foodandsafetymail@cotswold.gov.uk,Cotswold,http://www.cotswold.gov.uk,-2.05115600000000,GL53 9NG,2014-05-14,fhrs_4_en-GB,4,,FHRS,5
289024,Bourton-On-The-Hill,Moreton-In-Marsh,Gloucestershire,,Horse And Groom,Pub/bar/nightclub,7843,5,,51058,10,,51.99148178100590,11400/2001/2/000,125,foodandsafetymail@cotswold.gov.uk,Cotswold,http://www.cotswold.gov.uk,-1.74805009365082,GL56 9AQ,2014-02-19,fhrs_4_en-GB,4,,FHRS,5
289025,Horse & Groom Inn,Upper Oddington,Moreton-In-Marsh,Gloucestershire,Horse And Groom,Pub/bar/nightclub,7843,5,,32567,5,,51.92890800000000,09780/2029/2/000,125,foodandsafetymail@cotswold.gov.uk,Cotswold,http://www.cotswold.gov.uk,-1.67847700000000,GL56 0XH,2014-10-23,fhrs_4_en-GB,4,,FHRS,10
289026,13 Church Street,Tetbury,Gloucestershire,,House Of Cheese,Retailers - other,4613,5,,1206,5,,51.63621900000000,00100/0013/0/000,125,foodandsafetymail@cotswold.gov.uk,Cotswold,http://www.cotswold.gov.uk,-2.15999000000000,GL8 8JG,2014-03-04,fhrs_5_en-GB,5,,FHRS,5
289027,The Square,Stow-On-The-Wold,CHELTENHAM,Gloucestershire,Huffkins,Restaurant/Cafe/Canteen,1,10,,33206,10,,51.93027200000000,10/00031/BOTH,125,foodandsafetymail@cotswold.gov.uk,Cotswold,http://www.cotswold.gov.uk,-1.72336300000000,GL54 1AB,2014-11-13,fhrs_3_en-GB,3,,FHRS,5
