,addressline1,addressline2,addressline3,addressline4,businessname,businesstype,businesstypeid,confidenceinmanagement,extractdate,fhrsid,hygiene,itemcount,latitude,localauthoritybusinessid,localauthoritycode,localauthorityemailaddress,localauthorityname,localauthoritywebsite,longitude,postcode,ratingdate,ratingkey,ratingvalue,returncode,schemetype,structural
233631,68 West Street,Havant,,,19 Fourteas Tearoom,Restaurant/Cafe/Canteen,1,5,,627007,5,,50.85204800000000,18370,137,ehcommercial@havant.gov.uk,Havant,http://www.havant.gov.uk,-0.98636200000000,PO9 1LN,2013-11-19,fhrs_5_en-GB,5,,FHRS,5
233632,138 London Road,Widley,Waterlooville,,1st Quay,Takeaway/sandwich shop,7844,20,,109139,10,,50.86497200000000,393,137,ehcommercial@havant.gov.uk,Havant,http://www.havant.gov.uk,-1.04627600000000,PO7 5EW,2014-05-29,fhrs_1_en-GB,1,,FHRS,10
233633,65-71 Greywell Road,Havant,,,99p Store,Retailers - other,4613,,,66771,,,50.86736200000000,14985,137,ehcommercial@havant.gov.uk,Havant,http://www.havant.gov.uk,-0.98522000000000,PO9 5AH,2012-07-24,fhrs_exempt_en-GB,Exempt,,FHRS,
233634,25 Selangor Avenue,Emsworth,,,A H Lindley,Retailers - other,4613,,,131481,,,50.85097400000000,630,137,ehcommercial@havant.gov.uk,Havant,http://www.havant.gov.uk,-0.95631200000000,PO107LR,2013-07-26,fhrs_exempt_en-GB,Exempt,,FHRS,
233635,,,,,A Hog in Hampshire,Mobile caterer,7846,5,,718173,5,,,19105,137,ehcommercial@havant.gov.uk,Havant,http://www.havant.gov.uk,,,2014-10-17,fhrs_5_en-GB,5,,FHRS,5
233636,160-162 West Street,Havant,,,Abbeyfield,Hospitals/Childcare/Caring Premises,5,5,,141382,5,,50.85320400000000,778,137,ehcommercial@havant.gov.uk,Havant,http://www.havant.gov.uk,-0.99111100000000,PO9 1LP,2012-08-16,fhrs_5_en-GB,5,,FHRS,5
233637,12 Emsworth Road,Havant,,,Abbeyfield House,Hospitals/Childcare/Caring Premises,5,10,,73243,0,,50.84992500000000,168,137,ehcommercial@havant.gov.uk,Havant,http://www.havant.gov.uk,-0.97182000000000,PO9 2SS,2012-02-20,fhrs_4_en-GB,4,,FHRS,0
233638,Community Centre,Dunsbury Way,Havant,,About Turn Project,Pub/bar/nightclub,7843,20,,72514,10,,50.86761100000000,16513,137,ehcommercial@havant.gov.uk,Havant,http://www.havant.gov.uk,-0.98694900000000,PO9 5BG,2014-03-26,fhrs_1_en-GB,1,,FHRS,10
233639,24 Birch Tree Drive,Emsworth,,,AJS Catering (UK) Ltd. - The Personal Chef,Other catering premises,7841,0,,73533,0,,50.86246900000000,16916,137,ehcommercial@havant.gov.uk,Havant,http://www.havant.gov.uk,-0.93765500000000,PO10 7RT,2013-11-19,fhrs_5_en-GB,5,,FHRS,0
233640,27 Mengham Road,Hayling Island,,,Alan Rae Traditional Foods,Retailers - other,4613,10,,113788,5,,50.78785700000000,428,137,ehcommercial@havant.gov.uk,Havant,http://www.havant.gov.uk,-0.97594800000000,PO119BG,2014-12-03,fhrs_4_en-GB,4,,FHRS,5
233641,4 Park Way,Havant,,,Aldi,Retailers - supermarkets/hypermarkets,7840,5,,61599,5,,50.85307300000000,13542,137,ehcommercial@havant.gov.uk,Havant,http://www.havant.gov.uk,-0.98734900000000,PO9 1HH,2014-11-03,fhrs_5_en-GB,5,,FHRS,5
233642,Crescent Kiosk Beachlands,Sea Front,,,Alfresco's,Restaurant/Cafe/Canteen,1,5,,369081,5,,,16905,137,ehcommercial@havant.gov.uk,Havant,http://www.havant.gov.uk,,Hayling Is,2014-04-14,fhrs_5_en-GB,5,,FHRS,5
233643,37 St Leonards Avenue,Hayling Island,,,Alton House Rest Home,Hospitals/Childcare/Caring Premises,5,5,,134813,5,,50.78933900000000,683,137,ehcommercial@havant.gov.uk,Havant,http://www.havant.gov.uk,-0.97581600000000,PO119BN,2014-04-10,fhrs_5_en-GB,5,,FHRS,5
233644,Wessex Superbowl,Havant Retail Park,Portsdown Hill Road,Havant,AMF Bowling,Restaurant/Cafe/Canteen,1,0,,126695,0,,50.85282200000000,558,137,ehcommercial@havant.gov.uk,Havant,http://www.havant.gov.uk,-1.01151900000000,PO9 3NA,2014-01-16,fhrs_5_en-GB,5,,FHRS,5
233645,,,,,Amiotts Cupcakes,Other catering premises,7841,0,,467533,0,,,17423,137,ehcommercial@havant.gov.uk,Havant,http://www.havant.gov.uk,,,2012-09-27,fhrs_5_en-GB,5,,FHRS,0
233646,,,,,Annie May's Pantry,Other catering premises,7841,5,,704640,5,,,18419,137,ehcommercial@havant.gov.uk,Havant,http://www.havant.gov.uk,,,2014-08-20,fhrs_5_en-GB,5,,FHRS,5
233647,45 St Andrews Road,Hayling Island,,,Anns Cottage,Hotel/bed & breakfast/guest house,7842,10,,136080,5,,50.78401200000000,7016,137,ehcommercial@havant.gov.uk,Havant,http://www.havant.gov.uk,-0.96930800000000,PO119JN,2012-06-25,fhrs_4_en-GB,4,,FHRS,5
233648,Langstone Technology Park,2B Langstone Road,Havant,,Aramark Ltd,Restaurant/Cafe/Canteen,1,0,,97397,0,,50.84665100000000,302,137,ehcommercial@havant.gov.uk,Havant,http://www.havant.gov.uk,-0.98824100000000,PO9 1SA,2013-07-03,fhrs_5_en-GB,5,,FHRS,5
233649,2A Wellington Retail Park,2 Hambledon Road,Waterlooville,,Argos,Retailers - other,4613,,,57844,,,50.88203500000000,12958,137,ehcommercial@havant.gov.uk,Havant,http://www.havant.gov.uk,-1.03361700000000,PO7 7FG,2013-07-02,fhrs_exempt_en-GB,Exempt,,FHRS,
233650,11-13 Meridian Centre,Havant,,,Argos Distributors Ltd,Retailers - other,4613,,,110563,,,50.85233400000000,402,137,ehcommercial@havant.gov.uk,Havant,http://www.havant.gov.uk,-0.98205200000000,PO9 1UW,2013-07-02,fhrs_exempt_en-GB,Exempt,,FHRS,
233651,43 North Street,Havant,,,Aroma Oriental Restaurant,Restaurant/Cafe/Canteen,1,5,,146217,5,,50.85336300000000,8867,137,ehcommercial@havant.gov.uk,Havant,http://www.havant.gov.uk,-0.98141900000000,PO9 1PP,2013-09-23,fhrs_5_en-GB,5,,FHRS,5
233652,10A East Street,Havant,,,As You Like It Sandwich Bar,Restaurant/Cafe/Canteen,1,5,,537024,5,,50.85092500000000,17886,137,ehcommercial@havant.gov.uk,Havant,http://www.havant.gov.uk,-0.98029300000000,PO9 1AQ,2014-10-03,fhrs_5_en-GB,5,,FHRS,5
233653,Asda Stores,Hambledon Road,Waterlooville,,Asda (Superstore),Retailers - supermarkets/hypermarkets,7840,0,,97875,5,,50.87946000000000,3060,137,ehcommercial@havant.gov.uk,Havant,http://www.havant.gov.uk,-1.03433900000000,PO7 7XR,2013-06-25,fhrs_5_en-GB,5,,FHRS,0
233654,ASDA,Purbrook Way,Havant,,Asda Wal-Mart (Superstore),Retailers - supermarkets/hypermarkets,7840,5,,97121,5,,50.86295900000000,3000,137,ehcommercial@havant.gov.uk,Havant,http://www.havant.gov.uk,-1.01499900000000,PO9 3QW,2014-02-12,fhrs_5_en-GB,5,,FHRS,5
233655,17 Yew Tree Road,Hayling Island,,,Azalea B & B,Hotel/bed & breakfast/guest house,7842,5,,73300,5,,50.81054200000000,16817,137,ehcommercial@havant.gov.uk,Havant,http://www.havant.gov.uk,-0.97553700000000,PO11 0QE,2014-05-28,fhrs_5_en-GB,5,,FHRS,5
233656,,,,,Baby Bear's Kitchen,Other catering premises,7841,5,,517317,5,,,17889,137,ehcommercial@havant.gov.uk,Havant,http://www.havant.gov.uk,,,2013-03-05,fhrs_5_en-GB,5,,FHRS,5
233657,,,,,"Balloons, Bubbles & Bows (Home Caterer)",Other catering premises,7841,5,,559329,5,,,18070,137,ehcommercial@havant.gov.uk,Havant,http://www.havant.gov.uk,,,2013-06-10,fhrs_5_en-GB,5,,FHRS,5
233658,6 Park Parade,Havant,,,Balti Express,Takeaway/sandwich shop,7844,5,,144077,5,,50.86678700000000,821,137,ehcommercial@havant.gov.uk,Havant,http://www.havant.gov.uk,-0.98425200000000,PO9 5AD,2013-06-06,fhrs_5_en-GB,5,,FHRS,5
233659,35 London Road,Cowplain,Waterlooville,,Banks Fish & Chips,Restaurant/Cafe/Canteen,1,10,,493501,5,,50.89322400000000,17771,137,ehcommercial@havant.gov.uk,Havant,http://www.havant.gov.uk,-1.01983600000000,PO8 8DF,2014-05-16,fhrs_4_en-GB,4,,FHRS,5
233660,Emsworth Baptist Church,North Street,Emsworth,,Baptist Church Hall,Other catering premises,7841,,,120699,,,50.84885600000000,496,137,ehcommercial@havant.gov.uk,Havant,http://www.havant.gov.uk,-0.93687000000000,PO107BY,2012-05-04,fhrs_exempt_en-GB,Exempt,,FHRS,
233661,Barley Mow,Manor Road,Hayling Island,,Barley Mow,Pub/bar/nightclub,7843,5,,110421,5,,50.79156100000000,401,137,ehcommercial@havant.gov.uk,Havant,http://www.havant.gov.uk,-0.98828100000000,PO110EZ,2013-04-16,fhrs_5_en-GB,5,,FHRS,5
233662,Barncroft Infant School,Barncroft Way,Havant,,Barncroft Primary  School - Breakfast Club,School/college/university,7845,5,,50141,5,,50.86344500000000,11157,137,ehcommercial@havant.gov.uk,Havant,http://www.havant.gov.uk,-0.99708500000000,PO9 3AG,2014-11-07,fhrs_5_en-GB,5,,FHRS,5
233663,Barncroft Primary School,Park Lane,Bedhampton,Havant,Barncroft Primary School,School/college/university,7845,5,,548835,0,,50.86289600000000,18067,137,ehcommercial@havant.gov.uk,Havant,http://www.havant.gov.uk,-0.99911500000000,PO9 3HN,2013-05-21,fhrs_5_en-GB,5,,FHRS,0
233664,,,,,Basket Cakes,Other catering premises,7841,0,,432871,0,,,17542,137,ehcommercial@havant.gov.uk,Havant,http://www.havant.gov.uk,,,2012-06-18,fhrs_5_en-GB,5,,FHRS,0
233665,94 Elm Grove,Hayling Island,,,Bay of Bengal,Restaurant/Cafe/Canteen,1,10,,66256,10,,50.79204500000000,14907,137,ehcommercial@havant.gov.uk,Havant,http://www.havant.gov.uk,-0.97676400000000,PO11 9EH,2014-04-01,fhrs_3_en-GB,3,,FHRS,10
233666,7 Baybridge Road,Havant,,,Baybridge Convenience Store,Retailers - other,4613,5,,69326,5,,50.87109500000000,15580,137,ehcommercial@havant.gov.uk,Havant,http://www.havant.gov.uk,-0.96896600000000,PO9 5PB,2013-01-11,fhrs_5_en-GB,5,,FHRS,5
233667,18 Bevan Road,Waterlooville,,,Bayith Rest Home,Hospitals/Childcare/Caring Premises,5,5,,128171,5,,50.90506800000000,58,137,ehcommercial@havant.gov.uk,Havant,http://www.havant.gov.uk,-1.01997100000000,PO8 9QH,2013-12-11,fhrs_5_en-GB,5,,FHRS,5
233668,100 Purbrook Way,Havant,,,B-Delighted,Other catering premises,7841,5,,636409,5,,50.86449100000000,13541,137,ehcommercial@havant.gov.uk,Havant,http://www.havant.gov.uk,-0.99741800000000,PO9 3SB,2014-02-25,fhrs_5_en-GB,5,,FHRS,5
233669,5 Sea Front,Hayling Island,,,Beachlands Beach Hut,Takeaway/sandwich shop,7844,10,,60332,5,,50.78533900000000,13179,137,ehcommercial@havant.gov.uk,Havant,http://www.havant.gov.uk,-0.98735100000000,PO11 0AG,2014-05-27,fhrs_3_en-GB,3,,FHRS,10
233670,5 Sea Front,Hayling Island,,,Beachlands Cafe,Restaurant/Cafe/Canteen,1,10,,129759,10,,50.78533935546875,607,137,ehcommercial@havant.gov.uk,Havant,http://www.havant.gov.uk,-0.98735129833221,PO110AG,2014-02-06,fhrs_3_en-GB,3,,FHRS,5
233671,16 Charleston Close,Hayling Island,,,Bed and Breakfast,Hotel/bed & breakfast/guest house,7842,5,,143502,5,,50.79482800000000,81,137,ehcommercial@havant.gov.uk,Havant,http://www.havant.gov.uk,-0.99058000000000,PO110JY,2013-07-01,fhrs_5_en-GB,5,,FHRS,5
233672,Bowls Pavillion,Bidbury Lane,Havant,,Bedhampton Bowling Club,Other catering premises,7841,,,128760,,,50.85270200000000,59,137,ehcommercial@havant.gov.uk,Havant,http://www.havant.gov.uk,-1.00377900000000,PO9 3JG,2013-05-24,fhrs_exempt_en-GB,Exempt,,FHRS,
233673,Bedhampton Methodist Church,Hulbert Road,Havant,,Bedhampton Methodist Church,Other catering premises,7841,,,95596,,,50.85898900000000,286,137,ehcommercial@havant.gov.uk,Havant,http://www.havant.gov.uk,-1.00285000000000,PO9 3TF,2015-01-20,fhrs_exempt_en-GB,Exempt,,FHRS,
233674,Bedhampton Methodist Church,Hulbert Road,Havant,,Bedhampton Methodist Playgroup,Hospitals/Childcare/Caring Premises,5,5,,60966,5,,50.85898900000000,13341,137,ehcommercial@havant.gov.uk,Havant,http://www.havant.gov.uk,-1.00285000000000,PO9 3TF,2015-01-13,fhrs_5_en-GB,5,,FHRS,5
233675,Bedhampton Post Office,26 Park Lane,Bedhampton,Havant,Bedhampton Post Office,Retailers - other,4613,10,,124189,5,,50.85791500000000,527,137,ehcommercial@havant.gov.uk,Havant,http://www.havant.gov.uk,-1.00138100000000,PO9 3HJ,2013-10-18,fhrs_4_en-GB,4,,FHRS,5
233676,55 Hulbert Road,Havant,,,Bedhampton Private Nursing Home,Hospitals/Childcare/Caring Premises,5,5,,95514,5,,50.86164700000000,285,137,ehcommercial@havant.gov.uk,Havant,http://www.havant.gov.uk,-1.00559200000000,PO9 3TB,2014-09-02,fhrs_5_en-GB,5,,FHRS,5
233677,Bedhampton Social Hall,21 Bedhampton Road,Havant,,Bedhampton Social Hall,Other catering premises,7841,5,,130350,5,,50.85428000000000,615,137,ehcommercial@havant.gov.uk,Havant,http://www.havant.gov.uk,-0.99799200000000,PO9 3ES,2014-04-16,fhrs_5_en-GB,5,,FHRS,5
233678,,,,,Beer Dispenser Hire / Funday Events,Retailers - other,4613,20,,644350,10,,,18418,137,ehcommercial@havant.gov.uk,Havant,http://www.havant.gov.uk,,,2014-04-05,fhrs_1_en-GB,1,,FHRS,5
233679,18-20,Belmont Castle Rest Home,Portsdown Hill Road,Havant,Belmont Castle Residential Home,Hospitals/Childcare/Caring Premises,5,5,,127046,5,,50.85336300000000,561,137,ehcommercial@havant.gov.uk,Havant,http://www.havant.gov.uk,-1.01602600000000,PO9 3JY,2014-01-30,fhrs_5_en-GB,5,,FHRS,5
233680,29 Belmont Grove,Havant,,,Belmont News,Retailers - other,4613,10,,126133,10,,50.85552000000000,55,137,ehcommercial@havant.gov.uk,Havant,http://www.havant.gov.uk,-1.00420200000000,PO9 3PT,2013-06-13,fhrs_3_en-GB,3,,FHRS,5
233681,,,,,Ben & Shelley's,Mobile caterer,7846,5,,65242,5,,,14630,137,ehcommercial@havant.gov.uk,Havant,http://www.havant.gov.uk,,,2014-03-07,fhrs_5_en-GB,5,,FHRS,5
233682,11 Middle Park Way,Havant,,,Best One,Retailers - other,4613,10,,115090,0,,50.86551900000000,442,137,ehcommercial@havant.gov.uk,Havant,http://www.havant.gov.uk,-0.99985400000000,PO9 4AB,2014-01-16,fhrs_4_en-GB,4,,FHRS,0
233683,11 Stone Square,Havant,,,Best One,Retailers - other,4613,10,,137411,5,,50.86384600000000,723,137,ehcommercial@havant.gov.uk,Havant,http://www.havant.gov.uk,-0.98217100000000,PO9 2DZ,2014-01-20,fhrs_4_en-GB,4,,FHRS,5
233684,22 Rails Lane,Hayling Island,,,BEST ONE,Retailers - other,4613,10,,128553,5,,50.78167200000000,586,137,ehcommercial@havant.gov.uk,Havant,http://www.havant.gov.uk,-0.96499000000000,PO119LL,2014-05-06,fhrs_4_en-GB,4,,FHRS,5
233685,64-66 St Albans Road,Havant,,,Best One,Retailers - other,4613,10,,134424,5,,50.86302500000000,678,137,ehcommercial@havant.gov.uk,Havant,http://www.havant.gov.uk,-0.97364900000000,PO9 2JY,2014-06-23,fhrs_4_en-GB,4,,FHRS,5
233686,37 North Street,Emsworth,,,Betty's Bon Bons,Retailers - other,4613,5,,637232,5,,50.84936600000000,1268,137,ehcommercial@havant.gov.uk,Havant,http://www.havant.gov.uk,-0.93754000000000,PO107DA,2014-03-11,fhrs_5_en-GB,5,,FHRS,5
233687,Bidbury First and Middle School,Fraser Road,Havant,,Bidbury Junior School,School/college/university,7845,5,,77701,5,,50.85639300000000,183,137,ehcommercial@havant.gov.uk,Havant,http://www.havant.gov.uk,-0.99793300000000,PO9 3EF,2014-09-15,fhrs_5_en-GB,5,,FHRS,5
233688,41 Mill Road,Waterlooville,,,Bills Chippy,Takeaway/sandwich shop,7844,5,,60856,5,,50.87224100000000,13313,137,ehcommercial@havant.gov.uk,Havant,http://www.havant.gov.uk,-1.03127600000000,PO7 7DH,2013-09-17,fhrs_5_en-GB,5,,FHRS,5
233689,102 London Road,Widley,Waterlooville,,Blithe House,Hospitals/Childcare/Caring Premises,5,5,,145591,5,,50.86114900000000,8672,137,ehcommercial@havant.gov.uk,Havant,http://www.havant.gov.uk,-1.04726300000000,PO7 5AB,2012-04-25,fhrs_5_en-GB,5,,FHRS,5
233690,23 London Road,Cowplain,Waterlooville,,Blockbuster Video,Retailers - other,4613,,,144034,,,50.89322400000000,820,137,ehcommercial@havant.gov.uk,Havant,http://www.havant.gov.uk,-1.01983600000000,PO8 8DF,2013-07-02,fhrs_exempt_en-GB,Exempt,,FHRS,
233691,Community Centre,10 Maurepas Way,Waterlooville,,Bocadillo's Cafe,Restaurant/Cafe/Canteen,1,5,,71593,5,,50.88015600000000,16255,137,ehcommercial@havant.gov.uk,Havant,http://www.havant.gov.uk,-1.03475100000000,PO7 7AY,2013-04-30,fhrs_5_en-GB,5,,FHRS,5
233692,17 Park Parade,Havant,,,Boots The Chemist,Retailers - other,4613,,,124589,,,50.86643500000000,531,137,ehcommercial@havant.gov.uk,Havant,http://www.havant.gov.uk,-0.98406100000000,PO9 5AA,2013-07-26,fhrs_exempt_en-GB,Exempt,,FHRS,
233693,Bosmere Medical Centre,Solent Road,Havant,,Boots The Chemist,Retailers - other,4613,,,57923,,,50.85036700000000,12964,137,ehcommercial@havant.gov.uk,Havant,http://www.havant.gov.uk,-0.99060400000000,PO9 1DQ,2013-10-21,fhrs_exempt_en-GB,Exempt,,FHRS,
233694,22-24 West Street,Havant,,,Boots The Chemist Ltd,Retailers - other,4613,5,,140849,5,,50.85183500000000,769,137,ehcommercial@havant.gov.uk,Havant,http://www.havant.gov.uk,-0.98354000000000,PO9 1PG,2014-08-05,fhrs_5_en-GB,5,,FHRS,5
233695,292-294 London Road,Waterlooville,,,Boots The Chemists,Retailers - other,4613,,,101983,,,50.87940900000000,336,137,ehcommercial@havant.gov.uk,Havant,http://www.havant.gov.uk,-1.03148300000000,PO7 7DS,2013-09-02,fhrs_exempt_en-GB,Exempt,,FHRS,
233696,57 London Road,Cowplain,Waterlooville,,Booze 'n' More,Retailers - other,4613,,,71132,,,50.89446300000000,16109,137,ehcommercial@havant.gov.uk,Havant,http://www.havant.gov.uk,-1.01857200000000,PO8 8UJ,2013-07-02,fhrs_exempt_en-GB,Exempt,,FHRS,
233697,98 Bedhampton Road,Havant,,,Booze 'n' More,Retailers - other,4613,0,,71138,5,,50.85537100000000,16110,137,ehcommercial@havant.gov.uk,Havant,http://www.havant.gov.uk,-1.00046900000000,PO9 3EZ,2013-05-20,fhrs_5_en-GB,5,,FHRS,5
233698,Borrow Day Centre,London Road,Cowplain,Waterlooville,Borrow Day Centre,Other catering premises,7841,5,,107661,5,,50.89492100000000,381,137,ehcommercial@havant.gov.uk,Havant,http://www.havant.gov.uk,-1.01734000000000,PO8 8DB,2013-07-02,fhrs_5_en-GB,5,,FHRS,5
233699,Bosmere Junior School,South Street,Havant,,Bosmere Junior School,School/college/university,7845,5,,132376,5,,50.85029100000000,643,137,ehcommercial@havant.gov.uk,Havant,http://www.havant.gov.uk,-0.98178400000000,PO9 1DA,2014-02-25,fhrs_5_en-GB,5,,FHRS,5
233700,49 Meridian Centre,Havant,,,Boswells,Restaurant/Cafe/Canteen,1,10,,56200,10,,50.85233400000000,12697,137,ehcommercial@havant.gov.uk,Havant,http://www.havant.gov.uk,-0.98205200000000,PO9 1UW,2014-01-15,fhrs_3_en-GB,3,,FHRS,10
233701,,,,,Bourne Bakers,Other catering premises,7841,0,,292050,0,,,17251,137,ehcommercial@havant.gov.uk,Havant,http://www.havant.gov.uk,,,2014-10-13,fhrs_5_en-GB,5,,FHRS,0
233702,Filling Station 97 Park Lane,Bedhampton,Havant,,BP Express Shopping,Retailers - other,4613,5,,124280,0,,50.86261000000000,528,137,ehcommercial@havant.gov.uk,Havant,http://www.havant.gov.uk,-1.00041400000000,PO9 3HQ,2014-01-16,fhrs_5_en-GB,5,,FHRS,0
233703,40 Brambles Enterprise Centre,Waterberry Drive,Waterlooville,,Brambles Kitchen,Takeaway/sandwich shop,7844,,,146628,,,50.88683000000000,8992,137,ehcommercial@havant.gov.uk,Havant,http://www.havant.gov.uk,-1.04483500000000,PO7 7TH,2014-12-01,fhrs_awaitinginspection_en-GB,AwaitingInspection,,FHRS,
233704,27 Southleigh Road,Havant,,,Brendon Lodge,Hospitals/Childcare/Caring Premises,5,5,,50893,5,,50.85417600000000,11360,137,ehcommercial@havant.gov.uk,Havant,http://www.havant.gov.uk,-0.96749200000000,PO9 2QG,2012-03-27,fhrs_5_en-GB,5,,FHRS,5
233705,41 Snowberry Crescent,Havant,,,Bright Beginnings Nursery Ltd,Hospitals/Childcare/Caring Premises,5,5,,67362,5,,50.86146900000000,15025,137,ehcommercial@havant.gov.uk,Havant,http://www.havant.gov.uk,-0.96240100000000,PO9 2FE,2015-01-06,fhrs_5_en-GB,5,,FHRS,5
233706,40 New Brighton Road,Emsworth,,,Brighton Lodge,Hospitals/Childcare/Caring Premises,5,5,,118102,5,,50.85606500000000,474,137,ehcommercial@havant.gov.uk,Havant,http://www.havant.gov.uk,-0.93653600000000,PO107QR,2013-11-21,fhrs_4_en-GB,4,,FHRS,10
233707,,,,,British & Continental Catering / Red Baron,Mobile caterer,7846,5,,60324,5,,,13176,137,ehcommercial@havant.gov.uk,Havant,http://www.havant.gov.uk,,,2013-05-01,fhrs_5_en-GB,5,,FHRS,5
233708,14 London Road,Purbrook,Waterlooville,,Broadways Coffee Shop,Restaurant/Cafe/Canteen,1,5,,45317,5,,50.86675100000000,10998,137,ehcommercial@havant.gov.uk,Havant,http://www.havant.gov.uk,-1.04498900000000,PO7 5LJ,2012-12-12,fhrs_5_en-GB,5,,FHRS,5
233709,8,The Westbrook Centre,Grassmere Way,Waterlooville,Brook Pharmacy,Retailers - other,4613,,,79459,,,50.88743400000000,191,137,ehcommercial@havant.gov.uk,Havant,http://www.havant.gov.uk,-1.00724700000000,PO7 8SE,2013-09-16,fhrs_exempt_en-GB,Exempt,,FHRS,
233710,93 Havant Road,Emsworth,,,Brookfield Hotel,Hotel/bed & breakfast/guest house,7842,10,,88478,5,,50.84910300000000,232,137,ehcommercial@havant.gov.uk,Havant,http://www.havant.gov.uk,-0.95521700000000,PO107LF,2015-01-07,fhrs_4_en-GB,4,,FHRS,5
233711,Bus Station,Elm Lane,Havant,,Brunels News and Food,Retailers - other,4613,10,,70864,5,,50.85232200000000,16019,137,ehcommercial@havant.gov.uk,Havant,http://www.havant.gov.uk,-0.98372800000000,PO9 1QD,2014-01-13,fhrs_4_en-GB,4,,FHRS,5
233712,19 St Marys Road,Hayling Island,,,Bryony Lodge,Hospitals/Childcare/Caring Premises,5,5,,135070,5,,50.78989500000000,686,137,ehcommercial@havant.gov.uk,Havant,http://www.havant.gov.uk,-0.98584800000000,PO119BY,2013-10-08,fhrs_5_en-GB,5,,FHRS,5
233713,26 Park Road South,Havant,,,Burger King,Restaurant/Cafe/Canteen,1,5,,94209,5,,50.85119200000000,274,137,ehcommercial@havant.gov.uk,Havant,http://www.havant.gov.uk,-0.98507400000000,PO9 1HB,2014-01-15,fhrs_5_en-GB,5,,FHRS,5
233714,North Emsworth Community Hall,Lutman Street,Emsworth,,Buttercups and Daisies,Hospitals/Childcare/Caring Premises,5,5,,72519,5,,50.86311700000000,16516,137,ehcommercial@havant.gov.uk,Havant,http://www.havant.gov.uk,-0.94565400000000,PO10 7XQ,2014-04-30,fhrs_5_en-GB,5,,FHRS,5
233715,244A London Road,Waterlooville,,,Butties,Takeaway/sandwich shop,7844,10,,61206,5,,50.87845800000000,13418,137,ehcommercial@havant.gov.uk,Havant,http://www.havant.gov.uk,-1.03281000000000,PO7 7HG,2014-01-28,fhrs_4_en-GB,4,,FHRS,5
233716,3A West Street,Havant,,,C J Meats,Retailers - other,4613,20,,127239,15,,50.85144200000000,564,137,ehcommercial@havant.gov.uk,Havant,http://www.havant.gov.uk,-0.98281000000000,PO9 1EH,2014-03-27,fhrs_1_en-GB,1,,FHRS,10
233717,18A Elm Grove,Hayling Island,,,Cafe Dilara,Restaurant/Cafe/Canteen,1,5,,397191,5,,50.78898000000000,17250,137,ehcommercial@havant.gov.uk,Havant,http://www.havant.gov.uk,-0.97693000000000,PO11 9EF,2014-06-02,fhrs_4_en-GB,4,,FHRS,10
233718,4,Queens Parade 121-123 London Road,Waterlooville,,Cafe Havana,Restaurant/Cafe/Canteen,1,10,,107397,5,,50.88068100000000,379,137,ehcommercial@havant.gov.uk,Havant,http://www.havant.gov.uk,-1.03087300000000,PO7 7EB,2014-01-23,fhrs_3_en-GB,3,,FHRS,10
233719,13 Wellington Way,Waterlooville,,,Cafe Moka,Restaurant/Cafe/Canteen,1,10,,108557,10,,50.88006400000000,388,137,ehcommercial@havant.gov.uk,Havant,http://www.havant.gov.uk,-1.03235000000000,PO7 7ED,2014-01-23,fhrs_2_en-GB,2,,FHRS,15
233720,23C North Street,Emsworth,,,Cafe Moka,Restaurant/Cafe/Canteen,1,5,,147038,10,,50.84885600000000,9070,137,ehcommercial@havant.gov.uk,Havant,http://www.havant.gov.uk,-0.93687000000000,PO107BY,2014-01-24,fhrs_4_en-GB,4,,FHRS,5
233721,8 West Street,Havant,,,Cafe Nero,Restaurant/Cafe/Canteen,1,5,,63557,5,,50.85160700000000,14021,137,ehcommercial@havant.gov.uk,Havant,http://www.havant.gov.uk,-0.98211000000000,PO9 1PF,2013-10-07,fhrs_5_en-GB,5,,FHRS,5
233722,,,,,Caffe Yum,Mobile caterer,7846,5,,627005,5,,,18356,137,ehcommercial@havant.gov.uk,Havant,http://www.havant.gov.uk,,,2014-01-21,fhrs_5_en-GB,5,,FHRS,5
233723,33 Windsor Road,Waterlooville,,,Cake o'clock,Other catering premises,7841,10,,73334,0,,50.89116500000000,16832,137,ehcommercial@havant.gov.uk,Havant,http://www.havant.gov.uk,-1.03937200000000,PO7 6BA,2014-05-09,fhrs_4_en-GB,4,,FHRS,0
233724,24 Honey Suckle Court,Waterlooville,,,Camellia Cakes,Other catering premises,7841,5,,467536,5,,50.87188500000000,17637,137,ehcommercial@havant.gov.uk,Havant,http://www.havant.gov.uk,-1.02095100000000,PO7 8DQ,2012-11-14,fhrs_5_en-GB,5,,FHRS,5
233725,6 The Clock House,Hambledon Road,Waterlooville,,Candy ' N ' Cards,Retailers - other,4613,,,90659,,,50.87936500000000,248,137,ehcommercial@havant.gov.uk,Havant,http://www.havant.gov.uk,-1.03264900000000,PO7 7HE,2014-02-06,fhrs_exempt_en-GB,Exempt,,FHRS,
233726,,,,,Candy Corner,Other catering premises,7841,5,,70823,5,,,16002,137,ehcommercial@havant.gov.uk,Havant,http://www.havant.gov.uk,,,2013-09-11,fhrs_5_en-GB,5,,FHRS,5
233727,7 Coralin Grove,Waterlooville,,,Candy Creations,Other catering premises,7841,0,,722890,0,,50.88622700000000,18835,137,ehcommercial@havant.gov.uk,Havant,http://www.havant.gov.uk,-1.00912100000000,PO7 8QP,2014-12-02,fhrs_5_en-GB,5,,FHRS,0
233728,1A Sea Front,Hayling Island,,,Candy Floss,Takeaway/sandwich shop,7844,0,,106468,0,,50.78533935546875,37,137,ehcommercial@havant.gov.uk,Havant,http://www.havant.gov.uk,-0.98735129833221,PO110AG,2014-08-27,fhrs_5_en-GB,5,,FHRS,0
233729,,,,,Candyscrumptiousbouquets,Other catering premises,7841,0,,73547,0,,,16920,137,ehcommercial@havant.gov.uk,Havant,http://www.havant.gov.uk,,,2014-06-19,fhrs_5_en-GB,5,,FHRS,0
233730,32 Rails Lane,Hayling Island,,,Caribou Inn,Pub/bar/nightclub,7843,5,,128449,5,,50.78167200000000,584,137,ehcommercial@havant.gov.uk,Havant,http://www.havant.gov.uk,-0.96499000000000,PO119LL,2014-05-15,fhrs_5_en-GB,5,,FHRS,5
233731,Railway Station,North Street,Emsworth,,Carriages,Restaurant/Cafe/Canteen,1,5,,636411,5,,50.85104500000000,18355,137,ehcommercial@havant.gov.uk,Havant,http://www.havant.gov.uk,-0.93825500000000,PO10 7PN,2014-02-05,fhrs_5_en-GB,5,,FHRS,5
233732,1C Sea Front,Hayling Island,,,Charlies Do-Nut Bar,Takeaway/sandwich shop,7844,5,,101231,5,,50.78533935546875,33,137,ehcommercial@havant.gov.uk,Havant,http://www.havant.gov.uk,-0.98735129833221,PO110AG,2013-05-01,fhrs_5_en-GB,5,,FHRS,5
233733,35 Sandy Point Road,Hayling Island,,,Charlies Farm Stores,Retailers - other,4613,20,,69993,10,,50.78008900000000,15824,137,ehcommercial@havant.gov.uk,Havant,http://www.havant.gov.uk,-0.94593300000000,PO11 9RR,2013-05-22,fhrs_1_en-GB,1,,FHRS,5
233734,7 Middle Park Way,Havant,,,Cheeky Chippy,Takeaway/sandwich shop,7844,5,,114999,5,,50.86551900000000,441,137,ehcommercial@havant.gov.uk,Havant,http://www.havant.gov.uk,-0.99985400000000,PO9 4AB,2014-01-16,fhrs_5_en-GB,5,,FHRS,5
233735,10 Stone Square,Havant,,,Cheerful Dragon Takeaway,Takeaway/sandwich shop,7844,5,,137284,5,,50.86384600000000,721,137,ehcommercial@havant.gov.uk,Havant,http://www.havant.gov.uk,-0.98217100000000,PO9 2DZ,2014-01-16,fhrs_4_en-GB,4,,FHRS,10
233736,Unit 1,28 High Street,Emsworth,,Cheese and Chutney,Retailers - other,4613,5,,704645,5,,50.84635800000000,18974,137,ehcommercial@havant.gov.uk,Havant,http://www.havant.gov.uk,-0.93604600000000,PO10 7AW,2014-09-24,fhrs_5_en-GB,5,,FHRS,5
233737,Mill Rythe Junior and Infant School,Havant Road,Hayling Island,,Cherry Island,Hospitals/Childcare/Caring Premises,5,5,,60305,5,,50.80112300000000,13171,137,ehcommercial@havant.gov.uk,Havant,http://www.havant.gov.uk,-0.97104600000000,PO110PA,2014-11-19,fhrs_5_en-GB,5,,FHRS,5
233738,Langstone Technology Park,2B Langstone Road,Havant,,Cherry Park,Hospitals/Childcare/Caring Premises,5,10,,72052,10,,50.84665100000000,16394,137,ehcommercial@havant.gov.uk,Havant,http://www.havant.gov.uk,-0.98824100000000,PO9 1SA,2015-01-14,fhrs_3_en-GB,3,,FHRS,10
233739,2 Chichester Avenue,Hayling Island,,,Cheybassa Lodge,Hospitals/Childcare/Caring Premises,5,10,,144392,5,,50.78587200000000,83,137,ehcommercial@havant.gov.uk,Havant,http://www.havant.gov.uk,-0.97931000000000,PO119EZ,2013-09-18,fhrs_4_en-GB,4,,FHRS,5
233740,2 Chidham Drive,Havant,,,Chidham Stores,Retailers - other,4613,20,,129335,5,,50.85602800000000,6,137,ehcommercial@havant.gov.uk,Havant,http://www.havant.gov.uk,-0.98900400000000,PO9 1DU,2013-10-22,fhrs_1_en-GB,1,,FHRS,5
233741,125 New Brighton Road,Emsworth,,,Childrens Learning Centre,Hospitals/Childcare/Caring Premises,5,0,,142665,0,,50.85812400000000,796,137,ehcommercial@havant.gov.uk,Havant,http://www.havant.gov.uk,-0.93650300000000,PO107QS,2014-05-06,fhrs_5_en-GB,5,,FHRS,0
233742,Mengham Infant School,St Marys Road,Hayling Island,,Childsplay Nursery,Hospitals/Childcare/Caring Premises,5,5,,559327,5,,50.79265700000000,18002,137,ehcommercial@havant.gov.uk,Havant,http://www.havant.gov.uk,-0.97886500000000,PO11 9DD,2013-06-06,fhrs_5_en-GB,5,,FHRS,5
233743,58 West Street,Havant,,,Chilli & Lime,Restaurant/Cafe/Canteen,1,10,,72516,15,,50.85183500000000,16515,137,ehcommercial@havant.gov.uk,Havant,http://www.havant.gov.uk,-0.98354000000000,PO9 1PG,2014-01-15,fhrs_2_en-GB,2,,FHRS,15
233744,41 North Street,Havant,,,Chinese Food Centre,Takeaway/sandwich shop,7844,5,,120028,5,,50.85336300000000,491,137,ehcommercial@havant.gov.uk,Havant,http://www.havant.gov.uk,-0.98141900000000,PO9 1PP,2014-10-07,fhrs_5_en-GB,5,,FHRS,5
233745,7 Mengham Road,Hayling Island,,,Chives of Hayling,Restaurant/Cafe/Canteen,1,5,,62622,5,,50.78785700000000,13835,137,ehcommercial@havant.gov.uk,Havant,http://www.havant.gov.uk,-0.97594800000000,PO11 9BG,2013-07-05,fhrs_5_en-GB,5,,FHRS,5
233746,31 Beach Road,Hayling Island,,,Choice Support,Hospitals/Childcare/Caring Premises,5,10,,96065,5,,50.78880700000000,29,137,ehcommercial@havant.gov.uk,Havant,http://www.havant.gov.uk,-0.98801400000000,PO110JB,2013-05-16,fhrs_4_en-GB,4,,FHRS,5
233747,119 London Road,Waterlooville,,,Chorlton Butchers Ltd.,Retailers - other,4613,10,,103974,5,,50.88044900000000,352,137,ehcommercial@havant.gov.uk,Havant,http://www.havant.gov.uk,-1.03103500000000,PO7 7DZ,2015-01-19,fhrs_4_en-GB,4,,FHRS,5
233748,42 Greywell Road,Havant,,,Christinador,Restaurant/Cafe/Canteen,1,10,,676360,5,,50.86725300000000,18852,137,ehcommercial@havant.gov.uk,Havant,http://www.havant.gov.uk,-0.98411400000000,PO9 5AL,2014-06-19,fhrs_3_en-GB,3,,FHRS,10
233749,Church Of The Good Shepherd,Crookhorn Church Centre,Crookhorn Lane,Waterlooville,Church of the Good Shepherd Hub,Restaurant/Cafe/Canteen,1,5,,52603,5,,50.85998000000000,119,137,ehcommercial@havant.gov.uk,Havant,http://www.havant.gov.uk,-1.02867400000000,PO7 5QB,2014-04-02,fhrs_5_en-GB,5,,FHRS,5
233750,258 London Road,Waterlooville,,,Cinnamon Restaurant,Restaurant/Cafe/Canteen,1,20,,100688,10,,50.87845800000000,325,137,ehcommercial@havant.gov.uk,Havant,http://www.havant.gov.uk,-1.03281000000000,PO7 7HG,2013-03-27,fhrs_1_en-GB,1,,FHRS,10
233751,34 Park Parade,Havant,,,Claire's Deli & Sandwich Bar,Takeaway/sandwich shop,7844,5,,67710,0,,50.86678700000000,15123,137,ehcommercial@havant.gov.uk,Havant,http://www.havant.gov.uk,-0.98425200000000,PO9 5AD,2013-10-10,fhrs_5_en-GB,5,,FHRS,0
233752,236 Sea Front,Hayling Island,,,Clapps Newsagent,Retailers - other,4613,10,,130152,5,,50.78613500000000,612,137,ehcommercial@havant.gov.uk,Havant,http://www.havant.gov.uk,-0.98883800000000,PO110AU,2015-01-02,fhrs_3_en-GB,3,,FHRS,10
233753,Unit 46,Broadmarsh Business and Innovation Centre,Harts Farm Way,Havant,Clifford Brown Catering,Other catering premises,7841,5,,676354,5,,50.84698900000000,18723,137,ehcommercial@havant.gov.uk,Havant,http://www.havant.gov.uk,-1.00137300000000,PO9 1HS,2014-05-20,fhrs_5_en-GB,5,,FHRS,5
233754,14-16 Sea Front,Hayling Island,,,Coastguard Cafe,Restaurant/Cafe/Canteen,1,5,,130287,5,,50.78250700000000,614,137,ehcommercial@havant.gov.uk,Havant,http://www.havant.gov.uk,-0.96891500000000,PO11 9HL,2014-02-06,fhrs_5_en-GB,5,,FHRS,5
233755,36 Sea Front,Hayling Island,,,Cockle Warren Cottage Hotel,Hotel/bed & breakfast/guest house,7842,5,,130604,5,,50.78250503540039,619,137,ehcommercial@havant.gov.uk,Havant,http://www.havant.gov.uk,-0.96891522407532,PO119HL,2014-05-21,fhrs_5_en-GB,5,,FHRS,5
233756,,,,,Cocoa Cottage Cakes,Other catering premises,7841,5,,676358,5,,,18812,137,ehcommercial@havant.gov.uk,Havant,http://www.havant.gov.uk,,,2014-05-09,fhrs_5_en-GB,5,,FHRS,5
233757,7 The Precinct,Waterlooville,,,Coffee 2,Restaurant/Cafe/Canteen,1,10,,72337,10,,50.88005600000000,16477,137,ehcommercial@havant.gov.uk,Havant,http://www.havant.gov.uk,-1.03031800000000,PO7 7DT,2013-10-07,fhrs_3_en-GB,3,,FHRS,10
233758,Colt International Ltd,New Lane,Havant,,Colt International Ltd.,Restaurant/Cafe/Canteen,1,,,118376,,,50.86668700000000,477,137,ehcommercial@havant.gov.uk,Havant,http://www.havant.gov.uk,-0.96872200000000,PO9 2LY,2013-04-12,fhrs_exempt_en-GB,Exempt,,FHRS,
233759,Warren Park Primary School,Sandleford Road,Havant,,Community Cafe @ Park Families,Restaurant/Cafe/Canteen,1,5,,73511,5,,50.87663500000000,16903,137,ehcommercial@havant.gov.uk,Havant,http://www.havant.gov.uk,-0.99575000000000,PO9 4LR,2015-01-13,fhrs_5_en-GB,5,,FHRS,5
233760,14 Mengham Avenue,Hayling Island,,,Community Integrated Care,Hospitals/Childcare/Caring Premises,5,0,,113226,0,,50.78614000000000,423,137,ehcommercial@havant.gov.uk,Havant,http://www.havant.gov.uk,-0.97500600000000,PO119JB,2012-08-16,fhrs_5_en-GB,5,,FHRS,0
233761,2 Seafarers Walk,Hayling Island,,,Community Integrated Care,Hospitals/Childcare/Caring Premises,5,5,,131231,5,,50.78165900000000,626,137,ehcommercial@havant.gov.uk,Havant,http://www.havant.gov.uk,-0.93950000000000,PO119TA,2014-08-07,fhrs_5_en-GB,5,,FHRS,5
233762,26 Penk Ridge,Havant,,,Community Integrated Care,Hospitals/Childcare/Caring Premises,5,10,,121765,5,,50.84901500000000,504,137,ehcommercial@havant.gov.uk,Havant,http://www.havant.gov.uk,-1.02185600000000,PO9 3LU,2012-04-05,fhrs_4_en-GB,4,,FHRS,5
233763,4 Seafarers Walk,Hayling Island,,,Community Integrated Care,Hospitals/Childcare/Caring Premises,5,5,,131287,5,,50.78165900000000,627,137,ehcommercial@havant.gov.uk,Havant,http://www.havant.gov.uk,-0.93950000000000,PO119TA,2013-10-09,fhrs_5_en-GB,5,,FHRS,5
233764,Copsewood House,Copse Lane,Hayling Island,,Copsewood House,Hotel/bed & breakfast/guest house,7842,0,,116387,0,,50.81342500000000,4558,137,ehcommercial@havant.gov.uk,Havant,http://www.havant.gov.uk,-0.96701400000000,PO110QD,2014-02-28,fhrs_5_en-GB,5,,FHRS,0
233765,9 London Road,Widley,Waterlooville,,Corner House (Widley) Ltd,Hotel/bed & breakfast/guest house,7842,5,,145299,5,,50.85652300000000,8574,137,ehcommercial@havant.gov.uk,Havant,http://www.havant.gov.uk,-1.05116500000000,PO7 5AT,2014-04-02,fhrs_5_en-GB,5,,FHRS,5
233766,1 Fourth Avenue,Havant,,,Cornerleigh Care Home,Hospitals/Childcare/Caring Premises,5,5,,537026,5,,50.85675300000000,181,137,ehcommercial@havant.gov.uk,Havant,http://www.havant.gov.uk,-0.96904100000000,PO9 2QU,2013-04-15,fhrs_5_en-GB,5,,FHRS,5
233767,339 Milton Road,Cowplain,Waterlooville,,Cost Cutters,Retailers - other,4613,5,,116520,5,,50.90245600000000,457,137,ehcommercial@havant.gov.uk,Havant,http://www.havant.gov.uk,-1.02265700000000,PO8 8LH,2013-08-30,fhrs_5_en-GB,5,,FHRS,5
233768,2-4 Meridian Centre,Havant,,,Costa Coffee,Restaurant/Cafe/Canteen,1,5,,61289,5,,50.85233400000000,13442,137,ehcommercial@havant.gov.uk,Havant,http://www.havant.gov.uk,-0.98205200000000,PO9 1UW,2014-02-19,fhrs_5_en-GB,5,,FHRS,5
233769,4 The Precinct,London Road,Waterlooville,,Costa Coffee,Restaurant/Cafe/Canteen,1,0,,61291,0,,50.88005600000000,13443,137,ehcommercial@havant.gov.uk,Havant,http://www.havant.gov.uk,-1.03031800000000,PO7 7DT,2013-10-10,fhrs_5_en-GB,5,,FHRS,5
233770,74 Longwood Avenue,Waterlooville,,,Cottage Cakes,Other catering premises,7841,5,,65478,5,,50.89765300000000,14714,137,ehcommercial@havant.gov.uk,Havant,http://www.havant.gov.uk,-1.02575800000000,PO8 8JB,2012-03-16,fhrs_5_en-GB,5,,FHRS,5
233771,36 Bracklesham Road,Hayling Island,,,Cottage Cuisine,Other catering premises,7841,5,,145383,5,,50.78150800000000,8601,137,ehcommercial@havant.gov.uk,Havant,http://www.havant.gov.uk,-0.94078000000000,PO119SJ,2014-12-22,fhrs_5_en-GB,5,,FHRS,5
233772,Activity Centre,Padnell Road,Waterlooville,,Cowplain Activity Centre Association,Other catering premises,7841,5,,123465,5,,50.89410800000000,519,137,ehcommercial@havant.gov.uk,Havant,http://www.havant.gov.uk,-1.01159900000000,PO8 8EH,2014-05-09,fhrs_5_en-GB,5,,FHRS,5
233773,Cowplain School,Hart Plain Avenue,Waterlooville,,Cowplain Community School,School/college/university,7845,5,,85542,5,,50.89230700000000,216,137,ehcommercial@havant.gov.uk,Havant,http://www.havant.gov.uk,-1.02528600000000,PO8 8RY,2013-07-08,fhrs_5_en-GB,5,,FHRS,5
233774,8 Durley Avenue,Waterlooville,,,Cowplain Evangelical Church,Other catering premises,7841,5,,722891,5,,50.89555200000000,18909,137,ehcommercial@havant.gov.uk,Havant,http://www.havant.gov.uk,-1.02079600000000,PO8 8XA,2014-12-03,fhrs_5_en-GB,5,,FHRS,5
233775,62 Hazleton Way,Waterlooville,,,Cowplain Fish Bar,Takeaway/sandwich shop,7844,20,,54430,10,,50.89978300000000,12272,137,ehcommercial@havant.gov.uk,Havant,http://www.havant.gov.uk,-1.00752500000000,PO8 9BT,2014-06-12,fhrs_1_en-GB,1,,FHRS,5
233776,29A London Road,Cowplain,Waterlooville,,Cowplain Kebab House,Takeaway/sandwich shop,7844,10,,145092,5,,50.89322400000000,8505,137,ehcommercial@havant.gov.uk,Havant,http://www.havant.gov.uk,-1.01983600000000,PO8 8DF,2013-08-13,fhrs_4_en-GB,4,,FHRS,5
233777,54 London Road,Cowplain,Waterlooville,,Cowplain Social Club,Pub/bar/nightclub,7843,5,,102978,5,,50.89603000000000,344,137,ehcommercial@havant.gov.uk,Havant,http://www.havant.gov.uk,-1.01662000000000,PO8 8EN,2014-09-15,fhrs_5_en-GB,5,,FHRS,5
233778,Recreation Ground,Horndean Road,Emsworth,,Cowplain Youth FC,Pub/bar/nightclub,7843,5,,704651,5,,50.85547700000000,19078,137,ehcommercial@havant.gov.uk,Havant,http://www.havant.gov.uk,-0.94011500000000,PO10 7PT,2014-09-11,fhrs_5_en-GB,5,,FHRS,5
233779,The Crookhorn Community School,Stakes Hill Road,Waterlooville,,Crookhorn College of Technology,School/college/university,7845,0,,135723,0,,50.86599300000000,696,137,ehcommercial@havant.gov.uk,Havant,http://www.havant.gov.uk,-1.02506700000000,PO7 5UD,2013-09-10,fhrs_5_en-GB,5,,FHRS,5
233780,1 Purbrook Chase Precinct,Waterlooville,,,Crookhorn Tandoori,Takeaway/sandwich shop,7844,5,,50999,10,,50.86039300000000,11387,137,ehcommercial@havant.gov.uk,Havant,http://www.havant.gov.uk,-1.02968800000000,PO7 5QH,2014-06-12,fhrs_3_en-GB,3,,FHRS,10
233781,59 Cross Way,Havant,,,Crossway House Care Home,Hospitals/Childcare/Caring Premises,5,0,,569050,5,,50.85433600000000,18140,137,ehcommercial@havant.gov.uk,Havant,http://www.havant.gov.uk,-0.98990700000000,PO9 1NG,2014-05-13,fhrs_5_en-GB,5,,FHRS,5
233782,Crowberry Lodge,Manor Road,Hayling Island,,Crowberry Lodge,Hotel/bed & breakfast/guest house,7842,5,,53992,5,,50.79676400000000,12162,137,ehcommercial@havant.gov.uk,Havant,http://www.havant.gov.uk,-0.98568600000000,PO110QH,2015-01-22,fhrs_5_en-GB,5,,FHRS,5
233783,Bingo and Social Club,Somborne Drive,Havant,,Crown Bingo,Pub/bar/nightclub,7843,10,,132233,5,,50.86822200000000,640,137,ehcommercial@havant.gov.uk,Havant,http://www.havant.gov.uk,-0.98272900000000,PO9 5AN,2015-01-06,fhrs_4_en-GB,4,,FHRS,5
233784,,,,,cupkakes.co.uk,Other catering premises,7841,5,,627003,0,,,18325,137,ehcommercial@havant.gov.uk,Havant,http://www.havant.gov.uk,,,2013-11-15,fhrs_5_en-GB,5,,FHRS,0
233785,68 Botley Drive,Havant,,,Curry Cottage,Takeaway/sandwich shop,7844,5,,44595,5,,50.86684300000000,10813,137,ehcommercial@havant.gov.uk,Havant,http://www.havant.gov.uk,-0.99489500000000,PO9 4QY,2014-12-04,fhrs_5_en-GB,5,,FHRS,5
233786,46 North Street,Havant,,,D & B Whites,Retailers - other,4613,5,,68725,5,,50.85316200000000,15379,137,ehcommercial@havant.gov.uk,Havant,http://www.havant.gov.uk,-0.98103900000000,PO9 1PT,2015-01-06,fhrs_4_en-GB,4,,FHRS,10
233787,,,,,D & I Fast Food,Mobile caterer,7846,5,,548830,5,,,15884,137,ehcommercial@havant.gov.uk,Havant,http://www.havant.gov.uk,,,2013-05-09,fhrs_5_en-GB,5,,FHRS,5
233788,99 Havant Road,Emsworth,,,Daisy Chain Nursery,Hospitals/Childcare/Caring Premises,5,5,,51782,5,,50.84910300000000,11629,137,ehcommercial@havant.gov.uk,Havant,http://www.havant.gov.uk,-0.95521700000000,PO107LF,2014-05-08,fhrs_5_en-GB,5,,FHRS,5
233789,12 West Street,Havant,,,Davies Pharmacy,Retailers - other,4613,,,140990,,,50.85160700000000,772,137,ehcommercial@havant.gov.uk,Havant,http://www.havant.gov.uk,-0.98211000000000,PO9 1PF,2013-09-04,fhrs_exempt_en-GB,Exempt,,FHRS,
233790,144 Park Avenue,Waterlooville,,,Debbens News,Retailers - other,4613,10,,123794,5,,50.86220800000000,522,137,ehcommercial@havant.gov.uk,Havant,http://www.havant.gov.uk,-1.04147300000000,PO7 5HF,2013-04-15,fhrs_4_en-GB,4,,FHRS,5
233791,,,,,Deb's Delights,Other catering premises,7841,5,,548833,5,,,18026,137,ehcommercial@havant.gov.uk,Havant,http://www.havant.gov.uk,,,2013-05-03,fhrs_5_en-GB,5,,FHRS,5
233792,94 Bedhampton Road,Havant,,,Deep Blue,Takeaway/sandwich shop,7844,5,,114835,10,,50.85537100000000,44,137,ehcommercial@havant.gov.uk,Havant,http://www.havant.gov.uk,-1.00046900000000,PO9 3EZ,2014-02-06,fhrs_3_en-GB,3,,FHRS,10
233793,41 Creek Road,Hayling Island,,,Dee's Convenience Store,Retailers - other,4613,5,,41560,5,,50.77925800000000,103,137,ehcommercial@havant.gov.uk,Havant,http://www.havant.gov.uk,-0.95253300000000,PO119QZ,2014-11-19,fhrs_5_en-GB,5,,FHRS,5
233794,33 Station Road,Hayling Island,,,Delightful Chinese Restaurant,Restaurant/Cafe/Canteen,1,0,,136317,5,,50.79058100000000,706,137,ehcommercial@havant.gov.uk,Havant,http://www.havant.gov.uk,-0.98933800000000,PO110EA,2013-09-24,fhrs_5_en-GB,5,,FHRS,0
233795,Deverell Hall,London Road,Purbrook,Waterlooville,Deverell Hall,Other catering premises,7841,5,,143194,5,,50.87065900000000,804,137,ehcommercial@havant.gov.uk,Havant,http://www.havant.gov.uk,-1.04344500000000,PO7 5JU,2015-01-08,fhrs_5_en-GB,5,,FHRS,5
233796,9 Silverdale Drive,Waterlooville,,,Dial-a-Bar,Retailers - other,4613,,,96505,,,50.89283700000000,294,137,ehcommercial@havant.gov.uk,Havant,http://www.havant.gov.uk,-1.04586300000000,PO7 6DN,2012-05-22,fhrs_exempt_en-GB,Exempt,,FHRS,
233797,,,,,Diane's Cakes Bakes,Other catering premises,7841,5,,637235,5,,,18659,137,ehcommercial@havant.gov.uk,Havant,http://www.havant.gov.uk,,,2014-03-04,fhrs_5_en-GB,5,,FHRS,5
233798,51 Greywell Road,Havant,,,Dilan Kebab,Takeaway/sandwich shop,7844,5,,62084,5,,50.86736200000000,13689,137,ehcommercial@havant.gov.uk,Havant,http://www.havant.gov.uk,-0.98522000000000,PO9 5AH,2014-09-17,fhrs_4_en-GB,4,,FHRS,10
233799,2 Sandy Point Road,Hayling Island,,,Dolphin Fish Bar,Takeaway/sandwich shop,7844,10,,129197,5,,50.77973900000000,597,137,ehcommercial@havant.gov.uk,Havant,http://www.havant.gov.uk,-0.94994100000000,PO119RP,2014-12-02,fhrs_3_en-GB,3,,FHRS,10
233800,11 Hambledon Parade,Waterlooville,,,Dolphin Fisheries,Takeaway/sandwich shop,7844,20,,84644,5,,50.89078400000000,210,137,ehcommercial@havant.gov.uk,Havant,http://www.havant.gov.uk,-1.04557800000000,PO7 6XE,2013-07-25,fhrs_1_en-GB,1,,FHRS,10
233801,12-13 North Street Arcade,Havant,,,Dominos Pizza,Takeaway/sandwich shop,7844,5,,122938,5,,50.85334100000000,514,137,ehcommercial@havant.gov.uk,Havant,http://www.havant.gov.uk,-0.98099300000000,PO9 1PX,2014-01-15,fhrs_5_en-GB,5,,FHRS,5
233802,226A-228 London Road,Waterlooville,,,Domino's Pizza (Solent Pizza Delivery Ltd.),Takeaway/sandwich shop,7844,5,,100799,5,,50.87804200000000,326,137,ehcommercial@havant.gov.uk,Havant,http://www.havant.gov.uk,-1.03361500000000,PO7 7HB,2013-10-14,fhrs_5_en-GB,5,,FHRS,5
233803,2 Purbrook Chase Precinct,Waterlooville,,,Dragon Inn (Purbrook) Ltd,Takeaway/sandwich shop,7844,5,,127472,10,,50.86039300000000,568,137,ehcommercial@havant.gov.uk,Havant,http://www.havant.gov.uk,-1.02968800000000,PO7 5QH,2013-08-22,fhrs_4_en-GB,4,,FHRS,5
233804,44 High Street,Emsworth,,,Driftwood,Restaurant/Cafe/Canteen,1,5,,92102,5,,50.84635800000000,258,137,ehcommercial@havant.gov.uk,Havant,http://www.havant.gov.uk,-0.93604600000000,PO107AW,2014-01-15,fhrs_5_en-GB,5,,FHRS,5
233805,2 Southwood Road,Hayling Island,,,Dynasty,Takeaway/sandwich shop,7844,5,,133483,5,,50.78174400000000,662,137,ehcommercial@havant.gov.uk,Havant,http://www.havant.gov.uk,-0.96396700000000,PO119QD,2013-04-03,fhrs_5_en-GB,5,,FHRS,5
233806,25 Rails Lane,Hayling Island,,,Eastoke Post Office,Retailers - other,4613,20,,128607,5,,50.78256800000000,587,137,ehcommercial@havant.gov.uk,Havant,http://www.havant.gov.uk,-0.96565100000000,PO119LG,2013-02-05,fhrs_1_en-GB,1,,FHRS,10
233807,Vickers Systems Ltd,Larchwood Avenue,Havant,,Eaton Aerospace Marine Defence (Interserve Catering),Restaurant/Cafe/Canteen,1,0,,732397,0,,50.86410400000000,305,137,ehcommercial@havant.gov.uk,Havant,http://www.havant.gov.uk,-1.01228900000000,PO9 3QL,2011-10-17,fhrs_5_en-GB,5,,FHRS,0
233808,46 New Lane,Havant,,,Eaton Limited (Dine Limited),Restaurant/Cafe/Canteen,1,0,,118275,0,,50.86590000000000,476,137,ehcommercial@havant.gov.uk,Havant,http://www.havant.gov.uk,-0.96714800000000,PO9 2NB,2015-01-06,fhrs_5_en-GB,5,,FHRS,5
233809,16 Mengham Road,Hayling Island,,,Edentime,Restaurant/Cafe/Canteen,1,5,,551724,5,,50.78752200000000,17913,137,ehcommercial@havant.gov.uk,Havant,http://www.havant.gov.uk,-0.97571400000000,PO11 9BL,2013-05-30,fhrs_5_en-GB,5,,FHRS,5
233810,Edenvale Lodge,63 Silvester Road,Waterlooville,,Edenvale Nursing Home,Hospitals/Childcare/Caring Premises,5,5,,71629,10,,50.89431300000000,16268,137,ehcommercial@havant.gov.uk,Havant,http://www.havant.gov.uk,-1.02751900000000,PO8 8TR,2014-06-17,fhrs_4_en-GB,4,,FHRS,5
233811,Garden Centre,Bartons Road,Havant,,Edinburgh Woolen Mill,Retailers - other,4613,,,71904,,,50.86654600000000,16349,137,ehcommercial@havant.gov.uk,Havant,http://www.havant.gov.uk,-0.96098100000000,PO9 5NA,2014-01-10,fhrs_exempt_en-GB,Exempt,,FHRS,
233812,Unit 8,Dukes Walk,Waterlooville,,Edinburgh Woollen Mill,Retailers - other,4613,,,71900,,,50.87941000000000,16347,137,ehcommercial@havant.gov.uk,Havant,http://www.havant.gov.uk,-1.03051600000000,PO7 7HS,2014-01-22,fhrs_exempt_en-GB,Exempt,,FHRS,
233813,12 Muriel Road,Waterlooville,,,Ella's Cupcakes,Other catering premises,7841,5,,548829,5,,50.88482100000000,13207,137,ehcommercial@havant.gov.uk,Havant,http://www.havant.gov.uk,-1.03229400000000,PO7 7TE,2013-04-30,fhrs_5_en-GB,5,,FHRS,5
233814,23 Haven Road,Hayling Island,,,Elliotts Club,Restaurant/Cafe/Canteen,1,5,,90533,5,,50.78231800000000,247,137,ehcommercial@havant.gov.uk,Havant,http://www.havant.gov.uk,-0.94575500000000,PO119RX,2014-05-22,fhrs_5_en-GB,5,,FHRS,5
233815,37A Park Parade,Havant,,,Ellys Convenience Store,Retailers - other,4613,,,96764,,,50.86643500000000,297,137,ehcommercial@havant.gov.uk,Havant,http://www.havant.gov.uk,-0.98406100000000,PO9 5AA,2014-01-15,fhrs_exempt_en-GB,Exempt,,FHRS,
233816,10 Rails Lane,Hayling Island,,,Ellys Wine Stores,Retailers - other,4613,,,128236,,,50.78167200000000,581,137,ehcommercial@havant.gov.uk,Havant,http://www.havant.gov.uk,-0.96499000000000,PO119LL,2013-06-26,fhrs_exempt_en-GB,Exempt,,FHRS,
233817,129-131 Elm Grove,Hayling Island,,,Elm Masala,Takeaway/sandwich shop,7844,5,,64041,5,,50.79250800000000,14167,137,ehcommercial@havant.gov.uk,Havant,http://www.havant.gov.uk,-0.97719400000000,PO11 9ED,2014-03-26,fhrs_5_en-GB,5,,FHRS,5
233818,61A New Lane,Havant,,,Elmleigh,Hospitals/Childcare/Caring Premises,5,0,,143766,0,,50.85653200000000,8140,137,ehcommercial@havant.gov.uk,Havant,http://www.havant.gov.uk,-0.97559600000000,PO9 2JJ,2014-01-09,fhrs_5_en-GB,5,,FHRS,0
233819,The Pavilion,Recreation Ground,Horndean Road,Emsworth,Emsworth Bowling Club,Other catering premises,7841,,,125399,,,50.85547700000000,539,137,ehcommercial@havant.gov.uk,Havant,http://www.havant.gov.uk,-0.94011500000000,PO107PT,2012-07-02,fhrs_exempt_en-GB,Exempt,,FHRS,
233820,Emsworth Community Centre,North Street,Emsworth,,Emsworth Community Association,Other catering premises,7841,,,142799,,,50.84814400000000,798,137,ehcommercial@havant.gov.uk,Havant,http://www.havant.gov.uk,-0.93769600000000,PO10 7DD,2014-12-04,fhrs_exempt_en-GB,Exempt,,FHRS,
233821,Emsworth Baptist Church,North Street,Emsworth,,Emsworth Country Market,Retailers - other,4613,5,,51407,5,,50.84885600000000,11517,137,ehcommercial@havant.gov.uk,Havant,http://www.havant.gov.uk,-0.93687000000000,PO107BY,2014-01-23,fhrs_5_en-GB,5,,FHRS,5
233822,,,,,Emsworth Country Market,Other catering premises,7841,5,,637236,5,,,18714,137,ehcommercial@havant.gov.uk,Havant,http://www.havant.gov.uk,,,2014-03-10,fhrs_5_en-GB,5,,FHRS,5
233823,1A West Street,Emsworth,,,Emsworth Delicatessen,Retailers - other,4613,5,,139698,5,,50.84742700000000,755,137,ehcommercial@havant.gov.uk,Havant,http://www.havant.gov.uk,-0.93795400000000,PO107DX,2013-10-01,fhrs_5_en-GB,5,,FHRS,5
233824,Emsworth House,Emsworth House Close,Emsworth,,Emsworth House Nursing Home and Residential Home,Hospitals/Childcare/Caring Premises,5,5,,89853,0,,50.84944500000000,242,137,ehcommercial@havant.gov.uk,Havant,http://www.havant.gov.uk,-0.94823500000000,PO107JR,2015-01-06,fhrs_5_en-GB,5,,FHRS,0
233825,Emsworth Primary School,Victoria Road,Emsworth,,Emsworth Primary School,School/college/university,7845,0,,138406,0,,50.85103600000000,737,137,ehcommercial@havant.gov.uk,Havant,http://www.havant.gov.uk,-0.94814200000000,PO10 7LX,2014-03-04,fhrs_5_en-GB,5,,FHRS,5
233826,55 Bath Road,Emsworth,,,Emsworth Sailing Club (Clift's Catering),Restaurant/Cafe/Canteen,1,5,,60945,5,,50.84280100000000,13340,137,ehcommercial@havant.gov.uk,Havant,http://www.havant.gov.uk,-0.93952100000000,PO10 7ES,2013-09-26,fhrs_5_en-GB,5,,FHRS,5
233827,Emsworth Service Station,21-25 Havant Road,Emsworth,,Emsworth Service Station,Retailers - other,4613,5,,88720,5,,50.84795000000000,234,137,ehcommercial@havant.gov.uk,Havant,http://www.havant.gov.uk,-0.94102400000000,PO107JD,2014-11-05,fhrs_5_en-GB,5,,FHRS,5
233828,Quay Mill,South Street,Emsworth,,Emsworth Slipper Sailing Club,Pub/bar/nightclub,7843,5,,132747,5,,50.84440600000000,649,137,ehcommercial@havant.gov.uk,Havant,http://www.havant.gov.uk,-0.93796500000000,PO107EQ,2014-10-13,fhrs_5_en-GB,5,,FHRS,5
233829,43 Havant Road,Emsworth,,,Emsworth Sports & Social Club,Pub/bar/nightclub,7843,10,,88596,10,,50.84825700000000,233,137,ehcommercial@havant.gov.uk,Havant,http://www.havant.gov.uk,-0.94617400000000,PO107JF,2013-05-13,fhrs_3_en-GB,3,,FHRS,10
233830,209 London Road,Cowplain,Waterlooville,,European Care (Cornerstone),Hospitals/Childcare/Caring Premises,5,5,,54041,5,,50.89946400000000,12177,137,ehcommercial@havant.gov.uk,Havant,http://www.havant.gov.uk,-1.01549500000000,PO8 8ER,2014-02-06,fhrs_5_en-GB,5,,FHRS,5
233831,28 Creek Road,Hayling Island,,,Eve's,Restaurant/Cafe/Canteen,1,20,,569048,10,,50.77935200000000,17992,137,ehcommercial@havant.gov.uk,Havant,http://www.havant.gov.uk,-0.95193500000000,PO11 9RD,2014-11-21,fhrs_1_en-GB,1,,FHRS,10
233832,Fairfield Infant School,Fairfield Road,Havant,,Fairfield Infant School,School/college/university,7845,5,,73484,5,,50.85307600000000,169,137,ehcommercial@havant.gov.uk,Havant,http://www.havant.gov.uk,-0.97844100000000,PO9 1AY,2013-07-09,fhrs_5_en-GB,5,,FHRS,5
233833,46 Fairlea Road,Emsworth,,,Fairlea,Hospitals/Childcare/Caring Premises,5,5,,537023,5,,50.85977200000000,17573,137,ehcommercial@havant.gov.uk,Havant,http://www.havant.gov.uk,-0.93773000000000,PO10 7SX,2013-04-08,fhrs_5_en-GB,5,,FHRS,5
233834,98A The Brow,Waterlooville,,,Fairways,Hotel/bed & breakfast/guest house,7842,5,,57384,5,,50.85576200000000,12917,137,ehcommercial@havant.gov.uk,Havant,http://www.havant.gov.uk,-1.04387800000000,PO7 5DA,2014-03-04,fhrs_5_en-GB,5,,FHRS,5
233835,53 London Road,Waterlooville,,,Falcon News,Retailers - other,4613,10,,61029,10,,50.87824300000000,13358,137,ehcommercial@havant.gov.uk,Havant,http://www.havant.gov.uk,-1.03398000000000,PO7 7EX,2014-05-08,fhrs_3_en-GB,3,,FHRS,5
233836,66 Botley Drive,Havant,,,Farm Stores,Retailers - other,4613,5,,133377,5,,50.86684300000000,66,137,ehcommercial@havant.gov.uk,Havant,http://www.havant.gov.uk,-0.99489500000000,PO9 4QY,2013-02-08,fhrs_4_en-GB,4,,FHRS,10
233837,73-77 Greywell Road,Havant,,,Farmfoods Ltd,Retailers - supermarkets/hypermarkets,7840,5,,71186,5,,50.86747900000000,16125,137,ehcommercial@havant.gov.uk,Havant,http://www.havant.gov.uk,-0.98519000000000,PO9 5AH,2012-08-23,fhrs_5_en-GB,5,,FHRS,5
233838,3 Ridgway,Havant,,,Fat Face,Restaurant/Cafe/Canteen,1,5,,467542,5,,50.85036100000000,8927,137,ehcommercial@havant.gov.uk,Havant,http://www.havant.gov.uk,-0.99607300000000,PO9 1QJ,2013-08-19,fhrs_5_en-GB,5,,FHRS,5
233839,30 South Street,Emsworth,,,Fat Olives,Restaurant/Cafe/Canteen,1,5,,132890,5,,50.84525400000000,651,137,ehcommercial@havant.gov.uk,Havant,http://www.havant.gov.uk,-0.93727800000000,PO107EH,2014-02-06,fhrs_5_en-GB,5,,FHRS,5
233840,54 Stockheath Road,Havant,,,Fawnhope Rest Home Ltd,Hospitals/Childcare/Caring Premises,5,5,,137237,10,,50.86669300000000,720,137,ehcommercial@havant.gov.uk,Havant,http://www.havant.gov.uk,-0.98065900000000,PO9 5HQ,2014-04-16,fhrs_4_en-GB,4,,FHRS,5
233841,Trosnant Infant and Junior School,Stockheath Lane,Havant,,Federation of Trosnant Schools,School/college/university,7845,0,,137172,0,,50.86063700000000,719,137,ehcommercial@havant.gov.uk,Havant,http://www.havant.gov.uk,-0.98643200000000,PO9 3BD,2014-09-15,fhrs_5_en-GB,5,,FHRS,0
233842,Ferry Beach Kiosk Cafe,Ferry Road,Hayling Island,,Ferry Beach Kiosk,Takeaway/sandwich shop,7844,5,,74759,5,,50.79551800000000,173,137,ehcommercial@havant.gov.uk,Havant,http://www.havant.gov.uk,-1.02410800000000,PO110DG,2014-07-09,fhrs_5_en-GB,5,,FHRS,5
233843,Ferryboat Inn,Ferry Road,Hayling Island,,Ferryboat Inn,Pub/bar/nightclub,7843,5,,74267,5,,50.79551800000000,171,137,ehcommercial@havant.gov.uk,Havant,http://www.havant.gov.uk,-1.02410800000000,PO110DG,2014-09-03,fhrs_5_en-GB,5,,FHRS,5
233844,256 Havant Road,Hayling Island,,,Finiterre,Hotel/bed & breakfast/guest house,7842,5,,53965,5,,50.82920700000000,12157,137,ehcommercial@havant.gov.uk,Havant,http://www.havant.gov.uk,-0.97913300000000,PO110LW,2014-01-23,fhrs_5_en-GB,5,,FHRS,5
233845,Unit 15,Dukes Walk,Waterlooville,,Fitness First,Restaurant/Cafe/Canteen,1,,,62693,,,50.87941000000000,1386,137,ehcommercial@havant.gov.uk,Havant,http://www.havant.gov.uk,-1.03051600000000,PO7 7HS,2013-08-01,fhrs_exempt_en-GB,Exempt,,FHRS,
233846,7B Middle Park Way,Havant,,,Flame Grill,Takeaway/sandwich shop,7844,10,,69929,10,,50.86551900000000,15801,137,ehcommercial@havant.gov.uk,Havant,http://www.havant.gov.uk,-0.99985400000000,PO9 4AB,2013-07-03,fhrs_3_en-GB,3,,FHRS,10
233847,Fleet Farm Camping and Caravan Site,Yew Tree Road,Hayling Island,,Fleet Farm Caravan Park (SITE),Retailers - other,4613,,,142562,,,50.81054200000000,794,137,ehcommercial@havant.gov.uk,Havant,http://www.havant.gov.uk,-0.97553700000000,PO110QE,2013-05-22,fhrs_exempt_en-GB,Exempt,,FHRS,
233848,Tea Rooms,The Flint Barn,South Street,Emsworth,Flintstones Tea Rooms,Restaurant/Cafe/Canteen,1,5,,137889,5,,50.84440600000000,73,137,ehcommercial@havant.gov.uk,Havant,http://www.havant.gov.uk,-0.93796500000000,PO107EQ,2013-05-17,fhrs_5_en-GB,5,,FHRS,5
233849,,,,,Food Fiend Experience,Other catering premises,7841,5,,448910,5,,,17534,137,ehcommercial@havant.gov.uk,Havant,http://www.havant.gov.uk,,,2012-08-31,fhrs_5_en-GB,5,,FHRS,5
233850,12 Beechworth Road,Havant,,,for the love of cakes,Other catering premises,7841,5,,67774,5,,50.85227700000000,15142,137,ehcommercial@havant.gov.uk,Havant,http://www.havant.gov.uk,-0.97860100000000,PO9 1AX,2013-01-23,fhrs_5_en-GB,5,,FHRS,5
233851,Fox & Hounds 160 Stakes Hill Road,Waterlooville,,,Fox & Hounds,Pub/bar/nightclub,7843,0,,135600,0,,50.87017100000000,694,137,ehcommercial@havant.gov.uk,Havant,http://www.havant.gov.uk,-1.02465300000000,PO7 7BS,2012-08-01,fhrs_5_en-GB,5,,FHRS,5
233852,,,,,Freedom Fast Food,Mobile caterer,7846,5,,71143,5,,,16111,137,ehcommercial@havant.gov.uk,Havant,http://www.havant.gov.uk,,,2014-01-20,fhrs_5_en-GB,5,,FHRS,5
233853,,,,,Fresh Food on the Move,Mobile caterer,7846,10,,704636,5,,,15581,137,ehcommercial@havant.gov.uk,Havant,http://www.havant.gov.uk,,,2014-08-06,fhrs_4_en-GB,4,,FHRS,5
233854,Hayling Island Community Centre,Station Road,Hayling Island,,Friday Luncheon Club,Other catering premises,7841,10,,718169,5,,50.79028000000000,18924,137,ehcommercial@havant.gov.uk,Havant,http://www.havant.gov.uk,-0.99084800000000,PO11 0HB,2014-11-18,fhrs_4_en-GB,4,,FHRS,5
233855,Front Lawn Infant School,Broadmere Avenue,Havant,,Front Lawn Infant School,School/college/university,7845,5,,139363,5,,50.87022600000000,75,137,ehcommercial@havant.gov.uk,Havant,http://www.havant.gov.uk,-0.97853600000000,PO9 5HX,2012-11-30,fhrs_5_en-GB,5,,FHRS,5
233856,Front Lawn Infant School,Broadmere Avenue,Havant,,Front Lawn Nursery,Hospitals/Childcare/Caring Premises,5,5,,51074,5,,50.87022600000000,11408,137,ehcommercial@havant.gov.uk,Havant,http://www.havant.gov.uk,-0.97853600000000,PO9 5HX,2013-01-10,fhrs_5_en-GB,5,,FHRS,5
233857,Front Lawn Infant School,Broadmere Avenue,Havant,,Front Lawn Primary Academy School,School/college/university,7845,5,,140038,5,,50.87022600000000,76,137,ehcommercial@havant.gov.uk,Havant,http://www.havant.gov.uk,-0.97853600000000,PO9 5HX,2014-02-11,fhrs_5_en-GB,5,,FHRS,5
233858,,,,,G Paliotta,Mobile caterer,7846,5,,127820,5,,,574,137,ehcommercial@havant.gov.uk,Havant,http://www.havant.gov.uk,,,2012-01-13,fhrs_5_en-GB,5,,FHRS,5
233859,100 Fishery Lane,Hayling Island,,,Galleon Cafe,Restaurant/Cafe/Canteen,1,5,,74957,0,,50.78382600000000,174,137,ehcommercial@havant.gov.uk,Havant,http://www.havant.gov.uk,-0.96145300000000,PO11 9NR,2014-09-04,fhrs_5_en-GB,5,,FHRS,0
233860,58 Hollow Lane,Hayling Island,,,Gandhi Tandoori Restaurant,Restaurant/Cafe/Canteen,1,20,,94533,5,,50.78773900000000,277,137,ehcommercial@havant.gov.uk,Havant,http://www.havant.gov.uk,-0.97892900000000,PO119EY,2014-11-18,fhrs_1_en-GB,1,,FHRS,10
233861,,,,,Ginger Armadillo (1),Other catering premises,7841,0,,627004,0,,,18342,137,ehcommercial@havant.gov.uk,Havant,http://www.havant.gov.uk,,,2013-12-06,fhrs_5_en-GB,5,,FHRS,0
233862,,,,,Ginger Armadillo (2),Other catering premises,7841,0,,627006,0,,,18368,137,ehcommercial@havant.gov.uk,Havant,http://www.havant.gov.uk,,,2013-12-06,fhrs_5_en-GB,5,,FHRS,0
233863,16 Beechworth Road,Havant,,,Glenhurst Nursery and Pre-School,School/college/university,7845,5,,122543,5,,50.85227700000000,51,137,ehcommercial@havant.gov.uk,Havant,http://www.havant.gov.uk,-0.97860100000000,PO9 1AX,2014-09-09,fhrs_5_en-GB,5,,FHRS,5
233864,17 Washington Road,Emsworth,,,Glenwood Special School,School/college/university,7845,5,,448917,5,,50.85117900000000,635,137,ehcommercial@havant.gov.uk,Havant,http://www.havant.gov.uk,-0.94113600000000,PO107NN,2014-03-06,fhrs_5_en-GB,5,,FHRS,5
233865,380 Sea Front,Hayling Island,,,Godbey House,Hospitals/Childcare/Caring Premises,5,10,,130691,5,,50.78845100000000,620,137,ehcommercial@havant.gov.uk,Havant,http://www.havant.gov.uk,-1.00195300000000,PO110BD,2014-02-26,fhrs_4_en-GB,4,,FHRS,5
233866,100 West Street,Havant,,,Golden Town Chinese Take Away,Takeaway/sandwich shop,7844,5,,140112,5,,50.85204800000000,761,137,ehcommercial@havant.gov.uk,Havant,http://www.havant.gov.uk,-0.98636200000000,PO9 1LN,2013-09-19,fhrs_5_en-GB,5,,FHRS,5
233867,63A London Road,Cowplain,Waterlooville,,Good View Takeaway,Takeaway/sandwich shop,7844,5,,106676,5,,50.89446300000000,372,137,ehcommercial@havant.gov.uk,Havant,http://www.havant.gov.uk,-1.01857200000000,PO8 8UJ,2013-11-07,fhrs_5_en-GB,5,,FHRS,5
233868,Gorseway Retirement and Nursing Home,354 Sea Front,Hayling Island,,Gorseway Care Ltd,Hospitals/Childcare/Caring Premises,5,5,,129903,0,,50.78747600000000,609,137,ehcommercial@havant.gov.uk,Havant,http://www.havant.gov.uk,-0.99730700000000,PO110BA,2013-09-27,fhrs_5_en-GB,5,,FHRS,5
233869,Gorseway Nursery School,Farringdon House,Manor Road,Hayling Island,Gorseway Nursery School,Hospitals/Childcare/Caring Premises,5,,,493498,,,50.79887800000000,1527,137,ehcommercial@havant.gov.uk,Havant,http://www.havant.gov.uk,-0.98375300000000,PO110QL,2012-11-26,fhrs_exempt_en-GB,Exempt,,FHRS,
233870,500 Dunsbury Way,Havant,,,Grande Wines,Retailers - other,4613,,,69858,,,50.87227000000000,15784,137,ehcommercial@havant.gov.uk,Havant,http://www.havant.gov.uk,-0.99023000000000,PO9 5BL,2013-10-23,fhrs_exempt_en-GB,Exempt,,FHRS,
233871,3 Hambledon Parade,Waterlooville,,,Grande Wines Ltd.,Retailers - other,4613,,,69853,,,50.89078400000000,15782,137,ehcommercial@havant.gov.uk,Havant,http://www.havant.gov.uk,-1.04557800000000,PO7 6XE,2014-01-14,fhrs_exempt_en-GB,Exempt,,FHRS,
233872,The Greenhouse Cafe,St Peters Square,High Street,Emsworth,Greenhouse Cafe,Restaurant/Cafe/Canteen,1,5,,129406,10,,50.84642300000000,601,137,ehcommercial@havant.gov.uk,Havant,http://www.havant.gov.uk,-0.93723800000000,PO107AS,2014-02-04,fhrs_4_en-GB,4,,FHRS,5
233873,1 West Street,Havant,,,Greggs,Retailers - other,4613,5,,50846,5,,50.85144200000000,11342,137,ehcommercial@havant.gov.uk,Havant,http://www.havant.gov.uk,-0.98281000000000,PO9 1EH,2013-04-12,fhrs_5_en-GB,5,,FHRS,5
233874,302 London Road,Waterlooville,,,Greggs,Retailers - other,4613,0,,52750,0,,50.87940900000000,11942,137,ehcommercial@havant.gov.uk,Havant,http://www.havant.gov.uk,-1.03148300000000,PO7 7DS,2014-04-30,fhrs_5_en-GB,5,,FHRS,0
233875,59-61 Greywell Road,Havant,,,Greggs,Retailers - other,4613,5,,67811,0,,50.86747900000000,15154,137,ehcommercial@havant.gov.uk,Havant,http://www.havant.gov.uk,-0.98519000000000,PO9 5AH,2014-01-16,fhrs_4_en-GB,4,,FHRS,10
233876,Cowplain School,Hart Plain Avenue,Waterlooville,,Growing Places @ Hart Plain,Hospitals/Childcare/Caring Premises,5,5,,64547,0,,50.89230700000000,14368,137,ehcommercial@havant.gov.uk,Havant,http://www.havant.gov.uk,-1.02528600000000,PO8 8RY,2012-01-10,fhrs_5_en-GB,5,,FHRS,5
233877,Mill Hill Early Years Centre,Mill Road,Waterlooville,,Growing Places @ Mill Hill Nursery,Hospitals/Childcare/Caring Premises,5,5,,74112,5,,50.87394000000000,17026,137,ehcommercial@havant.gov.uk,Havant,http://www.havant.gov.uk,-1.03449500000000,PO7 7DB,2014-10-07,fhrs_5_en-GB,5,,FHRS,5
233878,Staunton Park Community School,Wakefords Way,Havant,,Growing Places@Havant Academy,Hospitals/Childcare/Caring Premises,5,5,,138503,5,,50.87638800000000,738,137,ehcommercial@havant.gov.uk,Havant,http://www.havant.gov.uk,-0.97054100000000,PO9 5JD,2015-01-13,fhrs_5_en-GB,5,,FHRS,5
233879,Mill Hill Early Years Centre,Mill Road,Waterlooville,,Growing Places@Mill Hill Pre-School,Hospitals/Childcare/Caring Premises,5,5,,115925,5,,50.87394000000000,451,137,ehcommercial@havant.gov.uk,Havant,http://www.havant.gov.uk,-1.03449500000000,PO7 7DB,2013-11-05,fhrs_5_en-GB,5,,FHRS,5
233880,Morelands Primary School,Crookhorn Lane,Waterlooville,,Growing Places@Morelands,Hospitals/Childcare/Caring Premises,5,5,,63534,5,,50.85851300000000,14014,137,ehcommercial@havant.gov.uk,Havant,http://www.havant.gov.uk,-1.03076500000000,PO7 5QL,2014-06-09,fhrs_5_en-GB,5,,FHRS,5
233881,17 High Street,Emsworth,,,H H Treagust & Sons,Retailers - other,4613,5,,93383,5,,50.84640900000000,268,137,ehcommercial@havant.gov.uk,Havant,http://www.havant.gov.uk,-0.93674100000000,PO107AQ,2014-06-05,fhrs_5_en-GB,5,,FHRS,5
233882,110A West Street,Havant,,,Hampshire County Council,Hospitals/Childcare/Caring Premises,5,5,,139937,5,,50.85204800000000,759,137,ehcommercial@havant.gov.uk,Havant,http://www.havant.gov.uk,-0.98636200000000,PO9 1LN,2012-04-05,fhrs_5_en-GB,5,,FHRS,5
233883,,,,,Hangover 911,Retailers - other,4613,,,644351,,,,18625,137,ehcommercial@havant.gov.uk,Havant,http://www.havant.gov.uk,,,2014-03-17,fhrs_exempt_en-GB,Exempt,,FHRS,
233884,79 Silvester Road,Waterlooville,,,Hart Plain Care,Hospitals/Childcare/Caring Premises,5,5,,110251,5,,50.89431300000000,4,137,ehcommercial@havant.gov.uk,Havant,http://www.havant.gov.uk,-1.02751900000000,PO8 8TR,2014-02-14,fhrs_5_en-GB,5,,FHRS,5
233885,59 Hart Plain Avenue,Waterlooville,,,Hart Plain Church,Other catering premises,7841,5,,143068,5,,50.89512200000000,802,137,ehcommercial@havant.gov.uk,Havant,http://www.havant.gov.uk,-1.03394400000000,PO8 8RG,2013-10-24,fhrs_5_en-GB,5,,FHRS,5
233886,59 Hart Plain Avenue,Waterlooville,,,Hart Plain Church Pre-School & Daycare,Hospitals/Childcare/Caring Premises,5,5,,605701,5,,50.89512200000000,17678,137,ehcommercial@havant.gov.uk,Havant,http://www.havant.gov.uk,-1.03394400000000,PO8 8RG,2013-10-23,fhrs_5_en-GB,5,,FHRS,5
233887,Hart Plain Infant School,Hart Plain Avenue,Waterlooville,,Hart Plain Junior School,School/college/university,7845,5,,85728,5,,50.89222200000000,217,137,ehcommercial@havant.gov.uk,Havant,http://www.havant.gov.uk,-1.03019300000000,PO8 8RZ,2014-07-01,fhrs_5_en-GB,5,,FHRS,5
233888,78 Bedhampton Road,Havant,,,Hartleys Stores,Retailers - other,4613,5,,116765,5,,50.85537100000000,46,137,ehcommercial@havant.gov.uk,Havant,http://www.havant.gov.uk,-1.00046900000000,PO9 3EZ,2013-01-21,fhrs_4_en-GB,4,,FHRS,10
233889,Anders House,Milton Road,Waterlooville,,Havant & District Mencap,Other catering premises,7841,,,117658,,,50.88838600000000,469,137,ehcommercial@havant.gov.uk,Havant,http://www.havant.gov.uk,-1.03499300000000,PO7 6AW,2014-12-11,fhrs_exempt_en-GB,Exempt,,FHRS,
233890,Havant Town Football Club,Martin Road,Havant,,Havant & Waterlooville FC - Burger Hut 1,Takeaway/sandwich shop,7844,10,,62266,5,,50.86690400000000,13740,137,ehcommercial@havant.gov.uk,Havant,http://www.havant.gov.uk,-0.97498500000000,PO9 5TH,2014-05-21,fhrs_4_en-GB,4,,FHRS,5
233891,Havant and Waterlooville Football Club,Martin Road,Havant,,Havant & Waterlooville Football Club - Burger Hut 2,Takeaway/sandwich shop,7844,10,,72294,5,,50.86690400000000,16463,137,ehcommercial@havant.gov.uk,Havant,http://www.havant.gov.uk,-0.97498500000000,PO9 5TH,2014-05-21,fhrs_4_en-GB,4,,FHRS,5
233892,Staunton Park Community School,Wakefords Way,Havant,,Havant Academy,School/college/university,7845,5,,74127,5,,50.87638800000000,17031,137,ehcommercial@havant.gov.uk,Havant,http://www.havant.gov.uk,-0.97054100000000,PO9 5JD,2013-09-24,fhrs_5_en-GB,5,,FHRS,5
233893,Havant Methodist Church,Petersfield Road,Havant,,Havant and Leigh Park Pastoral,Other catering premises,7841,5,,126393,0,,50.85851600000000,554,137,ehcommercial@havant.gov.uk,Havant,http://www.havant.gov.uk,-0.98240000000000,PO9 2HU,2012-03-07,fhrs_5_en-GB,5,,FHRS,5
233894,2 Penner Road,Havant,,,Havant Borough Council Southmoor Depot,Restaurant/Cafe/Canteen,1,10,,40215,0,,50.84321300000000,10092,137,ehcommercial@havant.gov.uk,Havant,http://www.havant.gov.uk,-0.99318700000000,PO9 1QH,2014-05-13,fhrs_4_en-GB,4,,FHRS,5
233895,Havant College,New Road,Havant,,Havant College Refectory,Restaurant/Cafe/Canteen,1,5,,119017,5,,50.85775900000000,483,137,ehcommercial@havant.gov.uk,Havant,http://www.havant.gov.uk,-0.98744600000000,PO9 1QL,2013-09-10,fhrs_5_en-GB,5,,FHRS,5
233896,172A Barncroft Way,Havant,,,Havant Day Services,School/college/university,7845,5,,88043,5,,50.85945100000000,23,137,ehcommercial@havant.gov.uk,Havant,http://www.havant.gov.uk,-0.99069200000000,PO9 3AL,2014-12-16,fhrs_5_en-GB,5,,FHRS,5
233897,Ex Servicemen and British Legion Club,Brockhampton Lane,Havant,,Havant Ex-Servicemen Club,Pub/bar/nightclub,7843,5,,71968,5,,50.85063500000000,16372,137,ehcommercial@havant.gov.uk,Havant,http://www.havant.gov.uk,-0.98931900000000,PO9 1LZ,2015-01-21,fhrs_5_en-GB,5,,FHRS,5
233898,36 Market Parade,Havant,,,Havant Fish Bar,Takeaway/sandwich shop,7844,5,,112630,5,,50.85339600000000,418,137,ehcommercial@havant.gov.uk,Havant,http://www.havant.gov.uk,-0.98204300000000,PO9 1QF,2014-10-28,fhrs_5_en-GB,5,,FHRS,5
233899,7 North Street Arcade,Havant,,,Havant Health Food Centre,Retailers - other,4613,0,,122555,0,,50.85334100000000,510,137,ehcommercial@havant.gov.uk,Havant,http://www.havant.gov.uk,-0.98099300000000,PO9 1PX,2012-07-26,fhrs_5_en-GB,5,,FHRS,0
233900,26 Market Parade,Havant,,,Havant Kebab,Takeaway/sandwich shop,7844,5,,70106,5,,50.85339600000000,15868,137,ehcommercial@havant.gov.uk,Havant,http://www.havant.gov.uk,-0.98204300000000,PO9 1QF,2014-04-24,fhrs_5_en-GB,5,,FHRS,5
233901,Havant Leisure Centre,Civic Centre Road,Havant,,Havant Leisure Centre - Catering,Restaurant/Cafe/Canteen,1,10,,99269,5,,50.85777200000000,3132,137,ehcommercial@havant.gov.uk,Havant,http://www.havant.gov.uk,-0.98172000000000,PO9 2AY,2014-01-08,fhrs_3_en-GB,3,,FHRS,10
233902,Public Service Plaza,Civic Centre Road,Havant,,Havant Plaza Cafe,Restaurant/Cafe/Canteen,1,5,,432868,5,,50.85760600000000,17501,137,ehcommercial@havant.gov.uk,Havant,http://www.havant.gov.uk,-0.98426700000000,PO9 2AX,2014-11-13,fhrs_5_en-GB,5,,FHRS,5
233903,Clubhouse,Hooks Lane Ground,Fraser Road,Havant,Havant Rugby Club,Pub/bar/nightclub,7843,5,,77884,5,,50.85684700000000,184,137,ehcommercial@havant.gov.uk,Havant,http://www.havant.gov.uk,-0.99330500000000,PO9 3EJ,2013-09-13,fhrs_5_en-GB,5,,FHRS,5
233904,The Pavilion,Havant Park,Park Road North,Havant,Havant Sports Club,Pub/bar/nightclub,7843,,,125944,,,50.85330300000000,546,137,ehcommercial@havant.gov.uk,Havant,http://www.havant.gov.uk,-0.98481500000000,PO9 1HE,2013-09-04,fhrs_exempt_en-GB,Exempt,,FHRS,
233905,30 Market Parade,Havant,,,Havant Tandoori,Restaurant/Cafe/Canteen,1,20,,517315,5,,50.85339600000000,17838,137,ehcommercial@havant.gov.uk,Havant,http://www.havant.gov.uk,-0.98204300000000,PO9 1QF,2014-12-04,fhrs_1_en-GB,1,,FHRS,5
233906,2 Elm Lane,Havant,,,Havant United Reformed Church,Other catering premises,7841,5,,71395,5,,50.85290000000000,162,137,ehcommercial@havant.gov.uk,Havant,http://www.havant.gov.uk,-0.98194000000000,PO9 1HL,2015-01-21,fhrs_5_en-GB,5,,FHRS,5
233907,117 Elm Grove,Hayling Island,,,Hayling Billy,Pub/bar/nightclub,7843,0,,65724,0,,50.79250800000000,148,137,ehcommercial@havant.gov.uk,Havant,http://www.havant.gov.uk,-0.97719400000000,PO119ED,2012-05-24,fhrs_4_en-GB,4,,FHRS,10
233908,16 Elm Grove,Hayling Island,,,Hayling Fruiterers,Retailers - other,4613,10,,146998,0,,50.78898000000000,9051,137,ehcommercial@havant.gov.uk,Havant,http://www.havant.gov.uk,-0.97693000000000,PO119EF,2014-05-06,fhrs_4_en-GB,4,,FHRS,5
233909,24 Alexandra Avenue,Hayling Island,,,Hayling Island Children's Home,Hospitals/Childcare/Caring Premises,5,5,,132253,5,,50.78608300000000,6404,137,ehcommercial@havant.gov.uk,Havant,http://www.havant.gov.uk,-0.98085200000000,PO119AL,2013-07-02,fhrs_5_en-GB,5,,FHRS,5
233910,Hayling Island Community Centre,Station Road,Hayling Island,,Hayling Island Community Centre,Other catering premises,7841,5,,136888,5,,50.79028000000000,714,137,ehcommercial@havant.gov.uk,Havant,http://www.havant.gov.uk,-0.99084800000000,PO110HB,2014-06-10,fhrs_5_en-GB,5,,FHRS,5
233911,Hayling Island Community Centre,Station Road,Hayling Island,,Hayling Island Cricket Club,Pub/bar/nightclub,7843,,,579122,,,50.79028000000000,18012,137,ehcommercial@havant.gov.uk,Havant,http://www.havant.gov.uk,-0.99084800000000,PO11 0HB,2013-08-09,fhrs_exempt_en-GB,Exempt,,FHRS,
233912,Hayling Island Golf Club,Links Lane,Hayling Island,,Hayling Island Golf Club - TA SPF Catetrers,Pub/bar/nightclub,7843,5,,99615,5,,50.78768700000000,316,137,ehcommercial@havant.gov.uk,Havant,http://www.havant.gov.uk,-1.00736000000000,PO110BX,2013-05-17,fhrs_5_en-GB,5,,FHRS,5
233913,Hayling Island Holiday Park,Manor Road,Hayling Island,,Hayling Island Holiday Park,Pub/bar/nightclub,7843,0,,98243,0,,50.79633200000000,3090,137,ehcommercial@havant.gov.uk,Havant,http://www.havant.gov.uk,-0.98470200000000,PO110QS,2014-03-21,fhrs_5_en-GB,5,,FHRS,5
233914,Hayling Island Post Office 5 Elm Grove,Hayling Island,,,Hayling Island Post Office,Retailers - other,4613,,,69907,,,50.78805700000000,158,137,ehcommercial@havant.gov.uk,Havant,http://www.havant.gov.uk,-0.97726300000000,PO119EB,2014-11-12,fhrs_exempt_en-GB,Exempt,,FHRS,
233915,Hayling Island Sailing Club,Sandy Point,Hayling Island,,Hayling Island Sailing Club,Pub/bar/nightclub,7843,5,,129295,0,,50.78617600000000,599,137,ehcommercial@havant.gov.uk,Havant,http://www.havant.gov.uk,-0.93681600000000,PO119SL,2014-06-05,fhrs_5_en-GB,5,,FHRS,5
233916,181-183 Havant Road,Hayling Island,,,Hayling Island Service Station - Esso,Retailers - other,4613,5,,87443,5,,50.82305500000000,226,137,ehcommercial@havant.gov.uk,Havant,http://www.havant.gov.uk,-0.98214900000000,PO110LG,2014-04-23,fhrs_5_en-GB,5,,FHRS,5
233917,37 High Street,Emsworth,,,Heidis Swiss Patisserie,Retailers - other,4613,5,,93781,0,,50.84600900000000,270,137,ehcommercial@havant.gov.uk,Havant,http://www.havant.gov.uk,-0.93628100000000,PO107AL,2013-08-13,fhrs_5_en-GB,5,,FHRS,5
233918,34 North Street,Havant,,,Heidi's Swiss Patisserie,Retailers - other,4613,5,,120178,0,,50.85316200000000,492,137,ehcommercial@havant.gov.uk,Havant,http://www.havant.gov.uk,-0.98103900000000,PO9 1PT,2014-08-29,fhrs_5_en-GB,5,,FHRS,5
233919,55 Station Road,Hayling Island,,,Heidi's Swiss Patisserie,Retailers - other,4613,5,,136777,5,,50.79152900000000,712,137,ehcommercial@havant.gov.uk,Havant,http://www.havant.gov.uk,-0.99077900000000,PO110EB,2015-01-12,fhrs_5_en-GB,5,,FHRS,5
233920,25 Mengham Road,Hayling Island,,,Heidi's Swiss Patisserie Ltd.,Restaurant/Cafe/Canteen,1,5,,605703,5,,50.78785700000000,18360,137,ehcommercial@havant.gov.uk,Havant,http://www.havant.gov.uk,-0.97594800000000,PO11 9BG,2013-10-17,fhrs_5_en-GB,5,,FHRS,5
233921,67 London Road,Cowplain,Waterlooville,,Heidi's Swiss Patisserie Ltd.,Restaurant/Cafe/Canteen,1,0,,467538,0,,50.89446300000000,17731,137,ehcommercial@havant.gov.uk,Havant,http://www.havant.gov.uk,-1.01857200000000,PO8 8UJ,2014-11-17,fhrs_5_en-GB,5,,FHRS,5
233922,The Emsworth Centre 35-37 South Street,Emsworth,,,Hewitts,Other catering premises,7841,5,,132328,5,,50.84532000000000,642,137,ehcommercial@havant.gov.uk,Havant,http://www.havant.gov.uk,-0.93760400000000,PO107EG,2014-11-05,fhrs_5_en-GB,5,,FHRS,5
233923,Station Theatre,Station Road,Hayling Island,,HIADS Ltd (H I AM. Dram. Soc.),Restaurant/Cafe/Canteen,1,0,,109397,0,,50.79324600000000,395,137,ehcommercial@havant.gov.uk,Havant,http://www.havant.gov.uk,-0.99484200000000,PO110EH,2012-07-25,fhrs_5_en-GB,5,,FHRS,0
233924,14 Portsdown Hill Road,Havant,,,High Towers,Hotel/bed & breakfast/guest house,7842,10,,127102,5,,50.85336300000000,562,137,ehcommercial@havant.gov.uk,Havant,http://www.havant.gov.uk,-1.01602600000000,PO9 3JY,2014-03-05,fhrs_4_en-GB,4,,FHRS,5
233925,,,,,Hillcrest Beachlands,Hospitals/Childcare/Caring Premises,5,5,,292049,5,,,17199,137,ehcommercial@havant.gov.uk,Havant,http://www.havant.gov.uk,,,2012-03-06,fhrs_5_en-GB,5,,FHRS,5
233926,,,,,Hillcrest Poppy Lodge,Hospitals/Childcare/Caring Premises,5,10,,54495,5,,,12285,137,ehcommercial@havant.gov.uk,Havant,http://www.havant.gov.uk,,,2012-05-23,fhrs_4_en-GB,4,,FHRS,5
233927,18B Elm Grove,Hayling Island,,,Hobbs Pharmacy,Retailers - other,4613,,,64900,,,50.78898000000000,14520,137,ehcommercial@havant.gov.uk,Havant,http://www.havant.gov.uk,-0.97693000000000,PO11 9EF,2013-11-27,fhrs_exempt_en-GB,Exempt,,FHRS,
233928,45 Meridian Centre,Havant,,,Holland & Barrett,Retailers - other,4613,5,,55634,5,,50.85233400000000,12556,137,ehcommercial@havant.gov.uk,Havant,http://www.havant.gov.uk,-0.98205200000000,PO9 1UW,2014-10-03,fhrs_5_en-GB,5,,FHRS,5
233929,7 Wellington Way,Waterlooville,,,Holland and Barrett,Retailers - other,4613,,,148516,,,50.88014400000000,9366,137,ehcommercial@havant.gov.uk,Havant,http://www.havant.gov.uk,-1.03224900000000,PO7 7ED,2014-01-28,fhrs_exempt_en-GB,Exempt,,FHRS,
233930,Hollybank,10 Lavant Drive,Havant,,Hollybank,Hospitals/Childcare/Caring Premises,5,5,,148451,0,,50.85801300000000,9346,137,ehcommercial@havant.gov.uk,Havant,http://www.havant.gov.uk,-0.97834800000000,PO9 2AW,2013-07-22,fhrs_5_en-GB,5,,FHRS,0
233931,Hollybank House,Hollybank Lane,Emsworth,,HollyBank House,Hotel/bed & breakfast/guest house,7842,10,,148738,5,,50.86779300000000,9411,137,ehcommercial@havant.gov.uk,Havant,http://www.havant.gov.uk,-0.93958000000000,PO10 7UN,2014-02-19,fhrs_4_en-GB,4,,FHRS,5
233932,11 Lovedean Lane,Waterlooville,,,Hollydale BB,Hotel/bed & breakfast/guest house,7842,5,,103220,5,,50.90288400000000,346,137,ehcommercial@havant.gov.uk,Havant,http://www.havant.gov.uk,-1.01468400000000,PO8 8HH,2013-05-15,fhrs_5_en-GB,5,,FHRS,5
233933,25 Havant Road,Hayling Island,,,Hong Kong City,Takeaway/sandwich shop,7844,10,,143052,5,,50.81165300000000,8018,137,ehcommercial@havant.gov.uk,Havant,http://www.havant.gov.uk,-0.97707400000000,PO110PT,2013-09-05,fhrs_3_en-GB,3,,FHRS,10
233934,36 Brookside Road,Havant,,,Host Catering (Apollo Fire Detectors),Restaurant/Cafe/Canteen,1,5,,144449,5,,50.84854800000000,8313,137,ehcommercial@havant.gov.uk,Havant,http://www.havant.gov.uk,-0.99239000000000,PO9 1JR,2013-05-20,fhrs_5_en-GB,5,,FHRS,5
233935,70 Botley Drive,Havant,,,Hot Wok,Takeaway/sandwich shop,7844,5,,69278,5,,50.86684300000000,15564,137,ehcommercial@havant.gov.uk,Havant,http://www.havant.gov.uk,-0.99489500000000,PO9 4QY,2014-06-05,fhrs_5_en-GB,5,,FHRS,5
233936,23 Fairbourne Close,Waterlooville,,,House of Cupcakes,Other catering premises,7841,5,,432878,5,,50.89341300000000,7796,137,ehcommercial@havant.gov.uk,Havant,http://www.havant.gov.uk,-1.02954300000000,PO8 8RL,2012-07-19,fhrs_5_en-GB,5,,FHRS,5
233937,,,,,Ice Box,Mobile caterer,7846,5,,54437,5,,,12274,137,ehcommercial@havant.gov.uk,Havant,http://www.havant.gov.uk,,,2014-04-11,fhrs_5_en-GB,5,,FHRS,5
233938,1 Sea Front,Hayling Island,,,Ice Cream Parlour,Restaurant/Cafe/Canteen,1,5,,56818,5,,50.78533935546875,12859,137,ehcommercial@havant.gov.uk,Havant,http://www.havant.gov.uk,-0.98735129833221,PO110AG,2013-05-01,fhrs_4_en-GB,4,,FHRS,10
233939,,,,,Iced Bites,Other catering premises,7841,5,,676352,5,,,17863,137,ehcommercial@havant.gov.uk,Havant,http://www.havant.gov.uk,,,2014-06-03,fhrs_5_en-GB,5,,FHRS,5
233940,27-29 Greywell Road,Havant,,,Iceland Foods Ltd,Retailers - supermarkets/hypermarkets,7840,5,,80233,5,,50.86747900000000,194,137,ehcommercial@havant.gov.uk,Havant,http://www.havant.gov.uk,-0.98519000000000,PO9 5AH,2014-04-16,fhrs_5_en-GB,5,,FHRS,5
233941,16-18 Market Parade,Havant,,,Iceland Freezer Foods Centre,Retailers - supermarkets/hypermarkets,7840,5,,112391,0,,50.85339600000000,416,137,ehcommercial@havant.gov.uk,Havant,http://www.havant.gov.uk,-0.98204300000000,PO9 1QF,2014-02-25,fhrs_5_en-GB,5,,FHRS,0
233942,22-24 Wellington Way,Waterlooville,,,Iceland Frozen Foods Plc,Retailers - supermarkets/hypermarkets,7840,5,,139437,5,,50.88014400000000,751,137,ehcommercial@havant.gov.uk,Havant,http://www.havant.gov.uk,-1.03224900000000,PO7 7ED,2013-01-08,fhrs_5_en-GB,5,,FHRS,5
233943,Imperial Palace,37 Belmont Grove,Havant,,Imperial Palace,Restaurant/Cafe/Canteen,1,20,,69461,15,,50.85552000000000,15619,137,ehcommercial@havant.gov.uk,Havant,http://www.havant.gov.uk,-1.00420200000000,PO9 3PT,2014-01-24,fhrs_1_en-GB,1,,FHRS,15
233944,Inn On The Beach,97 Sea Front,Hayling Island,,Inn On The Beach,Restaurant/Cafe/Canteen,1,5,,129628,5,,50.78645700000000,605,137,ehcommercial@havant.gov.uk,Havant,http://www.havant.gov.uk,-1.00125800000000,PO110AS,2014-11-21,fhrs_5_en-GB,5,,FHRS,5
233945,11 Southwood Road,Hayling Island,,,Island Chippy,Other catering premises,7841,0,,73169,0,,50.78223100000000,16770,137,ehcommercial@havant.gov.uk,Havant,http://www.havant.gov.uk,-0.96415500000000,PO11 9PS,2013-04-10,fhrs_5_en-GB,5,,FHRS,0
233946,Unit 3,3 Station Road,Hayling Island,,Island Pizza,Takeaway/sandwich shop,7844,5,,136487,5,,50.79058100000000,708,137,ehcommercial@havant.gov.uk,Havant,http://www.havant.gov.uk,-0.98933800000000,PO110EA,2014-06-05,fhrs_5_en-GB,5,,FHRS,5
233947,,,,,Ist Cakes Ltd.,Other catering premises,7841,5,,467531,5,,,15174,137,ehcommercial@havant.gov.uk,Havant,http://www.havant.gov.uk,,,2012-11-19,fhrs_5_en-GB,5,,FHRS,5
233948,280 London Road,Waterlooville,,,Istanbul Grill,Takeaway/sandwich shop,7844,10,,145022,10,,50.87940900000000,8485,137,ehcommercial@havant.gov.uk,Havant,http://www.havant.gov.uk,-1.03148300000000,PO7 7DS,2013-11-20,fhrs_3_en-GB,3,,FHRS,10
233949,,,,,It's Delicious Ltd.,Mobile caterer,7846,10,,704638,10,,,17467,137,ehcommercial@havant.gov.uk,Havant,http://www.havant.gov.uk,,,2014-07-07,fhrs_3_en-GB,3,,FHRS,10
233950,36 Creek Road,Hayling Island,,,J K Supermarket,Retailers - other,4613,5,,42578,5,,50.77935200000000,105,137,ehcommercial@havant.gov.uk,Havant,http://www.havant.gov.uk,-0.95193500000000,PO119RD,2014-04-07,fhrs_5_en-GB,5,,FHRS,5
233951,,,,,J. Kewell - Home Caterer,Other catering premises,7841,5,,627002,5,,,18031,137,ehcommercial@havant.gov.uk,Havant,http://www.havant.gov.uk,,,2013-12-03,fhrs_5_en-GB,5,,FHRS,5
233952,5,Queens Parade 121-123 London Road,Waterlooville,,Jade Garden,Restaurant/Cafe/Canteen,1,5,,107175,5,,50.88068100000000,377,137,ehcommercial@havant.gov.uk,Havant,http://www.havant.gov.uk,-1.03087300000000,PO7 7EB,2014-09-24,fhrs_5_en-GB,5,,FHRS,5
233953,,,,,Janet Lynch,Other catering premises,7841,,,432864,,,,17405,137,ehcommercial@havant.gov.uk,Havant,http://www.havant.gov.uk,,,2012-07-03,fhrs_exempt_en-GB,Exempt,,FHRS,
233954,54 Station Road,Hayling Island,,,Jaspers,Restaurant/Cafe/Canteen,1,5,,136978,5,,50.79238500000000,716,137,ehcommercial@havant.gov.uk,Havant,http://www.havant.gov.uk,-0.99305900000000,PO110EL,2014-01-22,fhrs_5_en-GB,5,,FHRS,5
233955,,,,,Jays Cakes & Bakes,Other catering premises,7841,0,,530753,0,,,17910,137,ehcommercial@havant.gov.uk,Havant,http://www.havant.gov.uk,,,2013-03-14,fhrs_5_en-GB,5,,FHRS,0
233956,133 Elm Grove,Hayling Island,,,Jeera Tandoori,Takeaway/sandwich shop,7844,10,,62365,5,,50.79250800000000,13772,137,ehcommercial@havant.gov.uk,Havant,http://www.havant.gov.uk,-0.97719400000000,PO11 9ED,2013-08-08,fhrs_4_en-GB,4,,FHRS,5
233957,1 Sea Front,Hayling Island,,,Jenny's Food Bar,Restaurant/Cafe/Canteen,1,5,,148944,5,,50.78533935546875,9483,137,ehcommercial@havant.gov.uk,Havant,http://www.havant.gov.uk,-0.98735129833221,PO110AG,2014-10-30,fhrs_5_en-GB,5,,FHRS,5
233958,77 Horndean Road,Emsworth,,,Jingles Hotel,Hotel/bed & breakfast/guest house,7842,10,,95418,5,,50.85760200000000,284,137,ehcommercial@havant.gov.uk,Havant,http://www.havant.gov.uk,-0.94334900000000,PO107PU,2013-11-20,fhrs_3_en-GB,3,,FHRS,10
233959,,,,,Joe Dagostino,Retailers - other,4613,10,,129092,5,,,595,137,ehcommercial@havant.gov.uk,Havant,http://www.havant.gov.uk,,,2014-07-29,fhrs_4_en-GB,4,,FHRS,5
233960,6-8 Rails Lane,Hayling Island,,,JR's Diner,Restaurant/Cafe/Canteen,1,10,,73120,10,,50.78167200000000,16749,137,ehcommercial@havant.gov.uk,Havant,http://www.havant.gov.uk,-0.96499000000000,PO11 9LL,2014-09-04,fhrs_3_en-GB,3,,FHRS,10
233961,38 Market Parade,Havant,,,Just Dessertz Ltd,Restaurant/Cafe/Canteen,1,5,,705392,5,,50.85339600000000,412,137,ehcommercial@havant.gov.uk,Havant,http://www.havant.gov.uk,-0.98204300000000,PO9 1QF,2014-10-28,fhrs_5_en-GB,5,,FHRS,5
233962,,,,,Kate Lou's Cakes,Other catering premises,7841,5,,209629,0,,,17175,137,ehcommercial@havant.gov.uk,Havant,http://www.havant.gov.uk,,,2012-03-01,fhrs_5_en-GB,5,,FHRS,0
233963,26 Station Road,Hayling Island,,,Kebab Pizza Planet,Takeaway/sandwich shop,7844,5,,68859,5,,50.79129400000000,15415,137,ehcommercial@havant.gov.uk,Havant,http://www.havant.gov.uk,-0.98962000000000,PO11 0EG,2013-03-26,fhrs_5_en-GB,5,,FHRS,5
233964,327 Milton Road,Cowplain,Waterlooville,,Kens Kebabs & Speedy Pizza,Takeaway/sandwich shop,7844,5,,56812,10,,50.90245600000000,12856,137,ehcommercial@havant.gov.uk,Havant,http://www.havant.gov.uk,-1.02265700000000,PO8 8LH,2014-01-23,fhrs_4_en-GB,4,,FHRS,5
233965,,,,,Kerry Palmer Cakes,Other catering premises,7841,5,,517313,5,,,17411,137,ehcommercial@havant.gov.uk,Havant,http://www.havant.gov.uk,,,2013-03-04,fhrs_5_en-GB,5,,FHRS,5
233966,,,,,Kevs Kitchen,Mobile caterer,7846,10,,41010,5,,,10198,137,ehcommercial@havant.gov.uk,Havant,http://www.havant.gov.uk,,,2014-05-08,fhrs_4_en-GB,4,,FHRS,5
233967,8 Highfield Parade,Waterlooville,,,Keys News,Retailers - other,4613,,,94106,,,50.88583200000000,273,137,ehcommercial@havant.gov.uk,Havant,http://www.havant.gov.uk,-1.01990500000000,PO7 7QH,2015-01-15,fhrs_exempt_en-GB,Exempt,,FHRS,
233968,149 London Road,Cowplain,Waterlooville,,KFC,Restaurant/Cafe/Canteen,1,5,,103093,5,,50.89694200000000,345,137,ehcommercial@havant.gov.uk,Havant,http://www.havant.gov.uk,-1.01708400000000,PO8 8XJ,2014-01-07,fhrs_5_en-GB,5,,FHRS,5
233969,2 Park Way,Havant,,,KFC,Restaurant/Cafe/Canteen,1,5,,57434,5,,50.85307300000000,12922,137,ehcommercial@havant.gov.uk,Havant,http://www.havant.gov.uk,-0.98734900000000,PO9 1HH,2014-06-06,fhrs_4_en-GB,4,,FHRS,10
233970,5 Middle Park Way,Havant,,,Khan's Balti House,Restaurant/Cafe/Canteen,1,5,,72632,0,,50.86551900000000,16555,137,ehcommercial@havant.gov.uk,Havant,http://www.havant.gov.uk,-0.99985400000000,PO9 4AB,2014-06-05,fhrs_5_en-GB,5,,FHRS,0
233971,Mill Rythe Junior and Infant School,Havant Road,Hayling Island,,Kidzone,Hospitals/Childcare/Caring Premises,5,5,,66333,5,,50.80112300000000,14922,137,ehcommercial@havant.gov.uk,Havant,http://www.havant.gov.uk,-0.97104600000000,PO11 0PA,2014-02-19,fhrs_5_en-GB,5,,FHRS,5
233972,Bidbury First and Middle School,Fraser Road,Havant,,Kidzone 3,Hospitals/Childcare/Caring Premises,5,,,68502,,,50.85639300000000,15311,137,ehcommercial@havant.gov.uk,Havant,http://www.havant.gov.uk,-0.99793300000000,PO9 3EF,2013-02-14,fhrs_exempt_en-GB,Exempt,,FHRS,
233973,Padnell Junior School,Padnell Road,Waterlooville,,Kidzone PJs Club,Hospitals/Childcare/Caring Premises,5,5,,68500,5,,50.89456500000000,15310,137,ehcommercial@havant.gov.uk,Havant,http://www.havant.gov.uk,-1.01255600000000,PO8 8EA,2013-01-09,fhrs_5_en-GB,5,,FHRS,5
233974,3 Lavender Road,Waterlooville,,,Kim & Laurie,Takeaway/sandwich shop,7844,0,,61180,0,,50.87431200000000,13409,137,ehcommercial@havant.gov.uk,Havant,http://www.havant.gov.uk,-1.01976300000000,PO7 8NS,2013-07-04,fhrs_5_en-GB,5,,FHRS,0
233975,68 St Albans Road,Havant,,,Kingfryer,Takeaway/sandwich shop,7844,5,,134289,5,,50.86302500000000,676,137,ehcommercial@havant.gov.uk,Havant,http://www.havant.gov.uk,-0.97364900000000,PO9 2JY,2013-08-29,fhrs_5_en-GB,5,,FHRS,5
233976,,,,,Kristiannes Cake Boutique,Other catering premises,7841,5,,576007,5,,,17497,137,ehcommercial@havant.gov.uk,Havant,http://www.havant.gov.uk,,,2013-07-31,fhrs_5_en-GB,5,,FHRS,5
233977,19 West Street,Havant,,,La Bonne Baguette,Restaurant/Cafe/Canteen,1,10,,140896,5,,50.85152600000000,770,137,ehcommercial@havant.gov.uk,Havant,http://www.havant.gov.uk,-0.98417200000000,PO9 1ER,2014-01-15,fhrs_4_en-GB,4,,FHRS,5
233978,Lakeside Holiday Village,Fishery Lane,Hayling Island,,Lakeside Coastal Village,Restaurant/Cafe/Canteen,1,5,,97516,5,,50.78382600000000,3030,137,ehcommercial@havant.gov.uk,Havant,http://www.havant.gov.uk,-0.96145300000000,PO119NR,2014-11-11,fhrs_5_en-GB,5,,FHRS,5
233979,Lane End House,Lane End Drive,Emsworth,,Lane End House,Hospitals/Childcare/Caring Premises,5,5,,97115,5,,50.84715100000000,300,137,ehcommercial@havant.gov.uk,Havant,http://www.havant.gov.uk,-0.94215000000000,PO107JH,2014-11-27,fhrs_5_en-GB,5,,FHRS,5
233980,Langstone Sailing Club,Langstone Road,Havant,,Langstone Sailing Club,Pub/bar/nightclub,7843,5,,97509,5,,50.83827300000000,303,137,ehcommercial@havant.gov.uk,Havant,http://www.havant.gov.uk,-0.98140600000000,PO9 1RD,2013-11-04,fhrs_5_en-GB,5,,FHRS,5
233981,Rest Home 137-139 Stakes Road,Waterlooville,,,Latham Lodge Nursing & Residential Home,Hospitals/Childcare/Caring Premises,5,5,,136051,5,,50.86563400000000,701,137,ehcommercial@havant.gov.uk,Havant,http://www.havant.gov.uk,-1.03381400000000,PO7 5PD,2014-11-25,fhrs_5_en-GB,5,,FHRS,5
233982,Park Lodge,7 Park Road North,Havant,,Laura's Kitchen Ltd.,Restaurant/Cafe/Canteen,1,5,,369082,5,,50.85205000000000,16928,137,ehcommercial@havant.gov.uk,Havant,http://www.havant.gov.uk,-0.98451600000000,PO9 1HE,2014-01-14,fhrs_5_en-GB,5,,FHRS,0
233983,8 North Street,Havant,,,Lavender Tea Rooms,Restaurant/Cafe/Canteen,1,5,,644353,5,,50.85184200000000,18709,137,ehcommercial@havant.gov.uk,Havant,http://www.havant.gov.uk,-0.98122400000000,PO9 1PR,2014-04-04,fhrs_5_en-GB,5,,FHRS,5
233984,Lawn Tennis and Squash Club,Southleigh Road,Havant,,Lawn Tennis & Squash Club (Chef Sam @ The Avenue),Pub/bar/nightclub,7843,0,,209627,0,,50.85141500000000,17081,137,ehcommercial@havant.gov.uk,Havant,http://www.havant.gov.uk,-0.96850500000000,PO9 2RS,2013-03-05,fhrs_5_en-GB,5,,FHRS,0
233985,14 North Street,Emsworth,,,Le Petit Pain,Retailers - other,4613,5,,120846,10,,50.84878800000000,497,137,ehcommercial@havant.gov.uk,Havant,http://www.havant.gov.uk,-0.93731200000000,PO107DG,2013-10-21,fhrs_3_en-GB,3,,FHRS,10
233986,7 Greywell Road,Havant,,,Leigh Cafe,Restaurant/Cafe/Canteen,1,10,,144410,5,,50.86736200000000,8302,137,ehcommercial@havant.gov.uk,Havant,http://www.havant.gov.uk,-0.98522000000000,PO9 5AH,2014-08-06,fhrs_4_en-GB,4,,FHRS,5
233987,Pavilion,Front Lawn Recreation Ground,Somborne Drive,Havant,Leigh Park Bowling Club,Pub/bar/nightclub,7843,,,132276,,,50.86822200000000,641,137,ehcommercial@havant.gov.uk,Havant,http://www.havant.gov.uk,-0.98272900000000,PO9 5AN,2014-05-06,fhrs_exempt_en-GB,Exempt,,FHRS,
233988,1 Swaythling Road,Havant,,,Leigh Park Tandoori Food Centre,Takeaway/sandwich shop,7844,10,,137765,5,,50.87366500000000,728,137,ehcommercial@havant.gov.uk,Havant,http://www.havant.gov.uk,-0.99551600000000,PO9 4NF,2013-09-19,fhrs_4_en-GB,4,,FHRS,5
233989,439 Dunsbury Way,Havant,,,Leigh Park Working Mens Club,Pub/bar/nightclub,7843,5,,55799,5,,50.87130100000000,126,137,ehcommercial@havant.gov.uk,Havant,http://www.havant.gov.uk,-0.99046400000000,PO9 5BD,2013-03-06,fhrs_5_en-GB,5,,FHRS,5
233990,,,,,Lena's Mobile,Mobile caterer,7846,10,,73688,10,,,16981,137,ehcommercial@havant.gov.uk,Havant,http://www.havant.gov.uk,,,2014-01-08,fhrs_3_en-GB,3,,FHRS,5
233991,31A-33A London Road,Cowplain,Waterlooville,,Lidl,Retailers - supermarkets/hypermarkets,7840,0,,102718,0,,50.89322400000000,342,137,ehcommercial@havant.gov.uk,Havant,http://www.havant.gov.uk,-1.01983600000000,PO8 8DF,2014-01-23,fhrs_5_en-GB,5,,FHRS,0
233992,Lidl Supermarket,Somborne Drive,Havant,,Lidl,Retailers - supermarkets/hypermarkets,7840,0,,61800,0,,50.86822200000000,13607,137,ehcommercial@havant.gov.uk,Havant,http://www.havant.gov.uk,-0.98272900000000,PO9 5AN,2015-01-13,fhrs_5_en-GB,5,,FHRS,0
233993,12 Creek Road,Hayling Island,,,Lily Sugars,Pub/bar/nightclub,7843,10,,49932,5,,50.77935200000000,111,137,ehcommercial@havant.gov.uk,Havant,http://www.havant.gov.uk,-0.95193500000000,PO119RD,2013-11-27,fhrs_4_en-GB,4,,FHRS,5
233994,17A Linda Grove,Waterlooville,,,Linda Grove Care Home,Hospitals/Childcare/Caring Premises,5,5,,99517,5,,50.89525500000000,315,137,ehcommercial@havant.gov.uk,Havant,http://www.havant.gov.uk,-1.02188300000000,PO8 8UX,2013-12-04,fhrs_4_en-GB,4,,FHRS,10
233995,147 Milton Road,Cowplain,Waterlooville,,Lin's Wok,Restaurant/Cafe/Canteen,1,5,,509198,5,,50.89297100000000,17696,137,ehcommercial@havant.gov.uk,Havant,http://www.havant.gov.uk,-1.03265200000000,PO8 8RE,2014-06-27,fhrs_5_en-GB,5,,FHRS,5
233996,Unit 51,Broadmarsh Business and Innovation Centre,Harts Farm Way,Havant,Lisa T'S Snack Bar,Takeaway/sandwich shop,7844,5,,73114,5,,50.84698900000000,16744,137,ehcommercial@havant.gov.uk,Havant,http://www.havant.gov.uk,-1.00137300000000,PO9 1HS,2015-01-06,fhrs_5_en-GB,5,,FHRS,5
233997,Little Acorns Nursery School,Waterberry Drive,Waterlooville,,Little Acorns Nursery School,Hospitals/Childcare/Caring Premises,5,5,,139000,0,,50.88635300000000,743,137,ehcommercial@havant.gov.uk,Havant,http://www.havant.gov.uk,-1.04150300000000,PO7 7UN,2014-04-30,fhrs_5_en-GB,5,,FHRS,0
233998,64 Hazleton Way,Waterlooville,,,Little Gems Day Nursery,Hospitals/Childcare/Caring Premises,5,5,,467534,5,,50.89978300000000,17440,137,ehcommercial@havant.gov.uk,Havant,http://www.havant.gov.uk,-1.00752500000000,PO8 9BT,2014-08-12,fhrs_5_en-GB,5,,FHRS,5
233999,,,,,Little Miss Lunch Box,Other catering premises,7841,5,,704635,5,,,13516,137,ehcommercial@havant.gov.uk,Havant,http://www.havant.gov.uk,,,2014-07-15,fhrs_5_en-GB,5,,FHRS,5
234000,,,,,Liza Reeves,Other catering premises,7841,0,,128077,0,,,5783,137,ehcommercial@havant.gov.uk,Havant,http://www.havant.gov.uk,,,2014-05-12,fhrs_5_en-GB,5,,FHRS,0
234001,9-11 Mengham Road,Hayling Island,,,Lloyds Chemist,Retailers - other,4613,,,113688,,,50.78785700000000,427,137,ehcommercial@havant.gov.uk,Havant,http://www.havant.gov.uk,-0.97594800000000,PO119BG,2013-06-26,fhrs_exempt_en-GB,Exempt,,FHRS,
234002,Unit 2,Central Buildings,West Street,Emsworth,Lloyds Chemist Plc,Retailers - other,4613,,,139583,,,50.84814400000000,753,137,ehcommercial@havant.gov.uk,Havant,http://www.havant.gov.uk,-0.93769600000000,PO107DD,2013-09-26,fhrs_exempt_en-GB,Exempt,,FHRS,
234003,30 Station Road,Hayling Island,,,Lloyds Chemists,Retailers - other,4613,,,136400,,,50.79129400000000,707,137,ehcommercial@havant.gov.uk,Havant,http://www.havant.gov.uk,-0.98962000000000,PO110EG,2013-05-17,fhrs_exempt_en-GB,Exempt,,FHRS,
234004,1 Worldham Road,Havant,,,Londis,Retailers - other,4613,5,,142447,5,,50.87316500000000,792,137,ehcommercial@havant.gov.uk,Havant,http://www.havant.gov.uk,-0.96609200000000,PO9 5LL,2013-07-18,fhrs_5_en-GB,5,,FHRS,5
234005,48 Frogmore Lane,Waterlooville,,,Londis,Retailers - other,4613,5,,432859,0,,50.90754900000000,16430,137,ehcommercial@havant.gov.uk,Havant,http://www.havant.gov.uk,-1.01979100000000,PO8 9QL,2014-01-23,fhrs_5_en-GB,5,,FHRS,0
234006,40-42 Park Parade,Havant,,,Lord George Amusements,Retailers - other,4613,,,72260,,,50.86678700000000,1645,137,ehcommercial@havant.gov.uk,Havant,http://www.havant.gov.uk,-0.98425200000000,PO9 5AD,2013-07-03,fhrs_exempt_en-GB,Exempt,,FHRS,
234007,20 Lower Road,Havant,,,Lorraine's Cakes & Bakes,Other catering premises,7841,5,,530751,5,,50.85219800000000,17860,137,ehcommercial@havant.gov.uk,Havant,http://www.havant.gov.uk,-1.00589300000000,PO9 3LH,2013-03-12,fhrs_5_en-GB,5,,FHRS,5
234008,,,,,Lou Mac,Mobile caterer,7846,5,,676357,5,,,18810,137,ehcommercial@havant.gov.uk,Havant,http://www.havant.gov.uk,,,2014-04-22,fhrs_5_en-GB,5,,FHRS,5
234009,22 Bevan Road,Waterlooville,,,Love - Coffee UK,Retailers - other,4613,5,,432862,5,,50.90506800000000,17377,137,ehcommercial@havant.gov.uk,Havant,http://www.havant.gov.uk,-1.01997100000000,PO8 9QH,2012-07-13,fhrs_5_en-GB,5,,FHRS,5
234010,341 Milton Road,Cowplain,Waterlooville,,Lovedean Tandoori,Takeaway/sandwich shop,7844,5,,74051,5,,50.90245600000000,170,137,ehcommercial@havant.gov.uk,Havant,http://www.havant.gov.uk,-1.02265700000000,PO8 8LH,2013-09-18,fhrs_4_en-GB,4,,FHRS,10
234011,26 Winifred Road,Waterlooville,,,Lucy Owen Catering Co,Other catering premises,7841,5,,66272,5,,50.88381300000000,14911,137,ehcommercial@havant.gov.uk,Havant,http://www.havant.gov.uk,-1.03115000000000,PO7 7TD,2014-05-06,fhrs_5_en-GB,5,,FHRS,5
234012,46 Greywell Road,Havant,,,M D Chaudhry Pharmacy Ltd,Retailers - other,4613,,,83389,,,50.86725300000000,204,137,ehcommercial@havant.gov.uk,Havant,http://www.havant.gov.uk,-0.98411400000000,PO9 5AL,2013-08-29,fhrs_exempt_en-GB,Exempt,,FHRS,
234013,,,,,Macs Mobile,Mobile caterer,7846,5,,53756,5,,,121,137,ehcommercial@havant.gov.uk,Havant,http://www.havant.gov.uk,,,2014-04-22,fhrs_5_en-GB,5,,FHRS,5
234014,232B Sea Front,Hayling Island,,,Mad Hatters,Restaurant/Cafe/Canteen,1,5,,493503,5,,50.78613500000000,17824,137,ehcommercial@havant.gov.uk,Havant,http://www.havant.gov.uk,-0.98883800000000,PO11 0AU,2013-05-20,fhrs_5_en-GB,5,,FHRS,5
234015,,,,,Madhatters Tea Room,Other catering premises,7841,5,,704646,5,,,18983,137,ehcommercial@havant.gov.uk,Havant,http://www.havant.gov.uk,,,2014-09-10,fhrs_5_en-GB,5,,FHRS,5
234016,5A Park Road South,Havant,,,Majestic Wine Warehouse,Retailers - other,4613,,,627010,,,50.85145700000000,18543,137,ehcommercial@havant.gov.uk,Havant,http://www.havant.gov.uk,-0.98450000000000,PO9 1HA,2013-12-06,fhrs_exempt_en-GB,Exempt,,FHRS,
234017,Malmesbury Lawn,Woolston Road,Havant,,Malmesbury Lawn (Part 111 (LA)),Hospitals/Childcare/Caring Premises,5,5,,142332,0,,50.87368600000000,790,137,ehcommercial@havant.gov.uk,Havant,http://www.havant.gov.uk,-1.00010600000000,PO9 4JY,2014-08-11,fhrs_5_en-GB,5,,FHRS,5
234018,10 Wellington Retail Park,2 Hambledon Road,Waterlooville,,Marks & Spencer,Retailers - supermarkets/hypermarkets,7840,0,,676356,0,,50.88219900000000,18803,137,ehcommercial@havant.gov.uk,Havant,http://www.havant.gov.uk,-1.03391200000000,PO7 7FG,2014-05-27,fhrs_5_en-GB,5,,FHRS,0
234019,244B London Road,Waterlooville,,,Massalla Hut,Takeaway/sandwich shop,7844,5,,50848,5,,50.87845800000000,11343,137,ehcommercial@havant.gov.uk,Havant,http://www.havant.gov.uk,-1.03281000000000,PO7 7HG,2013-09-23,fhrs_5_en-GB,5,,FHRS,5
234020,6,Wellington Retail Park 2 Hambledon Road,Waterlooville,,Matalan,Retailers - other,4613,,,80874,,,50.88203500000000,1966,137,ehcommercial@havant.gov.uk,Havant,http://www.havant.gov.uk,-1.03361700000000,PO7 7FG,2013-02-05,fhrs_exempt_en-GB,Exempt,,FHRS,
234021,28 Fishery Lane,Hayling Island,,,McColls,Retailers - other,4613,10,,52745,5,,50.78382600000000,11941,137,ehcommercial@havant.gov.uk,Havant,http://www.havant.gov.uk,-0.96145300000000,PO119NR,2013-07-22,fhrs_4_en-GB,4,,FHRS,5
234022,44-46 Park Parade,Havant,,,McColls,Retailers - other,4613,5,,51924,5,,50.86678700000000,11671,137,ehcommercial@havant.gov.uk,Havant,http://www.havant.gov.uk,-0.98425200000000,PO9 5AD,2013-08-08,fhrs_5_en-GB,5,,FHRS,5
234023,6 Hambledon Parade,Waterlooville,,,McColls,Retailers - other,4613,5,,51951,5,,50.89078400000000,11682,137,ehcommercial@havant.gov.uk,Havant,http://www.havant.gov.uk,-1.04557800000000,PO7 6XE,2014-03-26,fhrs_5_en-GB,5,,FHRS,5
234024,McDonalds Restaurant,Larchwood Avenue,Havant,,McDonald's,Restaurant/Cafe/Canteen,1,0,,569051,0,,,18176,137,ehcommercial@havant.gov.uk,Havant,http://www.havant.gov.uk,,P09 3QW,2013-06-06,fhrs_5_en-GB,5,,FHRS,0
234025,31-33 West Street,Havant,,,McDonald's Restaurant Ltd,Restaurant/Cafe/Canteen,1,5,,139638,5,,50.85152600000000,754,137,ehcommercial@havant.gov.uk,Havant,http://www.havant.gov.uk,-0.98417200000000,PO9 1ER,2014-06-06,fhrs_5_en-GB,5,,FHRS,5
234026,Meadow Farm Nursery,Woodgaston Lane,Hayling Island,,Meadow Farm Nursery,Restaurant/Cafe/Canteen,1,5,,627009,5,,50.81402700000000,18531,137,ehcommercial@havant.gov.uk,Havant,http://www.havant.gov.uk,-0.96076900000000,PO11 0RL,2014-01-14,fhrs_5_en-GB,5,,FHRS,5
234027,Mengeham Rythe Sailing Club,Marine Walk,Hayling Island,,Mengeham Rythe Sailing Club,Pub/bar/nightclub,7843,5,,128979,5,,50.78801900000000,593,137,ehcommercial@havant.gov.uk,Havant,http://www.havant.gov.uk,-0.95977100000000,PO119PG,2013-04-26,fhrs_5_en-GB,5,,FHRS,5
234028,Mengham Infant School,St Marys Road,Hayling Island,,Mengham Infant School,School/college/university,7845,5,,134896,5,,50.79265700000000,684,137,ehcommercial@havant.gov.uk,Havant,http://www.havant.gov.uk,-0.97886500000000,PO119DD,2013-07-05,fhrs_5_en-GB,5,,FHRS,5
234029,Mengham Junior School,Palmerston Road,Hayling Island,,Mengham Junior School,School/college/university,7845,0,,123587,5,,50.79148900000000,520,137,ehcommercial@havant.gov.uk,Havant,http://www.havant.gov.uk,-0.97591100000000,PO119ET,2014-01-22,fhrs_5_en-GB,5,,FHRS,0
234030,Merok House Rest and Convalescent Home,46 New Brighton Road,Emsworth,,Merok House Rest Home,Hospitals/Childcare/Caring Premises,5,5,,117978,5,,50.85606500000000,473,137,ehcommercial@havant.gov.uk,Havant,http://www.havant.gov.uk,-0.93653600000000,PO107QR,2015-01-26,fhrs_5_en-GB,5,,FHRS,5
234031,,,,,Michele Bakes Cakes,Other catering premises,7841,0,,209630,0,,,17186,137,ehcommercial@havant.gov.uk,Havant,http://www.havant.gov.uk,,,2012-02-28,fhrs_5_en-GB,5,,FHRS,0
234032,75 Mill Road,Waterlooville,,,Mill Hill Primary School,School/college/university,7845,5,,115704,5,,50.87224100000000,449,137,ehcommercial@havant.gov.uk,Havant,http://www.havant.gov.uk,-1.03127600000000,PO7 7DH,2013-07-03,fhrs_5_en-GB,5,,FHRS,5
234033,55 Havant Road,Emsworth,,,Mill Pond Cakes,Other catering premises,7841,0,,55539,0,,50.84829500000000,12530,137,ehcommercial@havant.gov.uk,Havant,http://www.havant.gov.uk,-0.94634300000000,PO107NY,2014-05-07,fhrs_5_en-GB,5,,FHRS,0
234034,Mill Rythe Holiday Village 16 Havant Road,Hayling Island,,,Mill Rythe Holiday Village,Restaurant/Cafe/Canteen,1,0,,579125,5,,50.80129000000000,3052,137,ehcommercial@havant.gov.uk,Havant,http://www.havant.gov.uk,-0.96457100000000,PO110PB,2014-01-28,fhrs_5_en-GB,5,,FHRS,5
234035,Mill Rythe Junior & Infant School,Havant Road,Hayling Island,,Mill Rythe Infant School,School/college/university,7845,5,,86635,5,,50.80112300000000,221,137,ehcommercial@havant.gov.uk,Havant,http://www.havant.gov.uk,-0.97104600000000,PO110PA,2014-01-30,fhrs_5_en-GB,5,,FHRS,5
234036,Mill Rythe Junior & Infant School,Havant Road,Hayling Island,,Mill Rythe Junior School,School/college/university,7845,5,,88345,5,,50.80112300000000,231,137,ehcommercial@havant.gov.uk,Havant,http://www.havant.gov.uk,-0.97104600000000,PO110PA,2014-01-30,fhrs_5_en-GB,5,,FHRS,5
234037,8 New Brighton Road,Emsworth,,,Millers House B&B,Hotel/bed & breakfast/guest house,7842,5,,63755,5,,50.85316900000000,14079,137,ehcommercial@havant.gov.uk,Havant,http://www.havant.gov.uk,-0.93648800000000,PO10 7PS,2014-06-24,fhrs_5_en-GB,5,,FHRS,5
234038,,,,,Milli Moo's,Mobile caterer,7846,5,,70849,5,,,16011,137,ehcommercial@havant.gov.uk,Havant,http://www.havant.gov.uk,,,2012-08-01,fhrs_5_en-GB,5,,FHRS,5
234039,141 Milton Road,Cowplain,Waterlooville,,Milton Tandoori,Takeaway/sandwich shop,7844,10,,116612,5,,50.89297100000000,458,137,ehcommercial@havant.gov.uk,Havant,http://www.havant.gov.uk,-1.03265200000000,PO8 8RE,2013-09-19,fhrs_4_en-GB,4,,FHRS,5
