,businessname,ratingvalue,structural,hygiene,confidenceinmanagement,ratingdate,latitude,longitude
261620,100% Thai,5,0,0,0,2015-02-03,51.332825,1.420997
261621,3 Little Devils Cakes,5,0,0,0,2015-01-06,,
261622,555 Pizza,5,0,0,0,2014-11-27,51.353022,1.402994
261623,99p Stores Ltd,4,0,0,10,2014-07-24,51.333723,1.419183
261624,A Dream Day,4,0,5,10,2014-02-27,,
261625,A J Cliffe and Sons Family Butcher,5,5,0,5,2013-06-24,51.334575,1.313272
261626,A La Margarida,5,0,0,0,2013-04-18,,
261627,A Treat to Eat,5,5,5,0,2014-03-31,,
261628,Abbeyfield Broadstairs Society Ltd,5,0,0,5,2015-01-06,51.355377,1.431385
261629,Abbeyfields,5,0,0,0,2014-03-14,51.384184,1.364295
261630,Addington Superstore,5,0,0,0,2014-03-17,51.331119,1.414409
261631,Age UK -  Margate,5,0,0,0,2014-03-05,51.391251,1.388738
261632,Ahoy Fishmongers,5,0,0,0,2013-07-09,51.332619,1.417579
261633,Al Madinah Foods,4,10,0,10,2014-04-04,51.389355,1.391458
261634,Albarino Tapas Restaurant Bar,4,10,0,0,2014-02-11,51.359186,1.442603
261635,Alberto's Fish and Chips,4,0,0,10,2015-01-13,51.374131,1.308024
261636,Albion Cafe,5,0,0,0,2014-03-04,51.332463,1.422923
261637,Albion House Hotel,5,5,0,0,2014-12-01,51.33336,1.422057
261638,Al-Birr Community Centre & Mosque,5,0,0,0,2013-09-27,51.38766,1.384159
261639,Aldi Store Limited,5,0,0,0,2014-11-11,51.337801,1.421856
261640,Aldi Store Ltd,4,10,0,0,2013-09-30,51.391251,1.388738
261641,Ales Of The Unexpected,4,10,0,0,2014-02-10,51.384663,1.367363
261642,Alexandra Restaurant,5,0,0,0,2014-03-04,51.332221,1.423192
261643,Alfies,5,0,0,0,2014-07-21,51.379418,1.38391
261644,Ali Raj,5,0,0,0,2014-02-03,51.385431,1.368814
261645,Allenby Late Shop,5,0,0,0,2014-03-19,51.350065,1.403235
261646,Almost News,Exempt,nan,nan,nan,2013-12-16,51.381612,1.337901
261647,Ambrette Restaurant,4,10,0,10,2013-10-02,51.389246,1.384046
261648,Ameeco Hotels Limited,5,0,0,0,2014-03-04,51.336816,1.428762
261649,Anchor Lodge,4,0,0,10,2014-08-28,51.350221,1.43607
261650,Andorra House,5,0,0,0,2013-09-18,51.385722,1.370891
261651,Andrew & Jill's General Store,Exempt,nan,nan,nan,2013-09-25,51.378311,1.383325
261652,Andrews Beer And Mineral Co,2,15,5,5,2012-09-18,51.389304,1.389183
261653,Angela's Cafe,5,0,0,0,2014-08-11,51.389336,1.380617
261654,Angelo's Delicatessen,5,5,0,0,2014-02-11,51.381717,1.339878
261655,Angels,5,0,0,0,2013-11-04,51.33542,1.421435
261656,Annie's Larder,5,0,0,0,2014-04-08,51.384231,1.381088
261657,Appollo Convenience Store,4,0,0,10,2014-04-09,51.387753,1.398312
261658,Aqua 43,5,5,0,0,2013-09-18,51.359586,1.44305
261659,Aquarius Lodge,3,5,10,10,2014-09-01,51.385331,1.396235
261660,Aquinis Continental Bakery,5,5,5,0,2014-02-18,51.382627,1.397659
261661,Arch No 9,5,0,0,0,2014-10-13,51.330413,1.417328
261662,Archie's Fish and Chips,5,0,0,0,2013-10-09,51.334422,1.314884
261663,Arepo Paradiso,5,0,0,0,2014-11-26,51.38009,1.344891
261664,Aria House Bed & Breakfast,5,0,0,0,2014-07-09,51.357643,1.436942
261665,Asda Stores Limited,5,0,0,0,2014-05-08,51.336844,1.413341
261666,Asda Stores Limited,5,5,0,0,2013-11-07,51.360817,1.414248
261667,Ashbury Court,5,5,0,5,2013-12-09,51.385256,1.335665
261668,Ashcroft House,5,5,0,0,2013-12-11,51.387782,1.392061
261669,Ashdene,5,5,0,5,2014-01-30,51.331036,1.403059
261670,Ashes Restaurant,5,0,0,0,2014-02-05,,
261671,Ask,5,0,0,0,2014-04-28,51.359503,1.392929
261672,Australian Arms,5,0,0,0,2014-11-04,51.335832,1.402697
261673,Avenue Trust,5,5,0,0,2014-10-23,51.37933,1.308643
261674,Avondale,5,0,0,0,2015-01-28,51.382411,1.342042
261675,Aysan,1,15,15,20,2014-02-07,51.332431,1.406738
261676,B & M Stores,5,0,0,0,2014-02-27,51.361918,1.398065
261677,Ba Fu Chinese Restaurant,5,0,0,0,2014-11-13,51.337969,1.419786
261678,Baba Kebab House,1,15,0,20,2013-08-16,51.379418,1.38391
261679,Babbuk Cafe,4,0,0,10,2014-05-30,51.33456,1.41702
261680,Baguetti's,5,0,0,0,2014-06-02,51.386896,1.402145
261681,Baithak Restaurant,5,0,0,0,2014-02-18,51.331827,1.418209
261682,Balmoral Wine Bar,4,10,0,0,2014-02-20,51.358994,1.442402
261683,Baltic Branch,4,0,0,10,2014-11-20,51.388881,1.379864
261684,Baltic Branch,5,0,0,0,2012-04-03,51.333159,1.419098
261685,Bandstand Kiosk,5,0,0,0,2014-06-19,51.357652,1.441842
261686,Bannatynes Health Club,5,5,0,0,2014-02-13,51.360316,1.402099
261687,Baobab Rusks,5,0,0,0,2014-06-19,51.36519,1.431127
261688,Baptist Church,5,0,0,0,2013-09-17,51.364114,1.418402
261689,Bar,5,0,0,0,2013-10-08,51.314441,1.350646
261690,Barbara's Baps,5,0,0,0,2013-10-09,51.378817,1.354802
261691,Barbies Footsteps,4,0,10,10,2014-05-21,51.371339,1.415879
261692,Barbies Playschool and,5,0,0,0,2013-09-19,51.363585,1.425101
261693,Barnaby Rudge,5,0,0,0,2013-11-04,51.359586,1.44305
261694,Barnacles,4,0,0,10,2012-03-07,51.390814,1.382379
261695,Bartlett and White Ltd,5,0,0,0,2014-03-21,51.333877,1.420386
261696,Batchelors Patisserie,5,0,0,0,2014-02-12,51.386963,1.399807
261697,Bay Guest House,5,0,0,0,2014-04-11,51.391297,1.386211
261698,Beach House,5,0,0,0,2013-10-07,51.378466,1.301667
261699,Beaches Cafe Bar,5,0,0,5,2013-10-15,51.359586,1.44305
261700,Beacon Bingo,5,0,0,0,2014-07-04,51.38657,1.377365
261701,Beano Cafe,5,5,0,0,2014-01-11,51.344663,1.398425
261702,Beano Cafe,5,5,0,0,2013-10-29,51.381717,1.339878
261703,Beano Cafe,5,0,0,0,2014-06-06,51.335725,1.416546
261704,Beano Cafe,5,5,0,0,2014-01-28,51.332431,1.406738
261705,Beano Cafe & Family Restaurant,5,5,0,5,2014-10-06,51.386939,1.379534
261706,Beano Kebab,5,5,5,0,2014-02-11,51.381717,1.339878
261707,Beano Kebabs,4,10,0,0,2014-02-06,51.359932,1.43434
261708,Bebeached,5,0,0,0,2013-05-09,51.391148,1.378608
261709,Bedford Inn,2,15,10,10,2014-01-30,51.331592,1.413008
261710,Belgian Cafe,3,10,5,10,2014-10-07,51.332221,1.423192
261711,Bell Inn,5,0,0,0,2014-04-29,51.353269,1.253857
261712,Belle Vue Tavern,4,10,0,0,2013-09-19,51.327274,1.391984
261713,Belvidere Place,5,0,0,5,2013-10-15,51.357863,1.439573
261714,Ben's Supermarket,5,5,0,0,2013-12-13,51.334575,1.313272
261715,Bentley's,5,0,0,0,2013-04-24,51.389064,1.380381
261716,Bernie's Chocolate Bar,4,0,0,10,2014-07-23,51.389325,1.380084
261717,Bessie's Tea Parlour,5,0,0,0,2014-07-18,51.359586,1.44305
261718,Best Fish & Chips,1,10,15,20,2014-05-06,51.358827,1.441039
261719,Best Kebab,4,0,0,10,2014-10-14,51.334698,1.42062
261720,Best Moon Shop,5,0,0,0,2014-03-11,51.343957,1.398588
261721,Best One,5,0,0,0,2013-11-19,51.377858,1.289047
261722,Best One,5,0,0,0,2014-03-11,51.353293,1.401089
261723,Best One,5,0,0,0,2013-12-09,51.382109,1.337176
261724,Best One Express,4,10,0,10,2014-04-10,51.360134,1.432071
261725,Best One Shop,5,0,0,0,2013-11-19,51.336424,1.404923
261726,Big E,5,0,0,0,2014-07-30,51.387753,1.398312
261727,Birchington Bowls Club,5,0,0,0,2013-10-18,51.378466,1.301667
261728,Birchington Club,5,0,0,0,2014-11-20,51.374797,1.305772
261729,Birchington Fast Foods,4,5,0,10,2013-09-24,51.3737,1.30736
261730,Birchington Primary School,5,5,0,0,2013-11-05,51.371228,1.308576
261731,Birchington United Services Club,5,0,0,0,2014-03-10,51.376093,1.304471
261732,Birchington Village Centre,5,0,0,0,2013-09-16,51.377326,1.305394
261733,Bleak House Hotel And Function Rooms,5,5,0,0,2014-02-25,51.359825,1.445022
261734,Blend,5,5,0,0,2014-10-16,51.375868,1.303823
261735,BM's Gourmet Steak Burgers,2,10,15,10,2014-04-25,,
261736,Bodrum,4,0,0,10,2014-06-09,51.33308,1.42027
261737,Bon Appetit,5,0,0,0,2014-10-07,51.331827,1.418209
261738,Booker Cash & Carry,5,5,0,0,2014-03-10,51.354229,1.410985
261739,Boots The Chemist,Exempt,nan,nan,nan,2013-09-27,51.359503,1.392929
261740,Boots The Chemist,Exempt,nan,nan,nan,2013-09-23,51.333723,1.419183
261741,Boots The Chemist Ltd,Exempt,nan,nan,nan,2013-09-18,51.382109,1.337176
261742,Botany Bay Beach Kiosk,5,0,0,0,2013-08-19,51.387263,1.438199
261743,Botany Bay Tea Gardens,5,0,0,0,2014-07-09,51.388133,1.433075
261744,Bow's Kitchen Ltd above,5,0,0,0,2014-01-23,51.38916,1.38266
261745,Bradford House,5,0,0,0,2014-05-21,,
261746,Bradstow Mill,5,0,0,0,2013-09-23,51.359615,1.43594
261747,Bradstow School,5,0,0,0,2014-01-22,51.35283,1.437285
261748,Bradstowe Lodge,5,5,0,0,2014-02-20,51.35668,1.441553
261749,Breakfast Club,5,0,0,0,2013-11-05,51.371228,1.308576
261750,Breakfast Club,5,0,0,0,2013-11-18,51.370928,1.426555
261751,Breakfast Club,5,0,0,0,2014-05-07,51.331076,1.398281
261752,Breakfast Club,5,0,0,0,2014-03-11,51.349715,1.399187
261753,Breakfast Club,5,0,0,0,2014-03-11,51.350935,1.400211
261754,Breakfast Club,5,0,0,0,2013-11-18,51.379271,1.393673
261755,Breakfast Club,5,0,0,0,2013-11-26,51.378888,1.363
261756,Breakfast Club,5,0,0,0,2014-03-05,51.345194,1.420037
261757,Breakfast Club,5,0,0,0,2014-04-29,51.335924,1.413746
261758,Breakfast Club,5,0,0,0,2014-03-10,51.376282,1.337125
261759,Breakfast Club,5,0,0,0,2012-07-17,51.34027,1.423247
261760,Breakfast Club,5,0,0,0,2014-04-23,51.338829,1.401727
261761,Breakfast Club,5,0,0,0,2013-10-03,51.369967,1.427116
261762,Breakfast Club,5,0,0,0,2013-09-19,51.379747,1.333252
261763,Brenan House,5,0,0,0,2014-11-14,51.331928,1.41042
261764,Brewers Fayre,5,0,0,0,2014-11-19,51.38539,1.372103
261765,Bright Star Nursery,4,10,0,0,2014-02-17,51.381978,1.367841
261766,British Heart Foundation,Exempt,nan,nan,nan,2013-09-20,51.386473,1.381024
261767,Broadie Bakes,5,0,0,0,2012-10-17,,
261768,Broadstairs & St Peters Bowling Club,5,0,0,0,2013-11-20,51.360211,1.436804
261769,Broadstairs & St Peters Comrades Clu,5,0,0,0,2014-05-07,51.360441,1.431102
261770,Broadstairs Cricket Club,5,0,0,0,2013-09-26,51.351432,1.426349
261771,Broadstairs Fish Bar,5,5,0,0,2014-02-14,51.360134,1.432071
261772,Broadstairs House,1,5,15,20,2014-04-10,51.355375,1.436369
261773,Broadstairs Kebab,2,10,15,10,2014-03-04,51.359615,1.43594
261774,Broadstairs Sailing Club,5,0,0,0,2014-03-24,51.359287,1.444651
261775,Broadstairs Tandoori Restaurant,4,0,0,10,2014-07-30,51.359586,1.44305
261776,Bromstone County Primary School,5,0,0,0,2014-01-08,51.356504,1.415953
261777,Buckmaster Home,5,5,0,0,2014-02-17,51.352901,1.440982
261778,Budgens Local,5,0,0,0,2013-11-18,51.337043,1.40125
261779,Budgens Local,5,0,0,0,2013-10-11,51.361038,1.431305
261780,Budget Beaters Newsagents,5,0,0,0,2014-11-04,51.381612,1.337901
261781,Bugsy's,5,5,0,0,2014-11-18,51.391503,1.393098
261782,Bumble Beez,5,0,0,0,2014-09-19,51.352087,1.409159
261783,Burger King (Uk) Ltd,5,0,0,0,2014-04-28,51.36262,1.395258
261784,Burlington Hotel,4,0,0,10,2014-01-21,51.386387,1.372464
261785,Butcher of Brogdale,5,0,0,0,2014-07-09,51.359615,1.43594
261786,Buttercup Bakery,5,0,0,0,2014-03-17,51.337859,1.413402
261787,Buttery Cafe,2,15,10,10,2014-06-26,51.357331,1.439907
261788,Bytes,5,0,0,5,2013-08-28,51.333009,1.419934
261789,C & S News,Exempt,nan,nan,nan,2013-12-09,51.386473,1.381024
261790,C Attwells,Exempt,nan,nan,nan,2013-09-19,51.333299,1.315463
261791,Cabin Cafe,5,5,0,5,2014-03-25,51.371066,1.419064
261792,Caboose Cafe,5,0,0,0,2014-03-03,51.333159,1.419098
261793,Cafe,5,0,0,0,2014-03-29,51.392671,1.408008
261794,Cafe,4,10,0,10,2013-10-10,51.338728,1.262476
261795,Cafe,5,0,0,0,2014-02-12,51.344525,1.427859
261796,Cafe,5,5,5,5,2014-02-14,51.375108,1.40413
261797,Cafe,0,20,15,20,2014-03-10,51.1696586609,0.75830000639
261798,Cafe Bee,5,5,0,0,2013-11-06,51.377858,1.289047
261799,Cafe Bello,4,10,0,5,2014-02-01,51.35896,1.438966
261800,Cafe Broadway,4,0,0,10,2014-02-25,51.360134,1.432071
261801,Cafe de China,5,5,0,5,2013-09-17,51.386939,1.379534
261802,Cafe G,5,0,0,0,2015-02-05,51.389064,1.380381
261803,Cafe Grill,5,0,0,0,2014-07-02,51.359886,1.436535
261804,Cafe Kussan,4,10,0,10,2013-09-11,51.38738,1.400039
261805,Cafe Submarine,4,5,0,10,2013-08-31,51.358994,1.442402
261806,Caffe Latte,5,0,0,0,2014-04-22,51.333159,1.419098
261807,Caffe Nero,4,10,10,0,2014-01-20,51.359503,1.392929
261808,Caffe Nero,5,0,0,0,2014-10-30,51.333723,1.419183
261809,Cains Amusements,5,0,0,0,2013-11-04,51.387753,1.398312
261810,Cake Time,5,0,0,5,2015-02-04,51.389917,1.390996
261811,Cakes by Denisa,5,0,0,0,2012-10-30,,
261812,Callis Grange County Primary School,5,0,0,0,2014-01-21,51.370928,1.426555
261813,Cambridge Villa Supported Living,5,5,0,0,2014-01-16,51.38374,1.380348
261814,Camden Arms,5,0,0,0,2013-11-29,51.334809,1.422667
261815,Cannons of Ramsgate,5,0,0,0,2014-03-27,,
261816,Captain Digby,5,5,0,0,2014-11-12,51.384716,1.440711
261817,Card Factory,Exempt,nan,nan,nan,2013-03-14,51.33419,1.418615
261818,Cardak Meze & Grill,1,10,10,20,2015-01-22,51.359615,1.43594
261819,Caretech Community Care Co Ltd,5,0,0,0,2013-11-27,51.385958,1.397576
261820,Carlton Cinema,5,5,5,0,2013-03-26,51.382106,1.336644
261821,Carole's Kitchen Creations,4,10,0,10,2012-10-18,,
261822,Cartons Boulangerie,5,5,0,0,2013-09-25,51.387237,1.381684
261823,Casino,5,0,0,0,2014-01-07,51.391251,1.388738
261824,Caterpillars Pre-School,Exempt,nan,nan,nan,2014-09-18,,
261825,Cats Whiskers,4,10,0,10,2014-02-06,51.359886,1.436535
261826,CCCP Restaurant,5,0,0,0,2014-11-20,51.336311,1.415901
261827,Charcoal Grill,5,5,0,0,2013-11-12,51.385431,1.368814
261828,Charles Dickens School,5,0,0,0,2014-04-28,51.360875,1.422112
261829,Chatham House Grammar School,5,0,0,0,2014-01-14,51.336492,1.416158
261830,Cherry Court,5,0,0,0,2014-02-13,51.372519,1.424432
261831,Chetna's Kitchen,5,0,0,0,2014-12-05,,
261832,Chiappinis Coffee Shop,5,0,0,0,2012-05-22,51.358305,1.44258
261833,Children's Nest Nursery,5,0,0,0,2013-12-09,51.336355,1.419623
261834,Chilton County Primary School,5,0,0,0,2014-01-14,51.331795,1.393021
261835,Chilton Tavern,5,0,0,0,2014-06-10,51.330196,1.391726
261836,China Chef,3,10,5,10,2014-11-20,51.383896,1.365884
261837,China City,5,0,0,0,2014-03-17,51.33165,1.406694
261838,China Man,5,0,0,0,2013-10-02,51.372952,1.421015
261839,Chiquitos,5,5,0,0,2014-01-21,51.359503,1.392929
261840,Christ Church University,5,0,0,0,2014-02-11,51.359914,1.406968
261841,Christchurch,5,0,0,0,2014-05-29,51.383166,1.338288
261842,Christchurch Junior School,5,0,0,0,2014-01-14,51.33069,1.405991
261843,Christies,5,0,0,0,2013-11-11,51.377199,1.302266
261844,Chun Chun,4,0,0,10,2014-02-11,51.353293,1.401089
261845,Chunkez,4,10,0,0,2013-03-26,51.362635,1.393175
261846,Churchill Catering,5,0,0,0,2014-02-11,51.369496,1.309371
261847,Churchill Tavern,5,0,0,0,2014-06-06,51.32935,1.414923
261848,Cinnamon Spice,5,0,0,0,2014-03-24,51.389655,1.3811
261849,Cintra Hotel,1,5,0,20,2014-04-09,51.35668,1.441553
261850,Claire's Accessories,Exempt,nan,nan,nan,2013-09-20,51.333723,1.419183
261851,Claremont Care  Home,5,0,0,0,2014-06-24,51.384856,1.400527
261852,Clarendon House Grammar School,5,0,0,0,2014-01-14,51.333258,1.415415
261853,Clarey's Artisan Chocolates,5,0,0,0,2013-02-06,,
261854,Cleveland House Ltd,5,0,0,0,2013-11-11,51.355535,1.440404
261855,Cliftonville Community Centre,5,0,0,0,2014-02-18,51.389162,1.395326
261856,Cliftonville County Primary School,5,5,0,0,2013-11-12,51.385231,1.407728
261857,Cliftonville Mini Mart,5,0,0,0,2013-11-29,51.389918,1.390997
261858,Cliftonville Off Licence,5,0,0,0,2014-04-25,51.391251,1.388738
261859,Cliftonville Outdoor Bowls Club,5,0,0,0,2014-08-13,51.39162,1.400828
261860,Cliftonville Superstore,5,0,0,0,2013-12-19,51.387339,1.397707
261861,Clock Tower Kebabs,5,0,0,0,2014-08-26,51.386939,1.379534
261862,Cloonlara B & B,5,5,5,5,2014-02-11,51.356331,1.439056
261863,Club Caprice,5,0,0,0,2014-03-31,51.391865,1.389588
261864,Club World,2,10,15,10,2014-11-06,51.38657,1.377365
261865,Co - Op Welcome,5,0,0,0,2013-09-25,51.330964,1.407706
261866,Co Op Minster,5,0,0,0,2014-11-25,51.343006,1.317931
261867,Coastal Roasters,5,0,0,0,2014-05-28,51.385321,1.428681
261868,Cock-A-Doodle-Do Coffee Shop,5,0,0,0,2014-04-23,51.366756,1.316257
261869,Coffee Corner,4,10,0,10,2014-05-07,51.359503,1.392929
261870,Coffee House,5,5,0,0,2014-04-16,51.357403,1.400834
261871,Coffee Hut,5,0,0,0,2014-05-22,51.329475,1.414028
261872,Coffee Station,5,0,0,0,2014-03-07,51.38539,1.372103
261873,Colin Brudenell Catering,5,5,0,0,2013-11-06,51.330283,1.36939
261874,Community Under 5's,5,0,0,0,2014-02-04,51.377219,1.338631
261875,Conleigh Fast Foods,5,5,0,0,2013-11-06,,
261876,Conqueror Alehouse,5,5,0,0,2013-12-13,51.33165,1.406694
261877,Continental Corner,5,5,0,0,2013-08-29,51.358155,1.441563
261878,Co-op - Westgate,5,0,0,0,2013-11-08,51.381717,1.339878
261879,Co-op Pioneer,5,0,0,0,2013-09-18,51.366546,1.417663
261880,Co-operative,5,0,0,0,2013-11-25,51.386458,1.424568
261881,Co-operative Food,4,10,0,0,2014-04-08,51.359886,1.436535
261882,Copperfields Vegetarian Guest House,1,5,0,20,2014-02-08,51.357938,1.439162
261883,Coral Betting Shop,5,0,0,0,2013-09-23,51.380552,1.399432
261884,Coral Racing Limited,Exempt,nan,nan,nan,2013-10-09,51.345372,1.398793
261885,Corbys Tearooms,1,10,0,20,2014-01-11,51.332812,1.419273
261886,Costa Coffee,4,5,10,0,2013-10-01,51.359503,1.392929
261887,Costa Coffee,3,10,5,10,2014-03-27,51.386473,1.381024
261888,Costa Coffee Drive Thru,5,0,0,0,2014-04-16,51.361918,1.398065
261889,Costcutter,5,0,0,0,2014-04-10,51.380064,1.354606
261890,Costcutter,5,0,0,0,2014-05-09,51.387358,1.382757
261891,Costcutter,5,0,0,0,2013-09-30,51.33542,1.421435
261892,Costcutter,5,0,0,0,2014-04-29,51.390034,1.389453
261893,Courts Pharmacy,Exempt,nan,nan,nan,2013-09-17,51.376093,1.304471
261894,Courts Pharmacy,Exempt,nan,nan,nan,2013-10-04,51.33165,1.406694
261895,Cramptons,5,5,0,0,2013-08-20,51.359932,1.43434
261896,Creative Foodie,5,0,0,0,2014-10-21,51.32951,1.369362
261897,Crescent  Victoria Hotel,5,0,0,0,2014-06-25,51.391428,1.386364
261898,Crescent Stores,1,15,10,20,2014-03-03,51.333472,1.410534
261899,Crown Inn,5,0,0,0,2014-02-11,51.339041,1.241503
261900,Crusties,5,5,0,0,2014-06-06,51.33308,1.42027
261901,Crusties Bakery,5,5,0,0,2013-11-25,51.358729,1.439767
261902,Crusties Bakery Ltd,3,10,10,10,2015-01-14,51.350405,1.320275
261903,Cummins Power Generation,5,0,0,0,2014-02-05,51.353078,1.321819
261904,Cup Cake Katies,5,0,0,0,2013-04-30,,
261905,Curly Top Ices,5,0,0,0,2014-05-23,,
261906,Custody Kitchen,Exempt,nan,nan,nan,2014-04-07,51.391379,1.384333
261907,Customer Restaurant,5,5,0,0,2013-11-07,51.360817,1.414248
261908,Daa's Thai Diner,3,10,10,10,2014-03-25,51.360118,1.435058
261909,Dadds Butchers,3,10,10,10,2014-02-18,51.382109,1.337176
261910,Dalby Cafe,2,15,10,0,2013-09-05,51.389779,1.392036
261911,Dame Janet County Infant School,5,0,0,0,2014-01-09,51.349715,1.399187
261912,Dame Janet County Primary Junior School,5,0,0,0,2014-01-09,51.350935,1.400211
261913,Dane Court Grammar School,5,0,0,0,2013-11-20,51.360944,1.418525
261914,Dane Valley Fish Bar,5,0,5,5,2014-02-26,51.379362,1.40045
261915,Dashwood House,5,0,0,0,2014-11-05,,
261916,Days Supermarket,Exempt,nan,nan,nan,2013-11-29,51.388401,1.395543
261917,Deanos Ices Reg PFH 518L,5,0,0,0,2014-05-08,,
261918,Deanos Ices Reg. A309 CRB,5,0,0,0,2014-05-08,,
261919,Debenhams Cafe,5,0,0,0,2013-10-01,51.359503,1.392929
261920,Decks Restaurant,5,0,0,0,2014-02-27,51.358928,1.400027
261921,Delicious Fish Bar,4,10,0,10,2014-01-11,51.337822,1.402629
261922,Derby Arms,5,0,0,0,2014-01-21,51.341605,1.411095
261923,Dinnerservice & Mama Feelgoods,5,0,0,0,2014-11-14,51.366756,1.316257
261924,Dolphin Fish Bar,4,0,0,10,2015-01-08,51.381411,1.398662
261925,Domingos,Exempt,nan,nan,nan,2013-10-10,51.379362,1.40045
261926,Domingo's Stores,5,0,0,0,2014-04-10,51.375903,1.408041
261927,Domino's Pizza,5,0,0,0,2014-01-29,51.388862,1.37992
261928,Domino's Pizza,5,0,0,0,2014-07-09,51.337043,1.40125
261929,Dot's Cafe,5,0,0,0,2014-04-03,51.38433,1.3658
261930,Dragon Inn,3,10,10,10,2014-09-24,51.334575,1.313272
261931,Drapers Mill County Primary School,5,5,0,0,2014-04-24,51.379271,1.393673
261932,Drink Warehouse UK Ltd,Exempt,nan,nan,nan,2014-06-19,51.339739,1.38739
261933,Dumpton Lodge,5,5,0,0,2014-03-14,51.351811,1.441044
261934,Dumpton Park Garage,Exempt,nan,nan,nan,2013-11-26,51.349894,1.427283
261935,Dumpton Post Office,5,0,0,0,2013-09-20,51.349894,1.427283
261936,Dunelm Mill,5,0,0,0,2014-01-31,51.362152,1.39587
261937,Dunwell's Newsagent,5,0,0,0,2013-09-19,51.336424,1.404923
261938,Durlock Lodge,5,0,0,0,2013-09-02,51.33099,1.320738
261939,DWG Meat & Pies,5,5,0,0,2014-05-27,51.388401,1.395543
261940,Earl St Vincent,5,0,0,0,2013-12-10,51.335788,1.422094
261941,East Horndon Hotel,5,0,0,0,2013-11-20,51.361207,1.444824
261942,East Kent Arms,5,0,0,0,2013-10-04,51.338084,1.415257
261943,East Kent College,4,0,0,10,2014-07-24,51.354174,1.435015
261944,Eastern Eye Tandoori,1,5,0,20,2014-03-10,51.3737,1.30736
261945,Eastwood Guest House,1,10,10,20,2014-03-03,51.335216,1.425641
261946,Eata Pizza,5,0,0,0,2014-06-05,51.389355,1.391458
261947,Eaton Lodge,5,0,0,0,2014-04-03,51.383166,1.338288
261948,Eazee Seasoning,5,0,0,0,2014-03-25,51.381195,1.40671
261949,Eddy's Fried Chicken Kebab,5,nan,nan,nan,2013-05-01,51.386705,1.400966
261950,Edinburgh Woollen Mill,Exempt,nan,nan,nan,2013-09-19,51.387125,1.381201
261951,Edward's,Exempt,nan,nan,nan,2013-11-22,51.381612,1.337901
261952,Eighth Wonder Cafe,5,0,0,0,2013-09-25,51.388178,1.389862
261953,Elephant and Castle,5,0,0,0,2014-03-04,51.338164,1.423592
261954,Elior UK - Public Resturant,4,10,0,0,2014-08-06,51.340742,1.387248
261955,Elizabeth Anne Nursing Home,5,5,0,5,2013-09-03,51.390454,1.393581
261956,Ellington County Primary School,5,0,0,0,2014-03-05,51.337822,1.402629
261957,Enoteca,5,5,0,5,2013-06-20,51.332386,1.421525
261958,Ethelbert Childrens Services,5,0,0,0,2014-06-05,51.329829,1.412087
261959,Ethelbert Homes,5,0,0,0,2014-03-04,51.381957,1.339364
261960,Everybodys Inn,5,0,0,0,2014-02-13,51.385942,1.383845
261961,Explorers,5,0,0,0,2014-11-11,51.335997,1.414312
261962,Express By Holiday Inn,5,5,0,0,2013-04-10,51.343006,1.317931
261963,Express Kebab,5,5,0,0,2014-03-26,51.387766,1.396646
261964,Fairfield Manor,5,5,0,0,2014-05-27,51.359859,1.418731
261965,Fairways Kitchen,4,0,0,10,2014-09-18,51.314441,1.350646
261966,Fairy Cake Artist,5,5,0,5,2014-02-27,,
261967,Fairybake,5,0,0,0,2013-03-27,,
261968,Farm Foods Ltd,5,0,0,0,2014-12-18,51.364065,1.39318
261969,Farm Shop,5,0,0,0,2013-12-02,51.364271,1.389187
261970,Fa's Diner,5,0,0,0,2013-03-11,51.334333,1.419875
261971,Fegans Drop in Day Centre,5,0,0,0,2014-03-17,51.345305,1.407923
261972,Ferris Pharmacy,Exempt,nan,nan,nan,2013-09-27,51.375868,1.303823
261973,Field Pharmacy,Exempt,nan,nan,nan,2013-09-25,51.334412,1.314265
261974,Fillers,5,0,0,0,2012-04-10,51.332665,1.414753
261975,First Steps Nursery,5,5,0,0,2014-03-17,51.386168,1.389713
261976,Fish Inn Ltd,5,5,0,0,2014-01-20,51.35896,1.438966
261977,Flaming Wok,4,0,0,10,2014-11-06,51.379418,1.38391
261978,Flavours By Kumar,5,5,0,0,2014-01-24,51.33351,1.416941
261979,Fledglings Nursery School,4,0,0,10,2014-06-10,51.336627,1.40287
261980,Flying Horse,4,10,5,5,2014-03-11,51.33806,1.406208
261981,Foresters Arms,5,0,0,0,2012-08-31,51.338138,1.418033
261982,Fort's Cafe,5,0,0,0,2014-03-08,51.391865,1.389588
261983,Fortune Meadow,5,0,0,0,2014-03-20,51.339788,1.424963
261984,Fosters,5,0,0,0,2013-09-27,51.372952,1.421015
261985,Four Winds,5,0,0,0,2014-11-17,51.338328,1.430886
261986,Foxy's,Exempt,nan,nan,nan,2014-04-09,51.336966,1.283015
261987,Frankie & Benny's,4,10,0,0,2014-01-21,51.359503,1.392929
261988,Frankie B's,5,0,0,5,2014-02-04,51.381717,1.339878
261989,Frankies,0,25,0,0,2014-09-25,51.38271,1.333439
261990,Fredericks Cafe,5,0,0,0,2014-11-12,51.382106,1.336644
261991,Friendly House Chinese Takeaway,1,10,5,20,2014-03-27,51.377291,1.331076
261992,Friendship Club,5,0,0,0,2014-04-24,51.386302,1.371351
261993,Fruits De Mer,5,5,5,0,2014-02-14,51.360134,1.432071
261994,Fujifilm Staff Canteen - Crusties,5,5,0,5,2014-02-20,51.354229,1.410985
261995,G Casino,5,5,0,0,2014-01-21,51.359503,1.392929
261996,Gap House Special School,5,0,0,0,2014-01-22,51.347446,1.437729
261997,Garam Masala,4,10,0,10,2013-10-10,51.386458,1.424568
261998,Garlinge Convenience Store,5,5,0,0,2014-11-28,51.379619,1.354114
261999,Garlinge Fish Bar,5,0,0,0,2014-06-18,51.377204,1.355547
262000,Garlinge Newsagents,Exempt,nan,nan,nan,2013-11-25,51.378132,1.355155
262001,Garlinge Primary School And Nursery,5,0,0,0,2013-11-26,51.378888,1.363
262002,Garlinge Tandoori,4,0,0,10,2014-11-13,51.377204,1.355547
262003,Gerry's Coffee & Art House,4,10,0,10,2014-02-20,51.332515,1.419581
262004,Get Fresh,4,10,0,10,2014-02-06,51.358827,1.441039
262005,Gills Cupcakes,5,0,0,0,2013-02-04,,
262006,Ginger Monkey,5,0,0,0,2013-04-30,,
262007,Giorgios,4,10,0,0,2014-03-04,51.387196,1.380301
262008,Glendevon Guest House,5,0,0,0,2014-02-03,51.335627,1.425457
262009,Global Generation Church,5,5,0,0,2013-03-14,51.369161,1.389907
262010,Godwin Fish Bar,5,0,0,0,2014-02-18,51.388538,1.397019
262011,Golden Bridge,3,10,5,10,2014-03-10,51.375868,1.303823
262012,Golden Curry,4,10,0,10,2013-10-08,51.389918,1.390997
262013,Golden Fish Bar,4,0,0,10,2015-01-07,51.342616,1.426682
262014,Golden Fish Bar,1,0,0,20,2014-06-30,51.378311,1.383325
262015,Golden Fortune,5,0,0,0,2014-02-20,51.358006,1.440503
262016,Golden Kylin,4,10,5,0,2013-09-25,51.384359,1.384447
262017,Golden Palace,5,0,0,0,2014-03-25,51.381275,1.335821
262018,Golden Sail,4,10,0,10,2013-09-26,51.382627,1.397659
262019,Golf Club Restaurant,4,10,10,0,2014-06-05,51.377667,1.434777
262020,Good Friends,5,5,5,0,2014-03-27,51.381243,1.400101
262021,Good News,Exempt,nan,nan,nan,2013-11-26,51.336481,1.422074
262022,Gordon Lodge,5,5,0,5,2013-11-07,51.383004,1.343321
262023,Granville Theatre,Exempt,nan,nan,nan,2013-11-18,51.335713,1.427746
262024,Graywood Care Home,5,0,0,0,2015-02-04,51.386308,1.39914
262025,Great British Pizza Company Ltd,4,10,0,0,2013-08-16,51.388881,1.379864
262026,Greek Taverna,1,0,0,20,2014-02-11,51.358994,1.442402
262027,Green Gables,5,0,0,0,2014-12-15,51.386308,1.39914
262028,Greens of Minster,5,0,0,0,2013-09-20,51.334575,1.313272
262029,Greggs,5,0,0,0,2014-09-02,51.386473,1.381024
262030,Greggs,5,5,0,0,2014-01-21,51.359503,1.392929
262031,Grenham Bay Court,5,5,0,0,2013-12-10,51.38127,1.300777
262032,Gresham Residential Home,5,0,0,0,2014-07-10,51.390003,1.401398
262033,Groovy Frog,4,0,0,10,2014-01-21,51.33419,1.418615
262034,Grosvenor Court Care Limited,5,5,0,0,2014-03-05,51.391149,1.399398
262035,Guest House,4,0,0,10,2014-02-03,51.338729,1.424252
262036,Guest House,4,0,0,10,2014-06-11,,
262037,H D Cafe,5,0,0,5,2015-02-05,51.388475,1.381171
262038,Haddon Dene School,5,5,0,0,2013-10-14,51.359195,1.43065
262039,Hair Of The Dog,5,0,0,0,2014-01-27,51.334422,1.314884
262040,Halfway House Cafe,5,5,0,5,2014-09-26,51.377667,1.434777
262041,Hanson Hotel,5,0,0,0,2013-11-25,51.357863,1.439573
262042,Happy Cafe & Family Restaurant,5,0,0,0,2014-02-20,51.388715,1.394329
262043,Happy Days Hire,5,0,0,0,2013-04-10,,
262044,Happy Plaice,5,0,0,0,2013-10-29,51.384663,1.367363
262045,Harbour Bakery,4,5,0,10,2014-02-25,51.332812,1.419273
262046,Harbour Bakery,5,5,0,0,2014-11-21,51.376093,1.304471
262047,Harbour Cafe,1,15,15,20,2014-03-12,51.359287,1.444651
262048,Harbour Cafe Bar,4,10,0,5,2013-10-14,51.389576,1.381037
262049,Harbour Chocolate Lounge,5,5,0,0,2014-03-11,51.330413,1.417328
262050,Harbour City Chinese,5,0,0,0,2014-07-09,51.382109,1.337176
262051,Harbour Fish Bar,5,5,0,0,2013-01-31,51.333009,1.419934
262052,Harbour Street Bar,5,5,0,0,2012-03-26,51.333009,1.419934
262053,Hare & Hounds,4,10,0,10,2014-02-19,51.353475,1.401634
262054,Harpers Wine Bar,1,10,5,20,2014-03-24,51.359725,1.443836
262055,Harris & Hoole Cafe,1,5,15,20,2014-08-07,51.358928,1.400027
262056,Hartsdown Leisure Centre,4,10,0,0,2013-10-07,51.382015,1.37059
262057,Hartsdown Technology College,5,5,0,0,2013-10-16,51.379855,1.369382
262058,Harvest Health Foods,5,0,0,0,2013-09-19,51.333216,1.41837
262059,Harvey's Newsagent,Exempt,nan,nan,nan,2013-09-26,51.360134,1.432071
262060,Helter Skelter Play Centre,5,5,0,0,2014-03-24,51.357331,1.439907
262061,Hereson News,4,10,0,10,2014-03-03,51.339788,1.424963
262062,High Quality Lifestyles,5,0,0,0,2013-10-08,51.314441,1.350646
262063,High Quality Lifestyles Ltd,5,0,0,0,2013-11-15,51.351726,1.385947
262064,Higher and Hire Cakes,5,0,0,0,2013-09-23,,
262065,Highfields,5,5,0,5,2014-04-14,51.377326,1.305394
262066,Hilderstone Adult Education Centre,3,5,10,10,2014-02-12,51.361178,1.430827
262067,Hinge of London,5,5,0,0,2014-02-20,51.358506,1.440627
262068,Ho Wong,5,0,0,0,2014-02-20,51.33733,1.42287
262069,Holland & Barrett,5,0,0,0,2013-09-04,51.333723,1.419183
262070,Holly Lane Fish Inn,5,5,5,0,2014-02-25,51.385272,1.408479
262071,Holly Lane Post Office & Stores,Exempt,nan,nan,nan,2013-09-16,51.385765,1.408228
262072,Holy Trinity And St Johns C Of E Primary School,5,0,0,0,2014-01-16,51.385401,1.384194
262073,Holy Trinity CEP School,5,0,0,0,2014-04-23,51.347158,1.432235
262074,Holy Trinity Church Hall,5,0,0,0,2013-04-10,51.360262,1.44425
262075,Home 2  Roast,5,0,0,0,2014-10-23,,
262076,Home Caterer,5,0,0,0,2013-10-21,,
262077,Homeville Care Home,4,0,10,0,2013-08-28,51.387161,1.388018
262078,Honeysuckle Inn,5,0,0,0,2014-11-04,51.340005,1.426473
262079,Horse And Groom Public House,5,0,0,0,2014-08-29,51.333075,1.419207
262080,Hotel De Ville,2,15,0,5,2014-08-06,51.33165,1.406694
262081,Housing 21,5,0,0,0,2014-09-19,51.35691,1.415595
262082,Huckleberrys,5,0,0,0,2014-05-16,51.389576,1.381037
262083,Hungry Horse,5,5,0,0,2014-09-17,51.381455,1.41383
262084,I Scream,5,0,0,0,2013-07-09,51.333216,1.41837
262085,Ice Treats,5,0,0,0,2014-07-03,,
262086,Iceland Foods Limited,5,0,0,0,2014-10-30,51.334698,1.42062
262087,Iceland Foods Limited,5,0,0,0,2013-12-10,51.358506,1.440627
262088,Iceland Foods Limited,5,0,0,0,2013-10-23,51.388545,1.383405
262089,Il Tricolore,5,0,0,0,2014-04-08,51.33442,1.420872
262090,Istanbul Grill,4,5,0,10,2015-01-28,51.351949,1.402469
262091,"Ivanhoe, The Avenues Trust Ltd",5,5,0,0,2013-11-07,51.382963,1.360468
262092,J C Rook,5,0,0,0,2013-08-21,51.333774,1.420221
262093,J C Rook & Sons,4,5,10,0,2013-08-21,51.386157,1.381676
262094,J C Rook & Sons Ltd,5,0,0,0,2014-06-25,51.358506,1.440627
262095,J D Convenience Store,5,0,0,0,2014-08-05,51.389064,1.380381
262096,J Prentis Greengrocers,5,0,0,0,2014-05-14,51.381717,1.339878
262097,Jacksons Wharf,5,5,0,0,2013-09-30,51.332812,1.419273
262098,Jay Jay Oriental Takeaway,4,5,5,10,2014-02-25,51.388164,1.394691
262099,Jemima's Locket,4,10,0,0,2013-06-06,51.334422,1.314884
262100,Joe's Ices,5,0,0,0,2014-05-21,,
262101,Jolly Farmer,5,0,0,0,2014-04-10,51.345218,1.368964
262102,Jo's Cakes & Bakes,5,0,0,0,2012-09-26,,
262103,Joss Bay Cafe,5,0,0,0,2014-04-01,51.381812,1.444029
262104,Joss Bay Kiosk,Exempt,nan,nan,nan,2013-09-23,51.381812,1.444029
262105,Joss Bay Surf School,5,0,0,0,2014-08-04,51.381251,1.444433
262106,Julie Vilton Cakes,5,0,0,0,2012-10-30,,
262107,Jungle Jims Play Centre,5,5,0,0,2014-09-26,,
262108,Just Jacket Spuds,5,0,0,0,2014-07-03,,
262109,Just The Ticket Cafe,5,0,0,0,2014-06-16,51.367349,1.392216
262110,Kabuki,5,0,0,0,2013-09-16,51.387196,1.380301
262111,Kallis Restaurant,5,0,0,0,2015-02-06,51.387196,1.380301
262112,Kearns Memorial Hall,Exempt,nan,nan,nan,2014-05-12,51.378901,1.290358
262113,Kebab House,5,0,0,0,2014-07-07,51.389355,1.391458
262114,Keele House,5,0,0,0,2015-02-10,51.337172,1.412274
262115,Kelso House Pre School,4,10,0,0,2014-02-12,51.38802,1.409258
262116,Kent Adult Education Service,5,0,0,0,2014-04-29,51.387082,1.383311
262117,Kent Nurseries,5,0,0,0,2014-10-14,51.334638,1.416193
262118,Kent Residential Care Home,0,15,20,20,2014-11-17,51.359859,1.418731
262119,Kent School of English,5,0,0,0,2013-11-08,51.35567,1.438877
262120,Kentish Hut,5,0,0,0,2013-03-08,51.375915,1.303754
262121,Kentucky Fried Chicken,5,5,0,0,2013-11-13,51.360827,1.411749
262122,Keston Court Hotel,5,5,0,0,2014-03-07,51.3556,1.437909
262123,Key Stores,5,0,0,0,2014-04-11,51.386157,1.381676
262124,Keystore,5,0,0,0,2014-03-12,51.332812,1.419273
262125,KFC - Margate,5,0,0,0,2013-09-26,51.388142,1.380557
262126,KFC - Ramsgate,5,0,0,0,2014-03-03,51.333159,1.419098
262127,King Edward Vii,5,0,0,0,2014-04-24,51.380552,1.399432
262128,Kingsgate College,5,0,0,0,2014-01-08,51.375764,1.430639
262129,Kingsgate Newsagents,5,0,0,0,2013-12-06,51.381294,1.428581
262130,Kiosk 1,5,5,0,0,2013-08-28,51.332221,1.423192
262131,Kiosk 2,5,0,0,0,2013-08-28,,
262132,Krusty Kob,5,0,5,0,2014-02-11,51.387766,1.396646
262133,Krusty Kobb,4,10,5,0,2014-02-11,51.381612,1.337901
262134,La Chooza,5,0,0,0,2014-07-09,51.333009,1.419934
262135,La Magnolia,5,0,0,0,2014-05-06,51.331827,1.418209
262136,Lady Spice,5,0,0,5,2014-10-14,,
262137,Lady Tesla's Losse Leaves & Mud,Exempt,nan,nan,nan,2012-09-11,51.390096,1.382643
262138,Laleham School,5,5,0,0,2013-11-12,51.38385,1.404492
262139,Langmead,5,0,0,0,2014-11-24,51.338589,1.413341
262140,Lauralicious Cakes & Gifts,5,0,0,0,2012-03-13,,
262141,Lawns,Exempt,nan,nan,nan,2014-02-01,51.359932,1.43434
262142,Lawrence Stores,1,15,15,20,2014-01-27,51.385401,1.384194
262143,Le Cafe Creme,2,15,0,0,2013-10-28,51.375868,1.303823
262144,Leisure Quest,5,5,0,5,2014-09-26,51.366756,1.316257
262145,Leisuretime Childrens Amusement Centre,5,0,0,0,2014-05-29,51.386185,1.36792
262146,Lemon Catering,4,5,0,10,2014-04-08,,
262147,Lesters Pub & Restaurant,5,0,0,0,2014-02-21,51.376839,1.385703
262148,Let's Go Without,5,0,0,0,2014-05-22,,
262149,Lidl UK GmbH,5,0,0,0,2014-10-24,51.356055,1.398608
262150,Lillyputt Mini Golf,1,20,10,20,2014-02-01,51.35668,1.441553
262151,Lilly's By The Sea,5,0,5,0,2014-02-28,51.386473,1.381024
262152,Liquor Locker,1,20,15,0,2014-11-14,51.385431,1.368814
262153,Little Brown Fairy Cake,5,0,0,0,2013-02-01,,
262154,Little Crumbs Bakery,5,0,0,0,2014-02-25,,
262155,Little Gem Cakes,5,0,0,0,2014-06-10,51.379745,1.36164
262156,Little Oaks Nursery,5,0,0,0,2015-01-27,51.378064,1.389373
262157,Little Stour Orchard,5,0,0,0,2014-04-30,,
262158,Llee House,Exempt,nan,nan,nan,2014-01-21,51.386387,1.372464
262159,Loco,5,0,0,0,2014-03-03,51.335365,1.416548
262160,Lola & Co,5,0,0,0,2013-05-09,51.391148,1.378608
262161,Lola & Company,5,0,0,0,2015-01-19,,
262162,Londis,1,0,15,20,2014-10-10,51.377291,1.331076
262163,Londis,1,15,10,20,2014-02-19,51.332431,1.406738
262164,Londis,5,0,0,0,2013-11-29,51.358506,1.440627
262165,Londis,4,10,0,10,2014-01-27,51.383653,1.384596
262166,Lotus Garden,5,5,0,5,2013-07-15,51.386458,1.424568
262167,Louisa Bay Cafe,5,0,0,0,2014-08-28,51.355251,1.441503
262168,Lourdes Community,5,0,0,0,2014-04-04,51.376797,1.327547
262169,Lucky House,5,5,0,0,2013-05-01,51.359133,1.434596
262170,Ludylicious Cakes,5,0,0,0,2013-04-09,,
262171,Lynton House,3,5,10,10,2014-02-12,51.366627,1.442831
262172,M & M Fast Foods,1,15,15,20,2014-02-18,51.334698,1.42062
262173,Macies Bar,5,0,0,0,2013-11-29,51.335252,1.417358
262174,Madison House,4,10,0,10,2014-02-07,51.33731,1.366819
262175,Magic Lady Cakes,5,0,0,0,2013-04-05,,
262176,Main Kitchen,5,5,0,0,2013-12-12,51.380349,1.408257
262177,Majestic Wine Warehouse Limited,5,0,0,0,2012-03-26,51.36262,1.395258
262178,Maltreath,5,0,0,0,2013-11-13,51.387951,1.402338
262179,Malvern Hotel & The Blues Grill,5,0,0,0,2013-12-13,51.390664,1.398442
262180,Mama Jinny,4,0,0,10,2014-03-11,51.381957,1.339364
262181,Man Lin,5,0,0,0,2014-07-09,51.337378,1.422471
262182,Mannings Seafood,5,0,0,0,2014-03-28,51.390814,1.382379
262183,Manor House Nursery School,4,5,10,0,2013-09-18,51.381978,1.367841
262184,Manston Golf Centre,Exempt,nan,nan,nan,2014-03-12,51.345521,1.371888
262185,Manston Sports & Social Club,5,0,0,0,2014-02-05,51.345218,1.368964
262186,Margate Baptist Church,5,0,0,0,2014-05-30,51.388152,1.381737
262187,Margate Express,5,nan,nan,nan,2012-04-03,51.388035,1.38019
262188,Margate Independent Supporters Club,5,0,0,0,2014-03-08,51.379694,1.374041
262189,Margate Indian Spice,5,5,0,5,2013-12-13,51.382047,1.381028
262190,Margate Language Centre,5,5,0,0,2014-01-20,51.386156,1.383574
262191,Margate Lawn Tennis Club,5,0,0,0,2013-09-19,51.382587,1.375735
262192,Margate Masonic Lodge,5,0,0,0,2014-02-07,51.388864,1.382034
262193,Margate Palace Amusements,Exempt,nan,nan,nan,2014-10-02,51.386473,1.381024
262194,Margate Retro General Store,5,0,0,0,2014-09-02,51.390811,1.382494
262195,Margate Royal British Legion Club,5,0,0,0,2014-01-16,51.385401,1.384194
262196,Margate Smokehouse,AwaitingInspection,nan,nan,nan,2014-02-28,51.386187,1.388133
262197,Margate Yacht Club,Exempt,nan,nan,nan,2014-04-24,51.390814,1.382379
262198,Margate YHA Youth Hostel,Exempt,nan,nan,nan,2012-11-02,51.385076,1.363943
262199,Marina Milk Bar,5,0,0,0,2014-04-23,51.388756,1.379826
262200,Mariners,5,0,0,0,2014-05-06,51.332812,1.419273
262201,Mariotti's Restaurant,5,5,0,0,2014-03-27,51.357331,1.439907
262202,Marks & Spencer Plc,5,0,0,0,2014-04-28,51.359503,1.392929
262203,Marley's,4,5,0,10,2013-09-07,51.358506,1.440627
262204,Marlowe Academy,5,0,0,0,2014-01-08,51.350294,1.39255
262205,Martin McColls,Exempt,nan,nan,nan,2013-09-18,51.374134,1.306932
262206,Masala Gate,5,0,0,5,2015-01-28,51.389588,1.38157
262207,Masonic Temple,5,0,0,0,2014-05-14,51.338887,1.42346
262208,May King,5,5,5,0,2014-02-06,51.367482,1.42351
262209,Mayflower Take-away,2,15,0,10,2013-09-17,51.336968,1.415562
262210,Mc Donalds,5,5,0,0,2014-09-22,51.357578,1.396637
262211,McColls,Exempt,nan,nan,nan,2013-11-04,51.374797,1.305772
262212,McDonalds,5,5,0,0,2013-09-25,51.386157,1.381676
262213,McDonalds Restaurant,5,5,0,0,2014-01-22,51.333877,1.420386
262214,Mcdonalds Restaurant And Drive Through,5,5,5,0,2013-04-05,51.340975,1.324218
262215,Meadows Nursery & Riverbank Club,5,0,0,0,2014-04-16,51.375108,1.40413
262216,Meat Guy Ltd,4,10,0,5,2014-03-27,51.389576,1.412048
262217,Mecca Bingo,5,0,0,0,2013-10-02,51.359503,1.392929
262218,Mechanical Elephant,5,5,0,0,2014-05-02,51.38657,1.377365
262219,Merely Jane's Cakes,5,0,0,0,2012-09-18,,
262220,Merlin Cafeteria,4,0,0,10,2014-10-06,51.335748,1.311878
262221,Miles Bar,5,0,0,0,2014-02-21,51.332386,1.421525
262222,Milos,5,0,0,0,2013-05-14,51.389655,1.3811
262223,Minnis Bay Fish & Chips,5,5,5,0,2013-04-09,51.375868,1.303823
262224,Minnis Bay Sailing Club,5,0,0,0,2014-10-30,51.37765,1.281716
262225,Minnis Day Centre,4,0,0,10,2014-02-18,51.376726,1.298294
262226,Minster Bakers (Cafe/shop),4,0,0,10,2013-10-12,51.33564,1.314412
262227,Minster Bakery (rear bakehouse),4,10,0,10,2013-10-12,51.33564,1.314412
262228,Minster Day Nursery,5,5,0,0,2013-10-22,51.332619,1.312786
262229,Minster Kebabs,5,5,0,0,2014-01-27,51.33564,1.314412
262230,Minster Primary School,5,0,0,0,2014-01-27,51.332619,1.312786
262231,Minster Tandoori,5,0,0,0,2014-03-19,51.33191,1.315578
262232,Minster Village Hall,5,0,0,0,2013-10-10,51.331117,1.316268
262233,Monkton Cookies & Cakes,5,0,0,0,2014-07-16,,
262234,Monkton Under 5's Play group,5,0,0,0,2013-11-26,51.338782,1.281752
262235,Monkton Village Hall,5,0,0,0,2013-10-16,51.336933,1.291873
262236,Monsoon,3,10,10,10,2014-06-05,51.380064,1.354606
262237,Mont Calm,4,0,0,10,2014-06-04,51.376094,1.37691
262238,Montagu Court,4,0,0,10,2014-07-22,51.390454,1.393581
262239,Montague House,4,10,0,0,2014-01-22,51.338414,1.429786
262240,Montefiore Arms,5,0,0,0,2013-09-16,51.33811,1.424507
262241,Montessori Nursery,5,0,0,5,2014-01-22,,
262242,Monty's,5,0,0,0,2013-11-04,51.376093,1.304471
262243,Moonshine Billys,5,0,0,0,2013-09-19,51.334698,1.42062
262244,Moosie Cakes,5,5,0,0,2013-02-13,,
262245,Morelli's Ice Cream Parlour,4,10,0,10,2014-03-05,51.357652,1.441842
262246,Morgan's,5,5,0,0,2013-08-08,51.388862,1.37992
262247,Morliss Fried Chicken,5,0,0,0,2014-05-23,51.344663,1.398425
262248,Morrisons,5,0,0,0,2014-01-28,51.388545,1.383405
262249,Mother Goose Nursery,5,0,0,0,2015-01-07,51.335185,1.423643
262250,Moylers,5,0,0,0,2013-11-29,51.38738,1.400039
262251,Mr Chips,5,0,0,0,2014-02-18,51.353293,1.401089
262252,Mulberry Tea Rooms,5,5,0,0,2014-09-30,51.374616,1.305486
262253,Mullins Brasserie,5,0,0,0,2014-01-29,51.389431,1.38232
262254,Murco Shop & Stop,2,10,15,0,2013-09-09,51.342616,1.426682
262255,Murrays Munch,4,5,10,0,2013-04-18,51.366733,1.389599
262256,Murrays Munch,5,0,0,0,2014-10-24,51.357061,1.396786
262257,My Nursery,5,0,0,0,2014-03-27,51.382144,1.385462
262258,N & K News,Exempt,nan,nan,nan,2013-09-26,51.353293,1.401089
262259,N W News,Exempt,nan,nan,nan,2013-11-06,51.332812,1.419273
262260,NAFFI Bar (Blues & Twos),5,0,0,0,2014-02-05,,
262261,Nando's,5,5,0,0,2014-01-21,51.359503,1.392929
262262,Nasza Biedronka,5,0,0,0,2014-05-21,51.387339,1.397707
262263,Naughty But Nice,1,15,10,20,2014-02-14,51.360134,1.432071
262264,Naughty n Nice,4,5,0,10,2014-03-18,,
262265,Nazar Fish Bar,5,0,0,0,2014-03-04,51.386237,1.403145
262266,Nelson Park Riding Centre,5,0,0,0,2014-02-19,51.356642,1.342607
262267,Neptune's Hall,5,5,0,0,2013-11-21,51.359725,1.443836
262268,Never Mind the Cupcakes,5,0,0,0,2012-09-24,,
262269,New Asia,4,0,0,10,2014-09-23,51.350065,1.403235
262270,New China Inn,4,0,0,10,2015-01-14,51.358155,1.441563
262271,New Dragon,4,5,0,10,2014-03-25,51.3737,1.30736
262272,New Hong Kong,1,10,15,20,2014-02-20,51.334698,1.42062
262273,New Jumbo Chinese Takeaway,5,5,5,0,2013-06-25,51.345305,1.407923
262274,New Look,Exempt,nan,nan,nan,2012-11-12,51.33419,1.418615
262275,New Look,Exempt,nan,nan,nan,2012-11-08,51.359503,1.392929
262276,New Odds,5,0,0,0,2013-11-25,51.388867,1.382537
262277,Newington Childrens Centre,5,0,0,0,2014-03-11,51.341428,1.391809
262278,Newington Community Centre,5,0,0,0,2013-10-30,51.341428,1.391809
262279,Newington Community Primary School,5,0,0,0,2014-01-09,51.341428,1.391809
262280,Newington Fish Bar,5,0,0,0,2013-09-27,51.343344,1.399246
262281,Newington Pharmacy,Exempt,nan,nan,nan,2013-09-25,51.343344,1.399246
262282,Newlands County Primary School,5,0,0,0,2014-03-05,51.345194,1.420037
262283,Newlyn House Residential Home,5,5,0,5,2014-01-27,51.345885,1.400038
262284,Nickelbys,2,0,15,0,2013-08-31,51.359586,1.44305
262285,Nimbus Cafe Bar,5,5,0,0,2013-04-24,51.344525,1.358342
262286,NISA Local,5,0,0,0,2014-02-25,51.382621,1.396954
262287,No 23,5,0,0,0,2014-06-25,51.358506,1.440627
262288,Noahs Ark Nursery,5,0,0,0,2013-11-05,51.371228,1.308576
262289,North Lodge,5,0,0,0,2014-02-26,51.380886,1.388201
262290,North Star Off Licence,5,0,0,0,2014-03-11,51.346842,1.40673
262291,Northdown House,5,5,0,0,2014-04-23,51.38058,1.418537
262292,Northdown Kebab,4,0,0,10,2015-01-07,51.389647,1.3901
262293,Northdown Pharmacy,Exempt,nan,nan,nan,2013-09-20,51.386896,1.402145
262294,Northdown Road Groceries,0,20,0,30,2014-11-04,51.389355,1.391458
262295,Northdown Snooker Club,5,0,0,0,2014-02-11,51.387339,1.397707
262296,Northwood Club,5,0,0,0,2014-04-28,51.354446,1.403847
262297,Number 30 B & B,5,0,0,5,2014-03-11,51.378851,1.292783
262298,Nursery,5,0,0,0,2013-11-20,51.350935,1.400211
262299,Ocean Swell Residential Home,5,0,0,0,2014-04-02,51.384631,1.337704
262300,Odds Social & Snooker Club,5,0,0,0,2013-11-18,51.336844,1.413341
262301,Ogata Yosa,4,10,0,0,2014-02-20,51.335252,1.417358
262302,Oh My Cod,5,0,0,0,2014-07-09,51.334698,1.42062
262303,Old Schools,5,0,0,0,2013-12-09,51.331117,1.316268
262304,Olympia Cafe,5,5,0,5,2014-02-13,51.391503,1.393098
262305,One Stop,5,0,0,0,2013-11-29,51.388164,1.394691
262306,Only Food and Sauces,5,0,0,0,2014-12-18,51.376975,1.411685
262307,Oriental Chef,5,5,0,5,2014-03-03,51.335972,1.415473
262308,Oriental Inn,4,0,0,10,2014-02-11,51.342252,1.411747
262309,Osbourne House,4,5,0,10,2013-11-04,51.334088,1.405425
262310,O'Sheas Bistro,5,5,0,0,2014-12-03,51.334422,1.314884
262311,Ossie's Fish & Chips,5,0,0,0,2014-02-20,51.335252,1.417358
262312,Osteria Posillipo,5,5,0,0,2014-07-08,51.358994,1.442402
262313,Our Plaice,5,0,0,0,2013-10-01,51.332394,1.406764
262314,Pagoda Chinese T/A,5,0,0,0,2014-03-04,51.386896,1.402145
262315,Palace Cinema,Exempt,nan,nan,nan,2015-01-27,51.359725,1.443836
262316,Palm Bay Cafe,5,5,0,5,2013-05-28,51.391223,1.407383
262317,Palm Bay County Primary School,5,5,0,0,2013-11-13,51.389619,1.419211
262318,Panda Chinese Take Away,4,10,0,10,2013-10-16,51.380064,1.354606
262319,Panorama Restaurant,4,10,0,10,2014-10-14,51.331953,1.415734
262320,Panteli's Coffee Lounge & Restaurant,5,0,0,0,2014-01-07,51.387753,1.398312
262321,Paolo's Kitchen,5,5,0,0,2014-12-04,51.359586,1.44305
262322,Papa's Fish & Chips,4,5,0,10,2014-01-21,51.389355,1.391458
262323,Papps Fish Bar,4,10,5,5,2014-01-28,51.385811,1.379336
262324,Parkers Diner,5,5,5,0,2014-02-24,51.386873,1.398262
262325,Party Flair,5,0,0,0,2014-05-22,,
262326,Party Flair,5,0,0,0,2014-06-02,,
262327,Pats Pasties,5,5,0,5,2014-04-08,,
262328,Paul's Cafe Bar,5,0,0,0,2014-11-04,51.381612,1.337901
262329,Pavillion,5,0,0,0,2013-11-26,51.331463,1.313593
262330,Pav's Tea Gardens,5,0,0,0,2014-08-05,51.383899,1.343789
262331,Paydens Ltd,Exempt,nan,nan,nan,2013-10-23,51.382109,1.337176
262332,Payden's Pharmacy,Exempt,nan,nan,nan,2013-09-16,51.360134,1.432071
262333,Peen's,5,0,0,0,2014-03-25,51.357652,1.441842
262334,Pegwell Bay Country Park Catering,5,5,0,0,2013-06-04,51.32553,1.364821
262335,Peninsula,5,0,0,5,2013-10-15,51.364114,1.418402
262336,Pepperpots,5,5,0,0,2014-11-11,51.364966,1.41973
262337,Petals/Fanny Turners Cakes,5,0,0,0,2012-03-09,51.386473,1.381024
262338,Peters Fish Factory,5,0,0,0,2014-04-30,51.389576,1.381037
262339,Peters Fish Factory,5,0,0,0,2014-09-18,51.332221,1.423192
262340,Peverel Care Services,5,0,0,0,2014-02-12,51.390691,1.400313
262341,Phoenix Care Homes Ltd,5,0,0,0,2014-07-03,51.346224,1.432481
262342,Phoenix Club,5,0,0,0,2014-02-05,,
262343,Piccadilly Whip,5,5,0,0,2013-07-17,51.362956,1.418933
262344,Pick 'n Paint a Pot,5,0,0,0,2013-09-23,51.389647,1.3901
262345,Pierremont Park Pre-School,Exempt,nan,nan,nan,2013-04-23,51.35911,1.437526
262346,Piggybank Day Nursery,5,0,0,0,2014-04-02,51.381612,1.337901
262347,Pilgrims Hospice,5,5,0,0,2014-02-27,51.378233,1.382299
262348,Pizza 2Night,4,10,0,10,2013-11-01,51.385431,1.368814
262349,Pizza Go Go,5,0,0,0,2014-11-03,51.344663,1.398425
262350,Pizza Hut,5,5,0,0,2014-02-12,51.359615,1.43594
262351,Pizza Hut,5,5,0,0,2014-02-03,51.361918,1.398065
262352,PizzaExpress,5,0,0,0,2014-02-21,51.332495,1.421188
262353,Play Wise,5,5,0,5,2014-03-13,51.340746,1.417739
262354,Playaways,5,0,0,0,2014-01-14,51.331795,1.393021
262355,Playaways Nursery,Exempt,nan,nan,nan,2012-05-30,51.336053,1.420706
262356,Pop-In,Exempt,nan,nan,nan,2013-10-31,51.338178,1.416944
262357,Port and Anchor,5,0,0,0,2013-09-23,51.332825,1.420997
262358,Port Regis,5,5,0,0,2013-08-21,51.381089,1.439562
262359,Port Regis Montessori Nursery,5,5,0,0,2014-03-25,51.381089,1.439562
262360,Portland Centre,Exempt,nan,nan,nan,2013-01-25,51.366546,1.417663
262361,Post Office,Exempt,nan,nan,nan,2013-09-16,51.334422,1.314884
262362,Post Office,5,0,0,0,2013-12-09,51.352847,1.25545
262363,Poundland,5,0,0,0,2013-09-27,51.33419,1.418615
262364,Poundland,Exempt,nan,nan,nan,2013-11-29,51.359391,1.394315
262365,Poundstretcher,Exempt,nan,nan,nan,2013-11-29,51.361918,1.398065
262366,Premier,5,0,0,0,2014-04-29,51.385765,1.408228
262367,Premier,1,15,0,20,2014-04-10,51.356754,1.438412
262368,Premier,5,0,0,0,2014-02-12,51.34756,1.421578
262369,Premier - Sweet Crazy,Exempt,nan,nan,nan,2013-11-19,51.337822,1.402629
262370,Premier G & A Stores,1,15,10,20,2014-03-07,51.335185,1.423643
262371,Premier Naga,5,0,0,0,2012-04-26,51.376093,1.304471
262372,Premier Store,5,0,0,0,2013-01-23,51.379418,1.38391
262373,Premier Stores,4,5,0,10,2014-04-15,51.368281,1.298893
262374,Premier-Lora Food and Wine,4,10,0,0,2013-10-11,51.384943,1.399053
262375,Prentis,5,0,0,0,2013-09-27,51.33407,1.419941
262376,Prentis Fruiterers & Greengrocers,5,0,0,0,2013-09-24,51.358506,1.440627
262377,Prezzo,4,10,0,0,2014-10-24,51.358994,1.442402
262378,Priory County Infant School,5,0,0,0,2014-04-29,51.335924,1.413746
262379,Proper Coffee House,5,5,0,5,2014-11-11,51.388093,1.380669
262380,Pumpkin (SSP),5,5,0,0,2014-01-31,51.341038,1.407391
262381,Pumpkin Cakes,5,0,0,0,2013-10-10,,
262382,Q in Food Centre,5,0,0,0,2012-11-27,51.387264,1.400907
262383,QEQM,5,5,0,0,2014-02-19,51.378064,1.389373
262384,Quart in a Pint Pot,5,0,0,0,2013-10-04,51.384734,1.384245
262385,Quarterdeck Youth & Training Centre,5,0,0,0,2013-11-15,,
262386,Queen Charlotte,1,15,0,20,2015-01-15,51.330526,1.414709
262387,Queens Road Baptist Church,5,0,0,0,2014-02-17,51.357938,1.439162
262388,Quex Barn,5,5,0,5,2014-07-03,51.367107,1.311153
262389,R & Z Limited,5,0,0,0,2013-04-30,51.386963,1.399807
262390,R A Goodban & Son,5,0,0,0,2013-09-16,51.359954,1.376698
262391,R C Wale & Son,2,5,15,10,2013-12-12,51.375868,1.303823
262392,R S Off Licence & Newsagents,5,0,0,0,2014-03-10,51.33419,1.418615
262393,RAFA Club,5,0,0,0,2013-09-26,51.333918,1.420835
262394,Raindell's,2,10,15,0,2013-09-12,51.358994,1.442402
262395,Rainy's Maids Ltd,5,0,0,0,2013-12-06,,
262396,Rams News,Exempt,nan,nan,nan,2013-11-04,51.346622,1.404387
262397,Rams Newsagents,Exempt,nan,nan,nan,2013-09-30,51.344663,1.398425
262398,Ramsgate Bowling Club,5,0,0,0,2014-05-07,51.32779,1.403005
262399,Ramsgate Cafe,3,10,5,10,2014-05-23,51.353293,1.401089
262400,Ramsgate Care Centre,5,5,0,0,2014-11-05,51.338178,1.416944
262401,Ramsgate Croquet Club,5,0,0,0,2013-09-26,51.32779,1.403005
262402,Ramsgate Fish and Chips,5,0,0,0,2013-07-09,51.337358,1.423776
262403,Ramsgate Football Club,5,0,0,0,2014-05-28,51.33273,1.401418
262404,Ramsgate Fried Chicken,5,5,0,0,2014-08-11,51.379418,1.38391
262405,Ramsgate Small Boat Owners Assoc,5,0,0,0,2013-10-30,51.334245,1.415474
262406,Ramsgate Social Club,3,5,10,10,2014-09-19,51.332665,1.414753
262407,Ramsgate Sports Centre,5,0,0,0,2014-07-24,51.336844,1.413341
262408,Ramsgate Tandoori,4,0,0,10,2013-11-15,51.333009,1.419934
262409,Ramsgate Working Mens Club,5,0,0,0,2014-03-06,51.337971,1.415722
262410,Ramsgate Youth Centre,5,0,0,0,2014-07-09,,
262411,Reading St PO & Village Store,5,0,0,0,2013-09-18,51.374308,1.431551
262412,Reapers Cafe,5,0,0,0,2014-07-18,51.380552,1.399432
262413,Red Arrows Club,5,0,0,0,2014-02-26,51.338829,1.401727
262414,Red Lion,5,0,0,0,2014-04-30,51.333774,1.420221
262415,Redcot Lodge,5,5,0,5,2014-09-22,51.384856,1.400527
262416,Refreshment Bar,5,5,0,0,2014-03-20,51.281311,1.099121
262417,Refuel at Skinny's,5,0,0,0,2014-06-23,,
262418,Regency Tandoori,4,0,0,10,2014-12-01,51.381717,1.339878
262419,Rent A Bar - 1,5,0,0,0,2014-02-27,,
262420,Rent A Bar 2,5,0,0,0,2012-11-03,,
262421,Rent A Bar 3,5,0,0,0,2012-11-03,,
262422,Residential Home,5,0,0,0,2014-05-01,51.380738,1.362791
262423,Restaurant 54,5,0,0,0,2014-07-09,51.36014,1.443479
262424,Resul Premier Convenience Store,5,0,0,0,2013-12-13,51.383673,1.38546
262425,Revolution Skate Park,4,0,0,10,2014-04-11,51.371339,1.415879
262426,Rickus Restaurant,4,0,0,10,2015-01-29,51.388862,1.37992
262427,Rising Sun Cafe,4,10,0,5,2014-02-26,51.341099,1.400674
262428,Riz Restaurant,5,5,0,5,2014-08-20,51.390034,1.389453
262429,"RNLI Souvenir Shop,",5,0,0,0,2014-01-30,51.391698,1.382631
262430,Rob's Plaice Fish & Chips,5,0,0,0,2015-02-06,51.381219,1.382002
262431,Rokka,5,5,0,0,2014-02-21,51.332386,1.421525
262432,Rokka,5,0,0,0,2014-01-21,51.389325,1.380084
262433,Roma Pizza & Ming Chinese,5,5,0,5,2014-11-24,51.388164,1.394691
262434,Rose Catering,4,0,0,10,2015-01-09,51.32935,1.414923
262435,Rose in June,5,0,0,0,2014-12-15,51.390966,1.387106
262436,Rose of England,5,0,0,0,2014-03-03,51.335725,1.416546
262437,Rosedene Residential Home,5,0,0,0,2014-07-07,51.384048,1.358089
262438,Rosie Lea Tea,5,0,0,0,2012-12-05,51.359886,1.436535
262439,Rosie Lea Tea,Exempt,nan,nan,nan,2014-10-24,51.369967,1.427116
262440,Rowlands Pharmacy,Exempt,nan,nan,nan,2013-09-18,51.365286,1.419524
262441,Rowlands Pharmacy,Exempt,nan,nan,nan,2013-09-18,51.382627,1.397659
262442,Roxburgh House,5,0,0,0,2014-03-04,51.382411,1.342042
262443,Royal Albion Hotel,3,10,10,5,2014-04-25,51.358617,1.442359
262444,Royal British Legion,5,0,0,0,2013-11-18,51.332328,1.417686
262445,Royal British Legion,5,0,0,0,2014-02-08,51.371076,1.433148
262446,Royal British Legion Club,4,10,0,0,2014-01-27,51.336186,1.309741
262447,Royal Dragon,0,15,20,20,2014-03-25,51.374616,1.305486
262448,Royal Harbour Hotel,4,0,0,10,2014-12-16,51.330249,1.416168
262449,Royal Harbour Ramsgate Brasserie,5,5,0,0,2015-02-05,51.331022,1.421136
262450,Royal Naval Association,5,0,0,0,2014-03-25,51.335712,1.41699
262451,Royal School For Deaf Children,5,5,0,0,2013-09-26,51.384652,1.388307
262452,Royal Temple Yacht Club,5,0,0,0,2014-11-06,51.3319,1.418171
262453,Rueathai,5,0,0,0,2014-03-21,51.33542,1.421435
262454,Rydal Mini Mart,4,0,10,0,2013-01-29,51.335425,1.393792
262455,Saffron Exotic Indian Cuisine,5,0,0,0,2014-10-28,51.333009,1.419934
262456,Saga Call Centre,5,0,0,0,2014-01-29,51.336058,1.368766
262457,Sainsbury's Supermarkets,5,0,0,0,2014-12-17,,
262458,Salmestone County Primary School,5,0,0,0,2014-04-28,51.378534,1.381516
262459,Salmestone Grange,5,0,0,0,2014-08-29,51.376377,1.379575
262460,Salon Bohemia,5,0,0,0,2014-03-28,51.358001,1.441911
262461,Samos Pizza,1,15,15,20,2014-04-09,51.38657,1.377365
262462,Sam's Bar,5,5,0,0,2014-03-24,51.349914,1.440672
262463,Samworth & Mee,3,10,10,10,2014-02-21,51.358994,1.442402
262464,Sancho's,5,5,0,0,2013-06-19,51.358827,1.441039
262465,Sands Hotel,4,0,0,10,2014-09-05,51.388638,1.379861
262466,Sands Kiosk,4,0,0,10,2014-06-06,51.38657,1.377365
262467,Sands Restaurant & Cafe Bar,5,0,0,0,2014-02-20,51.38657,1.377365
262468,Savers,5,0,0,0,2013-09-16,51.388545,1.383405
262469,Scrumptious Cupcakes,5,0,0,0,2013-05-07,,
262470,Sea Master,4,0,0,10,2014-10-28,51.367482,1.42351
262471,Sea Side Cake Co,5,0,0,0,2014-04-15,,
262472,Seabell Fish & Chips,2,15,0,10,2014-10-24,51.375915,1.303754
262473,Seafarer Restaurant,5,0,0,0,2014-07-01,51.359586,1.44305
262474,Seaside Seafood,2,15,15,10,2014-06-12,51.366324,1.422037
262475,Seaview Hotel,4,10,0,0,2014-02-18,51.375868,1.303823
262476,Select Healthcare Group,1,15,15,20,2014-11-19,51.385256,1.335665
262477,Sense,5,0,0,0,2014-05-20,,
262478,Sense,5,0,0,0,2014-07-11,,
262479,Shanghai Chinese Takeaway,3,10,10,10,2014-01-21,51.389355,1.391458
262480,Shaw Healthcare (FM Services),5,0,0,0,2014-07-22,51.381367,1.358094
262481,Sheldons,5,0,0,0,2014-03-28,51.386157,1.381676
262482,Shell Birchington,5,5,0,0,2014-02-04,51.368281,1.298893
262483,Shell Royal Oak,5,5,0,0,2014-03-10,51.335188,1.387054
262484,Sherwood Hotel,5,0,0,0,2014-02-19,51.391738,1.391793
262485,Ship Shape,5,5,0,0,2014-01-30,51.330413,1.417328
262486,Shop,5,0,0,0,2013-12-16,51.367513,1.332665
262487,Shop,Exempt,nan,nan,nan,2013-11-26,51.351726,1.385947
262488,Shop Locally,2,15,0,0,2014-04-29,51.389918,1.390997
262489,Shottendane,5,0,0,0,2014-08-27,51.377187,1.377378
262490,Siam Kitchen,5,5,0,0,2014-02-20,51.359586,1.44305
262491,Simla Brasserie,4,0,0,10,2014-08-26,51.385765,1.408228
262492,Simms Olde Sweet Shoppe,Exempt,nan,nan,nan,2014-04-08,51.33308,1.42027
262493,Sin Le,5,0,0,0,2014-03-24,51.334575,1.313272
262494,Sinatra's,1,20,15,10,2014-10-24,51.359544,1.438075
262495,Six Bells Children Centre,5,0,0,0,2013-11-18,51.384752,1.382694
262496,Skool Kids,5,0,0,0,2014-03-05,51.380607,1.413594
262497,Smiles & Giggles,Exempt,nan,nan,nan,2014-04-09,51.3663,1.427302
262498,Smiths Court Hotel Ltd,4,10,5,5,2014-02-18,51.390664,1.398442
262499,Smoke and Spice,5,0,0,0,2014-05-22,,
262500,Smugglers Restaurant,5,5,0,5,2013-11-07,51.374131,1.308024
262501,Smugglers Retreat Table Table,2,15,0,10,2013-10-12,51.342078,1.317045
262502,Smyrna Patisserie,5,0,0,0,2012-05-30,51.333009,1.419934
262503,Social Club & Canteen,4,5,5,10,2014-01-30,51.357061,1.396786
262504,Somerville Hotel,5,5,0,0,2013-10-29,51.386302,1.371351
262505,South Barn Gifts,5,0,0,0,2014-02-05,,
262506,South Eastern Tavern,5,0,0,0,2013-09-27,51.339067,1.414555
262507,South Garden Takeaway,1,10,0,20,2013-11-20,51.389357,1.383019
262508,South Lodge Guesthouse,5,0,0,0,2014-11-21,51.356127,1.437101
262509,Spar,5,0,0,0,2014-09-01,51.34589,1.392411
262510,Spar,5,0,0,0,2013-11-25,51.384663,1.367363
262511,Spencer Court Hotel,4,0,0,10,2015-01-09,51.330259,1.41367
262512,Spencer House Nursing Home,4,5,0,10,2014-04-15,51.380714,1.30456
262513,Spice Cottage,5,0,0,0,2013-12-12,51.358006,1.440503
262514,Spice Fusion,4,5,0,10,2014-10-15,51.336968,1.415562
262515,Springfield Care Home,2,15,15,10,2014-11-25,51.379515,1.3275
262516,Springfield House,5,0,0,0,2014-07-10,51.378155,1.306934
262517,St Andrew's Church Hall,5,0,0,0,2013-09-19,51.374308,1.431551
262518,St Anthonys School,5,0,0,0,2014-01-23,51.381846,1.406902
262519,St Augustines,5,5,0,0,2013-11-07,51.378574,1.335912
262520,St Augustines Golf Club,5,0,0,0,2014-01-27,51.328525,1.356397
262521,St Barts Childrens Nursery,5,5,0,0,2013-11-01,51.335361,1.367666
262522,St Clements Court,5,5,0,0,2014-02-01,51.365846,1.42037
262523,St Crispins Infant School (kitchen),5,5,0,0,2013-04-16,51.376282,1.337125
262524,St Ethelberts Roman Catholic Primary School,5,5,0,0,2014-05-07,51.34027,1.423247
262525,St Georges Hall,Exempt,nan,nan,nan,2013-11-15,51.335213,1.418059
262526,St Georges Secondary School,5,0,0,0,2014-01-08,51.36124,1.407771
262527,St Gregorys Catholic Primary School,5,5,0,0,2013-10-09,51.376052,1.379307
262528,St Johns Lunch Club,5,0,0,0,2014-06-02,51.383653,1.384596
262529,St Johns Pre School Group,5,0,0,0,2013-10-10,51.383653,1.384596
262530,St Josephs School,5,0,0,0,2013-11-21,51.363477,1.430956
262531,St Laurence Church,1,0,0,20,2014-11-27,51.338257,1.404987
262532,St Laurence In Thanet Junior Academy,5,0,0,0,2014-04-23,51.338829,1.401727
262533,St Lawrence College,5,0,0,0,2013-03-14,51.343148,1.41493
262534,St Lawrence Parish Hall,5,0,0,0,2013-09-23,51.337043,1.40125
262535,St Lawrence Tandoori,4,10,0,10,2013-10-29,51.337822,1.402629
262536,St Lawrence Tavern,5,5,0,0,2013-08-09,51.33662,1.400357
262537,St Lukes Parish Hall,5,0,0,0,2013-10-31,51.340746,1.417739
262538,St Lukes Stores,5,0,0,0,2013-09-27,51.340324,1.419229
262539,St Michaels Nursing Home,5,5,5,0,2013-10-21,51.380047,1.331909
262540,St Mildreds County Primary School,5,5,0,0,2013-04-18,51.357887,1.432923
262541,St Nicholas At Wade C Of E Primary School,5,0,0,0,2014-04-29,51.353232,1.24841
262542,St Peter In Thanet C Of E Junior School,5,5,0,0,2013-10-03,51.369967,1.427116
262543,St Peters Church Hall,5,0,0,0,2014-06-24,51.366546,1.417663
262544,St Peters Fish Bar,2,15,0,10,2013-10-14,51.364114,1.418402
262545,St Peters Home,5,0,0,0,2014-06-26,51.381595,1.386414
262546,St Peters Memorial Hall,Exempt,nan,nan,nan,2014-03-27,51.364415,1.421341
262547,St Peters Stores,4,5,0,10,2013-10-16,51.369666,1.424808
262548,St Phillips Church,5,0,0,0,2014-02-25,51.385409,1.426286
262549,St Saviours School,5,0,0,0,2013-09-16,51.380416,1.335342
262550,Staff Canteen,5,5,0,0,2013-11-07,51.360817,1.414248
262551,Staff Canteen,5,0,0,0,2013-09-23,51.386542,1.403772
262552,Staff Restaurant,5,0,0,0,2014-11-18,51.358928,1.400027
262553,Staples,Exempt,nan,nan,nan,2012-11-13,51.361918,1.398065
262554,Star Inn,5,0,0,0,2013-06-18,51.36262,1.395258
262555,Star Lane Stores,5,0,0,0,2015-02-03,51.364747,1.394783
262556,Star Nergis,5,0,0,0,2014-02-25,51.33407,1.419941
262557,Star of the Sea,5,5,0,0,2014-01-31,51.358827,1.441039
262558,Stay 'N' Play,5,0,0,0,2014-01-29,51.332528,1.40495
262559,STB Pizza,5,0,0,0,2014-02-26,51.34756,1.421578
262560,Stewarts Cafe,5,0,0,0,2013-10-01,51.34815,1.405678
262561,Stone Bay School,5,0,0,0,2014-02-12,51.366627,1.442831
262562,Stones Outside Catering,5,0,0,0,2014-08-07,,
262563,Strawberries & Cream,4,0,0,10,2014-02-26,,
262564,Subway,5,5,0,0,2013-09-20,51.386473,1.381024
262565,Subway,5,0,0,0,2014-01-22,51.33407,1.419941
262566,Subway,5,0,0,0,2014-04-11,51.359503,1.392929
262567,Sugar and Spice,5,0,0,0,2012-11-13,,
262568,Sugar Darling Cakes,5,0,0,0,2014-04-15,,
262569,Summerville Residential Home,5,0,0,0,2014-02-21,51.385958,1.397576
262570,Sun Inn,5,0,0,0,2014-02-13,51.353712,1.253155
262571,Sundowners,5,0,0,0,2014-05-02,51.387868,1.380077
262572,Sunrise Cafe Restaurant,5,5,0,0,2013-09-30,51.332812,1.419273
262573,Sunrise Fish & Chips,5,0,0,0,2014-04-22,51.333159,1.419098
262574,Sunset Rock Shop,5,0,0,0,2012-08-21,51.388881,1.379864
262575,Sunshine Playgroup,5,0,0,0,2014-03-26,51.380607,1.413594
262576,Super King Pizza,1,15,15,20,2014-03-26,51.334698,1.42062
262577,Superdrug Stores PLC,Exempt,nan,nan,nan,2013-09-25,51.358827,1.441039
262578,Sure Start,Exempt,nan,nan,nan,2014-10-16,51.371228,1.308576
262579,Sure Start,Exempt,nan,nan,nan,2014-11-27,51.378029,1.362822
262580,Sure Start,5,0,0,5,2014-01-27,51.341428,1.391809
262581,Surin Thai,5,5,0,5,2013-10-29,51.333009,1.419934
262582,Sweet Barrow,5,0,0,0,2014-05-30,51.33419,1.418615
262583,Sweet Carolines,5,5,0,0,2014-07-22,51.374134,1.306932
262584,Sweet Moments,5,0,0,0,2014-04-23,51.374616,1.305486
262585,Sweet Yesterdays,5,0,0,0,2014-10-24,51.358729,1.439767
262586,Sycamore Stores,1,0,10,20,2015-01-21,51.359852,1.407854
262587,Symphony Cafe,5,5,0,5,2014-03-05,51.33308,1.42027
262588,T Stall,5,0,0,0,2014-03-26,51.389123,1.381766
262589,Taddy's Barn Tea Room,5,0,0,0,2015-01-27,51.381946,1.42288
262590,Taj Mahal,4,10,0,10,2014-11-04,51.381275,1.335821
262591,Tamarind Indian Resturant,4,0,0,10,2014-07-29,51.358994,1.442402
262592,Tandoori Express,4,10,0,5,2013-09-19,51.351949,1.402469
262593,Tandoori Nite,4,5,5,10,2014-03-10,51.375868,1.303823
262594,Tartar Frigate,5,5,0,0,2014-03-12,51.359287,1.444651
262595,Taylor Meats Ltd,5,0,0,0,2014-04-30,51.33308,1.42027
262596,Terrance House,4,10,0,0,2013-11-12,51.385724,1.379876
262597,Terry Vernon,4,0,0,10,2012-03-06,,
262598,Tesco Extra,5,0,0,0,2014-02-27,51.358928,1.400027
262599,Tesco Stores Ltd,5,0,0,0,2012-09-07,51.337043,1.40125
262600,Tesco Stores Ltd,5,0,0,0,2013-09-18,51.386542,1.403772
262601,Tesco Stores Ltd,5,0,0,0,2014-04-08,51.384296,1.36574
262602,Tesco Stores Ltd,5,0,0,0,2014-02-12,51.340477,1.425689
262603,Tesco Stores Ltd,5,0,0,0,2014-11-18,51.340742,1.387248
262604,Tesco Stores Ltd,5,5,0,0,2014-05-14,51.358506,1.440627
262605,Texas Pizza,4,10,5,5,2014-04-04,51.389672,1.386723
262606,Thai Four Two,5,0,0,0,2014-07-09,51.357331,1.439907
262607,Thai House,4,10,0,10,2014-10-15,51.3737,1.30736
262608,Thai Style,5,5,0,0,2013-09-05,51.331827,1.418209
262609,Thanet Bowling Club,5,0,0,0,2013-03-20,51.343133,1.432365
262610,Thanet Cafe,5,0,0,0,2013-07-22,51.386963,1.399807
262611,Thanet Early Years Project,5,5,0,5,2014-01-27,51.345194,1.420037
262612,Thanet Indoor Bowls Centre,5,0,0,0,2014-02-13,51.390942,1.404372
262613,Thanet Kebab & Pizza,5,5,0,5,2013-10-29,51.34523,1.408636
262614,Thanet Quality Foods,4,0,0,10,2014-05-08,51.388401,1.395543
262615,Thanet Society Of Druids,5,0,0,0,2013-09-19,51.391104,1.394449
262616,Thanet Squash Rackets Club,5,0,0,0,2013-10-14,51.369495,1.443808
262617,Thanet Wanderers,5,5,0,0,2014-12-04,51.366877,1.430937
262618,The 19th Hole,5,5,0,0,2012-04-10,51.38122,1.427123
262619,The 39 Steps Alehouse,5,0,0,0,2013-09-10,51.358155,1.441563
262620,The Acorn Inn,5,0,0,0,2014-03-28,51.372339,1.307751
262621,The Albert,5,0,0,0,2014-03-04,51.336367,1.414584
262622,The Artillery Arms,5,0,0,0,2014-01-30,51.331135,1.412328
262623,The Bake & Alehouse,5,5,0,0,2013-08-14,51.382106,1.336644
262624,The Bay Tree Hotel,5,0,0,0,2013-10-02,51.363386,1.44414
262625,The BBQ King,5,0,0,0,2014-08-15,51.343697,1.400723
262626,The Beano Cafe,5,5,0,0,2013-07-10,51.360134,1.432071
262627,The Bell Inn,4,10,10,0,2013-10-15,51.33191,1.315578
262628,The Belle Vue Tavern,5,0,0,0,2014-01-07,51.387753,1.398312
262629,The Bengal Masala,1,10,0,20,2014-03-03,51.350065,1.403235
262630,The Best Beano Cafe & Restaurant,5,0,0,0,2015-02-03,51.388527,1.38684
262631,The Big Party Store,5,0,0,0,2014-10-14,51.338108,1.402377
262632,The Botany Bay Hotel,2,15,0,10,2014-07-22,51.387872,1.435844
262633,The Bottle Shop,Exempt,nan,nan,nan,2013-09-23,51.374797,1.305772
262634,The Bottleneck Off Licence,Exempt,nan,nan,nan,2013-09-18,51.358155,1.441563
262635,The Bracket,4,10,10,0,2014-08-01,51.38657,1.377365
262636,The Britannia,5,0,0,0,2014-03-17,51.391554,1.38449
262637,The Brown Jug,5,0,0,0,2013-09-16,51.349894,1.427283
262638,The Bulls Head,5,0,0,0,2014-04-23,51.389464,1.381489
262639,The Cake Cabin,5,0,0,0,2014-10-02,51.366756,1.316257
262640,The Candy Cabin,5,0,0,0,2014-06-16,,
262641,The Candy Stop,5,0,0,0,2014-08-05,51.388881,1.379864
262642,The Canterbury Bell,5,0,0,0,2014-09-18,51.359593,1.396643
262643,The Chai Stop,5,5,0,0,2014-02-05,51.318678,1.345313
262644,The Chalet,5,5,0,0,2013-09-04,51.359287,1.444651
262645,The Chapel,4,10,10,0,2013-09-09,51.359586,1.44305
262646,The Charles Dickens,5,0,0,0,2014-06-26,51.357652,1.441842
262647,The Chilterns,5,0,0,0,2014-03-04,51.384107,1.340627
262648,The Chocolate Pod,5,0,0,0,2012-04-13,,
262649,The Clubhouse,5,5,0,0,2014-03-12,51.336966,1.283015
262650,The Coffee Shack,5,0,0,0,2014-05-21,,
262651,The Co-op Lateshop,5,0,0,0,2013-09-16,51.343957,1.398588
262652,The Co-Op Lateshop,5,0,0,0,2013-12-16,51.375868,1.303823
262653,The Co-operative,5,0,0,0,2013-10-11,51.375868,1.303823
262654,The Corkscrew Off Licence,Exempt,nan,nan,nan,2013-09-23,51.381612,1.337901
262655,The Corner House,5,0,0,0,2014-09-18,51.330225,1.314724
262656,The Cupcake Cafe,5,0,0,0,2014-04-23,51.389464,1.381489
262657,The Daily Grind,5,5,0,0,2014-03-13,51.33308,1.42027
262658,The David Copperfield,5,5,0,0,2014-04-28,51.360763,1.410867
262659,The Deal Cutter,5,0,0,0,2014-03-04,51.334698,1.42062
262660,The Deli,5,5,0,0,2013-11-04,51.376093,1.304471
262661,The Devonhurst Hotel,4,5,10,5,2014-02-12,51.363386,1.44414
262662,The Dolphin,5,0,0,0,2015-01-14,51.359586,1.44305
262663,The Drinkshop.com Ltd,Exempt,nan,nan,nan,2013-11-20,51.345113,1.386939
262664,The Ellington And Hereson School,5,0,0,0,2014-01-08,51.348733,1.410663
262665,The Elms Nursery,5,0,0,0,2013-09-27,51.333207,1.41129
262666,The Fish Inn,5,0,0,0,2014-04-11,51.377291,1.331076
262667,The Foreland School,5,0,0,0,2013-11-29,51.368581,1.438494
262668,The Four Candles Alehouse,5,0,0,0,2013-08-15,51.362908,1.427939
262669,The Frilly Pinny Cake Co,5,0,0,0,2014-11-21,51.38279,1.345793
262670,The Fruitful Grocer,5,5,5,0,2014-02-03,51.376093,1.304471
262671,The Gallery,5,5,5,0,2014-01-28,51.388152,1.381737
262672,The Galley,5,0,0,0,2014-02-25,51.331827,1.418209
262673,The Garden Gate Cafe,4,0,0,10,2014-03-25,51.384246,1.418049
262674,The Gift Basket Cafe,5,0,0,0,2014-05-09,51.386473,1.381024
262675,The Glass Jar,4,10,0,0,2014-01-20,51.388756,1.379826
262676,The Glenwood Hotel,1,10,15,20,2014-09-16,51.390068,1.394171
262677,The Good Intent,5,0,0,0,2013-10-30,51.389304,1.389183
262678,The Goose,1,20,15,10,2014-08-29,51.333009,1.419934
262679,The Great Tree,5,0,0,0,2014-02-03,51.339067,1.414555
262680,The Greedy Cow,5,0,0,0,2014-01-30,51.389464,1.381489
262681,The Grove,5,0,0,0,2014-06-18,51.36482,1.332785
262682,The Harbour Arms,5,5,0,0,2013-07-24,51.391148,1.378608
262683,The Hartsdown,5,0,0,0,2014-03-08,51.379694,1.374041
262684,The Hockeredge,4,0,0,10,2014-05-23,51.380533,1.345125
262685,The Hovelling Boat Inn,5,0,0,0,2013-07-24,51.332812,1.419273
262686,The Hoy,5,0,0,0,2014-04-30,51.390814,1.382379
262687,The Hussar,5,5,0,0,2014-02-18,51.379619,1.354114
262688,The Institute of St Anselm,5,5,0,5,2013-11-13,51.38804,1.401152
262689,The Intolerant Wife,5,0,0,0,2014-01-20,51.358827,1.441039
262690,The Jolly Fryer,5,5,0,0,2014-10-06,51.345218,1.368964
262691,The Kent International Hotel,5,0,0,0,2014-01-13,51.332276,1.419449
262692,The Kent School of English,Exempt,nan,nan,nan,2014-10-23,51.35567,1.438877
262693,The King Ethelbert School,5,0,0,0,2013-10-15,51.377103,1.32218
262694,The Kingfisher Restaurant,4,0,0,10,2014-08-12,51.38657,1.377365
262695,The Kitchen,5,0,0,0,2013-11-04,51.33442,1.420872
262696,The Knot,5,0,0,0,2015-01-15,51.383899,1.343789
262697,The Lantern,5,0,0,0,2014-09-02,51.391148,1.378608
262698,The Lanthorne,5,5,0,0,2014-03-24,51.366877,1.430937
262699,The Lifeboat Ale and Cider House,5,0,0,0,2013-11-12,51.389227,1.38127
262700,The Lighthouse Bar,5,0,0,0,2012-09-19,51.391148,1.378608
262701,The Little Albion Inn,5,0,0,0,2014-11-26,51.361719,1.428612
262702,The Little Chocolate Company,5,0,0,0,2012-04-20,,
262703,The Lookout,5,0,0,5,2013-08-30,51.330249,1.416168
262704,The Lord Byron,5,0,0,0,2014-02-10,51.383684,1.390047
262705,The Lovely Liquorice Company,Exempt,nan,nan,nan,2014-09-23,,
262706,The Mad Hatter Tea Rooms,5,0,0,0,2014-03-08,51.38916,1.38266
262707,The Madhatters Tea Shop,4,5,0,10,2014-01-27,51.334575,1.313272
262708,The Martins,5,5,0,0,2013-12-13,51.314441,1.350646
262709,The Minnis,4,0,10,0,2014-02-17,51.37765,1.281716
262710,The Mulberry Tree,5,0,0,0,2014-03-18,51.387487,1.389825
262711,The New Inn,5,5,0,0,2014-01-29,51.33564,1.314412
262712,The New Mala Tandoori,1,10,15,20,2014-09-23,51.366986,1.424766
262713,The Northern Belle,5,5,0,0,2014-10-07,51.390568,1.381872
262714,"The Oak Hotel, Tifany Suite",5,5,0,5,2013-11-02,51.332386,1.421525
262715,The Old Bakehouse,4,10,0,0,2014-01-30,51.358506,1.440627
262716,The Old Curiosity Shop,4,10,0,0,2013-03-11,51.359725,1.443836
262717,The Old Custom Coffee House,4,0,0,10,2015-01-19,51.332221,1.423192
262718,The Orb,5,5,0,0,2014-02-25,51.373025,1.388181
262719,The Original Drinks & Food Co Ltd,Exempt,nan,nan,nan,2014-11-24,51.335289,1.409003
262720,The Oxford,5,0,0,0,2014-02-13,51.382144,1.385462
262721,The Parlour,5,0,0,0,2014-07-10,51.376536,1.302161
262722,The Pavilion,5,5,0,0,2013-08-31,51.359287,1.444651
262723,The Peking,4,0,0,10,2015-01-07,51.381411,1.398662
262724,The Pie Shop,5,0,0,0,2014-03-26,51.388545,1.383405
262725,The Ploughmans Choice/Kitchen,5,0,0,0,2014-09-25,51.371228,1.308576
262726,The Prince Albert,4,5,0,10,2014-01-20,51.358827,1.441039
262727,The Princess of Wales,5,0,0,0,2013-11-25,51.382047,1.381028
262728,The Queens Head,5,0,0,0,2013-11-18,51.332221,1.423192
262729,The Racing Greyhound,4,0,0,10,2015-01-02,51.345408,1.428111
262730,The Railway Cafe,4,10,0,0,2013-10-14,51.386387,1.372464
262731,The Ramsgate Balti Takeaway,5,0,0,0,2014-11-25,51.338178,1.416944
262732,The Range,5,0,0,0,2014-11-21,51.357403,1.400834
262733,The Reading Rooms,5,0,0,0,2014-02-14,51.386156,1.383574
262734,The Red Lion,5,5,0,5,2013-07-18,51.364585,1.420118
262735,The Rodney,5,0,0,0,2014-04-24,51.376981,1.355157
262736,The Royal,5,0,0,0,2013-08-30,51.33237,1.420231
262737,The Ruby Lounge,5,0,0,0,2012-03-19,51.389576,1.381037
262738,The Saddlers,5,0,0,0,2014-01-28,51.334575,1.313272
262739,The Salvation Army,5,0,0,0,2014-02-04,,
262740,The Salvation Army,5,0,0,0,2014-07-04,51.387233,1.384616
262741,The Shop on The Hill,5,0,0,0,2013-09-18,51.374762,1.418161
262742,The Sir Stanley Gray,5,0,0,0,2014-04-10,51.327274,1.391984
262743,The Spencer Private Hospital,5,0,0,0,2014-05-07,51.378064,1.389373
262744,The Sportsman,5,0,0,0,2014-06-05,51.32553,1.364821
262745,The Square Meal Cafe,5,5,0,0,2013-05-08,51.368807,1.29873
262746,The Stylish Ice Cream Company,5,0,0,0,2014-12-09,,
262747,The Swan,4,10,0,10,2014-03-03,51.38271,1.333439
262748,The Terrace Garden Cafe,5,0,0,0,2013-09-18,51.332077,1.418572
262749,The Victoria,5,0,0,0,2014-03-31,51.35668,1.441553
262750,The Viking Ship Cafe,5,5,0,0,2014-03-14,51.32553,1.364821
262751,The Village Bakery,4,10,0,0,2014-02-17,51.374616,1.305486
262752,The Village Pantry,5,0,0,0,2014-07-09,51.385765,1.408228
262753,The Village Shop,5,0,0,0,2013-10-30,51.328649,1.366155
262754,The Walmer Castle,3,10,5,10,2014-11-07,51.380082,1.34203
262755,The Wheatsheaf,5,0,0,0,2014-06-10,51.337822,1.402629
262756,The Wheel Alehouse,5,5,0,0,2013-07-24,51.375868,1.303823
262757,The White House,5,0,0,0,2014-07-23,51.356834,1.4403
262758,The White Stag,4,10,5,0,2013-03-08,51.337786,1.285831
262759,The White Swan,5,0,0,0,2014-03-07,51.374308,1.431551
262760,The Whitehouse B & B,5,0,0,0,2014-04-17,51.37797,1.291154
262761,The Whynot Kitchen,5,0,0,0,2013-07-29,,
262762,The Willows Care Centre,5,0,0,0,2014-02-26,51.391549,1.399859
262763,The Wind Shack,2,5,15,0,2013-07-24,51.380957,1.286984
262764,The Windmill,5,0,0,0,2014-11-10,51.343344,1.399246
262765,The York Arms,5,0,0,0,2013-09-16,51.33442,1.420872
262766,Theatre Royal,5,0,0,0,2013-11-04,51.387742,1.385358
262767,Thorntons,Exempt,nan,nan,nan,2014-04-23,51.359503,1.392929
262768,Tim's Flavour Savour,5,0,0,0,2015-01-26,,
262769,Tivoli Cafe,5,0,0,0,2015-01-27,51.382047,1.381028
262770,TK Maxx,Exempt,nan,nan,nan,2013-09-17,51.359503,1.392929
262771,TM Meats,5,5,0,0,2012-05-30,51.332812,1.419273
262772,TNS,5,0,0,0,2014-04-24,51.381411,1.398662
262773,Toby Carvery Thanet,5,0,0,0,2013-09-18,51.357554,1.388805
262774,Toni's Newsagents,Exempt,nan,nan,nan,2014-03-04,51.33442,1.420872
262775,Top Nosh,5,5,0,5,2014-10-06,51.36835,1.391529
262776,Topp's Seafood,5,0,0,0,2014-04-01,51.332221,1.423192
262777,Torwood House,3,5,10,10,2014-02-11,51.35486,1.438299
262778,Townsend Montessori,5,0,0,0,2014-03-07,51.385488,1.410335
262779,Townsend Montessori Margate,5,0,0,0,2014-04-03,51.383673,1.38546
262780,Travelodge,5,0,0,0,2013-11-04,51.359503,1.392929
262781,Treetops Residential Home,5,0,0,0,2014-07-21,51.384856,1.400527
262782,Trinity Resource Centre,5,5,0,0,2013-11-29,51.380607,1.413594
262783,Turner Contemporary Cafe,5,0,0,0,2013-04-18,51.391698,1.382631
262784,Two Chimneys,5,0,0,0,2013-10-11,51.36482,1.332785
262785,Ty - 8,5,0,0,0,2014-03-26,51.389814,1.388373
262786,Tycoon,5,0,0,0,2014-09-01,51.33662,1.400357
262787,Upton County Primary School,5,0,0,0,2013-10-02,51.359185,1.429442
262788,Ursuline College,5,0,0,0,2014-01-23,51.376797,1.327547
262789,Vale Tavern,5,0,0,0,2014-10-14,51.332529,1.407391
262790,Vatan,5,0,0,0,2014-11-27,51.390034,1.389453
262791,Vera's,Exempt,nan,nan,nan,2013-09-17,51.386237,1.403145
262792,Vera's Kitchen,4,0,0,10,2013-08-16,51.389896,1.381794
262793,Viaduct Stores,5,0,0,0,2014-03-18,51.342252,1.411747
262794,Victoria Off Licence,5,0,0,0,2014-03-21,51.337358,1.423776
262795,Victoria Villa,5,0,0,0,2014-02-18,51.381367,1.358094
262796,Victory News,4,5,0,10,2014-12-03,51.360974,1.442364
262797,Viking,5,0,0,0,2014-03-11,51.355193,1.440738
262798,Village Grill,5,0,0,0,2015-02-02,51.333009,1.419934
262799,Village Hall,5,0,0,0,2013-09-20,51.329686,1.365771
262800,Village Newsagents,Exempt,nan,nan,nan,2013-12-10,51.364585,1.420118
262801,Village Square Cafe,5,5,0,0,2013-10-28,51.374134,1.306932
262802,Vinnys Cafe,5,0,0,0,2014-01-07,51.386705,1.400966
262803,Vinyl Head Cafe,5,0,0,0,2014-10-28,51.331538,1.413923
262804,Vista Bar,5,0,0,0,2014-02-24,51.332386,1.421525
262805,Vue Cinema,5,0,0,0,2013-11-29,51.359503,1.392929
262806,W A Hazell Butchers,1,10,5,20,2013-06-12,51.358827,1.441039
262807,W H Smith,Exempt,nan,nan,nan,2014-03-03,51.33419,1.418615
262808,Waffly Nice Ltd,5,0,0,0,2014-07-03,,
262809,Waitrose Ltd,5,0,0,0,2014-10-30,51.332691,1.416952
262810,Walpole Bay Hotel,5,5,0,0,2013-08-12,51.391293,1.40434
262811,Wantsum Art,4,nan,nan,nan,2014-03-13,51.377858,1.289047
262812,Wantsum Lodge,5,0,0,0,2014-11-13,51.331036,1.403059
262813,Warwick Guesthouse,5,0,0,0,2014-02-13,51.387951,1.402338
262814,Wayside Caravan Park,5,0,0,0,2013-09-26,51.335262,1.329965
262815,Wellesley House School,5,0,0,0,2014-01-21,51.355406,1.427335
262816,West Bay Cafe,4,0,0,10,2015-01-06,,
262817,Westbrook Aqua Club,5,0,0,0,2014-04-08,51.384763,1.346943
262818,Westbrook Cafe,5,0,0,0,2014-08-26,51.384663,1.367363
262819,Westbrook Cafeteria,5,0,0,0,2014-05-23,51.385076,1.363943
262820,Westbrook Club,5,0,0,0,2014-04-08,51.384184,1.364295
262821,Westbrook Lodge Guest House,5,5,0,0,2014-02-17,51.384191,1.36188
262822,Westbrook News,Exempt,nan,nan,nan,2013-09-16,51.384663,1.367363
262823,Westcoast Bar & Grill,2,15,0,0,2013-08-16,51.390096,1.382643
262824,Westgate & Birchington Golf Club Bar,5,5,0,0,2013-11-07,51.378692,1.33112
262825,Westgate Community Centre,5,0,0,0,2013-10-30,51.377219,1.338631
262826,Westgate Fish 'N' Chips,4,10,10,0,2014-02-11,51.381612,1.337901
262827,Westgate on Sea Club,5,0,0,0,2013-11-04,51.382018,1.337859
262828,Westgate Social Club,5,0,0,0,2014-04-22,51.380711,1.337965
262829,Westgate United Services Club,5,0,0,0,2014-07-15,51.382106,1.336644
262830,W'gate & W'brook Res Ass,5,0,0,0,2013-09-16,51.382106,1.336644
262831,WH Smith,Exempt,nan,nan,nan,2013-09-19,51.359503,1.392929
262832,White Cliffs,5,0,0,0,2014-02-17,51.349914,1.440672
262833,White Lodge,5,5,0,5,2014-08-21,51.387104,1.394023
262834,WHSmiths,5,0,0,0,2014-02-19,51.378064,1.389373
262835,Wig and Pen,5,0,0,0,2014-01-07,51.38916,1.38266
262836,Wilkinson,5,0,0,0,2013-11-06,51.332812,1.419273
262837,Wimpy,4,10,10,0,2013-09-24,51.38657,1.377365
262838,Windmill Community Allotment Project,4,10,0,0,2013-10-10,51.380384,1.399937
262839,Windsor House,5,5,0,0,2013-04-15,51.379963,1.338328
262840,Winter Gardens,5,5,0,0,2013-10-11,51.391425,1.38645
262841,WM Morrison Supermarket,5,0,0,0,2014-02-07,51.33442,1.420872
262842,Wongs,5,5,0,5,2013-09-17,51.339788,1.424963
262843,World Cup Pop-Up Margate,5,0,0,0,2014-06-12,51.391148,1.378608
262844,Wrotham Arms,5,0,0,0,2013-10-11,51.356331,1.439056
262845,Wyatt & Jones,5,0,0,0,2015-01-30,51.359287,1.444651
262846,Wychdene,4,10,0,10,2014-05-28,51.368648,1.431917
262847,Yama's,5,5,0,0,2013-09-24,51.386157,1.381676
262848,Yoakley House,5,0,0,0,2014-03-11,51.376386,1.393273
262849,Yummy,3,10,5,10,2015-01-28,51.33806,1.406208
262850,Yummy Mum Bakery,5,0,0,0,2013-01-28,,
262851,Yummy Yummy,4,0,0,10,2014-05-29,51.38543,1.368813
262852,Zara's,5,5,0,0,2014-10-10,51.376093,1.304471
