,addressline1,addressline2,addressline3,addressline4,businessname,businesstype,businesstypeid,confidenceinmanagement,extractdate,fhrsid,hygiene,itemcount,latitude,localauthoritybusinessid,localauthoritycode,localauthorityemailaddress,localauthorityname,localauthoritywebsite,longitude,postcode,ratingdate,ratingkey,ratingvalue,returncode,schemetype,structural
261620,8-10 Albion Hill,Ramsgate,Kent,,100% Thai,Restaurant/Cafe/Canteen,1,0,,510247,0,,51.33282500000000,PI/000098127,190,environmental.health@thanet.gov.uk,Thanet,http://www.thanet.gov.uk,1.42099700000000,CT11 8HG,2015-02-03,fhrs_5_en-GB,5,,FHRS,0
261621,,,,,3 Little Devils Cakes,Other catering premises,7841,0,,731341,0,,,PI/000102861,190,environmental.health@thanet.gov.uk,Thanet,http://www.thanet.gov.uk,,,2015-01-06,fhrs_5_en-GB,5,,FHRS,0
261622,15 Northwood Road,Ramsgate,Kent,,555 Pizza,Takeaway/sandwich shop,7844,0,,430090,0,,51.35302200000000,PI/000040779,190,environmental.health@thanet.gov.uk,Thanet,http://www.thanet.gov.uk,1.40299400000000,CT12 6RR,2014-11-27,fhrs_5_en-GB,5,,FHRS,0
261623,12-14 High Street,Ramsgate,Kent,,99p Stores Ltd,Retailers - other,4613,10,,620162,0,,51.33372300000000,PI/000051139,190,environmental.health@thanet.gov.uk,Thanet,http://www.thanet.gov.uk,1.41918300000000,CT11 9AB,2014-07-24,fhrs_4_en-GB,4,,FHRS,0
261624,,,,,A Dream Day,Other catering premises,7841,10,,637715,5,,,PI/000075784,190,environmental.health@thanet.gov.uk,Thanet,http://www.thanet.gov.uk,,,2014-02-27,fhrs_4_en-GB,4,,FHRS,0
261625,Canterbury House,Monkton Road,Minster,Ramsgate,A J Cliffe and Sons Family Butcher,Retailers - other,4613,5,,568371,0,,51.33457500000000,PI/000020751,190,environmental.health@thanet.gov.uk,Thanet,http://www.thanet.gov.uk,1.31327200000000,CT12 4EA,2013-06-24,fhrs_5_en-GB,5,,FHRS,5
261626,,,,,A La Margarida,Mobile caterer,7846,0,,555387,0,,,PI/000059370,190,environmental.health@thanet.gov.uk,Thanet,http://www.thanet.gov.uk,,,2013-04-18,fhrs_5_en-GB,5,,FHRS,0
261627,Persimmon Homes Site,Manston Court Road,Margate,Kent,A Treat to Eat,Restaurant/Cafe/Canteen,1,0,,658631,5,,,PI/000102444,190,environmental.health@thanet.gov.uk,Thanet,http://www.thanet.gov.uk,,,2014-03-31,fhrs_5_en-GB,5,,FHRS,5
261628,6-6A Luton Avenue,Broadstairs,Kent,,Abbeyfield Broadstairs Society Ltd,Hospitals/Childcare/Caring Premises,5,5,,637719,0,,51.35537700000000,PI/000077066,190,environmental.health@thanet.gov.uk,Thanet,http://www.thanet.gov.uk,1.43138500000000,CT10 2DH,2015-01-06,fhrs_5_en-GB,5,,FHRS,0
261629,31 Rancorn Road,Margate,Kent,,Abbeyfields,Hospitals/Childcare/Caring Premises,5,0,,608150,0,,51.38418400000000,PI/000004382,190,environmental.health@thanet.gov.uk,Thanet,http://www.thanet.gov.uk,1.36429500000000,CT9 5DG,2014-03-14,fhrs_5_en-GB,5,,FHRS,0
261630,29-31 Addington Street,Ramsgate,Kent,,Addington Superstore,Retailers - other,4613,0,,658555,0,,51.33111900000000,PI/000089717,190,environmental.health@thanet.gov.uk,Thanet,http://www.thanet.gov.uk,1.41440900000000,CT11 9JL,2014-03-17,fhrs_5_en-GB,5,,FHRS,0
261631,Randolf House Day Centre,Zion Place,Margate,Kent,Age UK -  Margate,Other catering premises,7841,0,,637722,0,,51.39125100000000,PI/000079639,190,environmental.health@thanet.gov.uk,Thanet,http://www.thanet.gov.uk,1.38873800000000,CT9 1RP,2014-03-05,fhrs_5_en-GB,5,,FHRS,0
261632,56 Queen Street,Ramsgate,Kent,,Ahoy Fishmongers,Retailers - other,4613,0,,568388,0,,51.33261900000000,PI/000100059,190,environmental.health@thanet.gov.uk,Thanet,http://www.thanet.gov.uk,1.41757900000000,CT11 9EE,2013-07-09,fhrs_5_en-GB,5,,FHRS,0
261633,106 Northdown Road,Margate,Kent,,Al Madinah Foods,Retailers - other,4613,10,,464768,0,,51.38935500000000,PI/000099102,190,environmental.health@thanet.gov.uk,Thanet,http://www.thanet.gov.uk,1.39145800000000,CT9 2RE,2014-04-04,fhrs_4_en-GB,4,,FHRS,10
261634,29 Albion Street,Broadstairs,Kent,,Albarino Tapas Restaurant Bar,Restaurant/Cafe/Canteen,1,0,,637694,0,,51.35918600000000,PI/000042308,190,environmental.health@thanet.gov.uk,Thanet,http://www.thanet.gov.uk,1.44260300000000,CT10 1LX,2014-02-11,fhrs_4_en-GB,4,,FHRS,10
261635,Albertos Fish And Chips,200 Canterbury Road,East,Birchington,Alberto's Fish and Chips,Takeaway/sandwich shop,7844,10,,637807,0,,51.37413100000000,PI/000101235,190,environmental.health@thanet.gov.uk,Thanet,http://www.thanet.gov.uk,1.30802400000000,CT7 9AQ,2015-01-13,fhrs_4_en-GB,4,,FHRS,0
261636,10 Kent Place,Ramsgate,Kent,,Albion Cafe,Restaurant/Cafe/Canteen,1,0,,658514,0,,51.33246300000000,PI/000050960,190,environmental.health@thanet.gov.uk,Thanet,http://www.thanet.gov.uk,1.42292300000000,CT11 8LT,2014-03-04,fhrs_5_en-GB,5,,FHRS,0
261637,27 Albion Place,Ramsgate,Kent,,Albion House Hotel,Hotel/bed & breakfast/guest house,7842,0,,722449,0,,51.33336000000000,PI/000027111,190,environmental.health@thanet.gov.uk,Thanet,http://www.thanet.gov.uk,1.42205700000000,CT11 8HQ,2014-12-01,fhrs_5_en-GB,5,,FHRS,5
261638,United Reformed Church,Union Crescent,Margate,Kent,Al-Birr Community Centre & Mosque,Hospitals/Childcare/Caring Premises,5,0,,608145,0,,51.38766000000000,PI/000002320,190,environmental.health@thanet.gov.uk,Thanet,http://www.thanet.gov.uk,1.38415900000000,CT9 1NR,2013-09-27,fhrs_5_en-GB,5,,FHRS,0
261639,Boundary Road,Ramsgate,Kent,,Aldi Store Limited,Retailers - supermarkets/hypermarkets,7840,0,,718087,0,,51.33780100000000,PI/000064095,190,environmental.health@thanet.gov.uk,Thanet,http://www.thanet.gov.uk,1.42185600000000,CT11 7NA,2014-11-11,fhrs_5_en-GB,5,,FHRS,0
261640,Zion Place,Margate,Kent,,Aldi Store Ltd,Retailers - supermarkets/hypermarkets,7840,0,,608146,0,,51.39125100000000,PI/000002404,190,environmental.health@thanet.gov.uk,Thanet,http://www.thanet.gov.uk,1.38873800000000,CT9 1RP,2013-09-30,fhrs_4_en-GB,4,,FHRS,10
261641,105 Canterbury Road,Margate,Kent,,Ales Of The Unexpected,Pub/bar/nightclub,7843,0,,637795,0,,51.38466300000000,PI/000100393,190,environmental.health@thanet.gov.uk,Thanet,http://www.thanet.gov.uk,1.36736300000000,CT9 5AX,2014-02-10,fhrs_4_en-GB,4,,FHRS,10
261642,70 Harbour Parade,Ramsgate,Kent,,Alexandra Restaurant,Restaurant/Cafe/Canteen,1,0,,658569,0,,51.33222100000000,PI/000096567,190,environmental.health@thanet.gov.uk,Thanet,http://www.thanet.gov.uk,1.42319200000000,CT11 8LP,2014-03-04,fhrs_5_en-GB,5,,FHRS,0
261643,72 Ramsgate Road,Margate,Kent,,Alfies,Takeaway/sandwich shop,7844,0,,637806,0,,51.37941800000000,PI/000101058,190,environmental.health@thanet.gov.uk,Thanet,http://www.thanet.gov.uk,1.38391000000000,CT9 5RY,2014-07-21,fhrs_5_en-GB,5,,FHRS,0
261644,Ali Raj Restaurant,65-67 Canterbury Road,Margate,Kent,Ali Raj,Restaurant/Cafe/Canteen,1,0,,370784,0,,51.38543100000000,PI/000097912,190,environmental.health@thanet.gov.uk,Thanet,http://www.thanet.gov.uk,1.36881400000000,CT9 5AS,2014-02-03,fhrs_5_en-GB,5,,FHRS,0
261645,9 Allenby Road,Ramsgate,Kent,,Allenby Late Shop,Retailers - other,4613,0,,658578,0,,51.35006500000000,PI/000098170,190,environmental.health@thanet.gov.uk,Thanet,http://www.thanet.gov.uk,1.40323500000000,CT12 6BB,2014-03-19,fhrs_5_en-GB,5,,FHRS,0
261646,49 Station Road,Westgate On Sea,Kent,,Almost News,Retailers - other,4613,,,620168,,,51.38161200000000,PI/000065488,190,environmental.health@thanet.gov.uk,Thanet,http://www.thanet.gov.uk,1.33790100000000,CT8 8QY,2013-12-16,fhrs_exempt_en-GB,Exempt,,FHRS,
261647,44 King Street,Margate,Kent,,Ambrette Restaurant,Restaurant/Cafe/Canteen,1,10,,352207,0,,51.38924600000000,PI/000089593,190,environmental.health@thanet.gov.uk,Thanet,http://www.thanet.gov.uk,1.38404600000000,CT9 1QE,2013-10-02,fhrs_4_en-GB,4,,FHRS,10
261648,Comfort Inn,Victoria Parade,Ramsgate,Kent,Ameeco Hotels Limited,Hotel/bed & breakfast/guest house,7842,0,,448886,0,,51.33681600000000,PI/000089693,190,environmental.health@thanet.gov.uk,Thanet,http://www.thanet.gov.uk,1.42876200000000,CT11 8DT,2014-03-04,fhrs_5_en-GB,5,,FHRS,0
261649,57 Dumpton Park Drive,Broadstairs,Kent,,Anchor Lodge,Hotel/bed & breakfast/guest house,7842,10,,658538,0,,51.35022100000000,PI/000077578,190,environmental.health@thanet.gov.uk,Thanet,http://www.thanet.gov.uk,1.43607000000000,CT10 1RH,2014-08-28,fhrs_4_en-GB,4,,FHRS,0
261650,6 Albert Road,Margate,Kent,,Andorra House,Hospitals/Childcare/Caring Premises,5,0,,608221,0,,51.38572200000000,PI/000021100,190,environmental.health@thanet.gov.uk,Thanet,http://www.thanet.gov.uk,1.37089100000000,CT9 5AN,2013-09-18,fhrs_5_en-GB,5,,FHRS,0
261651,97 Ramsgate Road,Margate,Kent,,Andrew & Jill's General Store,Retailers - other,4613,,,608373,,,51.37831100000000,PI/000098678,190,environmental.health@thanet.gov.uk,Thanet,http://www.thanet.gov.uk,1.38332500000000,CT9 4BL,2013-09-25,fhrs_exempt_en-GB,Exempt,,FHRS,
261652,Bath Road,Margate,Kent,,Andrews Beer And Mineral Co,Distributors/Transporters,7,5,,521010,5,,51.38930400000000,PI/000039052,190,environmental.health@thanet.gov.uk,Thanet,http://www.thanet.gov.uk,1.38918300000000,CT9 1SJ,2012-09-18,fhrs_2_en-GB,2,,FHRS,15
261653,Angelas Cafe,21 The Parade,Margate,Kent,Angela's Cafe,Restaurant/Cafe/Canteen,1,0,,448890,0,,51.38933600000000,PI/000090073,190,environmental.health@thanet.gov.uk,Thanet,http://www.thanet.gov.uk,1.38061700000000,CT9 1EX,2014-08-11,fhrs_5_en-GB,5,,FHRS,0
261654,Angelos Delicatessen,25 Station Road,Westgate On Sea,Kent,Angelo's Delicatessen,Retailers - other,4613,0,,637750,0,,51.38171700000000,PI/000089746,190,environmental.health@thanet.gov.uk,Thanet,http://www.thanet.gov.uk,1.33987800000000,CT8 8RB,2014-02-11,fhrs_5_en-GB,5,,FHRS,5
261655,56-58 King Street,Ramsgate,Kent,,Angels,Pub/bar/nightclub,7843,0,,608399,0,,51.33542000000000,PI/000101568,190,environmental.health@thanet.gov.uk,Thanet,http://www.thanet.gov.uk,1.42143500000000,CT11 8NY,2013-11-04,fhrs_5_en-GB,5,,FHRS,0
261656,103 Grosvenor Place,Margate,Kent,,Annie's Larder,Other catering premises,7841,0,,658633,0,,51.38423100000000,PI/000102451,190,environmental.health@thanet.gov.uk,Thanet,http://www.thanet.gov.uk,1.38108800000000,CT9 1UX,2014-04-08,fhrs_5_en-GB,5,,FHRS,0
261657,193-197 Northdown Road,Margate,Kent,,Appollo Convenience Store,Retailers - other,4613,10,,658615,0,,51.38775300000000,PI/000102178,190,environmental.health@thanet.gov.uk,Thanet,http://www.thanet.gov.uk,1.39831200000000,CT9 2PA,2014-04-09,fhrs_4_en-GB,4,,FHRS,0
261658,43 Albion Street,Broadstairs,Kent,,Aqua 43,Restaurant/Cafe/Canteen,1,0,,608327,0,,51.35958600000000,PI/000088224,190,environmental.health@thanet.gov.uk,Thanet,http://www.thanet.gov.uk,1.44305000000000,CT10 1NE,2013-09-18,fhrs_5_en-GB,5,,FHRS,5
261659,20 Approach Road,Margate,Kent,,Aquarius Lodge,Hospitals/Childcare/Caring Premises,5,10,,510208,10,,51.38533100000000,PI/000002458,190,environmental.health@thanet.gov.uk,Thanet,http://www.thanet.gov.uk,1.39623500000000,CT9 2AN,2014-09-01,fhrs_3_en-GB,3,,FHRS,5
261660,53 Upper Dane Road,Margate,Kent,,Aquinis Continental Bakery,Manufacturers/packers,7839,0,,637760,5,,51.38262700000000,PI/000096618,190,environmental.health@thanet.gov.uk,Thanet,http://www.thanet.gov.uk,1.39765900000000,CT9 2NA,2014-02-18,fhrs_5_en-GB,5,,FHRS,5
261661,9 Military Road,Ramsgate,Kent,,Arch No 9,Restaurant/Cafe/Canteen,1,0,,716486,0,,51.33041300000000,PI/000038735,190,environmental.health@thanet.gov.uk,Thanet,http://www.thanet.gov.uk,1.41732800000000,CT11 9LG,2014-10-13,fhrs_5_en-GB,5,,FHRS,0
261662,58-60 High Street,Minster,Ramsgate,Kent,Archie's Fish and Chips,Takeaway/sandwich shop,7844,0,,608219,0,,51.33442200000000,PI/000020806,190,environmental.health@thanet.gov.uk,Thanet,http://www.thanet.gov.uk,1.31488400000000,CT12 4AB,2013-10-09,fhrs_5_en-GB,5,,FHRS,0
261663,Flat 3,25 Canterbury Road,Westgate On Sea,Kent,Arepo Paradiso,Other catering premises,7841,0,,722457,0,,51.38009000000000,PI/000103295,190,environmental.health@thanet.gov.uk,Thanet,http://www.thanet.gov.uk,1.34489100000000,CT8 8JS,2014-11-26,fhrs_5_en-GB,5,,FHRS,0
261664,110A Pierremont Avenue,Broadstairs,Kent,,Aria House Bed & Breakfast,Hotel/bed & breakfast/guest house,7842,0,,681897,0,,51.35764300000000,PI/000062710,190,environmental.health@thanet.gov.uk,Thanet,http://www.thanet.gov.uk,1.43694200000000,CT10 1NT,2014-07-09,fhrs_5_en-GB,5,,FHRS,0
261665,161 High Street,Ramsgate,Kent,,Asda Stores Limited,Retailers - supermarkets/hypermarkets,7840,0,,352216,0,,51.33684400000000,PI/000101135,190,environmental.health@thanet.gov.uk,Thanet,http://www.thanet.gov.uk,1.41334100000000,CT11 9TT,2014-05-08,fhrs_5_en-GB,5,,FHRS,0
261666,Westwood Road,Broadstairs,Kent,,Asda Stores Limited,Retailers - supermarkets/hypermarkets,7840,0,,620149,0,,51.36081700000000,PI/000033005,190,environmental.health@thanet.gov.uk,Thanet,http://www.thanet.gov.uk,1.41424800000000,CT10 2AL,2013-11-07,fhrs_5_en-GB,5,,FHRS,5
261667,43 Sea Road,Westgate On Sea,Kent,,Ashbury Court,Hospitals/Childcare/Caring Premises,5,5,,464772,0,,51.38525600000000,PI/000100502,190,environmental.health@thanet.gov.uk,Thanet,http://www.thanet.gov.uk,1.33566500000000,CT8 8QW,2013-12-09,fhrs_5_en-GB,5,,FHRS,5
261668,Fairview Close,Margate,Kent,,Ashcroft House,Hospitals/Childcare/Caring Premises,5,0,,510209,0,,51.38778200000000,PI/000003173,190,environmental.health@thanet.gov.uk,Thanet,http://www.thanet.gov.uk,1.39206100000000,CT9 2QE,2013-12-11,fhrs_5_en-GB,5,,FHRS,5
261669,50 St Mildreds Road,Ramsgate,Kent,,Ashdene,Hospitals/Childcare/Caring Premises,5,5,,637617,0,,51.33103600000000,PI/000017483,190,environmental.health@thanet.gov.uk,Thanet,http://www.thanet.gov.uk,1.40305900000000,CT11 0EF,2014-01-30,fhrs_5_en-GB,5,,FHRS,5
261670,Royal Air Force,Manston Road,Manston,Ramsgate,Ashes Restaurant,Restaurant/Cafe/Canteen,1,0,,637585,0,,,PI/000006295,190,environmental.health@thanet.gov.uk,Thanet,http://www.thanet.gov.uk,,,2014-02-05,fhrs_5_en-GB,5,,FHRS,0
261671,48 Westwood Cross,Margate Road,Broadstairs,Kent,Ask,Restaurant/Cafe/Canteen,1,0,,658547,0,,51.35950300000000,PI/000088418,190,environmental.health@thanet.gov.uk,Thanet,http://www.thanet.gov.uk,1.39292900000000,CT10 2BF,2014-04-28,fhrs_5_en-GB,5,,FHRS,0
261672,45 Ashburnham Road,Ramsgate,Kent,,Australian Arms,Pub/bar/nightclub,7843,0,,448883,0,,51.33583200000000,PI/000087289,190,environmental.health@thanet.gov.uk,Thanet,http://www.thanet.gov.uk,1.40269700000000,CT11 0BJ,2014-11-04,fhrs_5_en-GB,5,,FHRS,0
261673,6 Colemans Stairs Road,Birchington,Kent,,Avenue Trust,Hospitals/Childcare/Caring Premises,5,0,,608157,0,,51.37933000000000,PI/000006622,190,environmental.health@thanet.gov.uk,Thanet,http://www.thanet.gov.uk,1.30864300000000,CT7 9HJ,2014-10-23,fhrs_5_en-GB,5,,FHRS,5
261674,25 Roxburgh Road,Westgate On Sea,Kent,,Avondale,Hospitals/Childcare/Caring Premises,5,0,,510219,0,,51.38241100000000,PI/000014904,190,environmental.health@thanet.gov.uk,Thanet,http://www.thanet.gov.uk,1.34204200000000,CT8 8RX,2015-01-28,fhrs_5_en-GB,5,,FHRS,0
261675,40 Grange Road,Ramsgate,Kent,,Aysan,Takeaway/sandwich shop,7844,20,,637773,15,,51.33243100000000,PI/000098685,190,environmental.health@thanet.gov.uk,Thanet,http://www.thanet.gov.uk,1.40673800000000,CT11 9LP,2014-02-07,fhrs_1_en-GB,1,,FHRS,15
261676,Unit B2,East Kent Retail Park,Westwood Road,Broadstairs,B & M Stores,Retailers - other,4613,0,,637804,0,,51.36191800000000,PI/000100580,190,environmental.health@thanet.gov.uk,Thanet,http://www.thanet.gov.uk,1.39806500000000,CT10 2RQ,2014-02-27,fhrs_5_en-GB,5,,FHRS,0
261677,8 Boundary Road,Ramsgate,Kent,,Ba Fu Chinese Restaurant,Takeaway/sandwich shop,7844,0,,448864,0,,51.33796900000000,PI/000027487,190,environmental.health@thanet.gov.uk,Thanet,http://www.thanet.gov.uk,1.41978600000000,CT11 7NE,2014-11-13,fhrs_5_en-GB,5,,FHRS,0
261678,98 Ramsgate Road,Margate,Kent,,Baba Kebab House,Takeaway/sandwich shop,7844,20,,584523,0,,51.37941800000000,PI/000089813,190,environmental.health@thanet.gov.uk,Thanet,http://www.thanet.gov.uk,1.38391000000000,CT9 5RY,2013-08-16,fhrs_1_en-GB,1,,FHRS,15
261679,13A George Street,Ramsgate,Kent,,Babbuk Cafe,Restaurant/Cafe/Canteen,1,10,,637805,0,,51.33456000000000,PI/000100709,190,environmental.health@thanet.gov.uk,Thanet,http://www.thanet.gov.uk,1.41702000000000,CT11 9AS,2014-05-30,fhrs_4_en-GB,4,,FHRS,0
261680,259 Northdown Road,Margate,Kent,,Baguetti's,Takeaway/sandwich shop,7844,0,,681899,0,,51.38689600000000,PI/000089789,190,environmental.health@thanet.gov.uk,Thanet,http://www.thanet.gov.uk,1.40214500000000,CT9 2PN,2014-06-02,fhrs_5_en-GB,5,,FHRS,0
261681,6-7 Westcliff Arcade,Ramsgate,Kent,,Baithak Restaurant,Restaurant/Cafe/Canteen,1,0,,608342,0,,51.33182700000000,PI/000089697,190,environmental.health@thanet.gov.uk,Thanet,http://www.thanet.gov.uk,1.41820900000000,CT11 8LH,2014-02-18,fhrs_5_en-GB,5,,FHRS,0
261682,25-27 Albion Street,Broadstairs,Kent,,Balmoral Wine Bar,Pub/bar/nightclub,7843,0,,637602,0,,51.35899400000000,PI/000015131,190,environmental.health@thanet.gov.uk,Thanet,http://www.thanet.gov.uk,1.44240200000000,CT10 1LU,2014-02-20,fhrs_4_en-GB,4,,FHRS,10
261683,17 Marine Drive,Margate,Kent,,Baltic Branch,Retailers - other,4613,10,,555393,0,,51.38888100000000,PI/000092186,190,environmental.health@thanet.gov.uk,Thanet,http://www.thanet.gov.uk,1.37986400000000,CT9 1DH,2014-11-20,fhrs_4_en-GB,4,,FHRS,0
261684,42 Queen Street,Ramsgate,Kent,,Baltic Branch,Retailers - other,4613,0,,448891,0,,51.33315900000000,PI/000091428,190,environmental.health@thanet.gov.uk,Thanet,http://www.thanet.gov.uk,1.41909800000000,CT11 9DR,2012-04-03,fhrs_5_en-GB,5,,FHRS,0
261685,Victoria Parade,Broadstairs,Kent,,Bandstand Kiosk,Restaurant/Cafe/Canteen,1,0,,430100,0,,51.35765200000000,PI/000098247,190,environmental.health@thanet.gov.uk,Thanet,http://www.thanet.gov.uk,1.44184200000000,CT10 1QS,2014-06-19,fhrs_5_en-GB,5,,FHRS,0
261686,Westwood Road,Broadstairs,Kent,,Bannatynes Health Club,Restaurant/Cafe/Canteen,1,0,,637733,0,,51.36031600000000,PI/000088435,190,environmental.health@thanet.gov.uk,Thanet,http://www.thanet.gov.uk,1.40209900000000,CT10 2NR,2014-02-13,fhrs_5_en-GB,5,,FHRS,5
261687,160 Bradstow Way,Broadstairs,Kent,,Baobab Rusks,Other catering premises,7841,0,,681908,0,,51.36519000000000,PI/000102450,190,environmental.health@thanet.gov.uk,Thanet,http://www.thanet.gov.uk,1.43112700000000,CT10 1AX,2014-06-19,fhrs_5_en-GB,5,,FHRS,0
261688,Vicarage Street,Broadstairs,Kent,,Baptist Church,Restaurant/Cafe/Canteen,1,0,,608192,0,,51.36411400000000,PI/000017247,190,environmental.health@thanet.gov.uk,Thanet,http://www.thanet.gov.uk,1.41840200000000,CT10 2SG,2013-09-17,fhrs_5_en-GB,5,,FHRS,0
261689,Stonelees Golf Centre,Ebbsfleet Lane,Ramsgate,Kent,Bar,Pub/bar/nightclub,7843,0,,608369,0,,51.31444100000000,PI/000097333,190,environmental.health@thanet.gov.uk,Thanet,http://www.thanet.gov.uk,1.35064600000000,CT12 5DJ,2013-10-08,fhrs_5_en-GB,5,,FHRS,0
261690,39 High Street,Garlinge,Margate,Kent,Barbara's Baps,Takeaway/sandwich shop,7844,0,,555373,0,,51.37881700000000,PI/000003436,190,environmental.health@thanet.gov.uk,Thanet,http://www.thanet.gov.uk,1.35480200000000,CT9 5LN,2013-10-09,fhrs_5_en-GB,5,,FHRS,0
261691,Offices 3 6 7 And 8,Lead Centre,Dane Valley Road,Broadstairs,Barbies Footsteps,Hospitals/Childcare/Caring Premises,5,10,,664397,10,,51.37133900000000,PI/000088655,190,environmental.health@thanet.gov.uk,Thanet,http://www.thanet.gov.uk,1.41587900000000,CT10 3JJ,2014-05-21,fhrs_4_en-GB,4,,FHRS,0
261692,Barbies Playschool And Selwyn House Nursery,64 St Peters Road,Broadstairs,Kent,Barbies Playschool and,Hospitals/Childcare/Caring Premises,5,0,,608190,0,,51.36358500000000,PI/000017059,190,environmental.health@thanet.gov.uk,Thanet,http://www.thanet.gov.uk,1.42510100000000,CT10 2ST,2013-09-19,fhrs_5_en-GB,5,,FHRS,0
261693,52 Albion Street,Broadstairs,Kent,,Barnaby Rudge,Pub/bar/nightclub,7843,0,,608180,0,,51.35958600000000,PI/000015162,190,environmental.health@thanet.gov.uk,Thanet,http://www.thanet.gov.uk,1.44305000000000,CT10 1NE,2013-11-04,fhrs_5_en-GB,5,,FHRS,0
261694,2 Fort Hill,Margate,Kent,,Barnacles,Pub/bar/nightclub,7843,10,,608372,0,,51.39081400000000,PI/000098646,190,environmental.health@thanet.gov.uk,Thanet,http://www.thanet.gov.uk,1.38237900000000,CT9 1HD,2012-03-07,fhrs_4_en-GB,4,,FHRS,0
261695,11 King Street,Ramsgate,Kent,,Bartlett and White Ltd,Retailers - other,4613,0,,658531,0,,51.33387700000000,PI/000066030,190,environmental.health@thanet.gov.uk,Thanet,http://www.thanet.gov.uk,1.42038600000000,CT11 8NN,2014-03-21,fhrs_5_en-GB,5,,FHRS,0
261696,246 Northdown Road,Margate,Kent,,Batchelors Patisserie,Retailers - other,4613,0,,637825,0,,51.38696300000000,PI/000102133,190,environmental.health@thanet.gov.uk,Thanet,http://www.thanet.gov.uk,1.39980700000000,CT9 2PX,2014-02-12,fhrs_5_en-GB,5,,FHRS,0
261697,23 Fort Crescent,Margate,Kent,,Bay Guest House,Hotel/bed & breakfast/guest house,7842,0,,658440,0,,51.39129700000000,PI/000001593,190,environmental.health@thanet.gov.uk,Thanet,http://www.thanet.gov.uk,1.38621100000000,CT9 1HU,2014-04-11,fhrs_5_en-GB,5,,FHRS,0
261698,1 Beach Avenue,Birchington,Kent,,Beach House,Hospitals/Childcare/Caring Premises,5,0,,608380,0,,51.37846600000000,PI/000100119,190,environmental.health@thanet.gov.uk,Thanet,http://www.thanet.gov.uk,1.30166700000000,CT7 9JS,2013-10-07,fhrs_5_en-GB,5,,FHRS,0
261699,49 Albion Street,Broadstairs,Kent,,Beaches Cafe Bar,Restaurant/Cafe/Canteen,1,5,,608286,0,,51.35958600000000,PI/000042291,190,environmental.health@thanet.gov.uk,Thanet,http://www.thanet.gov.uk,1.44305000000000,CT10 1NE,2013-10-15,fhrs_5_en-GB,5,,FHRS,0
261700,36 Marine Terrace,Margate,Kent,,Beacon Bingo,Restaurant/Cafe/Canteen,1,0,,681902,0,,51.38657000000000,PI/000100549,190,environmental.health@thanet.gov.uk,Thanet,http://www.thanet.gov.uk,1.37736500000000,CT9 1XJ,2014-07-04,fhrs_5_en-GB,5,,FHRS,0
261701,118 Newington Road,Ramsgate,Kent,,Beano Cafe,Restaurant/Cafe/Canteen,1,0,,637653,0,,51.34466300000000,PI/000030112,190,environmental.health@thanet.gov.uk,Thanet,http://www.thanet.gov.uk,1.39842500000000,CT12 6PP,2014-01-11,fhrs_5_en-GB,5,,FHRS,5
261702,5D Station Road,Westgate On Sea,Kent,,Beano Cafe,Restaurant/Cafe/Canteen,1,0,,608344,0,,51.38171700000000,PI/000089745,190,environmental.health@thanet.gov.uk,Thanet,http://www.thanet.gov.uk,1.33987800000000,CT8 8RB,2013-10-29,fhrs_5_en-GB,5,,FHRS,5
261703,93 High Street,Ramsgate,Kent,,Beano Cafe,Restaurant/Cafe/Canteen,1,0,,625007,0,,51.33572500000000,PI/000096579,190,environmental.health@thanet.gov.uk,Thanet,http://www.thanet.gov.uk,1.41654600000000,CT11 9RH,2014-06-06,fhrs_5_en-GB,5,,FHRS,0
261704,The Beano,50 Grange Road,Ramsgate,Kent,Beano Cafe,Restaurant/Cafe/Canteen,1,0,,637730,0,,51.33243100000000,PI/000087312,190,environmental.health@thanet.gov.uk,Thanet,http://www.thanet.gov.uk,1.40673800000000,CT11 9LP,2014-01-28,fhrs_5_en-GB,5,,FHRS,5
261705,10 Marine Gardens,Margate,Kent,,Beano Cafe & Family Restaurant,Restaurant/Cafe/Canteen,1,5,,448873,0,,51.38693900000000,PI/000040210,190,environmental.health@thanet.gov.uk,Thanet,http://www.thanet.gov.uk,1.37953400000000,CT9 1UN,2014-10-06,fhrs_5_en-GB,5,,FHRS,5
261706,5E Station Road,Westgate On Sea,Kent,,Beano Kebab,Takeaway/sandwich shop,7844,0,,637705,5,,51.38171700000000,PI/000065414,190,environmental.health@thanet.gov.uk,Thanet,http://www.thanet.gov.uk,1.33987800000000,CT8 8RB,2014-02-11,fhrs_5_en-GB,5,,FHRS,5
261707,141 High Street,Broadstairs,Kent,,Beano Kebabs,Takeaway/sandwich shop,7844,0,,637752,0,,51.35993200000000,PI/000090379,190,environmental.health@thanet.gov.uk,Thanet,http://www.thanet.gov.uk,1.43434000000000,CT10 1NG,2014-02-06,fhrs_4_en-GB,4,,FHRS,10
261708,13 Margate Harbour Arm,Stone Pier,Margate,Kent,Bebeached,Restaurant/Cafe/Canteen,1,0,,682938,0,,51.39114800000000,PI/000100970,190,environmental.health@thanet.gov.uk,Thanet,http://www.thanet.gov.uk,1.37860800000000,CT9 1AP,2013-05-09,fhrs_5_en-GB,5,,FHRS,0
261709,29 West Cliff Road,Ramsgate,Kent,,Bedford Inn,Pub/bar/nightclub,7843,10,,637655,10,,51.33159200000000,PI/000031595,190,environmental.health@thanet.gov.uk,Thanet,http://www.thanet.gov.uk,1.41300800000000,CT11 9JP,2014-01-30,fhrs_2_en-GB,2,,FHRS,15
261710,98 Harbour Parade,Ramsgate,Kent,,Belgian Cafe,Pub/bar/nightclub,7843,10,,265624,5,,51.33222100000000,PI/000037299,190,environmental.health@thanet.gov.uk,Thanet,http://www.thanet.gov.uk,1.42319200000000,CT11 8LP,2014-10-07,fhrs_3_en-GB,3,,FHRS,10
261711,The Street,St Nicholas At Wade,Birchington,Kent,Bell Inn,Pub/bar/nightclub,7843,0,,370768,0,,51.35326900000000,PI/000020991,190,environmental.health@thanet.gov.uk,Thanet,http://www.thanet.gov.uk,1.25385700000000,CT7 0NT,2014-04-29,fhrs_5_en-GB,5,,FHRS,0
261712,Pegwell Road,Ramsgate,Kent,,Belle Vue Tavern,Pub/bar/nightclub,7843,0,,608204,0,,51.32727400000000,PI/000019353,190,environmental.health@thanet.gov.uk,Thanet,http://www.thanet.gov.uk,1.39198400000000,CT11 0NJ,2013-09-19,fhrs_4_en-GB,4,,FHRS,10
261713,43 Belvedere Road,Broadstairs,Kent,,Belvidere Place,Hotel/bed & breakfast/guest house,7842,5,,608181,0,,51.35786300000000,PI/000015557,190,environmental.health@thanet.gov.uk,Thanet,http://www.thanet.gov.uk,1.43957300000000,CT10 1PF,2013-10-15,fhrs_5_en-GB,5,,FHRS,0
261714,Bens Londis,11 Monkton Road,Minster,Ramsgate,Ben's Supermarket,Retailers - other,4613,0,,620186,0,,51.33457500000000,PI/000089726,190,environmental.health@thanet.gov.uk,Thanet,http://www.thanet.gov.uk,1.31327200000000,CT12 4EA,2013-12-13,fhrs_5_en-GB,5,,FHRS,5
261715,13-15 High Street,Margate,Kent,,Bentley's,Restaurant/Cafe/Canteen,1,0,,555403,0,,51.38906400000000,PI/000099645,190,environmental.health@thanet.gov.uk,Thanet,http://www.thanet.gov.uk,1.38038100000000,CT9 1DL,2013-04-24,fhrs_5_en-GB,5,,FHRS,0
261716,Bernies Chocolate Bar,2-14 High Street,Margate,Kent,Bernie's Chocolate Bar,Restaurant/Cafe/Canteen,1,10,,637766,0,,51.38932500000000,PI/000097575,190,environmental.health@thanet.gov.uk,Thanet,http://www.thanet.gov.uk,1.38008400000000,CT9 1AT,2014-07-23,fhrs_4_en-GB,4,,FHRS,0
261717,45 Albion Street,Broadstairs,Kent,,Bessie's Tea Parlour,Restaurant/Cafe/Canteen,1,0,,700024,0,,51.35958600000000,PI/000102631,190,environmental.health@thanet.gov.uk,Thanet,http://www.thanet.gov.uk,1.44305000000000,CT10 1NE,2014-07-18,fhrs_5_en-GB,5,,FHRS,0
261718,4 High Street,Broadstairs,Kent,,Best Fish & Chips,Takeaway/sandwich shop,7844,20,,664404,15,,51.35882700000000,PI/000101884,190,environmental.health@thanet.gov.uk,Thanet,http://www.thanet.gov.uk,1.44103900000000,CT10 1LH,2014-05-06,fhrs_1_en-GB,1,,FHRS,10
261719,50 King Street,Ramsgate,Kent,,Best Kebab,Takeaway/sandwich shop,7844,10,,584546,0,,51.33469800000000,PI/000100463,190,environmental.health@thanet.gov.uk,Thanet,http://www.thanet.gov.uk,1.42062000000000,CT11 8NT,2014-10-14,fhrs_4_en-GB,4,,FHRS,0
261720,57 Newington Road,Ramsgate,Kent,,Best Moon Shop,Retailers - other,4613,0,,658491,0,,51.34395700000000,PI/000030203,190,environmental.health@thanet.gov.uk,Thanet,http://www.thanet.gov.uk,1.39858800000000,CT12 6EX,2014-03-11,fhrs_5_en-GB,5,,FHRS,0
261721,157-159 Minnis Road,Birchington,Kent,,Best One,Retailers - other,4613,0,,620136,0,,51.37785800000000,PI/000020440,190,environmental.health@thanet.gov.uk,Thanet,http://www.thanet.gov.uk,1.28904700000000,CT7 9NS,2013-11-19,fhrs_5_en-GB,5,,FHRS,0
261722,330A Margate Road,Ramsgate,Kent,,Best One,Retailers - other,4613,0,,658490,0,,51.35329300000000,PI/000029780,190,environmental.health@thanet.gov.uk,Thanet,http://www.thanet.gov.uk,1.40108900000000,CT12 6SQ,2014-03-11,fhrs_5_en-GB,5,,FHRS,0
261723,56 St Mildreds Road,Westgate On Sea,Kent,,Best One,Retailers - other,4613,0,,620148,0,,51.38210900000000,PI/000031104,190,environmental.health@thanet.gov.uk,Thanet,http://www.thanet.gov.uk,1.33717600000000,CT8 8RF,2013-12-09,fhrs_5_en-GB,5,,FHRS,0
261724,19 The Broadway,Broadstairs,Kent,,Best One Express,Retailers - other,4613,10,,658595,0,,51.36013400000000,PI/000100435,190,environmental.health@thanet.gov.uk,Thanet,http://www.thanet.gov.uk,1.43207100000000,CT10 2AD,2014-04-10,fhrs_4_en-GB,4,,FHRS,10
261725,Square Dozen,144 Grange Road,Ramsgate,Kent,Best One Shop,Retailers - other,4613,0,,620132,0,,51.33642400000000,PI/000018582,190,environmental.health@thanet.gov.uk,Thanet,http://www.thanet.gov.uk,1.40492300000000,CT11 9PR,2013-11-19,fhrs_5_en-GB,5,,FHRS,0
261726,173 Northdown Road,Margate,Kent,,Big E,Takeaway/sandwich shop,7844,0,,584545,0,,51.38775300000000,PI/000100409,190,environmental.health@thanet.gov.uk,Thanet,http://www.thanet.gov.uk,1.39831200000000,CT9 2PA,2014-07-30,fhrs_5_en-GB,5,,FHRS,0
261727,Beach Avenue,Birchington,Kent,,Birchington Bowls Club,Other catering premises,7841,0,,608208,0,,51.37846600000000,PI/000020293,190,environmental.health@thanet.gov.uk,Thanet,http://www.thanet.gov.uk,1.30166700000000,CT7 9JS,2013-10-18,fhrs_5_en-GB,5,,FHRS,0
261728,35 Station Road,Birchington,Kent,,Birchington Club,Pub/bar/nightclub,7843,0,,718086,0,,51.37479700000000,PI/000040704,190,environmental.health@thanet.gov.uk,Thanet,http://www.thanet.gov.uk,1.30577200000000,CT7 9DJ,2014-11-20,fhrs_5_en-GB,5,,FHRS,0
261729,5 The Square,Birchington,Kent,,Birchington Fast Foods,Takeaway/sandwich shop,7844,10,,608214,0,,51.37370000000000,PI/000020663,190,environmental.health@thanet.gov.uk,Thanet,http://www.thanet.gov.uk,1.30736000000000,CT7 9AE,2013-09-24,fhrs_4_en-GB,4,,FHRS,5
261730,Park Lane,Birchington,Kent,,Birchington Primary School,School/college/university,7845,0,,608238,0,,51.37122800000000,PI/000026876,190,environmental.health@thanet.gov.uk,Thanet,http://www.thanet.gov.uk,1.30857600000000,CT7 0AS,2013-11-05,fhrs_5_en-GB,5,,FHRS,5
261731,93 Station Road,Birchington,Kent,,Birchington United Services Club,Pub/bar/nightclub,7843,0,,658539,0,,51.37609300000000,PI/000078337,190,environmental.health@thanet.gov.uk,Thanet,http://www.thanet.gov.uk,1.30447100000000,CT7 9RE,2014-03-10,fhrs_5_en-GB,5,,FHRS,0
261732,Alpha Road,Birchington,Kent,,Birchington Village Centre,Other catering premises,7841,0,,608207,0,,51.37732600000000,PI/000020278,190,environmental.health@thanet.gov.uk,Thanet,http://www.thanet.gov.uk,1.30539400000000,CT7 9EG,2013-09-16,fhrs_5_en-GB,5,,FHRS,0
261733,Fort Road,Broadstairs,Kent,,Bleak House Hotel And Function Rooms,Restaurant/Cafe/Canteen,1,0,,658588,0,,51.35982500000000,PI/000099791,190,environmental.health@thanet.gov.uk,Thanet,http://www.thanet.gov.uk,1.44502200000000,CT10 1EY,2014-02-25,fhrs_5_en-GB,5,,FHRS,5
261734,72 Station Road,Birchington,Kent,,Blend,Restaurant/Cafe/Canteen,1,0,,716484,0,,51.37586800000000,PI/000020594,190,environmental.health@thanet.gov.uk,Thanet,http://www.thanet.gov.uk,1.30382300000000,CT7 9RA,2014-10-16,fhrs_5_en-GB,5,,FHRS,5
261735,,,,,BM's Gourmet Steak Burgers,Mobile caterer,7846,10,,658613,15,,,PI/000102141,190,environmental.health@thanet.gov.uk,Thanet,http://www.thanet.gov.uk,,,2014-04-25,fhrs_2_en-GB,2,,FHRS,10
261736,14 Harbour Street,Ramsgate,Kent,,Bodrum,Restaurant/Cafe/Canteen,1,10,,637622,0,,51.33308000000000,PI/000018862,190,environmental.health@thanet.gov.uk,Thanet,http://www.thanet.gov.uk,1.42027000000000,CT11 8HA,2014-06-09,fhrs_4_en-GB,4,,FHRS,0
261737,4-5 Westcliff Arcade,Ramsgate,Kent,,Bon Appetit,Restaurant/Cafe/Canteen,1,0,,637687,0,,51.33182700000000,PI/000041564,190,environmental.health@thanet.gov.uk,Thanet,http://www.thanet.gov.uk,1.41820900000000,CT11 8LH,2014-10-07,fhrs_5_en-GB,5,,FHRS,0
261738,Booker Belmont Wholesale Ltd,20 Patricia Way,Pysons Road Industrial Estate,Broadstairs,Booker Cash & Carry,Distributors/Transporters,7,0,,608328,0,,51.35422900000000,PI/000088271,190,environmental.health@thanet.gov.uk,Thanet,http://www.thanet.gov.uk,1.41098500000000,CT10 2LE,2014-03-10,fhrs_5_en-GB,5,,FHRS,5
261739,7 Westwood Cross,Margate Road,Broadstairs,Kent,Boots The Chemist,Retailers - other,4613,,,608263,,,51.35950300000000,PI/000034242,190,environmental.health@thanet.gov.uk,Thanet,http://www.thanet.gov.uk,1.39292900000000,CT10 2BF,2013-09-27,fhrs_exempt_en-GB,Exempt,,FHRS,
261740,Boots The Chemist Limited,7-11 High Street,Ramsgate,Kent,Boots The Chemist,Retailers - other,4613,,,608242,,,51.33372300000000,PI/000029221,190,environmental.health@thanet.gov.uk,Thanet,http://www.thanet.gov.uk,1.41918300000000,CT11 9AB,2013-09-23,fhrs_exempt_en-GB,Exempt,,FHRS,
261741,36 St Mildreds Road,Westgate On Sea,Kent,,Boots The Chemist Ltd,Retailers - other,4613,,,637668,,,51.38210900000000,PI/000038663,190,environmental.health@thanet.gov.uk,Thanet,http://www.thanet.gov.uk,1.33717600000000,CT8 8RF,2013-09-18,fhrs_exempt_en-GB,Exempt,,FHRS,
261742,Kiosk,Botany Bay,Marine Drive,Broadstairs,Botany Bay Beach Kiosk,Restaurant/Cafe/Canteen,1,0,,584507,0,,51.38726300000000,PI/000039132,190,environmental.health@thanet.gov.uk,Thanet,http://www.thanet.gov.uk,1.43819900000000,CT10 3LU,2013-08-19,fhrs_5_en-GB,5,,FHRS,0
261743,165 Botany Road,Broadstairs,Kent,,Botany Bay Tea Gardens,Restaurant/Cafe/Canteen,1,0,,681898,0,,51.38813300000000,PI/000078017,190,environmental.health@thanet.gov.uk,Thanet,http://www.thanet.gov.uk,1.43307500000000,CT10 3SD,2014-07-09,fhrs_5_en-GB,5,,FHRS,0
261744,Wig And Pen,10 Market Place,Margate,Kent,Bow's Kitchen Ltd above,Restaurant/Cafe/Canteen,1,0,,637827,0,,51.38916000000000,PI/000102312,190,environmental.health@thanet.gov.uk,Thanet,http://www.thanet.gov.uk,1.38266000000000,CT9 1EJ,2014-01-23,fhrs_5_en-GB,5,,FHRS,0
261745,,,,,Bradford House,Hospitals/Childcare/Caring Premises,5,0,,430084,0,,,PI/000028532,190,environmental.health@thanet.gov.uk,Thanet,http://www.thanet.gov.uk,,,2014-05-21,fhrs_5_en-GB,5,,FHRS,0
261746,125 High Street,Broadstairs,Kent,,Bradstow Mill,Pub/bar/nightclub,7843,0,,608379,0,,51.35961500000000,PI/000099394,190,environmental.health@thanet.gov.uk,Thanet,http://www.thanet.gov.uk,1.43594000000000,CT10 1NQ,2013-09-23,fhrs_5_en-GB,5,,FHRS,0
261747,34 Dumpton Park Drive,Broadstairs,Kent,,Bradstow School,School/college/university,7845,0,,637606,0,,51.35283000000000,PI/000015932,190,environmental.health@thanet.gov.uk,Thanet,http://www.thanet.gov.uk,1.43728500000000,CT10 1BY,2014-01-22,fhrs_5_en-GB,5,,FHRS,0
261748,22 Victoria Parade,Broadstairs,Kent,,Bradstowe Lodge,Hospitals/Childcare/Caring Premises,5,0,,637743,0,,51.35668000000000,PI/000089581,190,environmental.health@thanet.gov.uk,Thanet,http://www.thanet.gov.uk,1.44155300000000,CT10 1QL,2014-02-20,fhrs_5_en-GB,5,,FHRS,5
261749,Birchington CE Primary School,Park Lane,Birchington,Kent,Breakfast Club,School/college/university,7845,0,,608335,0,,51.37122800000000,PI/000089195,190,environmental.health@thanet.gov.uk,Thanet,http://www.thanet.gov.uk,1.30857600000000,CT7 0AS,2013-11-05,fhrs_5_en-GB,5,,FHRS,0
261750,Callis Grange N And I School,Beacon Road,Broadstairs,Kent,Breakfast Club,School/college/university,7845,0,,620153,0,,51.37092800000000,PI/000037236,190,environmental.health@thanet.gov.uk,Thanet,http://www.thanet.gov.uk,1.42655500000000,CT10 3DG,2013-11-18,fhrs_5_en-GB,5,,FHRS,0
261751,Christchurch School,London Road,Ramsgate,Kent,Breakfast Club,School/college/university,7845,0,,430092,0,,51.33107600000000,PI/000041757,190,environmental.health@thanet.gov.uk,Thanet,http://www.thanet.gov.uk,1.39828100000000,CT11 0DN,2014-05-07,fhrs_5_en-GB,5,,FHRS,0
261752,Dame Janet County Infant School,Newington Road,Ramsgate,Kent,Breakfast Club,School/college/university,7845,0,,658492,0,,51.34971500000000,PI/000030240,190,environmental.health@thanet.gov.uk,Thanet,http://www.thanet.gov.uk,1.39918700000000,CT12 6PR,2014-03-11,fhrs_5_en-GB,5,,FHRS,0
261753,Dame Janet County Primary Junior School,Newington Road,Ramsgate,Kent,Breakfast Club,School/college/university,7845,0,,658493,0,,51.35093500000000,PI/000030242,190,environmental.health@thanet.gov.uk,Thanet,http://www.thanet.gov.uk,1.40021100000000,CT12 6QY,2014-03-11,fhrs_5_en-GB,5,,FHRS,0
261754,Drapers Mill County Primary School,St Peters Footpath,Margate,Kent,Breakfast Club,School/college/university,7845,0,,620179,0,,51.37927100000000,PI/000087540,190,environmental.health@thanet.gov.uk,Thanet,http://www.thanet.gov.uk,1.39367300000000,CT9 2SP,2013-11-18,fhrs_5_en-GB,5,,FHRS,0
261755,Garlinge Junior School,Westfield Road,Margate,Kent,Breakfast Club,School/college/university,7845,0,,620154,0,,51.37888800000000,PI/000037237,190,environmental.health@thanet.gov.uk,Thanet,http://www.thanet.gov.uk,1.36300000000000,CT9 5PA,2013-11-26,fhrs_5_en-GB,5,,FHRS,0
261756,Newlands County Primary School,Dumpton Lane,Ramsgate,Kent,Breakfast Club,School/college/university,7845,0,,658462,0,,51.34519400000000,PI/000011695,190,environmental.health@thanet.gov.uk,Thanet,http://www.thanet.gov.uk,1.42003700000000,CT11 7AJ,2014-03-05,fhrs_5_en-GB,5,,FHRS,0
261757,Priory County Infant School,Cannon Road,Ramsgate,Kent,Breakfast Club,School/college/university,7845,0,,430088,0,,51.33592400000000,PI/000035973,190,environmental.health@thanet.gov.uk,Thanet,http://www.thanet.gov.uk,1.41374600000000,CT11 9XT,2014-04-29,fhrs_5_en-GB,5,,FHRS,0
261758,St Crispins School St Crispins Road,Westgate On Sea,Kent,,Breakfast Club,School/college/university,7845,0,,658548,0,,51.37628200000000,PI/000088470,190,environmental.health@thanet.gov.uk,Thanet,http://www.thanet.gov.uk,1.33712500000000,CT8 8EB,2014-03-10,fhrs_5_en-GB,5,,FHRS,0
261759,St Ethelberts Roman Catholic Primary School,Dane Park Road,Ramsgate,Kent,Breakfast Club,School/college/university,7845,0,,430089,0,,51.34027000000000,PI/000037235,190,environmental.health@thanet.gov.uk,Thanet,http://www.thanet.gov.uk,1.42324700000000,CT11 7LS,2012-07-17,fhrs_5_en-GB,5,,FHRS,0
261760,St Laurence In Thanet Junior Academy,Newington Road,Ramsgate,Kent,Breakfast Club,School/college/university,7845,0,,430104,0,,51.33882900000000,PI/000099110,190,environmental.health@thanet.gov.uk,Thanet,http://www.thanet.gov.uk,1.40172700000000,CT11 0QX,2014-04-23,fhrs_5_en-GB,5,,FHRS,0
261761,St Peter In Thanet C Of E Junior School,Grange Road,Broadstairs,Kent,Breakfast Club,School/college/university,7845,0,,608172,0,,51.36996700000000,PI/000012021,190,environmental.health@thanet.gov.uk,Thanet,http://www.thanet.gov.uk,1.42711600000000,CT10 3EP,2013-10-03,fhrs_5_en-GB,5,,FHRS,0
261762,St Saviours C/E Junior School,Elm Grove,Westgate On Sea,Kent,Breakfast Club,School/college/university,7845,0,,608333,0,,51.37974700000000,PI/000089154,190,environmental.health@thanet.gov.uk,Thanet,http://www.thanet.gov.uk,1.33325200000000,CT8 8LD,2013-09-19,fhrs_5_en-GB,5,,FHRS,0
261763,Residential Home,21 Vale Square,Ramsgate,Kent,Brenan House,Hospitals/Childcare/Caring Premises,5,0,,537296,0,,51.33192800000000,PI/000010756,190,environmental.health@thanet.gov.uk,Thanet,http://www.thanet.gov.uk,1.41042000000000,CT11 9DE,2014-11-14,fhrs_5_en-GB,5,,FHRS,0
261764,The Promenade Brewers Fayre,Station Approach,Margate,Kent,Brewers Fayre,Pub/bar/nightclub,7843,0,,658483,0,,51.38539000000000,PI/000025182,190,environmental.health@thanet.gov.uk,Thanet,http://www.thanet.gov.uk,1.37210300000000,CT9 5AD,2014-11-19,fhrs_5_en-GB,5,,FHRS,0
261765,"Ground Floor, Mortimer House",24 Hartsdown Road,Margate,Kent,Bright Star Nursery,Hospitals/Childcare/Caring Premises,5,0,,637758,0,,51.38197800000000,PI/000096599,190,environmental.health@thanet.gov.uk,Thanet,http://www.thanet.gov.uk,1.36784100000000,CT9 5QT,2014-02-17,fhrs_4_en-GB,4,,FHRS,10
261766,88 High Street,Margate,Kent,,British Heart Foundation,Retailers - other,4613,,,608347,,,51.38647300000000,PI/000089776,190,environmental.health@thanet.gov.uk,Thanet,http://www.thanet.gov.uk,1.38102400000000,CT9 1JW,2013-09-20,fhrs_exempt_en-GB,Exempt,,FHRS,
261767,,,,,Broadie Bakes,Other catering premises,7841,0,,464751,0,,,PI/000032187,190,environmental.health@thanet.gov.uk,Thanet,http://www.thanet.gov.uk,,,2012-10-17,fhrs_5_en-GB,5,,FHRS,0
261768,Memorial Recreation Ground,Lawn Road,Broadstairs,Kent,Broadstairs & St Peters Bowling Club,Restaurant/Cafe/Canteen,1,0,,620128,0,,51.36021100000000,PI/000016561,190,environmental.health@thanet.gov.uk,Thanet,http://www.thanet.gov.uk,1.43680400000000,CT10 1AA,2013-11-20,fhrs_5_en-GB,5,,FHRS,0
261769,Broadstairs And St Peters Comrades Club,5 St Peters Road,Broadstairs,Kent,Broadstairs & St Peters Comrades Clu,Pub/bar/nightclub,7843,0,,664402,0,,51.36044100000000,PI/000098657,190,environmental.health@thanet.gov.uk,Thanet,http://www.thanet.gov.uk,1.43110200000000,CT10 2AG,2014-05-07,fhrs_5_en-GB,5,,FHRS,0
261770,The Pavillion,Park Avenue,Broadstairs,Kent,Broadstairs Cricket Club,Other catering premises,7841,0,,608188,0,,51.35143200000000,PI/000016784,190,environmental.health@thanet.gov.uk,Thanet,http://www.thanet.gov.uk,1.42634900000000,CT10 2EX,2013-09-26,fhrs_5_en-GB,5,,FHRS,0
261771,11 The Broadway,Broadstairs,Kent,,Broadstairs Fish Bar,Takeaway/sandwich shop,7844,0,,637600,0,,51.36013400000000,PI/000010937,190,environmental.health@thanet.gov.uk,Thanet,http://www.thanet.gov.uk,1.43207100000000,CT10 2AD,2014-02-14,fhrs_5_en-GB,5,,FHRS,5
261772,24 Ramsgate Road,Broadstairs,Kent,,Broadstairs House,Hotel/bed & breakfast/guest house,7842,20,,658455,15,,51.35537500000000,PI/000007130,190,environmental.health@thanet.gov.uk,Thanet,http://www.thanet.gov.uk,1.43636900000000,CT10 1PP,2014-04-10,fhrs_1_en-GB,1,,FHRS,5
261773,77-79 High Street,Broadstairs,Kent,,Broadstairs Kebab,Takeaway/sandwich shop,7844,10,,637611,15,,51.35961500000000,PI/000016368,190,environmental.health@thanet.gov.uk,Thanet,http://www.thanet.gov.uk,1.43594000000000,CT10 1NQ,2014-03-04,fhrs_2_en-GB,2,,FHRS,10
261774,12 Harbour Street,Broadstairs,Kent,,Broadstairs Sailing Club,Other catering premises,7841,0,,658511,0,,51.35928700000000,PI/000042313,190,environmental.health@thanet.gov.uk,Thanet,http://www.thanet.gov.uk,1.44465100000000,CT10 1EU,2014-03-24,fhrs_5_en-GB,5,,FHRS,0
261775,41 Albion Street,Broadstairs,Kent,,Broadstairs Tandoori Restaurant,Restaurant/Cafe/Canteen,1,10,,352183,0,,51.35958600000000,PI/000015151,190,environmental.health@thanet.gov.uk,Thanet,http://www.thanet.gov.uk,1.44305000000000,CT10 1NE,2014-07-30,fhrs_4_en-GB,4,,FHRS,0
261776,Rumfields Road,Broadstairs,Kent,,Bromstone County Primary School,School/college/university,7845,0,,624979,0,,51.35650400000000,PI/000005356,190,environmental.health@thanet.gov.uk,Thanet,http://www.thanet.gov.uk,1.41595300000000,CT10 2PW,2014-01-08,fhrs_5_en-GB,5,,FHRS,0
261777,7 Western Esplanade,Broadstairs,Kent,,Buckmaster Home,Hospitals/Childcare/Caring Premises,5,0,,637716,0,,51.35290100000000,PI/000076077,190,environmental.health@thanet.gov.uk,Thanet,http://www.thanet.gov.uk,1.44098200000000,CT10 1TG,2014-02-17,fhrs_5_en-GB,5,,FHRS,5
261778,36-42 High Street,St Lawrence,Ramsgate,Kent,Budgens Local,Retailers - other,4613,0,,620113,0,,51.33704300000000,PI/000005777,190,environmental.health@thanet.gov.uk,Thanet,http://www.thanet.gov.uk,1.40125000000000,CT11 0QW,2013-11-18,fhrs_5_en-GB,5,,FHRS,0
261779,Broadway Garage,The Broadway,Broadstairs,Kent,Budgens Local,Retailers - other,4613,0,,608171,0,,51.36103800000000,PI/000010968,190,environmental.health@thanet.gov.uk,Thanet,http://www.thanet.gov.uk,1.43130500000000,CT10 2AY,2013-10-11,fhrs_5_en-GB,5,,FHRS,0
261780,54 Station Road,Westgate On Sea,Kent,,Budget Beaters Newsagents,Retailers - other,4613,0,,716481,0,,51.38161200000000,PI/000014984,190,environmental.health@thanet.gov.uk,Thanet,http://www.thanet.gov.uk,1.33790100000000,CT8 8QY,2014-11-04,fhrs_5_en-GB,5,,FHRS,0
261781,Bowling Centre,Ethelbert Crescent,Margate,Kent,Bugsy's,Restaurant/Cafe/Canteen,1,0,,464741,0,,51.39150300000000,PI/000003123,190,environmental.health@thanet.gov.uk,Thanet,http://www.thanet.gov.uk,1.39309800000000,CT9 2DY,2014-11-18,fhrs_5_en-GB,5,,FHRS,5
261782,Family Entertainment Centre,Old Focus Building,Pysons Road,Ramsgate,Bumble Beez,Restaurant/Cafe/Canteen,1,0,,521017,0,,51.35208700000000,PI/000099438,190,environmental.health@thanet.gov.uk,Thanet,http://www.thanet.gov.uk,1.40915900000000,CT12 6RL,2014-09-19,fhrs_5_en-GB,5,,FHRS,0
261783,Margate Road,Broadstairs,Kent,,Burger King (Uk) Ltd,Restaurant/Cafe/Canteen,1,0,,265645,0,,51.36262000000000,PI/000016598,190,environmental.health@thanet.gov.uk,Thanet,http://www.thanet.gov.uk,1.39525800000000,CT10 2PR,2014-04-28,fhrs_5_en-GB,5,,FHRS,0
261784,8 Buenos Ayres,Margate,Kent,,Burlington Hotel,Hotel/bed & breakfast/guest house,7842,10,,637633,0,,51.38638700000000,PI/000021456,190,environmental.health@thanet.gov.uk,Thanet,http://www.thanet.gov.uk,1.37246400000000,CT9 5AE,2014-01-21,fhrs_4_en-GB,4,,FHRS,0
261785,69 High Street,Broadstairs,Kent,,Butcher of Brogdale,Retailers - other,4613,0,,681890,0,,51.35961500000000,PI/000016355,190,environmental.health@thanet.gov.uk,Thanet,http://www.thanet.gov.uk,1.43594000000000,CT10 1NQ,2014-07-09,fhrs_5_en-GB,5,,FHRS,0
261786,58 Belmont Road,Ramsgate,Kent,,Buttercup Bakery,Retailers - other,4613,0,,658627,0,,51.33785900000000,PI/000102433,190,environmental.health@thanet.gov.uk,Thanet,http://www.thanet.gov.uk,1.41340200000000,CT11 7QG,2014-03-17,fhrs_5_en-GB,5,,FHRS,0
261787,Buttery Restaurant,45-45A York Street,Broadstairs,Kent,Buttery Cafe,Restaurant/Cafe/Canteen,1,10,,370763,10,,51.35733100000000,PI/000017376,190,environmental.health@thanet.gov.uk,Thanet,http://www.thanet.gov.uk,1.43990700000000,CT10 1PB,2014-06-26,fhrs_2_en-GB,2,,FHRS,15
261788,26 Harbour Street,Ramsgate,Kent,,Bytes,Restaurant/Cafe/Canteen,1,5,,584536,0,,51.33300900000000,PI/000097997,190,environmental.health@thanet.gov.uk,Thanet,http://www.thanet.gov.uk,1.41993400000000,CT11 8HA,2013-08-28,fhrs_5_en-GB,5,,FHRS,0
261789,138 High Street,Margate,Kent,,C & S News,Retailers - other,4613,,,620139,,,51.38647300000000,PI/000023064,190,environmental.health@thanet.gov.uk,Thanet,http://www.thanet.gov.uk,1.38102400000000,CT9 1JW,2013-12-09,fhrs_exempt_en-GB,Exempt,,FHRS,
261790,57 High Street,Minster,Ramsgate,,C Attwells,Retailers - other,4613,,,608349,,,51.33329900000000,PI/000090218,190,environmental.health@thanet.gov.uk,Thanet,http://www.thanet.gov.uk,1.31546300000000,CT12 4BT,2013-09-19,fhrs_exempt_en-GB,Exempt,,FHRS,
261791,Northdown Hill,Broadstairs,Kent,,Cabin Cafe,Restaurant/Cafe/Canteen,1,5,,608260,0,,51.37106600000000,PI/000032642,190,environmental.health@thanet.gov.uk,Thanet,http://www.thanet.gov.uk,1.41906400000000,CT10 3JH,2014-03-25,fhrs_5_en-GB,5,,FHRS,5
261792,18 Queen Street,Ramsgate,Kent,,Caboose Cafe,Restaurant/Cafe/Canteen,1,0,,555412,0,,51.33315900000000,PI/000100100,190,environmental.health@thanet.gov.uk,Thanet,http://www.thanet.gov.uk,1.41909800000000,CT11 9DR,2014-03-03,fhrs_5_en-GB,5,,FHRS,0
261793,Jet Ski World,Hodges Gap Promenade,Margate,Kent,Cafe,Restaurant/Cafe/Canteen,1,0,,658625,0,,51.39267100000000,PI/000102430,190,environmental.health@thanet.gov.uk,Thanet,http://www.thanet.gov.uk,1.40800800000000,CT9 3FD,2014-03-29,fhrs_5_en-GB,5,,FHRS,0
261794,Marsh Farm,Gore Street,Monkton,Ramsgate,Cafe,Restaurant/Cafe/Canteen,1,10,,608166,0,,51.33872800000000,PI/000010177,190,environmental.health@thanet.gov.uk,Thanet,http://www.thanet.gov.uk,1.26247600000000,CT12 4LL,2013-10-10,fhrs_4_en-GB,4,,FHRS,10
261795,Ramsgate Garden Centre,Montefiore Avenue,Ramsgate,Kent,Cafe,Restaurant/Cafe/Canteen,1,0,,352205,0,,51.34452500000000,PI/000089490,190,environmental.health@thanet.gov.uk,Thanet,http://www.thanet.gov.uk,1.42785900000000,CT11 8BW,2014-02-12,fhrs_5_en-GB,5,,FHRS,0
261796,Sure Start Family Centre,Dane Valley Road,Margate,Kent,Cafe,Restaurant/Cafe/Canteen,1,5,,637789,5,,51.37510800000000,PI/000100004,190,environmental.health@thanet.gov.uk,Thanet,http://www.thanet.gov.uk,1.40413000000000,CT9 3RU,2014-02-14,fhrs_5_en-GB,5,,FHRS,5
261797,Western Undercliff Cafe,Western Undercliff,Ramsgate,Kent,Cafe,Restaurant/Cafe/Canteen,1,20,,409730,15,,51.16965866088867,PI/000010670,190,environmental.health@thanet.gov.uk,Thanet,http://www.thanet.gov.uk,0.75830000638962,CT11 9PH,2014-03-10,fhrs_0_en-GB,0,,FHRS,20
261798,151 Minnis Road,Birchington,Kent,,Cafe Bee,Restaurant/Cafe/Canteen,1,0,,637678,0,,51.37785800000000,PI/000040475,190,environmental.health@thanet.gov.uk,Thanet,http://www.thanet.gov.uk,1.28904700000000,CT7 9NS,2013-11-06,fhrs_5_en-GB,5,,FHRS,5
261799,59 High Street,Broadstairs,Kent,,Cafe Bello,Restaurant/Cafe/Canteen,1,5,,637610,0,,51.35896000000000,PI/000016343,190,environmental.health@thanet.gov.uk,Thanet,http://www.thanet.gov.uk,1.43896600000000,CT10 1JL,2014-02-01,fhrs_4_en-GB,4,,FHRS,10
261800,9 The Broadway,Broadstairs,Kent,,Cafe Broadway,Restaurant/Cafe/Canteen,1,10,,637796,0,,51.36013400000000,PI/000100398,190,environmental.health@thanet.gov.uk,Thanet,http://www.thanet.gov.uk,1.43207100000000,CT10 2AD,2014-02-25,fhrs_4_en-GB,4,,FHRS,0
261801,8 Marine Gardens,Margate,Kent,,Cafe de China,Restaurant/Cafe/Canteen,1,5,,658596,0,,51.38693900000000,PI/000100512,190,environmental.health@thanet.gov.uk,Thanet,http://www.thanet.gov.uk,1.37953400000000,CT9 1UN,2013-09-17,fhrs_5_en-GB,5,,FHRS,5
261802,1 High Street,Margate,Kent,,Cafe G,Restaurant/Cafe/Canteen,1,0,,608389,0,,51.38906400000000,PI/000100958,190,environmental.health@thanet.gov.uk,Thanet,http://www.thanet.gov.uk,1.38038100000000,CT9 1DL,2015-02-05,fhrs_5_en-GB,5,,FHRS,0
261803,96 High Street,Broadstairs,Kent,,Cafe Grill,Restaurant/Cafe/Canteen,1,0,,430098,0,,51.35988600000000,PI/000098075,190,environmental.health@thanet.gov.uk,Thanet,http://www.thanet.gov.uk,1.43653500000000,CT10 1JB,2014-07-02,fhrs_5_en-GB,5,,FHRS,0
261804,213 Northdown Road,Margate,Kent,,Cafe Kussan,Restaurant/Cafe/Canteen,1,10,,608270,0,,51.38738000000000,PI/000039482,190,environmental.health@thanet.gov.uk,Thanet,http://www.thanet.gov.uk,1.40003900000000,CT9 2PF,2013-09-11,fhrs_4_en-GB,4,,FHRS,10
261805,35 Albion Street,Broadstairs,Kent,,Cafe Submarine,Restaurant/Cafe/Canteen,1,10,,584535,0,,51.35899400000000,PI/000097611,190,environmental.health@thanet.gov.uk,Thanet,http://www.thanet.gov.uk,1.44240200000000,CT10 1LU,2013-08-31,fhrs_4_en-GB,4,,FHRS,5
261806,8 Queen Street,Ramsgate,Kent,,Caffe Latte,Restaurant/Cafe/Canteen,1,0,,370771,0,,51.33315900000000,PI/000041061,190,environmental.health@thanet.gov.uk,Thanet,http://www.thanet.gov.uk,1.41909800000000,CT11 9DR,2014-04-22,fhrs_5_en-GB,5,,FHRS,0
261807,14 Westwood Cross,Margate Road,Broadstairs,Kent,Caffe Nero,Restaurant/Cafe/Canteen,1,0,,637664,10,,51.35950300000000,PI/000035171,190,environmental.health@thanet.gov.uk,Thanet,http://www.thanet.gov.uk,1.39292900000000,CT10 2BF,2014-01-20,fhrs_4_en-GB,4,,FHRS,10
261808,4 High Street,Ramsgate,Kent,,Caffe Nero,Restaurant/Cafe/Canteen,1,0,,510243,0,,51.33372300000000,PI/000089617,190,environmental.health@thanet.gov.uk,Thanet,http://www.thanet.gov.uk,1.41918300000000,CT11 9AB,2014-10-30,fhrs_5_en-GB,5,,FHRS,0
261809,185 Northdown Road,Margate,Kent,,Cains Amusements,Restaurant/Cafe/Canteen,1,0,,608271,0,,51.38775300000000,PI/000039517,190,environmental.health@thanet.gov.uk,Thanet,http://www.thanet.gov.uk,1.39831200000000,CT9 2PA,2013-11-04,fhrs_5_en-GB,5,,FHRS,0
261810,81 Northdown Road,Margate,Kent,,Cake Time,Restaurant/Cafe/Canteen,1,5,,736102,0,,51.38991700000000,PI/000103459,190,environmental.health@thanet.gov.uk,Thanet,http://www.thanet.gov.uk,1.39099600000000,CT9 2RJ,2015-02-04,fhrs_5_en-GB,5,,FHRS,0
261811,,,,,Cakes by Denisa,Other catering premises,7841,0,,464755,0,,,PI/000055487,190,environmental.health@thanet.gov.uk,Thanet,http://www.thanet.gov.uk,,,2012-10-30,fhrs_5_en-GB,5,,FHRS,0
261812,Beacon Road,Broadstairs,Kent,,Callis Grange County Primary School,School/college/university,7845,0,,637689,0,,51.37092800000000,PI/000041793,190,environmental.health@thanet.gov.uk,Thanet,http://www.thanet.gov.uk,1.42655500000000,CT10 3DG,2014-01-21,fhrs_5_en-GB,5,,FHRS,0
261813,19 Eaton Road,Margate,Kent,,Cambridge Villa Supported Living,Hospitals/Childcare/Caring Premises,5,0,,624977,0,,51.38374000000000,PI/000001282,190,environmental.health@thanet.gov.uk,Thanet,http://www.thanet.gov.uk,1.38034800000000,CT9 1XB,2014-01-16,fhrs_5_en-GB,5,,FHRS,5
261814,13 La Belle Alliance Square,Ramsgate,Kent,,Camden Arms,Pub/bar/nightclub,7843,0,,620190,0,,51.33480900000000,PI/000092177,190,environmental.health@thanet.gov.uk,Thanet,http://www.thanet.gov.uk,1.42266700000000,CT11 8HU,2013-11-29,fhrs_5_en-GB,5,,FHRS,0
261815,Beach Trading Company,Marina Esplanade,Ramsgate,Kent,Cannons of Ramsgate,Takeaway/sandwich shop,7844,0,,658520,0,,,PI/000064534,190,environmental.health@thanet.gov.uk,Thanet,http://www.thanet.gov.uk,,CT11 8LR,2014-03-27,fhrs_5_en-GB,5,,FHRS,0
261816,Whiteness Road,Broadstairs,Kent,,Captain Digby,Other catering premises,7841,0,,510212,0,,51.38471600000000,PI/000005315,190,environmental.health@thanet.gov.uk,Thanet,http://www.thanet.gov.uk,1.44071100000000,CT10 3QH,2014-11-12,fhrs_5_en-GB,5,,FHRS,5
261817,27 High Street,Ramsgate,Kent,,Card Factory,Retailers - other,4613,,,555382,,,51.33419000000000,PI/000041036,190,environmental.health@thanet.gov.uk,Thanet,http://www.thanet.gov.uk,1.41861500000000,CT11 9AG,2013-03-14,fhrs_exempt_en-GB,Exempt,,FHRS,
261818,117 High Street,Broadstairs,Kent,,Cardak Meze & Grill,Restaurant/Cafe/Canteen,1,20,,734116,10,,51.35961500000000,PI/000103475,190,environmental.health@thanet.gov.uk,Thanet,http://www.thanet.gov.uk,1.43594000000000,CT10 1NQ,2015-01-22,fhrs_1_en-GB,1,,FHRS,10
261819,22 Prices Avenue,Margate,Kent,,Caretech Community Care Co Ltd,Hospitals/Childcare/Caring Premises,5,0,,620102,0,,51.38595800000000,PI/000002188,190,environmental.health@thanet.gov.uk,Thanet,http://www.thanet.gov.uk,1.39757600000000,CT9 2NT,2013-11-27,fhrs_5_en-GB,5,,FHRS,0
261820,25-29 St Mildreds Road,Westgate On Sea,Kent,,Carlton Cinema,Retailers - other,4613,0,,537314,5,,51.38210600000000,PI/000096523,190,environmental.health@thanet.gov.uk,Thanet,http://www.thanet.gov.uk,1.33664400000000,CT8 8RE,2013-03-26,fhrs_5_en-GB,5,,FHRS,5
261821,,,,,Carole's Kitchen Creations,Other catering premises,7841,10,,464744,0,,,PI/000015132,190,environmental.health@thanet.gov.uk,Thanet,http://www.thanet.gov.uk,,,2012-10-18,fhrs_4_en-GB,4,,FHRS,10
261822,4-5 The Centre,Margate,Kent,,Cartons Boulangerie,Restaurant/Cafe/Canteen,1,0,,608160,0,,51.38723700000000,PI/000007819,190,environmental.health@thanet.gov.uk,Thanet,http://www.thanet.gov.uk,1.38168400000000,CT9 1JG,2013-09-25,fhrs_5_en-GB,5,,FHRS,5
261823,Genting Casino Margate,Zion Place,Margate,Kent,Casino,Restaurant/Cafe/Canteen,1,0,,625004,0,,51.39125100000000,PI/000089491,190,environmental.health@thanet.gov.uk,Thanet,http://www.thanet.gov.uk,1.38873800000000,CT9 1RP,2014-01-07,fhrs_5_en-GB,5,,FHRS,0
261824,,,,,Caterpillars Pre-School,Hospitals/Childcare/Caring Premises,5,,,716485,,,,PI/000026261,190,environmental.health@thanet.gov.uk,Thanet,http://www.thanet.gov.uk,,,2014-09-18,fhrs_exempt_en-GB,Exempt,,FHRS,
261825,148 High Street,Broadstairs,Kent,,Cats Whiskers,Restaurant/Cafe/Canteen,1,10,,637608,0,,51.35988600000000,PI/000016264,190,environmental.health@thanet.gov.uk,Thanet,http://www.thanet.gov.uk,1.43653500000000,CT10 1JB,2014-02-06,fhrs_4_en-GB,4,,FHRS,10
261826,14 Chatham Street,Ramsgate,Kent,,CCCP Restaurant,Restaurant/Cafe/Canteen,1,0,,448902,0,,51.33631100000000,PI/000100594,190,environmental.health@thanet.gov.uk,Thanet,http://www.thanet.gov.uk,1.41590100000000,CT11 7PP,2014-11-20,fhrs_5_en-GB,5,,FHRS,0
261827,73 Canterbury Road,Margate,Kent,,Charcoal Grill,Takeaway/sandwich shop,7844,0,,608159,0,,51.38543100000000,PI/000006905,190,environmental.health@thanet.gov.uk,Thanet,http://www.thanet.gov.uk,1.36881400000000,CT9 5AS,2013-11-12,fhrs_5_en-GB,5,,FHRS,5
261828,Broadstairs Road,Broadstairs,Kent,,Charles Dickens School,School/college/university,7845,0,,658464,0,,51.36087500000000,PI/000015716,190,environmental.health@thanet.gov.uk,Thanet,http://www.thanet.gov.uk,1.42211200000000,CT10 2RL,2014-04-28,fhrs_5_en-GB,5,,FHRS,0
261829,Chatham Street,Ramsgate,Kent,,Chatham House Grammar School,School/college/university,7845,0,,624982,0,,51.33649200000000,PI/000018228,190,environmental.health@thanet.gov.uk,Thanet,http://www.thanet.gov.uk,1.41615800000000,CT11 7PS,2014-01-14,fhrs_5_en-GB,5,,FHRS,0
261830,Linley Road,Broadstairs,Kent,,Cherry Court,Hospitals/Childcare/Caring Premises,5,0,,637659,0,,51.37251900000000,PI/000032460,190,environmental.health@thanet.gov.uk,Thanet,http://www.thanet.gov.uk,1.42443200000000,CT10 3HB,2014-02-13,fhrs_5_en-GB,5,,FHRS,0
261831,,,,,Chetna's Kitchen,Other catering premises,7841,0,,722447,0,,,PI/000010493,190,environmental.health@thanet.gov.uk,Thanet,http://www.thanet.gov.uk,,,2014-12-05,fhrs_5_en-GB,5,,FHRS,0
261832,The Prospect,The Parade,Broadstairs,Kent,Chiappinis Coffee Shop,Restaurant/Cafe/Canteen,1,0,,409743,0,,51.35830500000000,PI/000042108,190,environmental.health@thanet.gov.uk,Thanet,http://www.thanet.gov.uk,1.44258000000000,CT10 1NB,2012-05-22,fhrs_5_en-GB,5,,FHRS,0
261833,12-12A School Lane,Ramsgate,Kent,,Children's Nest Nursery,Hospitals/Childcare/Caring Premises,5,0,,620120,0,,51.33635500000000,PI/000011247,190,environmental.health@thanet.gov.uk,Thanet,http://www.thanet.gov.uk,1.41962300000000,CT11 8QX,2013-12-09,fhrs_5_en-GB,5,,FHRS,0
261834,Chilton Lane,Ramsgate,Kent,,Chilton County Primary School,School/college/university,7845,0,,624983,0,,51.33179500000000,PI/000018261,190,environmental.health@thanet.gov.uk,Thanet,http://www.thanet.gov.uk,1.39302100000000,CT11 0LQ,2014-01-14,fhrs_5_en-GB,5,,FHRS,0
261835,187 Pegwell Road,Ramsgate,Kent,,Chilton Tavern,Pub/bar/nightclub,7843,0,,430107,0,,51.33019600000000,PI/000101330,190,environmental.health@thanet.gov.uk,Thanet,http://www.thanet.gov.uk,1.39172600000000,CT11 0LY,2014-06-10,fhrs_5_en-GB,5,,FHRS,0
261836,133 Canterbury Road,Margate,Kent,,China Chef,Takeaway/sandwich shop,7844,10,,620194,5,,51.38389600000000,PI/000098350,190,environmental.health@thanet.gov.uk,Thanet,http://www.thanet.gov.uk,1.36588400000000,CT9 5BD,2014-11-20,fhrs_3_en-GB,3,,FHRS,10
261837,20 Grange Road,Ramsgate,Kent,,China City,Takeaway/sandwich shop,7844,0,,637774,0,,51.33165000000000,PI/000098689,190,environmental.health@thanet.gov.uk,Thanet,http://www.thanet.gov.uk,1.40669400000000,CT11 9LR,2014-03-17,fhrs_5_en-GB,5,,FHRS,0
261838,26 Fosters Avenue,Broadstairs,Kent,,China Man,Takeaway/sandwich shop,7844,0,,608257,0,,51.37295200000000,PI/000032258,190,environmental.health@thanet.gov.uk,Thanet,http://www.thanet.gov.uk,1.42101500000000,CT10 3HJ,2013-10-02,fhrs_5_en-GB,5,,FHRS,0
261839,51 Westwood Cross,Margate Road,Broadstairs,Kent,Chiquitos,Restaurant/Cafe/Canteen,1,0,,637736,0,,51.35950300000000,PI/000088742,190,environmental.health@thanet.gov.uk,Thanet,http://www.thanet.gov.uk,1.39292900000000,CT10 2BF,2014-01-21,fhrs_5_en-GB,5,,FHRS,5
261840,Broadstairs Campus,Canterbury Christ Church University,Northwood Road,Broadstairs,Christ Church University,Restaurant/Cafe/Canteen,1,0,,637725,0,,51.35991400000000,PI/000081254,190,environmental.health@thanet.gov.uk,Thanet,http://www.thanet.gov.uk,1.40696800000000,CT10 2WA,2014-02-11,fhrs_5_en-GB,5,,FHRS,0
261841,United Reform Church,Westgate Bay Avenue,Westgate On Sea,Kent,Christchurch,Other catering premises,7841,0,,620144,0,,51.38316600000000,PI/000026517,190,environmental.health@thanet.gov.uk,Thanet,http://www.thanet.gov.uk,1.33828800000000,CT8 8SN,2014-05-29,fhrs_5_en-GB,5,,FHRS,0
261842,London Road,Ramsgate,Kent,,Christchurch Junior School,School/college/university,7845,0,,409732,0,,51.33069000000000,PI/000019204,190,environmental.health@thanet.gov.uk,Thanet,http://www.thanet.gov.uk,1.40599100000000,CT11 0ZZ,2014-01-14,fhrs_5_en-GB,5,,FHRS,0
261843,1-5 Station Approach,Birchington,Kent,,Christies,Pub/bar/nightclub,7843,0,,608213,0,,51.37719900000000,PI/000020628,190,environmental.health@thanet.gov.uk,Thanet,http://www.thanet.gov.uk,1.30226600000000,CT7 9RD,2013-11-11,fhrs_5_en-GB,5,,FHRS,0
261844,328 Margate Road,Ramsgate,Kent,,Chun Chun,Takeaway/sandwich shop,7844,10,,637754,0,,51.35329300000000,PI/000092335,190,environmental.health@thanet.gov.uk,Thanet,http://www.thanet.gov.uk,1.40108900000000,CT12 6SQ,2014-02-11,fhrs_4_en-GB,4,,FHRS,0
261845,Mobile Catering Unit,Westwood Gateway,Margate Road,Broadstairs,Chunkez,Mobile caterer,7846,0,,555395,0,,51.36263500000000,PI/000097704,190,environmental.health@thanet.gov.uk,Thanet,http://www.thanet.gov.uk,1.39317500000000,CT10 2QU,2013-03-26,fhrs_4_en-GB,4,,FHRS,10
261846,Thanet Earth,Barrow Man Road,Birchington,,Churchill Catering,Restaurant/Cafe/Canteen,1,0,,637761,0,,51.36949600000000,PI/000096746,190,environmental.health@thanet.gov.uk,Thanet,http://www.thanet.gov.uk,1.30937100000000,CT7 0AY,2014-02-11,fhrs_5_en-GB,5,,FHRS,0
261847,19-22 Paragon,Ramsgate,Kent,,Churchill Tavern,Pub/bar/nightclub,7843,0,,370772,0,,51.32935000000000,PI/000041225,190,environmental.health@thanet.gov.uk,Thanet,http://www.thanet.gov.uk,1.41492300000000,CT11 9JX,2014-06-06,fhrs_5_en-GB,5,,FHRS,0
261848,14 The Parade,Margate,Kent,,Cinnamon Spice,Restaurant/Cafe/Canteen,1,0,,448887,0,,51.38965500000000,PI/000089781,190,environmental.health@thanet.gov.uk,Thanet,http://www.thanet.gov.uk,1.38110000000000,CT9 1EY,2014-03-24,fhrs_5_en-GB,5,,FHRS,0
261849,24 Victoria Parade,Broadstairs,Kent,,Cintra Hotel,Hotel/bed & breakfast/guest house,7842,20,,658467,0,,51.35668000000000,PI/000017274,190,environmental.health@thanet.gov.uk,Thanet,http://www.thanet.gov.uk,1.44155300000000,CT10 1QL,2014-04-09,fhrs_1_en-GB,1,,FHRS,5
261850,10 High Street,Ramsgate,Kent,,Claire's Accessories,Retailers - other,4613,,,608367,,,51.33372300000000,PI/000097330,190,environmental.health@thanet.gov.uk,Thanet,http://www.thanet.gov.uk,1.41918300000000,CT11 9AB,2013-09-20,fhrs_exempt_en-GB,Exempt,,FHRS,
261851,Claremont,6 Lower Northdown Avenue,Margate,Kent,Claremont Care  Home,Hospitals/Childcare/Caring Premises,5,0,,510234,0,,51.38485600000000,PI/000055214,190,environmental.health@thanet.gov.uk,Thanet,http://www.thanet.gov.uk,1.40052700000000,CT9 2NJ,2014-06-24,fhrs_5_en-GB,5,,FHRS,0
261852,Clarendon Gardens,Ramsgate,Kent,,Clarendon House Grammar School,School/college/university,7845,0,,624980,0,,51.33325800000000,PI/000005974,190,environmental.health@thanet.gov.uk,Thanet,http://www.thanet.gov.uk,1.41541500000000,CT11 9BB,2014-01-14,fhrs_5_en-GB,5,,FHRS,0
261853,,,,,Clarey's Artisan Chocolates,Other catering premises,7841,0,,510214,0,,,PI/000007418,190,environmental.health@thanet.gov.uk,Thanet,http://www.thanet.gov.uk,,,2013-02-06,fhrs_5_en-GB,5,,FHRS,0
261854,Cleveland House,20-22 Granville Road,Broadstairs,Kent,Cleveland House Ltd,Hospitals/Childcare/Caring Premises,5,0,,608184,0,,51.35553500000000,PI/000016137,190,environmental.health@thanet.gov.uk,Thanet,http://www.thanet.gov.uk,1.44040400000000,CT10 1QB,2013-11-11,fhrs_5_en-GB,5,,FHRS,0
261855,St Pauls Road,Margate,Kent,,Cliftonville Community Centre,Restaurant/Cafe/Canteen,1,0,,637670,0,,51.38916200000000,PI/000038872,190,environmental.health@thanet.gov.uk,Thanet,http://www.thanet.gov.uk,1.39532600000000,CT9 2DB,2014-02-18,fhrs_5_en-GB,5,,FHRS,0
261856,Northumberland Avenue,Margate,Kent,,Cliftonville County Primary School,School/college/university,7845,0,,620110,0,,51.38523100000000,PI/000004156,190,environmental.health@thanet.gov.uk,Thanet,http://www.thanet.gov.uk,1.40772800000000,CT9 3LY,2013-11-12,fhrs_5_en-GB,5,,FHRS,5
261857,75 Northdown Road,Margate,Kent,,Cliftonville Mini Mart,Retailers - other,4613,0,,620143,0,,51.38991800000000,PI/000024383,190,environmental.health@thanet.gov.uk,Thanet,http://www.thanet.gov.uk,1.39099700000000,CT9 2RJ,2013-11-29,fhrs_5_en-GB,5,,FHRS,0
261858,2 Zion Place,Margate,Kent,,Cliftonville Off Licence,Retailers - other,4613,0,,658586,0,,51.39125100000000,PI/000099379,190,environmental.health@thanet.gov.uk,Thanet,http://www.thanet.gov.uk,1.38873800000000,CT9 1RP,2014-04-25,fhrs_5_en-GB,5,,FHRS,0
261859,"Pavillion, St Georges Lawn",Third Avenue,Margate,Kent,Cliftonville Outdoor Bowls Club,Restaurant/Cafe/Canteen,1,0,,700020,0,,51.39162000000000,PI/000102411,190,environmental.health@thanet.gov.uk,Thanet,http://www.thanet.gov.uk,1.40082800000000,CT9 2LN,2014-08-13,fhrs_5_en-GB,5,,FHRS,0
261860,"Unit 3, Westmount House",220-228 Northdown Road,Margate,Kent,Cliftonville Superstore,Retailers - other,4613,0,,624999,0,,51.38733900000000,PI/000067832,190,environmental.health@thanet.gov.uk,Thanet,http://www.thanet.gov.uk,1.39770700000000,CT9 2RP,2013-12-19,fhrs_5_en-GB,5,,FHRS,0
261861,12 Marine Gardens,Margate,Kent,,Clock Tower Kebabs,Takeaway/sandwich shop,7844,0,,637575,0,,51.38693900000000,PI/000001965,190,environmental.health@thanet.gov.uk,Thanet,http://www.thanet.gov.uk,1.37953400000000,CT9 1UN,2014-08-26,fhrs_5_en-GB,5,,FHRS,0
261862,5 Ramsgate Road,Broadstairs,Kent,,Cloonlara B & B,Hotel/bed & breakfast/guest house,7842,5,,637693,5,,51.35633100000000,PI/000042263,190,environmental.health@thanet.gov.uk,Thanet,http://www.thanet.gov.uk,1.43905600000000,CT10 1QQ,2014-02-11,fhrs_5_en-GB,5,,FHRS,5
261863,Cliff Terrace,Margate,Kent,,Club Caprice,Pub/bar/nightclub,7843,0,,658545,0,,51.39186500000000,PI/000087166,190,environmental.health@thanet.gov.uk,Thanet,http://www.thanet.gov.uk,1.38958800000000,CT9 1RU,2014-03-31,fhrs_5_en-GB,5,,FHRS,0
261864,18-21 Marine Terrace,Margate,Kent,,Club World,Restaurant/Cafe/Canteen,1,10,,637801,15,,51.38657000000000,PI/000100514,190,environmental.health@thanet.gov.uk,Thanet,http://www.thanet.gov.uk,1.37736500000000,CT9 1XJ,2014-11-06,fhrs_2_en-GB,2,,FHRS,10
261865,Grange Road,Ramsgate,Kent,,Co - Op Welcome,Retailers - supermarkets/hypermarkets,7840,0,,608201,0,,51.33096400000000,PI/000018729,190,environmental.health@thanet.gov.uk,Thanet,http://www.thanet.gov.uk,1.40770600000000,CT11 9NA,2013-09-25,fhrs_5_en-GB,5,,FHRS,0
261866,Tothill Street,Minster,Ramsgate,Kent,Co Op Minster,Retailers - other,4613,0,,722452,0,,51.34300600000000,PI/000084242,190,environmental.health@thanet.gov.uk,Thanet,http://www.thanet.gov.uk,1.31793100000000,CT12 4AY,2014-11-25,fhrs_5_en-GB,5,,FHRS,0
261867,1 Alkham Close,Margate,Kent,,Coastal Roasters,Mobile caterer,7846,0,,620164,0,,51.38532100000000,PI/000057330,190,environmental.health@thanet.gov.uk,Thanet,http://www.thanet.gov.uk,1.42868100000000,CT9 3JP,2014-05-28,fhrs_5_en-GB,5,,FHRS,0
261868,Jungle Jims Farm,Quex Park,Birchington,Kent,Cock-A-Doodle-Do Coffee Shop,Restaurant/Cafe/Canteen,1,0,,658553,0,,51.36675600000000,PI/000089444,190,environmental.health@thanet.gov.uk,Thanet,http://www.thanet.gov.uk,1.31625700000000,CT7 0BH,2014-04-23,fhrs_5_en-GB,5,,FHRS,0
261869,37 Westwood Cross,Margate Road,Broadstairs,Kent,Coffee Corner,Restaurant/Cafe/Canteen,1,10,,637818,0,,51.35950300000000,PI/000101917,190,environmental.health@thanet.gov.uk,Thanet,http://www.thanet.gov.uk,1.39292900000000,CT10 2BF,2014-05-07,fhrs_4_en-GB,4,,FHRS,10
261870,1A Broadstairs Retail Park,Margate Road,Broadstairs,Kent,Coffee House,Restaurant/Cafe/Canteen,1,0,,658609,0,,51.35740300000000,PI/000101918,190,environmental.health@thanet.gov.uk,Thanet,http://www.thanet.gov.uk,1.40083400000000,CT10 2QW,2014-04-16,fhrs_5_en-GB,5,,FHRS,5
261871,Sports Pavilion,Spencer Square,Ramsgate,Kent,Coffee Hut,Restaurant/Cafe/Canteen,1,0,,681911,0,,51.32947500000000,PI/000102538,190,environmental.health@thanet.gov.uk,Thanet,http://www.thanet.gov.uk,1.41402800000000,CT11 9LN,2014-05-22,fhrs_5_en-GB,5,,FHRS,0
261872,Margate Railway Station,Station Approach,Margate,Kent,Coffee Station,Restaurant/Cafe/Canteen,1,0,,658626,0,,51.38539000000000,PI/000102432,190,environmental.health@thanet.gov.uk,Thanet,http://www.thanet.gov.uk,1.37210300000000,CT9 5AD,2014-03-07,fhrs_5_en-GB,5,,FHRS,0
261873,Cliffsend Farm,Cliffs End Road,Ramsgate,Kent,Colin Brudenell Catering,Other catering premises,7841,0,,608163,0,,51.33028300000000,PI/000009123,190,environmental.health@thanet.gov.uk,Thanet,http://www.thanet.gov.uk,1.36939000000000,CT12 5JG,2013-11-06,fhrs_5_en-GB,5,,FHRS,5
261874,Westgate Community Centre,Lymington Road,Westgate On Sea,Kent,Community Under 5's,Hospitals/Childcare/Caring Premises,5,0,,620178,0,,51.37721900000000,PI/000087535,190,environmental.health@thanet.gov.uk,Thanet,http://www.thanet.gov.uk,1.33863100000000,CT8 8EJ,2014-02-04,fhrs_5_en-GB,5,,FHRS,0
261875,,,,,Conleigh Fast Foods,Mobile caterer,7846,0,,608202,0,,,PI/000018752,190,environmental.health@thanet.gov.uk,Thanet,http://www.thanet.gov.uk,,,2013-11-06,fhrs_5_en-GB,5,,FHRS,5
261876,4C Grange Road,Ramsgate,Kent,,Conqueror Alehouse,Pub/bar/nightclub,7843,0,,584532,0,,51.33165000000000,PI/000096822,190,environmental.health@thanet.gov.uk,Thanet,http://www.thanet.gov.uk,1.40669400000000,CT11 9LR,2013-12-13,fhrs_5_en-GB,5,,FHRS,5
261877,11-13 Charlotte Street,Broadstairs,Kent,,Continental Corner,Retailers - other,4613,0,,584511,0,,51.35815500000000,PI/000042105,190,environmental.health@thanet.gov.uk,Thanet,http://www.thanet.gov.uk,1.44156300000000,CT10 1LR,2013-08-29,fhrs_5_en-GB,5,,FHRS,5
261878,17-19 Station Road,Westgate On Sea,Kent,,Co-op - Westgate,Retailers - supermarkets/hypermarkets,7840,0,,608337,0,,51.38171700000000,PI/000089348,190,environmental.health@thanet.gov.uk,Thanet,http://www.thanet.gov.uk,1.33987800000000,CT8 8RB,2013-11-08,fhrs_5_en-GB,5,,FHRS,0
261879,Hopeville Avenue,Broadstairs,Kent,,Co-op Pioneer,Retailers - supermarkets/hypermarkets,7840,0,,608259,0,,51.36654600000000,PI/000032329,190,environmental.health@thanet.gov.uk,Thanet,http://www.thanet.gov.uk,1.41766300000000,CT10 2TR,2013-09-18,fhrs_5_en-GB,5,,FHRS,0
261880,1-5 Summerfield Road,Margate,Kent,,Co-operative,Retailers - supermarkets/hypermarkets,7840,0,,620167,0,,51.38645800000000,PI/000064850,190,environmental.health@thanet.gov.uk,Thanet,http://www.thanet.gov.uk,1.42456800000000,CT9 3EZ,2013-11-25,fhrs_5_en-GB,5,,FHRS,0
261881,94 High Street,Broadstairs,Kent,,Co-operative Food,Retailers - supermarkets/hypermarkets,7840,0,,664399,0,,51.35988600000000,PI/000089667,190,environmental.health@thanet.gov.uk,Thanet,http://www.thanet.gov.uk,1.43653500000000,CT10 1JB,2014-04-08,fhrs_4_en-GB,4,,FHRS,10
261882,11 Queens Road,Broadstairs,Kent,,Copperfields Vegetarian Guest House,Hotel/bed & breakfast/guest house,7842,20,,637793,0,,51.35793800000000,PI/000100181,190,environmental.health@thanet.gov.uk,Thanet,http://www.thanet.gov.uk,1.43916200000000,CT10 1NU,2014-02-08,fhrs_1_en-GB,1,,FHRS,5
261883,Dane Valley Road,Margate,Kent,,Coral Betting Shop,Restaurant/Cafe/Canteen,1,0,,608269,0,,51.38055200000000,PI/000039328,190,environmental.health@thanet.gov.uk,Thanet,http://www.thanet.gov.uk,1.39943200000000,CT9 3RS,2013-09-23,fhrs_5_en-GB,5,,FHRS,0
261884,103 Newington Road,Ramsgate,Kent,,Coral Racing Limited,Other catering premises,7841,,,608251,,,51.34537200000000,PI/000030231,190,environmental.health@thanet.gov.uk,Thanet,http://www.thanet.gov.uk,1.39879300000000,CT12 6PT,2013-10-09,fhrs_exempt_en-GB,Exempt,,FHRS,
261885,18-20 York Street,Ramsgate,Kent,,Corbys Tearooms,Restaurant/Cafe/Canteen,1,20,,637628,0,,51.33281200000000,PI/000020117,190,environmental.health@thanet.gov.uk,Thanet,http://www.thanet.gov.uk,1.41927300000000,CT11 9DS,2014-01-11,fhrs_1_en-GB,1,,FHRS,10
261886,16 Westwood Cross,Margate Road,Broadstairs,Kent,Costa Coffee,Restaurant/Cafe/Canteen,1,0,,608262,10,,51.35950300000000,PI/000034036,190,environmental.health@thanet.gov.uk,Thanet,http://www.thanet.gov.uk,1.39292900000000,CT10 2BF,2013-10-01,fhrs_4_en-GB,4,,FHRS,5
261887,84-86 High Street,Margate,Kent,,Costa Coffee,Restaurant/Cafe/Canteen,1,10,,658525,5,,51.38647300000000,PI/000065370,190,environmental.health@thanet.gov.uk,Thanet,http://www.thanet.gov.uk,1.38102400000000,CT9 1JW,2014-03-27,fhrs_3_en-GB,3,,FHRS,10
261888,East Kent Retail Park,Westwood Road,Broadstairs,Kent,Costa Coffee Drive Thru,Restaurant/Cafe/Canteen,1,0,,658587,0,,51.36191800000000,PI/000099456,190,environmental.health@thanet.gov.uk,Thanet,http://www.thanet.gov.uk,1.39806500000000,CT10 2RQ,2014-04-16,fhrs_5_en-GB,5,,FHRS,0
261889,166-168 Canterbury Road,Margate,Kent,,Costcutter,Retailers - other,4613,0,,658522,0,,51.38006400000000,PI/000064743,190,environmental.health@thanet.gov.uk,Thanet,http://www.thanet.gov.uk,1.35460600000000,CT9 5JW,2014-04-10,fhrs_5_en-GB,5,,FHRS,0
261890,3-4 Cecil Street,Margate,Kent,,Costcutter,Retailers - other,4613,0,,664405,0,,51.38735800000000,PI/000102013,190,environmental.health@thanet.gov.uk,Thanet,http://www.thanet.gov.uk,1.38275700000000,CT9 1NX,2014-05-09,fhrs_5_en-GB,5,,FHRS,0
261891,74-76 King Street,Ramsgate,Kent,,Costcutter,Retailers - other,4613,0,,608311,0,,51.33542000000000,PI/000066061,190,environmental.health@thanet.gov.uk,Thanet,http://www.thanet.gov.uk,1.42143500000000,CT11 8NY,2013-09-30,fhrs_5_en-GB,5,,FHRS,0
261892,Cost Cutters,41-43 Northdown Road,Margate,Kent,Costcutter,Retailers - other,4613,0,,658612,0,,51.39003400000000,PI/000102093,190,environmental.health@thanet.gov.uk,Thanet,http://www.thanet.gov.uk,1.38945300000000,CT9 2RN,2014-04-29,fhrs_5_en-GB,5,,FHRS,0
261893,67-69 Station Road,Birchington,Kent,,Courts Pharmacy,Retailers - other,4613,,,608211,,,51.37609300000000,PI/000020590,190,environmental.health@thanet.gov.uk,Thanet,http://www.thanet.gov.uk,1.30447100000000,CT7 9RE,2013-09-17,fhrs_exempt_en-GB,Exempt,,FHRS,
261894,8 Grange Road,Ramsgate,Kent,,Courts Pharmacy,Retailers - other,4613,,,608200,,,51.33165000000000,PI/000018709,190,environmental.health@thanet.gov.uk,Thanet,http://www.thanet.gov.uk,1.40669400000000,CT11 9LR,2013-10-04,fhrs_exempt_en-GB,Exempt,,FHRS,
261895,139 High Street,Broadstairs,Kent,,Cramptons,Pub/bar/nightclub,7843,0,,584498,0,,51.35993200000000,PI/000016255,190,environmental.health@thanet.gov.uk,Thanet,http://www.thanet.gov.uk,1.43434000000000,CT10 1NG,2013-08-20,fhrs_5_en-GB,5,,FHRS,5
261896,14 Chapman Fields,Ramsgate,Kent,,Creative Foodie,Other catering premises,7841,0,,608324,0,,51.32951000000000,PI/000082700,190,environmental.health@thanet.gov.uk,Thanet,http://www.thanet.gov.uk,1.36936200000000,CT12 5LB,2014-10-21,fhrs_5_en-GB,5,,FHRS,0
261897,25-26 Fort Crescent,Margate,Kent,,Crescent  Victoria Hotel,Hotel/bed & breakfast/guest house,7842,0,,681901,0,,51.39142800000000,PI/000100517,190,environmental.health@thanet.gov.uk,Thanet,http://www.thanet.gov.uk,1.38636400000000,CT9 1HX,2014-06-25,fhrs_5_en-GB,5,,FHRS,0
261898,25 Crescent Road,Ramsgate,Kent,,Crescent Stores,Retailers - other,4613,20,,658469,10,,51.33347200000000,PI/000018305,190,environmental.health@thanet.gov.uk,Thanet,http://www.thanet.gov.uk,1.41053400000000,CT11 9QX,2014-03-03,fhrs_1_en-GB,1,,FHRS,15
261899,Ramsgate Road,Sarre,Birchington,Kent,Crown Inn,Pub/bar/nightclub,7843,0,,637592,0,,51.33904100000000,PI/000007280,190,environmental.health@thanet.gov.uk,Thanet,http://www.thanet.gov.uk,1.24150300000000,CT7 0LF,2014-02-11,fhrs_5_en-GB,5,,FHRS,0
261900,5 Harbour Street,Ramsgate,Kent,,Crusties,Retailers - other,4613,0,,658581,0,,51.33308000000000,PI/000098701,190,environmental.health@thanet.gov.uk,Thanet,http://www.thanet.gov.uk,1.42027000000000,CT11 8HA,2014-06-06,fhrs_5_en-GB,5,,FHRS,5
261901,39 High Street,Broadstairs,Kent,,Crusties Bakery,Retailers - other,4613,0,,620173,0,,51.35872900000000,PI/000077292,190,environmental.health@thanet.gov.uk,Thanet,http://www.thanet.gov.uk,1.43976700000000,CT10 1JR,2013-11-25,fhrs_5_en-GB,5,,FHRS,5
261902,Invicta Produce Ltd,Invicta Way,Manston Park,Ramsgate,Crusties Bakery Ltd,Manufacturers/packers,7839,10,,731340,10,,51.35040500000000,PI/000097618,190,environmental.health@thanet.gov.uk,Thanet,http://www.thanet.gov.uk,1.32027500000000,CT12 5FD,2015-01-14,fhrs_3_en-GB,3,,FHRS,10
261903,Cummins Power Generation Ltd,Columbus Avenue,Manston Park,Ramsgate,Cummins Power Generation,Restaurant/Cafe/Canteen,1,0,,637731,0,,51.35307800000000,PI/000087326,190,environmental.health@thanet.gov.uk,Thanet,http://www.thanet.gov.uk,1.32181900000000,CT12 5BF,2014-02-05,fhrs_5_en-GB,5,,FHRS,0
261904,,,,,Cup Cake Katies,Other catering premises,7841,0,,555384,0,,,PI/000048108,190,environmental.health@thanet.gov.uk,Thanet,http://www.thanet.gov.uk,,,2013-04-30,fhrs_5_en-GB,5,,FHRS,0
261905,,,,,Curly Top Ices,Retailers - other,4613,0,,664407,0,,,PI/000102530,190,environmental.health@thanet.gov.uk,Thanet,http://www.thanet.gov.uk,,,2014-05-23,fhrs_5_en-GB,5,,FHRS,0
261906,Police Station,Fort Hill,Margate,Kent,Custody Kitchen,Restaurant/Cafe/Canteen,1,,,658504,,,51.39137900000000,PI/000036005,190,environmental.health@thanet.gov.uk,Thanet,http://www.thanet.gov.uk,1.38433300000000,CT9 1HL,2014-04-07,fhrs_exempt_en-GB,Exempt,,FHRS,
261907,Asda Stores Limited,Westwood Road,Broadstairs,Kent,Customer Restaurant,Restaurant/Cafe/Canteen,1,0,,620150,0,,51.36081700000000,PI/000033012,190,environmental.health@thanet.gov.uk,Thanet,http://www.thanet.gov.uk,1.41424800000000,CT10 2AL,2013-11-07,fhrs_5_en-GB,5,,FHRS,5
261908,168 High Street,Broadstairs,Kent,,Daa's Thai Diner,Restaurant/Cafe/Canteen,1,10,,455640,10,,51.36011800000000,PI/000089652,190,environmental.health@thanet.gov.uk,Thanet,http://www.thanet.gov.uk,1.43505800000000,CT10 1JA,2014-03-25,fhrs_3_en-GB,3,,FHRS,10
261909,66 St Mildreds Road,Westgate On Sea,Kent,,Dadds Butchers,Retailers - other,4613,10,,637723,10,,51.38210900000000,PI/000080643,190,environmental.health@thanet.gov.uk,Thanet,http://www.thanet.gov.uk,1.33717600000000,CT8 8RF,2014-02-18,fhrs_3_en-GB,3,,FHRS,10
261910,4-6 Dalby Road,Margate,Kent,,Dalby Cafe,Restaurant/Cafe/Canteen,1,0,,608147,10,,51.38977900000000,PI/000002850,190,environmental.health@thanet.gov.uk,Thanet,http://www.thanet.gov.uk,1.39203600000000,CT9 2EX,2013-09-05,fhrs_2_en-GB,2,,FHRS,15
261911,Newington Road,Ramsgate,Kent,,Dame Janet County Infant School,School/college/university,7845,0,,624988,0,,51.34971500000000,PI/000030239,190,environmental.health@thanet.gov.uk,Thanet,http://www.thanet.gov.uk,1.39918700000000,CT12 6PR,2014-01-09,fhrs_5_en-GB,5,,FHRS,0
261912,Newington Road,Ramsgate,Kent,,Dame Janet County Primary Junior School,School/college/university,7845,0,,624989,0,,51.35093500000000,PI/000030241,190,environmental.health@thanet.gov.uk,Thanet,http://www.thanet.gov.uk,1.40021100000000,CT12 6QY,2014-01-09,fhrs_5_en-GB,5,,FHRS,0
261913,Broadstairs Road,Broadstairs,Kent,,Dane Court Grammar School,School/college/university,7845,0,,620124,0,,51.36094400000000,PI/000015714,190,environmental.health@thanet.gov.uk,Thanet,http://www.thanet.gov.uk,1.41852500000000,CT10 2RT,2013-11-20,fhrs_5_en-GB,5,,FHRS,0
261914,52 Dane Valley Road,Margate,Kent,,Dane Valley Fish Bar,Takeaway/sandwich shop,7844,5,,658602,5,,51.37936200000000,PI/000101370,190,environmental.health@thanet.gov.uk,Thanet,http://www.thanet.gov.uk,1.40045000000000,CT9 3RX,2014-02-26,fhrs_5_en-GB,5,,FHRS,0
261915,,,,,Dashwood House,Hotel/bed & breakfast/guest house,7842,0,,716489,0,,,PI/000049313,190,environmental.health@thanet.gov.uk,Thanet,http://www.thanet.gov.uk,,,2014-11-05,fhrs_5_en-GB,5,,FHRS,0
261916,109-111 Northdown Road,Margate,Kent,,Days Supermarket,Retailers - other,4613,,,620157,,,51.38840100000000,PI/000039504,190,environmental.health@thanet.gov.uk,Thanet,http://www.thanet.gov.uk,1.39554300000000,CT9 2QY,2013-11-29,fhrs_exempt_en-GB,Exempt,,FHRS,
261917,,,,,Deanos Ices Reg PFH 518L,Mobile caterer,7846,0,,430103,0,,,PI/000099100,190,environmental.health@thanet.gov.uk,Thanet,http://www.thanet.gov.uk,,,2014-05-08,fhrs_5_en-GB,5,,FHRS,0
261918,,,,,Deanos Ices Reg. A309 CRB,Mobile caterer,7846,0,,430086,0,,,PI/000030272,190,environmental.health@thanet.gov.uk,Thanet,http://www.thanet.gov.uk,,,2014-05-08,fhrs_5_en-GB,5,,FHRS,0
261919,19 Westwood Cross,Margate Road,Broadstairs,Kent,Debenhams Cafe,Restaurant/Cafe/Canteen,1,0,,620209,0,,51.35950300000000,PI/000101913,190,environmental.health@thanet.gov.uk,Thanet,http://www.thanet.gov.uk,1.39292900000000,CT10 2BF,2013-10-01,fhrs_5_en-GB,5,,FHRS,0
261920,Tesco Extra,475 Margate Road,Broadstairs,Kent,Decks Restaurant,Restaurant/Cafe/Canteen,1,0,,637817,0,,51.35892800000000,PI/000101914,190,environmental.health@thanet.gov.uk,Thanet,http://www.thanet.gov.uk,1.40002700000000,CT10 2QJ,2014-02-27,fhrs_5_en-GB,5,,FHRS,0
261921,24 High Street,St Lawrence,Ramsgate,Kent,Delicious Fish Bar,Takeaway/sandwich shop,7844,10,,637583,0,,51.33782200000000,PI/000005768,190,environmental.health@thanet.gov.uk,Thanet,http://www.thanet.gov.uk,1.40262900000000,CT11 0QH,2014-01-11,fhrs_4_en-GB,4,,FHRS,10
261922,72 Margate Road,Ramsgate,Kent,,Derby Arms,Pub/bar/nightclub,7843,0,,637784,0,,51.34160500000000,PI/000099388,190,environmental.health@thanet.gov.uk,Thanet,http://www.thanet.gov.uk,1.41109500000000,CT11 7SG,2014-01-21,fhrs_5_en-GB,5,,FHRS,0
261923,Quex House And Gardens,Quex Park,Birchington,Kent,Dinnerservice & Mama Feelgoods,Restaurant/Cafe/Canteen,1,0,,464767,0,,51.36675600000000,PI/000098822,190,environmental.health@thanet.gov.uk,Thanet,http://www.thanet.gov.uk,1.31625700000000,CT7 0BH,2014-11-14,fhrs_5_en-GB,5,,FHRS,0
261924,81 Upper Dane Road,Margate,Kent,,Dolphin Fish Bar,Takeaway/sandwich shop,7844,10,,731342,0,,51.38141100000000,PI/000103369,190,environmental.health@thanet.gov.uk,Thanet,http://www.thanet.gov.uk,1.39866200000000,CT9 2LZ,2015-01-08,fhrs_4_en-GB,4,,FHRS,0
261925,48 Dane Valley Road,Margate,Kent,,Domingos,Retailers - other,4613,,,608374,,,51.37936200000000,PI/000098684,190,environmental.health@thanet.gov.uk,Thanet,http://www.thanet.gov.uk,1.40045000000000,CT9 3RX,2013-10-10,fhrs_exempt_en-GB,Exempt,,FHRS,
261926,2-4 Cowley Rise,Margate,Kent,,Domingo's Stores,Retailers - other,4613,0,,658477,0,,51.37590300000000,PI/000021861,190,environmental.health@thanet.gov.uk,Thanet,http://www.thanet.gov.uk,1.40804100000000,CT9 3XL,2014-04-10,fhrs_5_en-GB,5,,FHRS,0
261927,20 High Street,Margate,Kent,,Domino's Pizza,Takeaway/sandwich shop,7844,0,,700018,0,,51.38886200000000,PI/000101903,190,environmental.health@thanet.gov.uk,Thanet,http://www.thanet.gov.uk,1.37992000000000,CT9 1DS,2014-01-29,fhrs_5_en-GB,5,,FHRS,0
261928,27 High Street,St Lawrence,Ramsgate,Kent,Domino's Pizza,Takeaway/sandwich shop,7844,0,,370775,0,,51.33704300000000,PI/000082300,190,environmental.health@thanet.gov.uk,Thanet,http://www.thanet.gov.uk,1.40125000000000,CT11 0QW,2014-07-09,fhrs_5_en-GB,5,,FHRS,0
261929,46 Canterbury Road,Margate,Kent,,Dot's Cafe,Retailers - other,4613,0,,555385,0,,51.38433000000000,PI/000056936,190,environmental.health@thanet.gov.uk,Thanet,http://www.thanet.gov.uk,1.36580000000000,CT9 5BG,2014-04-03,fhrs_5_en-GB,5,,FHRS,0
261930,2 Monkton Road,Minster,Ramsgate,Kent,Dragon Inn,Takeaway/sandwich shop,7844,10,,568374,10,,51.33457500000000,PI/000040926,190,environmental.health@thanet.gov.uk,Thanet,http://www.thanet.gov.uk,1.31327200000000,CT12 4EA,2014-09-24,fhrs_3_en-GB,3,,FHRS,10
261931,St Peters Footpath,Margate,Kent,,Drapers Mill County Primary School,School/college/university,7845,0,,658482,0,,51.37927100000000,PI/000024933,190,environmental.health@thanet.gov.uk,Thanet,http://www.thanet.gov.uk,1.39367300000000,CT9 2SP,2014-04-24,fhrs_5_en-GB,5,,FHRS,5
261932,Unit 5,Old Timber Yard Industrial Estate,Manston Road,Ramsgate,Drink Warehouse UK Ltd,Retailers - other,4613,,,681895,,,51.33973900000000,PI/000040826,190,environmental.health@thanet.gov.uk,Thanet,http://www.thanet.gov.uk,1.38739000000000,CT12 6HJ,2014-06-19,fhrs_exempt_en-GB,Exempt,,FHRS,
261933,11 Western Esplanade,Broadstairs,Kent,,Dumpton Lodge,Hospitals/Childcare/Caring Premises,5,0,,448876,0,,51.35181100000000,PI/000057613,190,environmental.health@thanet.gov.uk,Thanet,http://www.thanet.gov.uk,1.44104400000000,CT10 1TG,2014-03-14,fhrs_5_en-GB,5,,FHRS,5
261934,193 Ramsgate Road,Broadstairs,Kent,,Dumpton Park Garage,Retailers - other,4613,,,620169,,,51.34989400000000,PI/000066358,190,environmental.health@thanet.gov.uk,Thanet,http://www.thanet.gov.uk,1.42728300000000,CT10 2EW,2013-11-26,fhrs_exempt_en-GB,Exempt,,FHRS,
261935,Best One,210 Ramsgate Road,Broadstairs,Kent,Dumpton Post Office,Retailers - other,4613,0,,608363,0,,51.34989400000000,PI/000097102,190,environmental.health@thanet.gov.uk,Thanet,http://www.thanet.gov.uk,1.42728300000000,CT10 2EW,2013-09-20,fhrs_5_en-GB,5,,FHRS,0
261936,Unit C,Westwood Retail Park,Westwood Road,Broadstairs,Dunelm Mill,Restaurant/Cafe/Canteen,1,0,,637672,0,,51.36215200000000,PI/000039102,190,environmental.health@thanet.gov.uk,Thanet,http://www.thanet.gov.uk,1.39587000000000,CT10 2FG,2014-01-31,fhrs_5_en-GB,5,,FHRS,0
261937,157 Grange Road,Ramsgate,Kent,,Dunwell's Newsagent,Retailers - other,4613,0,,608199,0,,51.33642400000000,PI/000018588,190,environmental.health@thanet.gov.uk,Thanet,http://www.thanet.gov.uk,1.40492300000000,CT11 9PR,2013-09-19,fhrs_5_en-GB,5,,FHRS,0
261938,Durlock,Minster,Ramsgate,Kent,Durlock Lodge,Hotel/bed & breakfast/guest house,7842,0,,608175,0,,51.33099000000000,PI/000013678,190,environmental.health@thanet.gov.uk,Thanet,http://www.thanet.gov.uk,1.32073800000000,CT12 4HD,2013-09-02,fhrs_5_en-GB,5,,FHRS,0
261939,141 Northdown Road,Margate,Kent,,DWG Meat & Pies,Retailers - other,4613,0,,455642,0,,51.38840100000000,PI/000098223,190,environmental.health@thanet.gov.uk,Thanet,http://www.thanet.gov.uk,1.39554300000000,CT9 2QY,2014-05-27,fhrs_5_en-GB,5,,FHRS,5
261940,99-101 King Street,Ramsgate,Kent,,Earl St Vincent,Pub/bar/nightclub,7843,0,,620200,0,,51.33578800000000,PI/000100706,190,environmental.health@thanet.gov.uk,Thanet,http://www.thanet.gov.uk,1.42209400000000,CT11 8NZ,2013-12-10,fhrs_5_en-GB,5,,FHRS,0
261941,4 Eastern Esplanade,Broadstairs,Kent,,East Horndon Hotel,Hotel/bed & breakfast/guest house,7842,0,,620192,0,,51.36120700000000,PI/000097613,190,environmental.health@thanet.gov.uk,Thanet,http://www.thanet.gov.uk,1.44482400000000,CT10 1DP,2013-11-20,fhrs_5_en-GB,5,,FHRS,0
261942,27 Chatham Street,Ramsgate,Kent,,East Kent Arms,Pub/bar/nightclub,7843,0,,608395,0,,51.33808400000000,PI/000101397,190,environmental.health@thanet.gov.uk,Thanet,http://www.thanet.gov.uk,1.41525700000000,CT11 7QA,2013-10-04,fhrs_5_en-GB,5,,FHRS,0
261943,Ramsgate Road,Broadstairs,Kent,,East Kent College,School/college/university,7845,10,,700007,0,,51.35417400000000,PI/000007179,190,environmental.health@thanet.gov.uk,Thanet,http://www.thanet.gov.uk,1.43501500000000,CT10 1PN,2014-07-24,fhrs_4_en-GB,4,,FHRS,0
261944,Eastern Tandori,1 The Square,Birchington,Kent,Eastern Eye Tandoori,Takeaway/sandwich shop,7844,20,,658562,0,,51.37370000000000,PI/000090435,190,environmental.health@thanet.gov.uk,Thanet,http://www.thanet.gov.uk,1.30736000000000,CT7 9AE,2014-03-10,fhrs_1_en-GB,1,,FHRS,5
261945,28 Augusta Road,Ramsgate,Kent,,Eastwood Guest House,Hotel/bed & breakfast/guest house,7842,20,,658535,10,,51.33521600000000,PI/000072667,190,environmental.health@thanet.gov.uk,Thanet,http://www.thanet.gov.uk,1.42564100000000,CT11 8JS,2014-03-03,fhrs_1_en-GB,1,,FHRS,10
261946,88 Northdown Road,Margate,Kent,,Eata Pizza,Takeaway/sandwich shop,7844,0,,464770,0,,51.38935500000000,PI/000099163,190,environmental.health@thanet.gov.uk,Thanet,http://www.thanet.gov.uk,1.39145800000000,CT9 2RE,2014-06-05,fhrs_5_en-GB,5,,FHRS,0
261947,62 Westgate Bay Avenue,Westgate On Sea,Kent,,Eaton Lodge,Hospitals/Childcare/Caring Premises,5,0,,464753,0,,51.38316600000000,PI/000047454,190,environmental.health@thanet.gov.uk,Thanet,http://www.thanet.gov.uk,1.33828800000000,CT8 8SN,2014-04-03,fhrs_5_en-GB,5,,FHRS,0
261948,4 Biddenden Close,Margate,Kent,,Eazee Seasoning,Other catering premises,7841,0,,658476,0,,51.38119500000000,PI/000021362,190,environmental.health@thanet.gov.uk,Thanet,http://www.thanet.gov.uk,1.40671000000000,CT9 3RD,2014-03-25,fhrs_5_en-GB,5,,FHRS,0
261949,290 Northdown Road,Margate,Kent,,Eddy's Fried Chicken Kebab,Takeaway/sandwich shop,7844,,,464773,,,51.38670500000000,PI/000101028,190,environmental.health@thanet.gov.uk,Thanet,http://www.thanet.gov.uk,1.40096600000000,CT9 2PT,2013-05-01,fhrs_5_en-GB,5,,FHRS,
261950,79-81 High Street,Margate,Kent,,Edinburgh Woollen Mill,Retailers - other,4613,,,608346,,,51.38712500000000,PI/000089775,190,environmental.health@thanet.gov.uk,Thanet,http://www.thanet.gov.uk,1.38120100000000,CT9 1JL,2013-09-19,fhrs_exempt_en-GB,Exempt,,FHRS,
261951,51-53 Station Road,Westgate On Sea,Kent,,Edward's,Retailers - other,4613,,,620185,,,51.38161200000000,PI/000089622,190,environmental.health@thanet.gov.uk,Thanet,http://www.thanet.gov.uk,1.33790100000000,CT8 8QY,2013-11-22,fhrs_exempt_en-GB,Exempt,,FHRS,
261952,The Shell Grotto,Grotto Hill,Margate,Kent,Eighth Wonder Cafe,Restaurant/Cafe/Canteen,1,0,,608352,0,,51.38817800000000,PI/000092311,190,environmental.health@thanet.gov.uk,Thanet,http://www.thanet.gov.uk,1.38986200000000,CT9 2BU,2013-09-25,fhrs_5_en-GB,5,,FHRS,0
261953,8 Hereson Road,Ramsgate,Kent,,Elephant and Castle,Pub/bar/nightclub,7843,0,,637810,0,,51.33816400000000,PI/000101516,190,environmental.health@thanet.gov.uk,Thanet,http://www.thanet.gov.uk,1.42359200000000,CT11 7DP,2014-03-04,fhrs_5_en-GB,5,,FHRS,0
261954,Tesco Stores Ltd,Manston Road,Ramsgate,Kent,Elior UK - Public Resturant,Restaurant/Cafe/Canteen,1,0,,448848,0,,51.34074200000000,PI/000008078,190,environmental.health@thanet.gov.uk,Thanet,http://www.thanet.gov.uk,1.38724800000000,CT12 6NT,2014-08-06,fhrs_4_en-GB,4,,FHRS,10
261955,64 Edgar Road,Margate,Kent,,Elizabeth Anne Nursing Home,Hospitals/Childcare/Caring Premises,5,5,,584516,0,,51.39045400000000,PI/000056204,190,environmental.health@thanet.gov.uk,Thanet,http://www.thanet.gov.uk,1.39358100000000,CT9 2EQ,2013-09-03,fhrs_5_en-GB,5,,FHRS,5
261956,High Street,St Lawrence,Ramsgate,Kent,Ellington County Primary School,School/college/university,7845,0,,265625,0,,51.33782200000000,PI/000005803,190,environmental.health@thanet.gov.uk,Thanet,http://www.thanet.gov.uk,1.40262900000000,CT11 0QH,2014-03-05,fhrs_5_en-GB,5,,FHRS,0
261957,62 Harbour Parade,Ramsgate,Kent,,Enoteca,Restaurant/Cafe/Canteen,1,5,,568370,0,,51.33238600000000,PI/000018817,190,environmental.health@thanet.gov.uk,Thanet,http://www.thanet.gov.uk,1.42152500000000,CT11 8LN,2013-06-20,fhrs_5_en-GB,5,,FHRS,5
261958,Old Priory School,Priory Road,Ramsgate,Kent,Ethelbert Childrens Services,School/college/university,7845,0,,637597,0,,51.32982900000000,PI/000009088,190,environmental.health@thanet.gov.uk,Thanet,http://www.thanet.gov.uk,1.41208700000000,CT11 9PG,2014-06-05,fhrs_5_en-GB,5,,FHRS,0
261959,2-3 Ethelbert Terrace,Westgate On Sea,Kent,,Ethelbert Homes,Hospitals/Childcare/Caring Premises,5,0,,637598,0,,51.38195700000000,PI/000009340,190,environmental.health@thanet.gov.uk,Thanet,http://www.thanet.gov.uk,1.33936400000000,CT8 8ST,2014-03-04,fhrs_5_en-GB,5,,FHRS,0
261960,Addington Street,Margate,Kent,,Everybodys Inn,Pub/bar/nightclub,7843,0,,637573,0,,51.38594200000000,PI/000000249,190,environmental.health@thanet.gov.uk,Thanet,http://www.thanet.gov.uk,1.38384500000000,CT9 1PN,2014-02-13,fhrs_5_en-GB,5,,FHRS,0
261961,Priory Childrens Centre,Cannon Road,Ramsgate,Kent,Explorers,Hospitals/Childcare/Caring Premises,5,0,,537311,0,,51.33599700000000,PI/000090363,190,environmental.health@thanet.gov.uk,Thanet,http://www.thanet.gov.uk,1.41431200000000,CT11 9SQ,2014-11-11,fhrs_5_en-GB,5,,FHRS,0
261962,Tothill Street,Minster,Ramsgate,Kent,Express By Holiday Inn,Hotel/bed & breakfast/guest house,7842,0,,537310,0,,51.34300600000000,PI/000087925,190,environmental.health@thanet.gov.uk,Thanet,http://www.thanet.gov.uk,1.31793100000000,CT12 4AY,2013-04-10,fhrs_5_en-GB,5,,FHRS,5
261963,208 Northdown Road,Margate,Kent,,Express Kebab,Takeaway/sandwich shop,7844,0,,265627,0,,51.38776600000000,PI/000102157,190,environmental.health@thanet.gov.uk,Thanet,http://www.thanet.gov.uk,1.39664600000000,CT9 2QU,2014-03-26,fhrs_5_en-GB,5,,FHRS,5
261964,Fairfield Manor Care Centre,Fairfield Road,Broadstairs,Kent,Fairfield Manor,Hospitals/Childcare/Caring Premises,5,0,,575964,0,,51.35985900000000,PI/000041947,190,environmental.health@thanet.gov.uk,Thanet,http://www.thanet.gov.uk,1.41873100000000,CT10 2JY,2014-05-27,fhrs_5_en-GB,5,,FHRS,5
261965,Stonelees Golf Course,Ebbsfleet Lane,Ramsgate,Kent,Fairways Kitchen,Restaurant/Cafe/Canteen,1,10,,658619,0,,51.31444100000000,PI/000102401,190,environmental.health@thanet.gov.uk,Thanet,http://www.thanet.gov.uk,1.35064600000000,CT12 5DJ,2014-09-18,fhrs_4_en-GB,4,,FHRS,0
261966,,,,,Fairy Cake Artist,Other catering premises,7841,5,,637574,0,,,PI/000000293,190,environmental.health@thanet.gov.uk,Thanet,http://www.thanet.gov.uk,,,2014-02-27,fhrs_5_en-GB,5,,FHRS,5
261967,,,,,Fairybake,Other catering premises,7841,0,,537298,0,,,PI/000018524,190,environmental.health@thanet.gov.uk,Thanet,http://www.thanet.gov.uk,,,2013-03-27,fhrs_5_en-GB,5,,FHRS,0
261968,2 Richborough Close,Margate,Kent,,Farm Foods Ltd,Retailers - other,4613,0,,726594,0,,51.36406500000000,PI/000103309,190,environmental.health@thanet.gov.uk,Thanet,http://www.thanet.gov.uk,1.39318000000000,CT9 4EA,2014-12-18,fhrs_5_en-GB,5,,FHRS,0
261969,Nash Farm,Nash Road,Margate,Kent,Farm Shop,Retailers - other,4613,0,,620108,0,,51.36427100000000,PI/000004009,190,environmental.health@thanet.gov.uk,Thanet,http://www.thanet.gov.uk,1.38918700000000,CT9 4LB,2013-12-02,fhrs_5_en-GB,5,,FHRS,0
261970,4A Broad Street,Ramsgate,Kent,,Fa's Diner,Restaurant/Cafe/Canteen,1,0,,537302,0,,51.33433300000000,PI/000034690,190,environmental.health@thanet.gov.uk,Thanet,http://www.thanet.gov.uk,1.41987500000000,CT11 8NQ,2013-03-11,fhrs_5_en-GB,5,,FHRS,0
261971,160 Margate Road,Ramsgate,Kent,,Fegans Drop in Day Centre,Hospitals/Childcare/Caring Premises,5,0,,409737,0,,51.34530500000000,PI/000029679,190,environmental.health@thanet.gov.uk,Thanet,http://www.thanet.gov.uk,1.40792300000000,CT12 6AA,2014-03-17,fhrs_5_en-GB,5,,FHRS,0
261972,76 Station Road,Birchington,Kent,,Ferris Pharmacy,Retailers - other,4613,,,608212,,,51.37586800000000,PI/000020597,190,environmental.health@thanet.gov.uk,Thanet,http://www.thanet.gov.uk,1.30382300000000,CT7 9RA,2013-09-27,fhrs_exempt_en-GB,Exempt,,FHRS,
261973,72 High Street,Minster,Ramsgate,Kent,Field Pharmacy,Retailers - other,4613,,,608300,,,51.33441200000000,PI/000063359,190,environmental.health@thanet.gov.uk,Thanet,http://www.thanet.gov.uk,1.31426500000000,CT12 4AD,2013-09-25,fhrs_exempt_en-GB,Exempt,,FHRS,
261974,Fillers Sandwich Bar,Elms Avenue,Ramsgate,Kent,Fillers,Restaurant/Cafe/Canteen,1,0,,352201,0,,51.33266500000000,PI/000064574,190,environmental.health@thanet.gov.uk,Thanet,http://www.thanet.gov.uk,1.41475300000000,CT11 9BD,2012-04-10,fhrs_5_en-GB,5,,FHRS,0
261975,25-29 Thanet Road,Margate,Kent,,First Steps Nursery,Hospitals/Childcare/Caring Premises,5,0,,658450,0,,51.38616800000000,PI/000004670,190,environmental.health@thanet.gov.uk,Thanet,http://www.thanet.gov.uk,1.38971300000000,CT9 1UB,2014-03-17,fhrs_5_en-GB,5,,FHRS,5
261976,55 High Street,Broadstairs,Kent,,Fish Inn Ltd,Takeaway/sandwich shop,7844,0,,637790,0,,51.35896000000000,PI/000100026,190,environmental.health@thanet.gov.uk,Thanet,http://www.thanet.gov.uk,1.43896600000000,CT10 1JL,2014-01-20,fhrs_5_en-GB,5,,FHRS,5
261977,Shop,64 Ramsgate Road,Margate,Kent,Flaming Wok,Takeaway/sandwich shop,7844,10,,608393,0,,51.37941800000000,PI/000101327,190,environmental.health@thanet.gov.uk,Thanet,http://www.thanet.gov.uk,1.38391000000000,CT9 5RY,2014-11-06,fhrs_4_en-GB,4,,FHRS,0
261978,2 Effingham Street,Ramsgate,Kent,,Flavours By Kumar,Restaurant/Cafe/Canteen,1,0,,637815,0,,51.33351000000000,PI/000101865,190,environmental.health@thanet.gov.uk,Thanet,http://www.thanet.gov.uk,1.41694100000000,CT11 9AT,2014-01-24,fhrs_5_en-GB,5,,FHRS,5
261979,Chapel Road,Ramsgate,Kent,,Fledglings Nursery School,Hospitals/Childcare/Caring Premises,5,10,,637648,0,,51.33662700000000,PI/000027765,190,environmental.health@thanet.gov.uk,Thanet,http://www.thanet.gov.uk,1.40287000000000,CT11 0BS,2014-06-10,fhrs_4_en-GB,4,,FHRS,0
261980,50 Park Road,Ramsgate,Kent,,Flying Horse,Pub/bar/nightclub,7843,5,,352181,5,,51.33806000000000,PI/000010881,190,environmental.health@thanet.gov.uk,Thanet,http://www.thanet.gov.uk,1.40620800000000,CT11 9TJ,2014-03-11,fhrs_4_en-GB,4,,FHRS,10
261981,48 Boundary Road,Ramsgate,Kent,,Foresters Arms,Pub/bar/nightclub,7843,0,,448881,0,,51.33813800000000,PI/000081357,190,environmental.health@thanet.gov.uk,Thanet,http://www.thanet.gov.uk,1.41803300000000,CT11 7NW,2012-08-31,fhrs_5_en-GB,5,,FHRS,0
261982,8 Cliff Terrace,Margate,Kent,,Fort's Cafe,Restaurant/Cafe/Canteen,1,0,,658572,0,,51.39186500000000,PI/000097542,190,environmental.health@thanet.gov.uk,Thanet,http://www.thanet.gov.uk,1.38958800000000,CT9 1RU,2014-03-08,fhrs_5_en-GB,5,,FHRS,0
261983,77 Hereson Road,Ramsgate,Kent,,Fortune Meadow,Takeaway/sandwich shop,7844,0,,448884,0,,51.33978800000000,PI/000089616,190,environmental.health@thanet.gov.uk,Thanet,http://www.thanet.gov.uk,1.42496300000000,CT11 7DS,2014-03-20,fhrs_5_en-GB,5,,FHRS,0
261984,28 Fosters Avenue,Broadstairs,Kent,,Fosters,Retailers - other,4613,0,,608258,0,,51.37295200000000,PI/000032260,190,environmental.health@thanet.gov.uk,Thanet,http://www.thanet.gov.uk,1.42101500000000,CT10 3HJ,2013-09-27,fhrs_5_en-GB,5,,FHRS,0
261985,Four Winds Care Home,Victoria Parade,Ramsgate,Kent,Four Winds,Hospitals/Childcare/Caring Premises,5,0,,537317,0,,51.33832800000000,PI/000098131,190,environmental.health@thanet.gov.uk,Thanet,http://www.thanet.gov.uk,1.43088600000000,CT11 8EB,2014-11-17,fhrs_5_en-GB,5,,FHRS,0
261986,Foxhunter Supermarket,Foxhunter Residential Caravan Park,Monkton Street,Ramsgate,Foxy's,Retailers - other,4613,,,658541,,,51.33696600000000,PI/000080344,190,environmental.health@thanet.gov.uk,Thanet,http://www.thanet.gov.uk,1.28301500000000,CT12 4JG,2014-04-09,fhrs_exempt_en-GB,Exempt,,FHRS,
261987,50 Westwood Cross,Margate Road,Broadstairs,Kent,Frankie & Benny's,Restaurant/Cafe/Canteen,1,0,,637737,0,,51.35950300000000,PI/000088771,190,environmental.health@thanet.gov.uk,Thanet,http://www.thanet.gov.uk,1.39292900000000,CT10 2BF,2014-01-21,fhrs_4_en-GB,4,,FHRS,10
261988,5A-5B Station Road,Westgate On Sea,Kent,,Frankie B's,Restaurant/Cafe/Canteen,1,5,,637797,0,,51.38171700000000,PI/000100404,190,environmental.health@thanet.gov.uk,Thanet,http://www.thanet.gov.uk,1.33987800000000,CT8 8RB,2014-02-04,fhrs_5_en-GB,5,,FHRS,0
261989,6 Ingleton Court,75 Sea Road,Westgate On Sea,Kent,Frankies,Retailers - other,4613,0,,716493,0,,51.38271000000000,PI/000066605,190,environmental.health@thanet.gov.uk,Thanet,http://www.thanet.gov.uk,1.33343900000000,CT8 8QG,2014-09-25,fhrs_0_en-GB,0,,FHRS,25
261990,Town Hall Buildings,31 St Mildreds Road,Westgate On Sea,Kent,Fredericks Cafe,Restaurant/Cafe/Canteen,1,0,,510251,0,,51.38210600000000,PI/000099434,190,environmental.health@thanet.gov.uk,Thanet,http://www.thanet.gov.uk,1.33664400000000,CT8 8RE,2014-11-12,fhrs_5_en-GB,5,,FHRS,0
261991,28 Cambourne Avenue,Westgate On Sea,Kent,,Friendly House Chinese Takeaway,Takeaway/sandwich shop,7844,20,,658485,5,,51.37729100000000,PI/000025890,190,environmental.health@thanet.gov.uk,Thanet,http://www.thanet.gov.uk,1.33107600000000,CT8 8NA,2014-03-27,fhrs_1_en-GB,1,,FHRS,10
261992,St James Church,Canterbury Road,Margate,Kent,Friendship Club,Restaurant/Cafe/Canteen,1,0,,658454,0,,51.38630200000000,PI/000006942,190,environmental.health@thanet.gov.uk,Thanet,http://www.thanet.gov.uk,1.37135100000000,CT9 5AQ,2014-04-24,fhrs_5_en-GB,5,,FHRS,0
261993,10 The Broadway,Broadstairs,Kent,,Fruits De Mer,Retailers - other,4613,0,,637717,5,,51.36013400000000,PI/000076319,190,environmental.health@thanet.gov.uk,Thanet,http://www.thanet.gov.uk,1.43207100000000,CT10 2AD,2014-02-14,fhrs_5_en-GB,5,,FHRS,5
261994,21-22 Patricia Way,Pysons Road Industrial Estate,Broadstairs,Kent,Fujifilm Staff Canteen - Crusties,Restaurant/Cafe/Canteen,1,5,,637612,0,,51.35422900000000,PI/000016913,190,environmental.health@thanet.gov.uk,Thanet,http://www.thanet.gov.uk,1.41098500000000,CT10 2LE,2014-02-20,fhrs_5_en-GB,5,,FHRS,5
261995,47 Westwood Cross,Margate Road,Broadstairs,Kent,G Casino,Restaurant/Cafe/Canteen,1,0,,637742,0,,51.35950300000000,PI/000089267,190,environmental.health@thanet.gov.uk,Thanet,http://www.thanet.gov.uk,1.39292900000000,CT10 2BF,2014-01-21,fhrs_5_en-GB,5,,FHRS,5
261996,1 South Cliff Parade,Broadstairs,Kent,,Gap House Special School,School/college/university,7845,0,,637745,0,,51.34744600000000,PI/000089649,190,environmental.health@thanet.gov.uk,Thanet,http://www.thanet.gov.uk,1.43772900000000,CT10 1TJ,2014-01-22,fhrs_5_en-GB,5,,FHRS,0
261997,15 Summerfield Road,Margate,Kent,,Garam Masala,Takeaway/sandwich shop,7844,10,,608153,0,,51.38645800000000,PI/000004750,190,environmental.health@thanet.gov.uk,Thanet,http://www.thanet.gov.uk,1.42456800000000,CT9 3EZ,2013-10-10,fhrs_4_en-GB,4,,FHRS,10
261998,233 Canterbury Road,Margate,Kent,,Garlinge Convenience Store,Retailers - other,4613,0,,575969,0,,51.37961900000000,PI/000065420,190,environmental.health@thanet.gov.uk,Thanet,http://www.thanet.gov.uk,1.35411400000000,CT9 5JP,2014-11-28,fhrs_5_en-GB,5,,FHRS,5
