,addressline1,addressline2,addressline3,addressline4,businessname,businesstype,businesstypeid,confidenceinmanagement,extractdate,fhrsid,hygiene,itemcount,latitude,localauthoritybusinessid,localauthoritycode,localauthorityemailaddress,localauthorityname,localauthoritywebsite,longitude,postcode,ratingdate,ratingkey,ratingvalue,returncode,schemetype,structural
45444,Woodhouse Farm,Burbage Common Road,Elmesthorpe,Leicestershire,"""woodhouse Farm, Shop & Butchery""",Retailers - other,4613,5,,185359,5,,52.55421400000000,R161ELBURB/1,209,environmental.health@blaby.gov.uk,Blaby,http://www.blaby.gov.uk,-1.30828600000000,LE9 7SE,2014-12-09,fhrs_5_en-GB,5,,FHRS,5
45445,Scout Hut,Broughton Road,Stoney Stanton,Leicestershire,1st Stoney Stanton Scouts,Other catering premises,7841,,,155382,,,52.54616000000000,E201SSBROU/1,209,environmental.health@blaby.gov.uk,Blaby,http://www.blaby.gov.uk,-1.26951100000000,LE9 4JA,2014-05-02,fhrs_exempt_en-GB,Exempt,,FHRS,
45446,,Meridian Leisure Park,Braunstone Town,Leicestershire,360 Play (Leicester) Ltd,Restaurant/Cafe/Canteen,1,5,,528841,0,,,C061BRMERI/1,209,environmental.health@blaby.gov.uk,Blaby,http://www.blaby.gov.uk,,,2014-06-10,fhrs_5_en-GB,5,,FHRS,5
45447,,Stamford Street,Glenfield,Leicestershire,42nd Leic Scouts Group Scout Hut,Other catering premises,7841,,,155381,,,52.64820300000000,E201GLSTAM/1,209,environmental.health@blaby.gov.uk,Blaby,http://www.blaby.gov.uk,-1.20370800000000,LE3 8DL,2014-05-02,fhrs_exempt_en-GB,Exempt,,FHRS,
45448,,,,,A & J Mobile Catering,Mobile caterer,7846,5,,185355,5,,,R13GBR9WAR/1,209,environmental.health@blaby.gov.uk,Blaby,http://www.blaby.gov.uk,,,2014-05-02,fhrs_5_en-GB,5,,FHRS,5
45449,,Main Street,Kirby Muxloe,Leicestershire,A A Moore & Sons,Retailers - other,4613,5,,187359,5,,52.58568900000000,Z01*KMMAIN/1,209,environmental.health@blaby.gov.uk,Blaby,http://www.blaby.gov.uk,-1.27548900000000,LE9 9AL,2014-05-02,fhrs_5_en-GB,5,,FHRS,5
45450,,Meridian Way,Braunstone Town,Leicestershire,Aldi Stores Ltd.,Retailers - supermarkets/hypermarkets,7840,5,,185199,5,,52.61448200000000,R031BRMERI/1,209,environmental.health@blaby.gov.uk,Blaby,http://www.blaby.gov.uk,-1.19173600000000,LE19 1LW,2014-05-02,fhrs_5_en-GB,5,,FHRS,5
45451,Brackley Court,Welford Road,Blaby,Leicestershire,Aldi Stores Ltd.,Retailers - supermarkets/hypermarkets,7840,10,,185198,10,,,R031BLWELF/1,209,environmental.health@blaby.gov.uk,Blaby,http://www.blaby.gov.uk,,,2013-05-13,fhrs_3_en-GB,3,,FHRS,10
45452,Alexandra House,1 Narborough Road,Huncote,Leicestershire,Alexandra House,Hospitals/Childcare/Caring Premises,5,10,,517231,15,,52.57089700000000,T071HU1NAR/1,209,environmental.health@blaby.gov.uk,Blaby,http://www.blaby.gov.uk,-1.23491300000000,LE9 3AW,2014-02-17,fhrs_2_en-GB,2,,FHRS,5
45453,Church,Church Street,Sapcote,Leicestershire,All Saints Church,Other catering premises,7841,,,155403,,,52.53551400000000,E211SACHUR/1,209,environmental.health@blaby.gov.uk,Blaby,http://www.blaby.gov.uk,-1.28108400000000,LE9 4FG,2013-03-19,fhrs_exempt_en-GB,Exempt,,FHRS,
45454,,,,,Amy's Cakes,Other catering premises,7841,5,,152882,5,,,C10*THCROF/1,209,environmental.health@blaby.gov.uk,Blaby,http://www.blaby.gov.uk,,,2014-05-02,fhrs_5_en-GB,5,,FHRS,5
45455,,1 The Osiers,Braunstone Town,Leicestershire,Anchor Trust,Hospitals/Childcare/Caring Premises,5,5,,186009,0,,52.60496600000000,T071BR1THE/1,209,environmental.health@blaby.gov.uk,Blaby,http://www.blaby.gov.uk,-1.17928600000000,LE3 2XN,2014-03-31,fhrs_5_en-GB,5,,FHRS,0
45456,,11 Wardens Walk,Leicester Forest East,Leicestershire,Andy Kims Movie Zone,Retailers - other,4613,,,185632,,,52.62405900000000,S365BR11WA/1,209,environmental.health@blaby.gov.uk,Blaby,http://www.blaby.gov.uk,-1.20008300000000,LE3 3GF,2014-05-02,fhrs_exempt_en-GB,Exempt,,FHRS,
45457,,19 Leicester Road,Blaby,Leicestershire,Annie's Patisserie,Restaurant/Cafe/Canteen,1,10,,152469,10,,52.57660600000000,C061BL19LE/1,209,environmental.health@blaby.gov.uk,Blaby,http://www.blaby.gov.uk,-1.16311000000000,LE8 4GR,2014-03-17,fhrs_3_en-GB,3,,FHRS,10
45458,,76 Faire Road,Glenfield,Leicestershire,Aquarius Fish Bar,Takeaway/sandwich shop,7844,5,,185124,5,,52.65052100000000,R011GL76FA/2,209,environmental.health@blaby.gov.uk,Blaby,http://www.blaby.gov.uk,-1.19414600000000,LE3 8ED,2014-03-27,fhrs_5_en-GB,5,,FHRS,5
45459,Asda Stores Ltd,Narborough Road South,Braunstone Town,Leicestershire,Asda - Staff Canteen,Restaurant/Cafe/Canteen,1,5,,152120,5,,52.59994000000000,C02*ENNARB/2,209,environmental.health@blaby.gov.uk,Blaby,http://www.blaby.gov.uk,-1.17791800000000,LE3 2LL,2012-10-03,fhrs_5_en-GB,5,,FHRS,5
45460,Asda Stores Ltd,Narborough Road South,Braunstone Town,Leicestershire,Asda Cafe,Restaurant/Cafe/Canteen,1,5,,152461,0,,52.59994000000000,C06*ENNARB/1,209,environmental.health@blaby.gov.uk,Blaby,http://www.blaby.gov.uk,-1.17791800000000,LE3 2LL,2014-05-12,fhrs_5_en-GB,5,,FHRS,0
45461,,Narborough Road South,Braunstone Town,Leicestershire,Asda Stores Ltd,Retailers - supermarkets/hypermarkets,7840,5,,185219,5,,52.59994000000000,R03GENNARB/1,209,environmental.health@blaby.gov.uk,Blaby,http://www.blaby.gov.uk,-1.17791800000000,LE3 2LL,2014-05-12,fhrs_5_en-GB,5,,FHRS,5
45462,,7 Mill Hill,Enderby,Leicestershire,Aspects at the Plough,Restaurant/Cafe/Canteen,1,20,,152335,15,,52.59319200000000,C05*EN7MIL/1,209,environmental.health@blaby.gov.uk,Blaby,http://www.blaby.gov.uk,-1.21279500000000,LE19 4AL,2014-10-29,fhrs_1_en-GB,1,,FHRS,10
45463,Lodge Farm,Countesthorpe Road,Whetstone,Leicestershire,Attfields Farm Shop Ltd.,Retailers - other,4613,10,,151449,10,,52.54997300000000,A091WHCOUN/1,209,environmental.health@blaby.gov.uk,Blaby,http://www.blaby.gov.uk,-1.17919100000000,LE8 6LD,2013-06-12,fhrs_3_en-GB,3,,FHRS,10
45464,,212 Narborough Road South,Braunstone Town,Leicestershire,Audi Leicester,Restaurant/Cafe/Canteen,1,,,629873,,,52.60415400000000,S111BR212N/1,209,environmental.health@blaby.gov.uk,Blaby,http://www.blaby.gov.uk,-1.17497400000000,LE3 2LD,2014-05-02,fhrs_exempt_en-GB,Exempt,,FHRS,
45465,,22 Wigston Street,Countesthorpe,Leicestershire,Axe & Square,Pub/bar/nightclub,7843,10,,680419,10,,52.55526400000000,C01*CT22WI/1,209,environmental.health@blaby.gov.uk,Blaby,http://www.blaby.gov.uk,-1.13558100000000,LE8 5RQ,2014-09-05,fhrs_3_en-GB,3,,FHRS,10
45466,,195 Hinckley Road,Leicester Forest East,Leicestershire,Aylesham Nursing Home,Hospitals/Childcare/Caring Premises,5,5,,186003,5,,52.62221100000000,T06*KM195H/1,209,environmental.health@blaby.gov.uk,Blaby,http://www.blaby.gov.uk,-1.22642600000000,LE3 3PH,2014-03-19,fhrs_5_en-GB,5,,FHRS,0
45467,,6 Ayston Road,Braunstone Town,Leicestershire,Ayston Chippy,Takeaway/sandwich shop,7844,5,,185098,5,,52.61448800000000,R01*BR6AYS/1,209,environmental.health@blaby.gov.uk,Blaby,http://www.blaby.gov.uk,-1.17051200000000,LE3 2GA,2013-10-04,fhrs_5_en-GB,5,,FHRS,5
45468,,10 Ayston Road,Braunstone Town,Leicestershire,Ayston Road Post Office,Retailers - other,4613,,,185639,,,52.61448800000000,S461BR10AY/1,209,environmental.health@blaby.gov.uk,Blaby,http://www.blaby.gov.uk,-1.17051200000000,LE3 2GA,2014-05-02,fhrs_exempt_en-GB,Exempt,,FHRS,
45469,,1-3 Ayston Road,Braunstone Town,Leicestershire,Ayston Road Supermarket,Retailers - other,4613,10,,656685,5,,52.61448800000000,R02*BR1-3A/1,209,environmental.health@blaby.gov.uk,Blaby,http://www.blaby.gov.uk,-1.17051200000000,LE3 2GA,2014-01-23,fhrs_4_en-GB,4,,FHRS,5
45470,,Badger Drive,Whetstone,Leicestershire,Badger Brook Primary School,School/college/university,7845,0,,159876,5,,52.54738400000000,P031WHBADG/1,209,environmental.health@blaby.gov.uk,Blaby,http://www.blaby.gov.uk,-1.05364000000000,LE8 3ZW,2013-07-11,fhrs_5_en-GB,5,,FHRS,5
45471,,6 Station Road,Elmesthorpe,Leicestershire,Badgers Mount Hotel and Restaurant,Hotel/bed & breakfast/guest house,7842,5,,468191,10,,52.56084100000000,T01*EL6STA/2,209,environmental.health@blaby.gov.uk,Blaby,http://www.blaby.gov.uk,-1.31175100000000,LE9 7SG,2014-09-15,fhrs_3_en-GB,3,,FHRS,10
45472,,,,,Baked Cakes,Other catering premises,7841,5,,454885,5,,,C10*NA22SP/1,209,environmental.health@blaby.gov.uk,Blaby,http://www.blaby.gov.uk,,,2014-05-02,fhrs_5_en-GB,5,,FHRS,5
45473,Bakers Arms Public House,The Green,Blaby,Leicestershire,Bakers Arms,Pub/bar/nightclub,7843,10,,447123,10,,52.57648800000000,C01*BLTHEG/1,209,environmental.health@blaby.gov.uk,Blaby,http://www.blaby.gov.uk,-1.16038300000000,LE8 4FQ,2014-02-20,fhrs_3_en-GB,3,,FHRS,10
45474,The Blacksmiths,77 Main Street,Cosby,Leicestershire,Bangla Lodge,Restaurant/Cafe/Canteen,1,20,,152331,10,,52.54917200000000,C05*CO77MA/1,209,environmental.health@blaby.gov.uk,Blaby,http://www.blaby.gov.uk,-1.19345200000000,LE9 1UW,2014-03-20,fhrs_1_en-GB,1,,FHRS,10
45475,,440 Braunstone Lane,Braunstone Town,Leicestershire,Bargain Booze,Retailers - other,4613,5,,185316,5,,52.62547300000000,R11GBR440B/1,209,environmental.health@blaby.gov.uk,Blaby,http://www.blaby.gov.uk,-1.19649700000000,LE3 3DG,2014-05-02,fhrs_5_en-GB,5,,FHRS,5
45476,,27 Enderby Road,Blaby,Leicestershire,Bargain Booze,Retailers - other,4613,5,,481519,5,,52.57570500000000,R11*BL27EN/1,209,environmental.health@blaby.gov.uk,Blaby,http://www.blaby.gov.uk,-1.16795300000000,LE8 4GD,2014-05-02,fhrs_5_en-GB,5,,FHRS,0
45477,,25 Stamford Street,Glenfield,Leicestershire,Bargain Booze,Retailers - other,4613,5,,185313,5,,52.64820300000000,R111GL25ST/1,209,environmental.health@blaby.gov.uk,Blaby,http://www.blaby.gov.uk,-1.20370800000000,LE3 8DL,2014-05-02,fhrs_5_en-GB,5,,FHRS,5
45478,,7 Cyril Street,Braunstone Town,Leicestershire,Bay Tree Cafe,Restaurant/Cafe/Canteen,1,0,,697275,5,,52.60924000000000,C06*BR7CYR/4,209,environmental.health@blaby.gov.uk,Blaby,http://www.blaby.gov.uk,-1.16829200000000,LE3 2FF,2014-08-19,fhrs_5_en-GB,5,,FHRS,5
45479,,,,,BB19 Youth Bus,Retailers - other,4613,,,623163,,,,P99*NAWARW/1,209,environmental.health@blaby.gov.uk,Blaby,http://www.blaby.gov.uk,,,,fhrs_awaitinginspection_en-GB,AwaitingInspection,,FHRS,
45480,,9 Wardens Walk,Leicester Forest East,Leicestershire,Beacon Fish Bar,Takeaway/sandwich shop,7844,10,,185100,15,,52.62405900000000,R01*BR9WAR/2,209,environmental.health@blaby.gov.uk,Blaby,http://www.blaby.gov.uk,-1.20008300000000,LE3 3GF,2014-02-06,fhrs_2_en-GB,2,,FHRS,10
45481,Unit 2,Meridian Leisure Park,Braunstone Town,Leicestershire,Bella Italia,Restaurant/Cafe/Canteen,1,5,,491608,0,,52.61382900000000,C05*BRMERI/3,209,environmental.health@blaby.gov.uk,Blaby,http://www.blaby.gov.uk,-1.18560400000000,LE19 1JZ,2013-06-25,fhrs_5_en-GB,5,,FHRS,5
45482,,,,,Belly's Hog Roast,Mobile caterer,7846,10,,185318,10,,,R13*BL11SA/1,209,environmental.health@blaby.gov.uk,Blaby,http://www.blaby.gov.uk,,,2013-03-18,fhrs_3_en-GB,3,,FHRS,5
45483,Unit 8,Fosse Park Avenue,Enderby,Leicestershire,BHS,Restaurant/Cafe/Canteen,1,0,,185628,0,,52.59712000000000,S351ENFOSS/2,209,environmental.health@blaby.gov.uk,Blaby,http://www.blaby.gov.uk,-1.17959500000000,LE19 1HX,2013-07-01,fhrs_5_en-GB,5,,FHRS,0
45484,,14 Bidford Road,Braunstone Town,Leicestershire,Bidford General Store,Retailers - other,4613,10,,185147,5,,52.61936300000000,R02*BR14BI/1,209,environmental.health@blaby.gov.uk,Blaby,http://www.blaby.gov.uk,-1.18372900000000,LE3 3AE,2014-02-10,fhrs_2_en-GB,2,,FHRS,15
45485,,266 Braunstone Lane,Braunstone Town,Leicestershire,Bidford News,Retailers - other,4613,5,,371649,5,,52.62097400000000,R101BR266B/1,209,environmental.health@blaby.gov.uk,Blaby,http://www.blaby.gov.uk,-1.18533800000000,LE3 3AT,2014-02-10,fhrs_4_en-GB,4,,FHRS,10
45486,,,,,Bja Sweets,Mobile caterer,7846,5,,558631,0,,,R13*GL14GL/1,209,environmental.health@blaby.gov.uk,Blaby,http://www.blaby.gov.uk,,,2014-05-02,fhrs_5_en-GB,5,,FHRS,5
45487,,21 Sycamore Street,Blaby,Leicestershire,Blaby & District Royal British Legion,Pub/bar/nightclub,7843,5,,152292,5,,52.57613100000000,C041BL21SY/1,209,environmental.health@blaby.gov.uk,Blaby,http://www.blaby.gov.uk,-1.16199800000000,LE8 4FJ,2014-05-02,fhrs_5_en-GB,5,,FHRS,5
45488,Palmer's Field,Warwick Road,Whetstone,Leicestershire,Blaby & Whetstone  Boys Club,Other catering premises,7841,10,,155330,10,,52.56773000000000,E111WHWARW/1,209,environmental.health@blaby.gov.uk,Blaby,http://www.blaby.gov.uk,-1.18073300000000,LE8 6LW,2014-12-10,fhrs_3_en-GB,3,,FHRS,5
45489,Blaby Social Club,Leicester Road,Blaby,Leicestershire,Blaby and District Social Centre,Restaurant/Cafe/Canteen,1,,,152135,,,52.57731200000000,C021BLLEIC/1,209,environmental.health@blaby.gov.uk,Blaby,http://www.blaby.gov.uk,-1.16379100000000,LE8 4GQ,2014-05-02,fhrs_exempt_en-GB,Exempt,,FHRS,
45490,Bowling Club,Leicester Road,Blaby,Leicestershire,Blaby Bowling Club,Other catering premises,7841,5,,155248,5,,52.57718600000000,E001BLLEIC/1,209,environmental.health@blaby.gov.uk,Blaby,http://www.blaby.gov.uk,-1.16373400000000,LE8 4GQ,2013-03-19,fhrs_5_en-GB,5,,FHRS,5
45491,,4 Crossways House Lutterworth Road,Blaby,Leicestershire,Blaby Butchers Shop Limited,Retailers - other,4613,0,,517229,5,,52.57554000000000,R041BL4CRO/1,209,environmental.health@blaby.gov.uk,Blaby,http://www.blaby.gov.uk,-1.16369200000000,LE8 4DD,2014-09-29,fhrs_4_en-GB,4,,FHRS,10
45492,,2 Johns Court,Blaby,Leicestershire,Blaby Chippy,Takeaway/sandwich shop,7844,5,,185108,5,,52.57488600000000,R011BL2JOH/1,209,environmental.health@blaby.gov.uk,Blaby,http://www.blaby.gov.uk,-1.16391100000000,LE8 4DJ,2013-03-15,fhrs_5_en-GB,5,,FHRS,5
45493,Blaby Golf Range,Lutterworth Road,Blaby,Leicestershire,Blaby Golf Range,Pub/bar/nightclub,7843,5,,155376,5,,52.56744500000000,E191BLLUTT/1,209,environmental.health@blaby.gov.uk,Blaby,http://www.blaby.gov.uk,-1.16692900000000,LE8 4DP,2014-05-02,fhrs_4_en-GB,4,,FHRS,10
45494,,15 Enderby Road,Blaby,Leicestershire,Blaby Hotel,Hotel/bed & breakfast/guest house,7842,20,,710587,10,,52.57570500000000,T01*BL15EN/3,209,environmental.health@blaby.gov.uk,Blaby,http://www.blaby.gov.uk,-1.16795300000000,LE8 4GD,2014-10-21,fhrs_1_en-GB,1,,FHRS,10
45495,,1-3 Leicester Road,Blaby,Leicestershire,Blaby Post Office,Retailers - other,4613,,,185638,,,52.57660600000000,S461BL1-3L/1,209,environmental.health@blaby.gov.uk,Blaby,http://www.blaby.gov.uk,-1.16311000000000,LE8 4GR,2014-05-02,fhrs_exempt_en-GB,Exempt,,FHRS,
45496,,1a Lutterworth Road,Blaby,Leicestershire,Blaby Tea Rooms,Restaurant/Cafe/Canteen,1,10,,152454,10,,52.57329400000000,C06*BL1ALU/1,209,environmental.health@blaby.gov.uk,Blaby,http://www.blaby.gov.uk,-1.16512100000000,LE8 4DW,2014-02-20,fhrs_3_en-GB,3,,FHRS,10
45497,,,,,Black Box Kitchen,Mobile caterer,7846,10,,491616,5,,,R131WHBRUC/1,209,environmental.health@blaby.gov.uk,Blaby,http://www.blaby.gov.uk,,,2014-07-17,fhrs_4_en-GB,4,,FHRS,5
45498,Black Horse P H,Sycamore Street,Blaby,Leicestershire,Black Horse Public House,Pub/bar/nightclub,7843,5,,151864,10,,52.57613100000000,C011BLSYCA/1,209,environmental.health@blaby.gov.uk,Blaby,http://www.blaby.gov.uk,-1.16199800000000,LE8 4FJ,2014-03-17,fhrs_3_en-GB,3,,FHRS,10
45499,Old School House,Leicester Road,Countesthorpe,Leicestershire,Blackberry Bush Nursery,Hospitals/Childcare/Caring Premises,5,5,,160187,0,,52.55693600000000,P071CTLEIC/1,209,environmental.health@blaby.gov.uk,Blaby,http://www.blaby.gov.uk,-1.13553300000000,LE8 5QU,2014-03-10,fhrs_5_en-GB,5,,FHRS,5
45500,Unit 2,Fosse Park Avenue,Enderby,Leicestershire,Boots The Chemist,Retailers - other,4613,0,,185289,0,,52.59710800000000,R095ENFOSS/1,209,environmental.health@blaby.gov.uk,Blaby,http://www.blaby.gov.uk,-1.18048100000000,LE19 1HJ,2014-05-02,fhrs_5_en-GB,5,,FHRS,0
45501,M1 Northbound Service Area,Baines Lane,Leicester Forest East,Leicestershire,Bp Oil Uk Ltd,Retailers - other,4613,5,,720143,5,,,JBBQLEBAIN/1,209,environmental.health@blaby.gov.uk,Blaby,http://www.blaby.gov.uk,,,2013-07-04,fhrs_5_en-GB,5,,FHRS,5
45502,M1 Northbound Service Area,Baines Lane,Leicester Forest East,Leicestershire,Bp Oil Uk Ltd,Retailers - other,4613,10,,720144,15,,,JBBQLEBAIN/2,209,environmental.health@blaby.gov.uk,Blaby,http://www.blaby.gov.uk,,,2014-03-28,fhrs_2_en-GB,2,,FHRS,15
45503,,2a Braunstone Close,Braunstone Town,Leicestershire,Braunstone and District WMC,Pub/bar/nightclub,7843,10,,152294,5,,52.61354000000000,C041BR2ABR/1,209,environmental.health@blaby.gov.uk,Blaby,http://www.blaby.gov.uk,-1.16988000000000,LE3 2GE,2011-11-09,fhrs_3_en-GB,3,,FHRS,10
45504,,108a Edward Avenue,Braunstone Town,Leicestershire,Braunstone Chippy,Takeaway/sandwich shop,7844,5,,185109,5,,52.60859900000000,R011BR108A/1,209,environmental.health@blaby.gov.uk,Blaby,http://www.blaby.gov.uk,-1.17812500000000,LE3 2PD,2013-09-04,fhrs_5_en-GB,5,,FHRS,5
45505,,438a Braunstone Lane,Braunstone Town,Leicestershire,Braunstone Spice & Rice,Takeaway/sandwich shop,7844,20,,185112,10,,52.62417200000000,R011BR438A/1,209,environmental.health@blaby.gov.uk,Blaby,http://www.blaby.gov.uk,-1.19285700000000,LE3 3DF,2014-03-27,fhrs_1_en-GB,1,,FHRS,10
45506,,Kingsway North,Braunstone Town,Leicestershire,Braunstone Sure Start Children's Centre,Hospitals/Childcare/Caring Premises,5,,,160278,,,52.61770300000000,P12*BRKING/1,209,environmental.health@blaby.gov.uk,Blaby,http://www.blaby.gov.uk,-1.18427600000000,LE3 3BD,2014-05-02,fhrs_exempt_en-GB,Exempt,,FHRS,
45507,,95 Dominion Road,Glenfield,Leicestershire,Breaking News,Retailers - other,4613,,,185303,,,52.64476000000000,R101GL95DO/1,209,environmental.health@blaby.gov.uk,Blaby,http://www.blaby.gov.uk,-1.19169500000000,LE3 8JB,2014-05-02,fhrs_exempt_en-GB,Exempt,,FHRS,
45508,"58c, The Whittle Industrial Estate ( Alstom Site)",Cambridge Road,Whetstone,Leicestershire,Britannia Buffet Services Ltd,Other catering premises,7841,,,726821,,,52.56608000000000,C11*WHCAMB/1,209,environmental.health@blaby.gov.uk,Blaby,http://www.blaby.gov.uk,-1.18128000000000,LE8 6LH,,fhrs_awaitinginspection_en-GB,AwaitingInspection,,FHRS,
45509,Fosse House 6 Smith Way,Grove Park,Endebry,Leicestershire,Britannia Buffet Services Ltd,Other catering premises,7841,0,,152118,5,,52.59644317626953,C02*ENGROV/3,209,environmental.health@blaby.gov.uk,Blaby,http://www.blaby.gov.uk,-1.19024002552032,LE19 1SR,2013-12-19,fhrs_5_en-GB,5,,FHRS,0
45510,,Blaby Road,Enderby,Leicestershire,Brockington College,School/college/university,7845,5,,502673,0,,52.58657700000000,P031ENBLAB/1,209,environmental.health@blaby.gov.uk,Blaby,http://www.blaby.gov.uk,-1.20364400000000,LE19 4AQ,2013-03-22,fhrs_5_en-GB,5,,FHRS,0
45511,,Croft Road,Cosby,Leicestershire,Brooke House Day School,School/college/university,7845,5,,159854,0,,52.54953700000000,P031COCROF/1,209,environmental.health@blaby.gov.uk,Blaby,http://www.blaby.gov.uk,-1.19956600000000,LE9 1SE,2013-03-12,fhrs_5_en-GB,5,,FHRS,0
45512,The Bulls Head,13 Main Street,Countesthorpe,Leicestershire,Bulls Head,Pub/bar/nightclub,7843,5,,151871,5,,52.55305900000000,C011CT13MA/1,209,environmental.health@blaby.gov.uk,Blaby,http://www.blaby.gov.uk,-1.13774800000000,LE8 5QX,2014-05-02,fhrs_5_en-GB,5,,FHRS,5
45513,,Main Street,Cosby,Leicestershire,Bunning Memorial Hall,Other catering premises,7841,0,,155313,0,,52.54917200000000,E111COMAIN/1,209,environmental.health@blaby.gov.uk,Blaby,http://www.blaby.gov.uk,-1.19345200000000,LE9 1UW,2014-12-09,fhrs_5_en-GB,5,,FHRS,0
45514,Unit E,Meridian Leisure Park,Braunstone Town,Leicestershire,Burger King,Restaurant/Cafe/Canteen,1,5,,459466,0,,52.61441200000000,C05*BRMERI/2,209,environmental.health@blaby.gov.uk,Blaby,http://www.blaby.gov.uk,-1.18681900000000,LE19 1JZ,2012-12-03,fhrs_5_en-GB,5,,FHRS,0
45515,Carlton Park,King Edward Avenue,Narborough,Leicestershire,Busy Bees Day Nursery,Hospitals/Childcare/Caring Premises,5,0,,160198,0,,52.58332300000000,P071NAKING/1,209,environmental.health@blaby.gov.uk,Blaby,http://www.blaby.gov.uk,-1.20907500000000,LE19 0AL,2013-07-02,fhrs_5_en-GB,5,,FHRS,0
45516,Unit G,Meridian Leisure Park,Braunstone Town,Leicestershire,Busy Bees Day Nursery,Hospitals/Childcare/Caring Premises,5,0,,491613,0,,52.61382900000000,P07*BRMERI/1,209,environmental.health@blaby.gov.uk,Blaby,http://www.blaby.gov.uk,-1.18560400000000,LE19 1JZ,2014-12-11,fhrs_5_en-GB,5,,FHRS,5
45517,,,,,Buzy Bees Cakes,Other catering premises,7841,5,,517227,5,,,C101GL102D/1,209,environmental.health@blaby.gov.uk,Blaby,http://www.blaby.gov.uk,,,2014-05-02,fhrs_5_en-GB,5,,FHRS,0
45518,Countesthorpe Community College,Winchester Road,Countesthorpe,Leicestershire,C88 Cafe Project,Restaurant/Cafe/Canteen,1,5,,152458,5,,52.55649200000000,C06*CTWINC/1,209,environmental.health@blaby.gov.uk,Blaby,http://www.blaby.gov.uk,-1.15878800000000,LE8 5PR,2014-05-02,fhrs_5_en-GB,5,,FHRS,5
45519,Whittle Estate,Cambridge Road,Whetstone,Leicestershire,Cafe Apple,Restaurant/Cafe/Canteen,1,0,,152467,0,,52.56586200000000,C06*WHCAMB/1,209,environmental.health@blaby.gov.uk,Blaby,http://www.blaby.gov.uk,-1.17975000000000,LE8 6LH,2013-03-19,fhrs_5_en-GB,5,,FHRS,0
45520,,5 Leicester Road,Narborough,Leicestershire,Cafe Narborough,Restaurant/Cafe/Canteen,1,10,,647294,10,,52.57403500000000,C06*NA5LEI/3,209,environmental.health@blaby.gov.uk,Blaby,http://www.blaby.gov.uk,-1.20090500000000,LE19 2DF,2014-03-25,fhrs_3_en-GB,3,,FHRS,10
45521,,1 Mill Lane,Enderby,Leicestershire,Cafe Oasis,Restaurant/Cafe/Canteen,1,10,,195717,10,,52.58719800000000,C06GEN1MIL/1,209,environmental.health@blaby.gov.uk,Blaby,http://www.blaby.gov.uk,-1.20781000000000,LE19 4NW,2013-10-09,fhrs_3_en-GB,3,,FHRS,5
45522,,,,,Cake Lounge,Other catering premises,7841,5,,450110,0,,,C101NA7MAR/1,209,environmental.health@blaby.gov.uk,Blaby,http://www.blaby.gov.uk,,,2014-05-02,fhrs_5_en-GB,5,,FHRS,5
45523,,55 John Street,Enderby,Leicestershire,Cakes by Deborah,Retailers - other,4613,10,,720150,10,,52.58653200000000,R50*EN55JO/1,209,environmental.health@blaby.gov.uk,Blaby,http://www.blaby.gov.uk,-1.20901700000000,LE19 4LF,2014-12-05,fhrs_3_en-GB,3,,FHRS,10
45524,,,,,Cakes By Nicola,Other catering premises,7841,0,,152985,5,,,C101THCROF/1,209,environmental.health@blaby.gov.uk,Blaby,http://www.blaby.gov.uk,,,2014-05-02,fhrs_5_en-GB,5,,FHRS,0
45525,,,,,Cakes I Bake,Other catering premises,7841,5,,447127,5,,,C10*SS27FA/1,209,environmental.health@blaby.gov.uk,Blaby,http://www.blaby.gov.uk,,,2014-05-02,fhrs_5_en-GB,5,,FHRS,5
45526,,110 Forest Road,Narborough,Leicestershire,Carlton Stores,Retailers - other,4613,10,,185171,10,,52.57850000000000,R021NA110F/1,209,environmental.health@blaby.gov.uk,Blaby,http://www.blaby.gov.uk,-1.21121300000000,LE19 3EQ,2013-08-29,fhrs_3_en-GB,3,,FHRS,5
45527,,9 Grange Drive,Glen Parva,Leicestershire,Carvers Cobs,Restaurant/Cafe/Canteen,1,10,,152463,15,,52.58665000000000,C06*GP9GRA/1,209,environmental.health@blaby.gov.uk,Blaby,http://www.blaby.gov.uk,-1.15835800000000,LE2 9PH,2014-12-10,fhrs_2_en-GB,2,,FHRS,10
45528,Superstore,Grove Farm Triangle,Enderby,Leicestershire,Catering Day - Colleagues Canteen,Restaurant/Cafe/Canteen,1,10,,152117,5,,52.59886600000000,C02*ENGROV/1,209,environmental.health@blaby.gov.uk,Blaby,http://www.blaby.gov.uk,-1.18375500000000,LE19 1WT,2014-01-07,fhrs_4_en-GB,4,,FHRS,5
45529,Birch Court,10 Bellamy Close,Glen Parva,Leicestershire,Caterplus,Restaurant/Cafe/Canteen,1,,,656681,,,52.58767100000000,C05*GP10BE/1,209,environmental.health@blaby.gov.uk,Blaby,http://www.blaby.gov.uk,-1.16800700000000,LE2 9NG,,fhrs_awaitinginspection_en-GB,AwaitingInspection,,FHRS,
45530,,,,,Cavendish Cakes,Other catering premises,7841,,,535042,,,,C101NA47CA/1,209,environmental.health@blaby.gov.uk,Blaby,http://www.blaby.gov.uk,,,,fhrs_awaitinginspection_en-GB,AwaitingInspection,,FHRS,
45531,,6 Croft Road,Cosby,Leicestershire,Central England Cooperataive Society,Retailers - other,4613,5,,185185,5,,52.54839800000000,R02GCO6CRO/1,209,environmental.health@blaby.gov.uk,Blaby,http://www.blaby.gov.uk,-1.19721200000000,LE9 1RE,2014-05-02,fhrs_5_en-GB,5,,FHRS,5
45532,,29 Pochin Street,Croft,Leicestershire,Central England Co-operative Society,Retailers - other,4613,5,,647299,10,,52.55585100000000,R02GCR29PO/1,209,environmental.health@blaby.gov.uk,Blaby,http://www.blaby.gov.uk,-1.24234300000000,LE9 3HA,2013-03-28,fhrs_4_en-GB,4,,FHRS,5
45533,,8 Main Street,Countesthorpe,Leicestershire,Central England Co-operative Society,Retailers - other,4613,5,,185186,0,,52.55305900000000,R02GCT8MAI/1,209,environmental.health@blaby.gov.uk,Blaby,http://www.blaby.gov.uk,-1.13774800000000,LE8 5QX,2013-03-06,fhrs_5_en-GB,5,,FHRS,5
45534,,Mill Lane,Enderby,Leicestershire,Central England Co-operative Society,Retailers - other,4613,5,,647300,5,,52.58568900000000,R02GENMILL/1,209,environmental.health@blaby.gov.uk,Blaby,http://www.blaby.gov.uk,-1.27548900000000,LE9 5AL,2014-05-02,fhrs_5_en-GB,5,,FHRS,5
45535,,114 Turnbull Drive,Braunstone Town,Leicestershire,Central England Co-operative Society,Retailers - other,4613,5,,647298,5,,52.60982000000000,R02GBR114T/1,209,environmental.health@blaby.gov.uk,Blaby,http://www.blaby.gov.uk,-1.17794000000000,LE3 2JW,2014-05-02,fhrs_5_en-GB,5,,FHRS,5
45536,,Dog And Gun Lane,Whetstone,Leicestershire,Central England Co-operative Society,Retailers - supermarkets/hypermarkets,7840,0,,647304,10,,52.56132900000000,R03GWHDOGA/1,209,environmental.health@blaby.gov.uk,Blaby,http://www.blaby.gov.uk,-1.18063100000000,LE8 6LJ,2014-09-01,fhrs_4_en-GB,4,,FHRS,5
45537,,6 Station Road,Narborough,Leicestershire,Central England Co-operative Society,Retailers - other,4613,5,,647303,5,,52.57156400000000,R02GNA6STA/1,209,environmental.health@blaby.gov.uk,Blaby,http://www.blaby.gov.uk,-1.20366500000000,LE19 2HR,2014-05-02,fhrs_5_en-GB,5,,FHRS,5
45538,,2 Hinckley Road,Leicester Forest East,Leicestershire,Central England Co-operative Society,Retailers - supermarkets/hypermarkets,7840,5,,647302,5,,52.62591300000000,R02GLE2HIN/1,209,environmental.health@blaby.gov.uk,Blaby,http://www.blaby.gov.uk,-1.20433400000000,LE3 3GH,2014-05-02,fhrs_5_en-GB,5,,FHRS,5
45539,Co-Op Superstore,Station Road,Glenfield,Leicestershire,Central England Co-operative Society,Retailers - supermarkets/hypermarkets,7840,5,,185220,5,,52.65145900000000,R03GGLSTAT/1,209,environmental.health@blaby.gov.uk,Blaby,http://www.blaby.gov.uk,-1.20385600000000,LE3 8BQ,2014-05-21,fhrs_5_en-GB,5,,FHRS,5
45540,,,,,Centrepiece Creations,Other catering premises,7841,5,,502672,0,,,C10*LE64PA/1,209,environmental.health@blaby.gov.uk,Blaby,http://www.blaby.gov.uk,,,2014-05-02,fhrs_5_en-GB,5,,FHRS,5
45541,,1a Cross Street,Blaby,Leicestershire,Chamelee Balti & Tandoori,Restaurant/Cafe/Canteen,1,20,,152347,15,,52.68526077270508,C051BL1ACR/1,209,environmental.health@blaby.gov.uk,Blaby,http://www.blaby.gov.uk,-1.13088500499725,LE8 3FJ,2014-03-25,fhrs_1_en-GB,1,,FHRS,15
45542,,Lutterworth Road,Blaby,Leicestershire,Chamneys Nurseries,Retailers - other,4613,,,185596,,,52.56814400000000,S231BLLUTT/1,209,environmental.health@blaby.gov.uk,Blaby,http://www.blaby.gov.uk,-1.16780100000000,LE8 4DX,2014-05-02,fhrs_exempt_en-GB,Exempt,,FHRS,
45543,,East Avenue,Whetstone,Leicestershire,Chataway Residential Home,Hospitals/Childcare/Caring Premises,5,20,,186031,10,,52.57466800000000,T071WHEAST/1,209,environmental.health@blaby.gov.uk,Blaby,http://www.blaby.gov.uk,-1.17775600000000,LE8 6JG,2014-11-24,fhrs_1_en-GB,1,,FHRS,10
45544,,5a Cherry Tree Court,Kirby Muxloe,Leicestershire,Cherry Tree Gifts,Restaurant/Cafe/Canteen,1,0,,152475,0,,52.62331000000000,C061KM5ACH/1,209,environmental.health@blaby.gov.uk,Blaby,http://www.blaby.gov.uk,-1.22956800000000,LE9 2LQ,2014-05-02,fhrs_5_en-GB,5,,FHRS,0
45545,,,,,Cherrytree Gifts/cakes,Other catering premises,7841,0,,152981,0,,,C101LE7STA/1,209,environmental.health@blaby.gov.uk,Blaby,http://www.blaby.gov.uk,,,2014-05-02,fhrs_5_en-GB,5,,FHRS,0
45546,,123 Station Road,Countesthorpe,Leicestershire,Cherrytree Residential Home,Hospitals/Childcare/Caring Premises,5,5,,186010,5,,52.55374400000000,T071CT123S/1,209,environmental.health@blaby.gov.uk,Blaby,http://www.blaby.gov.uk,-1.14922400000000,LE8 5TD,2014-03-10,fhrs_5_en-GB,5,,FHRS,5
45547,,3 Wardens Walk,Leicester Forest East,Leicestershire,China City,Takeaway/sandwich shop,7844,5,,185097,10,,52.62405900000000,R01*BR3WAR/1,209,environmental.health@blaby.gov.uk,Blaby,http://www.blaby.gov.uk,-1.20008300000000,LE3 3GF,2013-07-02,fhrs_3_en-GB,3,,FHRS,10
45548,,Meridian Leisure Park,Braunstone,Leicestershire,"Chiquito, Unit D",Restaurant/Cafe/Canteen,1,0,,152352,5,,52.61382900000000,C051BRMERI/5,209,environmental.health@blaby.gov.uk,Blaby,http://www.blaby.gov.uk,-1.18560400000000,LE19 1JZ,2013-01-29,fhrs_4_en-GB,4,,FHRS,10
45549,Glebe Garden Centre,Foston Road,Countesthorpe,Leicestershire,Chives,Restaurant/Cafe/Canteen,1,5,,152472,5,,52.55771500000000,C061CTFOST/1,209,environmental.health@blaby.gov.uk,Blaby,http://www.blaby.gov.uk,-1.13396900000000,LE8 5QP,2014-06-12,fhrs_4_en-GB,4,,FHRS,10
45550,Church Farm,Marston Road,Croft,Leicestershire,Church Farm Croft Ltd,Retailers - other,4613,5,,152982,5,,52.56087200000000,C101PMMARS/1,209,environmental.health@blaby.gov.uk,Blaby,http://www.blaby.gov.uk,-1.25295200000000,LE9 3GX,2014-03-19,fhrs_4_en-GB,4,,FHRS,10
45551,,26 High Street,Enderby,Leicestershire,Cini Restaurant,Restaurant/Cafe/Canteen,1,20,,152355,10,,52.59008000000000,C051EN26HI/1,209,environmental.health@blaby.gov.uk,Blaby,http://www.blaby.gov.uk,-1.20986900000000,LE19 4AG,2014-06-02,fhrs_1_en-GB,1,,FHRS,10
45552,,,,,Claire Heath,Other catering premises,7841,10,,152979,5,,,C101LE50GO/1,209,environmental.health@blaby.gov.uk,Blaby,http://www.blaby.gov.uk,,,2014-05-02,fhrs_4_en-GB,4,,FHRS,0
45553,,,,,Clairebears Cakes,Other catering premises,7841,10,,464700,10,,,C10*CR97BR/1,209,environmental.health@blaby.gov.uk,Blaby,http://www.blaby.gov.uk,,,2012-10-23,fhrs_3_en-GB,3,,FHRS,10
45554,Claire's Bakery,Station Road,Narborough,Leicestershire,Claire's Bakery,Retailers - other,4613,10,,720149,10,,52.57156400000000,R06*NASTAT/1,209,environmental.health@blaby.gov.uk,Blaby,http://www.blaby.gov.uk,-1.20366500000000,LE19 2HR,2014-12-08,fhrs_3_en-GB,3,,FHRS,10
45555,Manorfield C Of E Primary School,Station Road,Stoney Stanton,Leicestershire,Community Centre Playgroup,Other catering premises,7841,10,,152123,5,,52.55132500000000,C02*SSSTAT/1,209,environmental.health@blaby.gov.uk,Blaby,http://www.blaby.gov.uk,-1.29262400000000,LE9 4LU,2014-05-02,fhrs_4_en-GB,4,,FHRS,5
45556,,128 Sapcote Road,Stoney Stanton,Leicestershire,Compton Lodge Entertainments,Pub/bar/nightclub,7843,10,,680420,5,,52.54542700000000,C041SA128S/1,209,environmental.health@blaby.gov.uk,Blaby,http://www.blaby.gov.uk,-1.27605600000000,LE9 4DW,2014-05-02,fhrs_4_en-GB,4,,FHRS,5
45557,,Park Road,Blaby,Leicestershire,Congregational Church,Other catering premises,7841,,,155393,,,52.57390700000000,E211BLPARK/1,209,environmental.health@blaby.gov.uk,Blaby,http://www.blaby.gov.uk,-1.16664400000000,LE8 4ED,2014-05-02,fhrs_exempt_en-GB,Exempt,,FHRS,
45558,Blaby Industrial Park,Winchester Avenue,Blaby,Leicestershire,Cooke's Cabin,Mobile caterer,7846,5,,189400,10,,52.57730100000000,R131WHWINC/1,209,environmental.health@blaby.gov.uk,Blaby,http://www.blaby.gov.uk,-1.17155100000000,,2013-07-17,fhrs_4_en-GB,4,,FHRS,5
45559,Calor Gas Ltd,Huncote Road,Stoney Stanton,Leicestershire,Coombs Catering Partnership,Restaurant/Cafe/Canteen,1,5,,720137,5,,52.55385600000000,C021PMHUNC/1,209,environmental.health@blaby.gov.uk,Blaby,http://www.blaby.gov.uk,-1.27852800000000,LE9 4DH,2013-03-04,fhrs_5_en-GB,5,,FHRS,5
45560,,Hillsborough Road,Glen Parva,Leicestershire,Co-op,Retailers - supermarkets/hypermarkets,7840,5,,185191,5,,52.58666200000000,R03*GPHILL/2,209,environmental.health@blaby.gov.uk,Blaby,http://www.blaby.gov.uk,-1.14742100000000,LE2 9PT,2014-05-20,fhrs_5_en-GB,5,,FHRS,5
45561,,40 Red Hill Avenue,Narborough,Leicestershire,Coppice Stores,Retailers - other,4613,20,,384215,10,,52.57395000000000,R101NA40RE/1,209,environmental.health@blaby.gov.uk,Blaby,http://www.blaby.gov.uk,-1.21240200000000,LE19 3FA,2014-07-25,fhrs_1_en-GB,1,,FHRS,10
45562,The Mobile,Cork Lane,Glen Parva,Leicestershire,Cork Lane Pre-School,Hospitals/Childcare/Caring Premises,5,5,,454888,10,,52.58663800000000,P12*GPCORK/2,209,environmental.health@blaby.gov.uk,Blaby,http://www.blaby.gov.uk,-1.16672800000000,LE2 9JS,2014-03-17,fhrs_4_en-GB,4,,FHRS,0
45563,,,,,Cornflowers Catering,Other catering premises,7841,5,,152973,0,,,C101EN14BS/1,209,environmental.health@blaby.gov.uk,Blaby,http://www.blaby.gov.uk,,,2013-12-16,fhrs_5_en-GB,5,,FHRS,0
45564,Cosby Methodist Church,Park Road,Cosby,Leicestershire,Cosby Community Playgroup,Hospitals/Childcare/Caring Premises,5,5,,160182,5,,52.55038000000000,P07*COPARK/1,209,environmental.health@blaby.gov.uk,Blaby,http://www.blaby.gov.uk,-1.19521400000000,LE9 1RN,2014-05-02,fhrs_5_en-GB,5,,FHRS,5
45565,,The Nook,Cosby,Leicestershire,Cosby Fish Bar,Takeaway/sandwich shop,7844,0,,185114,5,,52.68526077270508,R011COTHEN/1,209,environmental.health@blaby.gov.uk,Blaby,http://www.blaby.gov.uk,-1.13088500499725,LE9 5RQ,2014-10-03,fhrs_5_en-GB,5,,FHRS,5
45566,Cosby Golf Club,Chapel Lane,Cosby,Leicestershire,Cosby Golf Club,Pub/bar/nightclub,7843,5,,155377,5,,52.54567600000000,E191COCHAP/1,209,environmental.health@blaby.gov.uk,Blaby,http://www.blaby.gov.uk,-1.19625900000000,LE9 1RG,2014-05-02,fhrs_5_en-GB,5,,FHRS,5
45567,,Portland Street,Cosby,Leicestershire,Cosby Primary School,School/college/university,7845,0,,159855,5,,52.55547900000000,P031COPORT/1,209,environmental.health@blaby.gov.uk,Blaby,http://www.blaby.gov.uk,-1.19419200000000,LE9 1TE,2013-03-12,fhrs_5_en-GB,5,,FHRS,5
45568,Victory Park,Park Road,Cosby,Leicestershire,Cosby Utd. FC Snack Bar,Restaurant/Cafe/Canteen,1,,,152457,,,52.62273406982422,C06*COPARK/1,209,environmental.health@blaby.gov.uk,Blaby,http://www.blaby.gov.uk,-1.11904501914978,,,fhrs_awaitinginspection_en-GB,AwaitingInspection,,FHRS,
45569,,Park Road,Cosby,Leicestershire,Cosby Village Hall,Restaurant/Cafe/Canteen,1,10,,155338,5,,52.68526077270508,E11XCOPARK/1,209,environmental.health@blaby.gov.uk,Blaby,http://www.blaby.gov.uk,-1.13088500499725,LE9 5RN,2014-05-02,fhrs_4_en-GB,4,,FHRS,5
45570,,75 Main Street,Cosby,Leicestershire,Cosby Working Mens Club,Pub/bar/nightclub,7843,,,152296,,,52.54917200000000,C041CO75MA/1,209,environmental.health@blaby.gov.uk,Blaby,http://www.blaby.gov.uk,-1.19345200000000,LE9 1UW,2014-05-02,fhrs_exempt_en-GB,Exempt,,FHRS,
45571,Food Court,Fosse Park Avenue,Enderby,Leicestershire,Costa Coffee,Takeaway/sandwich shop,7844,5,,185121,5,,52.59753500000000,R011ENFOSS/2,209,environmental.health@blaby.gov.uk,Blaby,http://www.blaby.gov.uk,-1.18119600000000,LE19 1HY,2014-01-29,fhrs_5_en-GB,5,,FHRS,5
45572,,16 Central Street,Countesthorpe,Leicestershire,Countersthorpe Chemist,Retailers - other,4613,,,331927,,,52.55446300000000,R091CT16CE/1,209,environmental.health@blaby.gov.uk,Blaby,http://www.blaby.gov.uk,-1.13673200000000,LE8 5QJ,2014-05-02,fhrs_exempt_en-GB,Exempt,,FHRS,
45573,,46 Station Road,Countesthorpe,Leicestershire,Countesthorpe Bowling Club,Other catering premises,7841,5,,155251,5,,52.55378800000000,E001CT46ST/1,209,environmental.health@blaby.gov.uk,Blaby,http://www.blaby.gov.uk,-1.14153900000000,LE8 5TA,2013-05-30,fhrs_5_en-GB,5,,FHRS,5
45574,Countesthorpe Community College,Winchester Road,Countesthorpe,Leicestershire,Countesthorpe College Before & After School Club,Other catering premises,7841,5,,152178,5,,52.55649200000000,C02HCTWINC/1,209,environmental.health@blaby.gov.uk,Blaby,http://www.blaby.gov.uk,-1.15878800000000,LE8 5PR,2013-05-07,fhrs_5_en-GB,5,,FHRS,5
45575,Countesthorpe Community College,Winchester Road,Countesthorpe,Leicestershire,"Countesthorpe College, Day Nursery",Restaurant/Cafe/Canteen,1,5,,152113,0,,52.55649200000000,C02*CTWINC/1,209,environmental.health@blaby.gov.uk,Blaby,http://www.blaby.gov.uk,-1.15878800000000,LE8 5PR,2014-03-14,fhrs_5_en-GB,5,,FHRS,5
45576,Countesthorpe Community College,Winchester Road,Countesthorpe,Leicestershire,Countesthorpe Community College,School/college/university,7845,5,,159859,5,,52.55649200000000,P031CTWINC/2,209,environmental.health@blaby.gov.uk,Blaby,http://www.blaby.gov.uk,-1.15878800000000,LE8 5PR,2012-12-11,fhrs_5_en-GB,5,,FHRS,5
45577,Sports Ground,Bassett Avenue,Countesthorpe,Leicestershire,Countesthorpe Cricket Club,Pub/bar/nightclub,7843,5,,152299,5,,52.55289400000000,C041CTBASS/1,209,environmental.health@blaby.gov.uk,Blaby,http://www.blaby.gov.uk,-1.14474200000000,LE8 5QG,2012-08-31,fhrs_4_en-GB,4,,FHRS,10
45578,,113 Station Road,Countesthorpe,Leicestershire,Countesthorpe Express,Retailers - other,4613,0,,185153,10,,52.55374400000000,R02*CT113S/1,209,environmental.health@blaby.gov.uk,Blaby,http://www.blaby.gov.uk,-1.14922400000000,LE8 5TD,2013-03-28,fhrs_4_en-GB,4,,FHRS,10
45579,,1 The Square,Countesthorpe,Leicestershire,Countesthorpe Fish Bar,Takeaway/sandwich shop,7844,5,,185116,10,,52.55445100000000,R011CT1THE/1,209,environmental.health@blaby.gov.uk,Blaby,http://www.blaby.gov.uk,-1.13757300000000,LE8 5RN,2014-03-07,fhrs_3_en-GB,3,,FHRS,10
45580,Countesthorpe Methodist Church,Wigston Street,Countesthorpe,Leicestershire,Countesthorpe Methodist Church,Other catering premises,7841,5,,155397,0,,52.55526400000000,E211CTWIGS/1,209,environmental.health@blaby.gov.uk,Blaby,http://www.blaby.gov.uk,-1.13558100000000,LE8 5RQ,2014-05-07,fhrs_5_en-GB,5,,FHRS,5
45581,,69 Station Road,Countesthorpe,Leicestershire,Countesthorpe Post Office,Retailers - other,4613,5,,185251,5,,52.55401300000000,R071CT69ST/1,209,environmental.health@blaby.gov.uk,Blaby,http://www.blaby.gov.uk,-1.14539900000000,LE8 5TB,2014-05-02,fhrs_5_en-GB,5,,FHRS,5
45582,,Winchester Road,Countesthorpe,Leicestershire,Countesthorpe Sure Start Children's Centre,Hospitals/Childcare/Caring Premises,5,5,,160183,5,,52.55649200000000,P07*CTWINC/1,209,environmental.health@blaby.gov.uk,Blaby,http://www.blaby.gov.uk,-1.15878800000000,LE8 5PR,2014-05-02,fhrs_5_en-GB,5,,FHRS,5
45583,,,,,Cream Of The Bakes,Other catering premises,7841,5,,464704,5,,,C101GP61LI/1,209,environmental.health@blaby.gov.uk,Blaby,http://www.blaby.gov.uk,,,2014-05-02,fhrs_5_en-GB,5,,FHRS,5
45584,,Brookes Avenue,Croft,Leicestershire,Croft C of E Primary School,School/college/university,7845,5,,159856,5,,52.55406700000000,P031CRBROO/1,209,environmental.health@blaby.gov.uk,Blaby,http://www.blaby.gov.uk,-1.24171000000000,LE9 3GJ,2014-05-02,fhrs_5_en-GB,5,,FHRS,5
45585,C Of E Primary School,Brookes Avenue,Croft,Leicestershire,Croft Community Centre,Restaurant/Cafe/Canteen,1,10,,155314,5,,52.55406700000000,E111CRBROO/1,209,environmental.health@blaby.gov.uk,Blaby,http://www.blaby.gov.uk,-1.24171000000000,LE9 3GJ,2014-05-02,fhrs_4_en-GB,4,,FHRS,5
45586,,3 Pochin Street,Croft,Leicestershire,Croft Fish Bar,Takeaway/sandwich shop,7844,0,,734036,0,,52.55585100000000,R01*CR3POC/2,209,environmental.health@blaby.gov.uk,Blaby,http://www.blaby.gov.uk,-1.24234300000000,LE9 3HA,2014-03-19,fhrs_5_en-GB,5,,FHRS,0
45587,,5 Pochin Street,Croft,Leicestershire,Croft P O & Newsagent,Retailers - other,4613,5,,185250,5,,52.55585100000000,R071CR5POC/1,209,environmental.health@blaby.gov.uk,Blaby,http://www.blaby.gov.uk,-1.24234300000000,LE9 3HA,2014-05-02,fhrs_5_en-GB,5,,FHRS,5
45588,,Coventry Road,Croft,Leicestershire,Croft Service Station - Euro Garages,Retailers - other,4613,5,,185599,5,,52.55426700000000,S25*COCOVE/1,209,environmental.health@blaby.gov.uk,Blaby,http://www.blaby.gov.uk,-1.23231100000000,LE9 3GP,2014-05-02,fhrs_5_en-GB,5,,FHRS,5
45589,,,,,Crossways Farm.,Other catering premises,7841,,,152986,,,,C101WHCOUN/2,209,environmental.health@blaby.gov.uk,Blaby,http://www.blaby.gov.uk,,,2014-05-02,fhrs_exempt_en-GB,Exempt,,FHRS,
45590,,,,,Daisy And Tallulah,Other catering premises,7841,5,,447128,5,,,C101WH66AV/1,209,environmental.health@blaby.gov.uk,Blaby,http://www.blaby.gov.uk,,,2014-05-02,fhrs_5_en-GB,5,,FHRS,5
45591,Eglantine,Lutterworth Road,Blaby,Leicestershire,Daisy Chain Childrens Nursery,Hospitals/Childcare/Caring Premises,5,5,,160186,5,,52.56744500000000,P071BLLUTT/1,209,environmental.health@blaby.gov.uk,Blaby,http://www.blaby.gov.uk,-1.16692900000000,LE8 4DP,2014-03-13,fhrs_5_en-GB,5,,FHRS,5
45592,,,,,Daisy's Cakes,Other catering premises,7841,5,,464701,0,,,C10*KM4PIN/1,209,environmental.health@blaby.gov.uk,Blaby,http://www.blaby.gov.uk,,,2014-05-02,fhrs_5_en-GB,5,,FHRS,5
45593,Dallington House,228 Leicester Road,Enderby,Leicestershire,Dallington House Care Home,Hospitals/Childcare/Caring Premises,5,5,,186011,5,,52.58217600000000,T071EN228L/1,209,environmental.health@blaby.gov.uk,Blaby,http://www.blaby.gov.uk,-1.19362900000000,LE19 2BF,2014-02-21,fhrs_4_en-GB,4,,FHRS,10
45594,Enderby Danemill Primary School,Mill Lane,Enderby,Leicestershire,Danemill Primary School,School/college/university,7845,5,,159861,5,,52.58611800000000,P031ENMILL/1,209,environmental.health@blaby.gov.uk,Blaby,http://www.blaby.gov.uk,-1.20623500000000,LE19 4LH,2014-03-25,fhrs_5_en-GB,5,,FHRS,5
45595,Unit F,Meridian Leisure Park,Braunstone,Leicestershire,David Lloyd Health & Fitness Club,Restaurant/Cafe/Canteen,1,5,,155411,5,,52.61382900000000,E221BRMERI/1,209,environmental.health@blaby.gov.uk,Blaby,http://www.blaby.gov.uk,-1.18560400000000,LE19 1JZ,2014-01-23,fhrs_5_en-GB,5,,FHRS,5
45596,Carlton Park,King Edward Avenue,Narborough,Leicestershire,David Lloyd Leisure,Restaurant/Cafe/Canteen,1,5,,152305,10,,52.57600045633623,C041NAKING/1,209,environmental.health@blaby.gov.uk,Blaby,http://www.blaby.gov.uk,-1.20357658940097,,2014-01-07,fhrs_4_en-GB,4,,FHRS,5
45597,,,,,Days Leisure Coffee Dreams,Mobile caterer,7846,5,,558632,5,,,R13*NAFORE/12,209,environmental.health@blaby.gov.uk,Blaby,http://www.blaby.gov.uk,,,2014-05-02,fhrs_5_en-GB,5,,FHRS,5
45598,,,,,Deborah Watts,Other catering premises,7841,10,,464702,5,,,C10*SADONK/1,209,environmental.health@blaby.gov.uk,Blaby,http://www.blaby.gov.uk,,,2014-05-02,fhrs_4_en-GB,4,,FHRS,5
45599,,,,,Diana Spencer,Other catering premises,7841,10,,464703,5,,,C101EN9COO/1,209,environmental.health@blaby.gov.uk,Blaby,http://www.blaby.gov.uk,,,2014-05-02,fhrs_4_en-GB,4,,FHRS,5
45600,,,,,Diana's Designs,Other catering premises,7841,5,,152879,5,,,C10*SS11GR/1,209,environmental.health@blaby.gov.uk,Blaby,http://www.blaby.gov.uk,,,2014-05-02,fhrs_5_en-GB,5,,FHRS,5
45601,,,,,Dina's Cakes,Other catering premises,7841,,,152874,,,,C10*GP21WE/1,209,environmental.health@blaby.gov.uk,Blaby,http://www.blaby.gov.uk,,,2014-05-02,fhrs_exempt_en-GB,Exempt,,FHRS,
45602,,62 Main Street,Countesthorpe,Leicestershire,Dine India,Restaurant/Cafe/Canteen,1,10,,152354,5,,52.55305900000000,C051CT62MA/1,209,environmental.health@blaby.gov.uk,Blaby,http://www.blaby.gov.uk,-1.13774800000000,LE8 5QX,2014-10-02,fhrs_4_en-GB,4,,FHRS,5
45603,,25 Lutterworth Road,Blaby,Leicestershire,Dipali Fine Dinee,Restaurant/Cafe/Canteen,1,,,687352,,,52.57329400000000,C05*BL25LU/2,209,environmental.health@blaby.gov.uk,Blaby,http://www.blaby.gov.uk,-1.16512100000000,LE8 4DW,,fhrs_awaitinginspection_en-GB,AwaitingInspection,,FHRS,
45604,,57 Hinckley Road,Stoney Stanton,Leicestershire,Dive Inn,Hotel/bed & breakfast/guest house,7842,5,,186000,5,,52.54578700000000,T011SS57HI/1,209,environmental.health@blaby.gov.uk,Blaby,http://www.blaby.gov.uk,-1.28504500000000,LE9 4LL,2014-05-02,fhrs_5_en-GB,5,,FHRS,5
45605,,9 Cross Street,Enderby,Leicestershire,Dog & Gun,Pub/bar/nightclub,7843,5,,151849,5,,52.58904700000000,C01*EN9CRO/1,209,environmental.health@blaby.gov.uk,Blaby,http://www.blaby.gov.uk,-1.21003500000000,LE19 4NJ,2014-05-02,fhrs_5_en-GB,5,,FHRS,5
45606,,Lutterworth Road,Whetstone,Leicestershire,Dog & Gun,Pub/bar/nightclub,7843,10,,151894,10,,52.54738400000000,C011WHLUTT/1,209,environmental.health@blaby.gov.uk,Blaby,http://www.blaby.gov.uk,-1.05364000000000,LE8 3NA,2013-03-11,fhrs_3_en-GB,3,,FHRS,10
45607,,,,,Dookies Cakes,Other catering premises,7841,0,,152960,5,,,C101BR15BO/1,209,environmental.health@blaby.gov.uk,Blaby,http://www.blaby.gov.uk,,,2014-05-02,fhrs_5_en-GB,5,,FHRS,5
45608,,9 Enderby Road,Blaby,Leicestershire,Double Dragon,Restaurant/Cafe/Canteen,1,5,,152349,10,,52.57570500000000,C051BL9END/2,209,environmental.health@blaby.gov.uk,Blaby,http://www.blaby.gov.uk,-1.16795300000000,LE8 4GD,2014-03-25,fhrs_4_en-GB,4,,FHRS,5
45609,Food Court,Fosse Park Avenue,Enderby,Leicestershire,Druckers Vienna Patisserie,Restaurant/Cafe/Canteen,1,10,,152452,5,,52.59753500000000,C05GENFOSS/1,209,environmental.health@blaby.gov.uk,Blaby,http://www.blaby.gov.uk,-1.18119600000000,LE19 1HY,2014-02-17,fhrs_4_en-GB,4,,FHRS,5
45610,,,,,Ebiscuit,Other catering premises,7841,5,,404679,5,,,C10*BR30LU/1,209,environmental.health@blaby.gov.uk,Blaby,http://www.blaby.gov.uk,,,2014-05-02,fhrs_5_en-GB,5,,FHRS,5
45611,Oaklands,Forest Road,Narborough Town,Leicestershire,Elite Catering,Mobile caterer,7846,,,331918,,,52.58735200000000,C11*NAFORE/3,209,environmental.health@blaby.gov.uk,Blaby,http://www.blaby.gov.uk,-1.22287700000000,LE19 3LD,2014-03-24,fhrs_exempt_en-GB,Exempt,,FHRS,
45612,,Warren Park Way,Enderby,Leicestershire,Ellies Breakfast Bar,Mobile caterer,7846,10,,185325,5,,52.59528700000000,R13*ENWARR/1,209,environmental.health@blaby.gov.uk,Blaby,http://www.blaby.gov.uk,-1.21294900000000,LE19 4SA,2014-10-27,fhrs_3_en-GB,3,,FHRS,10
45613,Emerson Process Management,Meridian East,Meridian Business Park,Leicestershire,Emerson Process Management,Restaurant/Cafe/Canteen,1,0,,152179,0,,52.60371100000000,C02JBRMERI/1,209,environmental.health@blaby.gov.uk,Blaby,http://www.blaby.gov.uk,-1.19031000000000,LE19 1UX,2013-04-13,fhrs_5_en-GB,5,,FHRS,0
45614,,Coleridge Drive,Enderby,Leicestershire,Enderby & District Social Club,Pub/bar/nightclub,7843,10,,331913,5,,52.58639700000000,C041ENCOLE/1,209,environmental.health@blaby.gov.uk,Blaby,http://www.blaby.gov.uk,-1.21585400000000,LE19 4RS,2013-03-26,fhrs_4_en-GB,4,,FHRS,5
45615,,Mill Lane,Enderby,Leicestershire,Enderby Bowls Club,Other catering premises,7841,5,,155279,5,,52.58818600000000,E051ENMILL/3,209,environmental.health@blaby.gov.uk,Blaby,http://www.blaby.gov.uk,-1.20894300000000,LE19 4LX,2014-05-02,fhrs_5_en-GB,5,,FHRS,5
45616,,1 The Cross,Enderby,Leicestershire,Enderby Conservative Club,Pub/bar/nightclub,7843,5,,152300,5,,52.58948000000000,C041EN1THE/1,209,environmental.health@blaby.gov.uk,Blaby,http://www.blaby.gov.uk,-1.21021900000000,LE19 4PF,2014-05-02,fhrs_5_en-GB,5,,FHRS,5
45617,,Mill Lane,Enderby,Leicestershire,Enderby Cricket Club,Other catering premises,7841,10,,155277,0,,52.58568900000000,E051ENMILL/1,209,environmental.health@blaby.gov.uk,Blaby,http://www.blaby.gov.uk,-1.27548900000000,LE9 5NW,2014-05-02,fhrs_4_en-GB,4,,FHRS,5
45618,Enderby Grange Care Home,Sparsis Gardens,Enderby,Leicestershire,Enderby Grange,Hospitals/Childcare/Caring Premises,5,5,,680431,5,,52.58134800000000,T071ENSPAR/1,209,environmental.health@blaby.gov.uk,Blaby,http://www.blaby.gov.uk,-1.19218300000000,LE19 2BQ,2014-06-16,fhrs_5_en-GB,5,,FHRS,5
45619,Enderby Leisure Centre,Mill Lane,Enderby,Leicestershire,Enderby Leisure Centre,Restaurant/Cafe/Canteen,1,5,,155307,5,,52.58818600000000,E10XENMILL/1,209,environmental.health@blaby.gov.uk,Blaby,http://www.blaby.gov.uk,-1.20894300000000,LE19 4LX,2014-01-27,fhrs_5_en-GB,5,,FHRS,5
45620,,Cross Street,Enderby,Leicestershire,Enderby Methodist Church,Other catering premises,7841,5,,155398,0,,52.58904700000000,E211ENCROS/1,209,environmental.health@blaby.gov.uk,Blaby,http://www.blaby.gov.uk,-1.21003500000000,LE19 4NJ,2013-03-27,fhrs_5_en-GB,5,,FHRS,0
45621,,15 Mill Lane,Enderby,Leicestershire,Enderby Pharmacy,Retailers - other,4613,,,185282,,,52.58719800000000,R091EN15MI/1,209,environmental.health@blaby.gov.uk,Blaby,http://www.blaby.gov.uk,-1.20781000000000,LE19 4NW,2014-05-02,fhrs_exempt_en-GB,Exempt,,FHRS,
45622,,Cross Street,Enderby,Leicestershire,Enderby Service Station,Retailers - other,4613,5,,185265,5,,52.58876100000000,R07QENCROS/1,209,environmental.health@blaby.gov.uk,Blaby,http://www.blaby.gov.uk,-1.20996400000000,,2014-05-02,fhrs_5_en-GB,5,,FHRS,0
45623,,Chapel Street,Enderby,Leicestershire,Enderby United Reformed Church Hall,Other catering premises,7841,,,155255,,,52.59005200000000,E011ENCHAP/1,209,environmental.health@blaby.gov.uk,Blaby,http://www.blaby.gov.uk,-1.21249700000000,LE19 4NE,2014-05-02,fhrs_exempt_en-GB,Exempt,,FHRS,
45624,,,,,Eric's Ice Cream,Mobile caterer,7846,5,,185343,5,,,R131EN108C/1,209,environmental.health@blaby.gov.uk,Blaby,http://www.blaby.gov.uk,,,2014-05-02,fhrs_5_en-GB,5,,FHRS,5
45625,Warehouse,Barnsdale Way,Enderby,Leicestershire,Eurest - National Distribution Centre,Restaurant/Cafe/Canteen,1,0,,152114,5,,52.59854100000000,C02*ENBARN/2,209,environmental.health@blaby.gov.uk,Blaby,http://www.blaby.gov.uk,-1.19273800000000,LE19 1ES,2012-07-10,fhrs_5_en-GB,5,,FHRS,0
45626,Spinneyside Offices Penman Way,Grove Park,Enderby,Leicestershire,Eurest c/o Centrica Business,Restaurant/Cafe/Canteen,1,0,,152119,5,,52.59644317626953,C02*ENGROV/4,209,environmental.health@blaby.gov.uk,Blaby,http://www.blaby.gov.uk,-1.19024002552032,,2013-05-07,fhrs_5_en-GB,5,,FHRS,5
45627,,Main Street,Thurlaston,Leicestershire,Evangelical Church,Other catering premises,7841,,,155406,,,52.58713900000000,E211THMAIN/1,209,environmental.health@blaby.gov.uk,Blaby,http://www.blaby.gov.uk,-1.25911900000000,,2014-05-02,fhrs_exempt_en-GB,Exempt,,FHRS,
45628,,74 Faire Road,Glenfield,Leicestershire,Faire Convenience,Retailers - other,4613,10,,185178,10,,52.65052100000000,R025GL74FA/1,209,environmental.health@blaby.gov.uk,Blaby,http://www.blaby.gov.uk,-1.19414600000000,LE3 8ED,2014-08-18,fhrs_3_en-GB,3,,FHRS,5
45629,,78 Faire Road,Glenfield,Leicestershire,Faire News,Retailers - other,4613,,,185302,,,52.65052100000000,R101GL78FA/1,209,environmental.health@blaby.gov.uk,Blaby,http://www.blaby.gov.uk,-1.19414600000000,LE3 8ED,2014-05-02,fhrs_exempt_en-GB,Exempt,,FHRS,
45630,Manor Restaurant,The Ford,Glen Parva,Leicestershire,Fairy Tales Day Nursery,Hospitals/Childcare/Caring Premises,5,10,,160192,10,,52.57826300000000,P071GPTHEF/1,209,environmental.health@blaby.gov.uk,Blaby,http://www.blaby.gov.uk,-1.15083000000000,LE2 9TL,2014-03-13,fhrs_3_en-GB,3,,FHRS,10
45631,,4 Station Road,Kirby Muxloe,Leicestershire,Famille House,Hospitals/Childcare/Caring Premises,5,0,,186022,5,,52.63193800000000,T071KM4STA/1,209,environmental.health@blaby.gov.uk,Blaby,http://www.blaby.gov.uk,-1.23470600000000,LE9 2EJ,2013-12-16,fhrs_5_en-GB,5,,FHRS,5
45632,,148 Hinckley Road,Leicester Forest East,Leicestershire,Fish & Chip Co,Takeaway/sandwich shop,7844,10,,732913,10,,52.62459200000000,C05*LE148H/1,209,environmental.health@blaby.gov.uk,Blaby,http://www.blaby.gov.uk,-1.21666300000000,LE3 3JT,2015-01-16,fhrs_3_en-GB,3,,FHRS,10
45633,,,,,Flour To Flour,Other catering premises,7841,5,,152966,10,,,C101CT16TO/1,209,environmental.health@blaby.gov.uk,Blaby,http://www.blaby.gov.uk,,,2014-05-02,fhrs_4_en-GB,4,,FHRS,5
45634,,4 Lutterworth Road,Blaby,Leicestershire,Fox & Tiger,Pub/bar/nightclub,7843,20,,151841,10,,52.57338000000000,C01*BL4LUT/1,209,environmental.health@blaby.gov.uk,Blaby,http://www.blaby.gov.uk,-1.16454400000000,LE8 4DN,2014-03-13,fhrs_1_en-GB,1,,FHRS,10
45635,,42 Huncote Road,Stoney Stanton,Leicestershire,Francis Arms incorporating Chefs East Meets West,Restaurant/Cafe/Canteen,1,20,,710584,10,,52.55419300000000,C05*SS42HU/3,209,environmental.health@blaby.gov.uk,Blaby,http://www.blaby.gov.uk,-1.27920100000000,LE9 4DG,2014-09-30,fhrs_1_en-GB,1,,FHRS,15
45636,Unit C,Meridian Leisure Park,Braunstone Town,Leicestershire,Frankie & Benny's,Restaurant/Cafe/Canteen,1,0,,491609,5,,52.61382900000000,C051BRMERI/6,209,environmental.health@blaby.gov.uk,Blaby,http://www.blaby.gov.uk,-1.18560400000000,LE19 1JZ,2013-01-29,fhrs_5_en-GB,5,,FHRS,5
45637,,7 Lutterworth Road,Blaby,Leicestershire,Fruitas,Retailers - other,4613,5,,185160,5,,52.57329400000000,R021BL7LUT/1,209,environmental.health@blaby.gov.uk,Blaby,http://www.blaby.gov.uk,-1.16512100000000,LE8 4DW,2014-05-02,fhrs_5_en-GB,5,,FHRS,5
45638,,,,,Full Of Flavour Catering,Other catering premises,7841,5,,152984,0,,,C101SS3BRI/1,209,environmental.health@blaby.gov.uk,Blaby,http://www.blaby.gov.uk,,,2014-05-02,fhrs_5_en-GB,5,,FHRS,5
45639,,77 Henley Crescent,Braunstone Town,Leicestershire,Geena Stores,Retailers - other,4613,5,,185150,5,,52.61513100000000,R02*BR77HE/1,209,environmental.health@blaby.gov.uk,Blaby,http://www.blaby.gov.uk,-1.17890400000000,LE3 2SB,2014-05-02,fhrs_5_en-GB,5,,FHRS,5
45640,,65 Tournament Road,Glenfield,Leicestershire,Gillivers Rehabilitation Home,Hospitals/Childcare/Caring Premises,5,0,,152652,0,,52.64139100000000,C071GL65TO/1,209,environmental.health@blaby.gov.uk,Blaby,http://www.blaby.gov.uk,-1.19601400000000,LE3 8LR,2014-05-02,fhrs_5_en-GB,5,,FHRS,0
45641,,Foston Road,Countesthorpe,Leicestershire,Glebe Garden Centre,Retailers - other,4613,,,185597,,,52.68526077270510,S231CTFOST/1,209,environmental.health@blaby.gov.uk,Blaby,http://www.blaby.gov.uk,-1.13088500499725,LE8 3QP,2014-05-02,fhrs_exempt_en-GB,Exempt,,FHRS,
45642,,97 Dominion Road,Glenfield,Leicestershire,Glenfield Fish Salon,Takeaway/sandwich shop,7844,20,,185126,10,,52.64476000000000,R011GL97DO/1,209,environmental.health@blaby.gov.uk,Blaby,http://www.blaby.gov.uk,-1.19169500000000,LE3 8JB,2013-10-09,fhrs_1_en-GB,1,,FHRS,10
45643,,21 Stamford Street,Glenfield,Leicestershire,Glenfield House,Takeaway/sandwich shop,7844,10,,185101,15,,52.64820300000000,R01*GL21ST/1,209,environmental.health@blaby.gov.uk,Blaby,http://www.blaby.gov.uk,-1.20370800000000,LE3 8DL,2013-11-26,fhrs_2_en-GB,2,,FHRS,5
45644,Park House,Stamford Street,Glenfield,Leicestershire,Glenfield Parish Council,Restaurant/Cafe/Canteen,1,5,,160154,5,,52.64820300000000,P06*GLSTAM/1,209,environmental.health@blaby.gov.uk,Blaby,http://www.blaby.gov.uk,-1.20370800000000,LE3 8DL,2014-05-02,fhrs_5_en-GB,5,,FHRS,5
45645,,Stamford Street,Glenfield,Leicestershire,Glenfield Primary School,School/college/university,7845,0,,159864,5,,52.64820300000000,P031GLSTAM/1,209,environmental.health@blaby.gov.uk,Blaby,http://www.blaby.gov.uk,-1.20370800000000,LE3 8DL,2013-09-24,fhrs_5_en-GB,5,,FHRS,0
45646,,Station Road,Glenfield,Leicestershire,Glenfield Social Club,Pub/bar/nightclub,7843,,,152303,,,52.65145900000000,C041GLSTAT/2,209,environmental.health@blaby.gov.uk,Blaby,http://www.blaby.gov.uk,-1.20385600000000,LE3 8BQ,2014-05-02,fhrs_exempt_en-GB,Exempt,,FHRS,
45647,2 Carvers Corner,Grange Drive,Glen Parva,Leicestershire,Glenhills Pharmacy,Retailers - other,4613,,,185285,,,52.58697200000000,R091GPGRAN/1,209,environmental.health@blaby.gov.uk,Blaby,http://www.blaby.gov.uk,-1.16068400000000,LE2 9PE,2014-05-02,fhrs_exempt_en-GB,Exempt,,FHRS,
45648,,Featherby Drive,Glen Parva,Leicestershire,Glenhills Primary School,School/college/university,7845,5,,159865,10,,52.59863600000000,P031GPFEAT/1,209,environmental.health@blaby.gov.uk,Blaby,http://www.blaby.gov.uk,-1.13986500000000,LE2 6NY,2014-05-20,fhrs_4_en-GB,4,,FHRS,5
45649,,2 Court Road,Glen Parva,Leicestershire,Glenhills Sports and Social Club,Pub/bar/nightclub,7843,,,152304,,,52.58564700000000,C041GP2COU/1,209,environmental.health@blaby.gov.uk,Blaby,http://www.blaby.gov.uk,-1.16521100000000,LE2 9JB,2014-05-02,fhrs_exempt_en-GB,Exempt,,FHRS,
45650,,80 Faire Road,Glenfield,Leicestershire,Golden Orient,Takeaway/sandwich shop,7844,10,,564356,10,,52.65052100000000,R01*GL80FA/2,209,environmental.health@blaby.gov.uk,Blaby,http://www.blaby.gov.uk,-1.19414600000000,LE3 8ED,2014-06-25,fhrs_3_en-GB,3,,FHRS,10
45651,8 Carvers Corner,Grange Drive,Glen Parva,Leicestershire,Grange Stores,Retailers - other,4613,10,,185167,10,,52.58697200000000,R021GPGRAN/1,209,environmental.health@blaby.gov.uk,Blaby,http://www.blaby.gov.uk,-1.16068400000000,LE2 9PE,2013-07-01,fhrs_3_en-GB,3,,FHRS,5
45652,,24 The Nook,Cosby,Leicestershire,Granny Smiths,Restaurant/Cafe/Canteen,1,10,,517226,10,,52.54753700000000,C061CO24TH/2,209,environmental.health@blaby.gov.uk,Blaby,http://www.blaby.gov.uk,-1.19497100000000,LE9 1RQ,2014-06-13,fhrs_3_en-GB,3,,FHRS,10
45653,,Beggars Lane,Leicester Forest East,Leicestershire,Green Gate Farm,Retailers - other,4613,5,,491611,5,,52.61825900000000,I03GLUBEGG/1,209,environmental.health@blaby.gov.uk,Blaby,http://www.blaby.gov.uk,-1.22837200000000,LE3 3NQ,2014-05-02,fhrs_5_en-GB,5,,FHRS,5
45654,,Gwendoline Drive,Countesthorpe,Leicestershire,Greenfield Primary School,School/college/university,7845,5,,159857,10,,52.68526077270508,P031CTGWEN/1,209,environmental.health@blaby.gov.uk,Blaby,http://www.blaby.gov.uk,-1.13088500499725,LE8 3SG,2014-04-30,fhrs_4_en-GB,4,,FHRS,5
45655,,,,,Greengrass Farmhouse Preserves,Other catering premises,7841,5,,152971,5,,,C101ELSTAN/1,209,environmental.health@blaby.gov.uk,Blaby,http://www.blaby.gov.uk,,,2014-05-02,fhrs_5_en-GB,5,,FHRS,5
45656,,,,,Greets Fruit,Retailers - other,4613,,,656679,,,,B02*WH2LOU/1,209,environmental.health@blaby.gov.uk,Blaby,http://www.blaby.gov.uk,,,2014-05-02,fhrs_exempt_en-GB,Exempt,,FHRS,
45657,,9 Johns Court,Blaby,Leicestershire,Greggs,Retailers - other,4613,5,,331924,5,,52.57488600000000,R061BL9JOH/2,209,environmental.health@blaby.gov.uk,Blaby,http://www.blaby.gov.uk,-1.16391100000000,LE8 4DJ,2014-02-13,fhrs_5_en-GB,5,,FHRS,5
45658,Unit 1,Fosse Park Avenue,Enderby,Leicestershire,Greggs,Restaurant/Cafe/Canteen,1,0,,185240,5,,52.58835700000000,R061ENFOSS/1,209,environmental.health@blaby.gov.uk,Blaby,http://www.blaby.gov.uk,-1.18653300000000,LE19 2BS,2014-09-04,fhrs_5_en-GB,5,,FHRS,5
45659,,Thornton Drive,Narborough,Leicestershire,Greystoke County Primary School,School/college/university,7845,0,,159870,0,,52.57381200000000,P031NATHOR/1,209,environmental.health@blaby.gov.uk,Blaby,http://www.blaby.gov.uk,-1.20251800000000,LE19 2GX,2012-10-09,fhrs_5_en-GB,5,,FHRS,5
45660,Grove Farm,8 Barton Close,Grove Park,Leicestershire,Grove Farm,Restaurant/Cafe/Canteen,1,5,,687353,5,,,C051EN8BAR/1,209,environmental.health@blaby.gov.uk,Blaby,http://www.blaby.gov.uk,,,2014-07-04,fhrs_5_en-GB,5,,FHRS,0
45661,,1a George Street,Enderby,Leicestershire,Harlequins Day Nursery,Hospitals/Childcare/Caring Premises,5,5,,160188,5,,52.58719600000000,P071EN1AGE/1,209,environmental.health@blaby.gov.uk,Blaby,http://www.blaby.gov.uk,-1.21287300000000,LE19 4NQ,2014-03-13,fhrs_5_en-GB,5,,FHRS,5
45662,"Harvester Grill/Restaurant, Unit J",Meridian Leisure Park,Lubbesthorpe Way,Leicestershire,Harvester Meridian,Restaurant/Cafe/Canteen,1,5,,468189,10,,52.61382900000000,C055BRMERI/3,209,environmental.health@blaby.gov.uk,Blaby,http://www.blaby.gov.uk,-1.18560400000000,LE19 1JZ,2014-11-14,fhrs_4_en-GB,4,,FHRS,5
45663,,16 Hinckley Road,Leicester Forest East,Leicestershire,Hayre Newsagents,Retailers - other,4613,5,,185155,5,,52.62591300000000,R02*LE16HI/1,209,environmental.health@blaby.gov.uk,Blaby,http://www.blaby.gov.uk,-1.20433400000000,LE3 3GH,2014-05-02,fhrs_5_en-GB,5,,FHRS,5
45664,Co-Operative Retail Services Ltd,Church Street,Sapcote,Leicestershire,Heart of England Co-Op Society,Retailers - other,4613,0,,185156,0,,52.53551400000000,R02*SACHUR/1,209,environmental.health@blaby.gov.uk,Blaby,http://www.blaby.gov.uk,-1.28108400000000,LE9 4FG,2013-03-28,fhrs_5_en-GB,5,,FHRS,5
45665,,Hill Street,Croft,Leicestershire,Heathcote Arms,Pub/bar/nightclub,7843,5,,151846,10,,52.55950400000000,C01*CRHILL/1,209,environmental.health@blaby.gov.uk,Blaby,http://www.blaby.gov.uk,-1.24568800000000,LE9 3EG,2014-03-26,fhrs_4_en-GB,4,,FHRS,5
45666,,,,,Hedgerow Products Ltd,Other catering premises,7841,5,,152865,5,,,C10*BL5WAR/1,209,environmental.health@blaby.gov.uk,Blaby,http://www.blaby.gov.uk,,,2013-03-05,fhrs_5_en-GB,5,,FHRS,0
45667,,,,,Hem's Catering,Other catering premises,7841,5,,552869,5,,,C101LE34BE/1,209,environmental.health@blaby.gov.uk,Blaby,http://www.blaby.gov.uk,,,2014-05-02,fhrs_5_en-GB,5,,FHRS,5
45668,Hill View Nurseries,Croft Road,Thurlaston,Leicestershire,Hillside Tea Rooms,Restaurant/Cafe/Canteen,1,5,,152466,5,,52.58163300000000,C06*THCROF/1,209,environmental.health@blaby.gov.uk,Blaby,http://www.blaby.gov.uk,-1.26067200000000,LE9 7TB,2014-11-27,fhrs_4_en-GB,4,,FHRS,10
45669,,9 Mill Lane,Enderby,Leicestershire,Hi-Tide Fish Bar,Takeaway/sandwich shop,7844,5,,185120,5,,52.58719800000000,R011EN9MIL/1,209,environmental.health@blaby.gov.uk,Blaby,http://www.blaby.gov.uk,-1.20781000000000,LE19 4NW,2013-03-20,fhrs_5_en-GB,5,,FHRS,0
45670,,34 Leicester Road,Narborough,Leicestershire,Hi-Tide Fish Bar,Takeaway/sandwich shop,7844,5,,185128,5,,52.57225200000000,R011NA34LE/1,209,environmental.health@blaby.gov.uk,Blaby,http://www.blaby.gov.uk,-1.20303300000000,LE19 2HL,2013-03-21,fhrs_5_en-GB,5,,FHRS,5
45671,Unit B1,Meridian Leisure Park,Braunstone Town,Leicestershire,Hollywood Bowl,Restaurant/Cafe/Canteen,1,0,,491610,5,,52.61382900000000,E001BRMERI/1,209,environmental.health@blaby.gov.uk,Blaby,http://www.blaby.gov.uk,-1.18560400000000,LE19 1JZ,2015-01-08,fhrs_5_en-GB,5,,FHRS,5
45672,,Dog And Gun Lane,Whetstone,Leicestershire,Holmes Park,Other catering premises,7841,10,,155291,5,,52.56075000000000,E051WHDOGA/1,209,environmental.health@blaby.gov.uk,Blaby,http://www.blaby.gov.uk,-1.17632000000000,LE8 6FA,2012-10-19,fhrs_4_en-GB,4,,FHRS,5
45673,Thorpe Astley Community Centre,Lakin Drive,Thorpe Astley,Leicestershire,Home 2 Home Childcare,Hospitals/Childcare/Caring Premises,5,10,,219069,5,,52.61877900000000,P11*BRLAKI/1,209,environmental.health@blaby.gov.uk,Blaby,http://www.blaby.gov.uk,-1.20091800000000,LE3 3RU,2014-05-02,fhrs_4_en-GB,4,,FHRS,0
45674,,Mill Lane,Enderby,Leicestershire,Honey Bees Ltd,Hospitals/Childcare/Caring Premises,5,,,219070,,,52.58719800000000,P12HENMILL/1,209,environmental.health@blaby.gov.uk,Blaby,http://www.blaby.gov.uk,-1.20781000000000,LE19 4NW,2014-05-02,fhrs_exempt_en-GB,Exempt,,FHRS,
45675,,27 Lutterworth Road,Blaby,Leicestershire,Hong Kong Take Away,Takeaway/sandwich shop,7844,5,,185107,5,,52.57329400000000,R011BL27LU/1,209,environmental.health@blaby.gov.uk,Blaby,http://www.blaby.gov.uk,-1.16512100000000,LE8 4DW,2014-03-26,fhrs_5_en-GB,5,,FHRS,5
45676,,Howard Road,Glen Parva,Leicestershire,Howard Road Off Licence,Retailers - other,4613,5,,185314,5,,52.58676900000000,R111GPHOWA/1,209,environmental.health@blaby.gov.uk,Blaby,http://www.blaby.gov.uk,-1.16504200000000,LE2 9JH,2014-05-02,fhrs_5_en-GB,5,,FHRS,5
45677,Community Centre,Denman Lane,Huncote,Leicestershire,Huncote Community Playgroup,Other catering premises,7841,,,155254,,,52.57417000000000,E01*HUDENM/1,209,environmental.health@blaby.gov.uk,Blaby,http://www.blaby.gov.uk,-1.23491500000000,LE9 3BS,2014-05-02,fhrs_exempt_en-GB,Exempt,,FHRS,
45678,,6 Main Street,Huncote,Leicestershire,Huncote Fish Bar,Takeaway/sandwich shop,7844,10,,185103,10,,52.57147100000000,R01*HU6MAI/2,209,environmental.health@blaby.gov.uk,Blaby,http://www.blaby.gov.uk,-1.24024500000000,LE9 3AU,2014-08-22,fhrs_3_en-GB,3,,FHRS,10
45679,,Forest Road,Huncote,Leicestershire,Huncote Methodist Church & Hall,Other catering premises,7841,0,,155257,5,,52.57384500000000,E011HUFORE/1,209,environmental.health@blaby.gov.uk,Blaby,http://www.blaby.gov.uk,-1.23751800000000,LE9 3BH,2014-02-17,fhrs_5_en-GB,5,,FHRS,5
45680,,Denman Lane,Huncote,Leicestershire,Huncote Primary School,School/college/university,7845,0,,159866,0,,52.57417000000000,P031HUDENM/1,209,environmental.health@blaby.gov.uk,Blaby,http://www.blaby.gov.uk,-1.23491500000000,LE9 3BS,2013-12-03,fhrs_5_en-GB,5,,FHRS,5
45681,,Enderby Road,Thurlaston,Leicestershire,Huncote Sports & Social Club,Pub/bar/nightclub,7843,,,152310,,,52.58872500000000,C041THENDE/1,209,environmental.health@blaby.gov.uk,Blaby,http://www.blaby.gov.uk,-1.24988100000000,,2014-05-02,fhrs_exempt_en-GB,Exempt,,FHRS,
45682,The Pavilion,Sportsfield Lane,Huncote,Leicestershire,Huncote Sure Start Children's Centre,Hospitals/Childcare/Caring Premises,5,,,160280,,,52.57506600000000,P12*HUSPOR/1,209,environmental.health@blaby.gov.uk,Blaby,http://www.blaby.gov.uk,-1.24143700000000,LE9 3BN,2014-05-02,fhrs_exempt_en-GB,Exempt,,FHRS,
45683,,5 Wardens Walk,Leicester Forest East,Leicestershire,J C Mini Market,Retailers - other,4613,20,,185149,5,,52.62405900000000,R02*BR5WAR/1,209,environmental.health@blaby.gov.uk,Blaby,http://www.blaby.gov.uk,-1.20008300000000,LE3 3GF,2014-02-18,fhrs_1_en-GB,1,,FHRS,5
45684,"Widdowsons, Mill Lane Ind Est",The Mill Lane,Glenfield,Leicestershire,Jane's Catering,Restaurant/Cafe/Canteen,1,10,,152121,10,,52.64954500000000,C02*GLTHEM/1,209,environmental.health@blaby.gov.uk,Blaby,http://www.blaby.gov.uk,-1.21608500000000,LE3 8DX,2014-12-17,fhrs_3_en-GB,3,,FHRS,10
45685,,,,,Janes Sweet Treats,Other catering premises,7841,5,,152959,5,,,C101BR10BA/1,209,environmental.health@blaby.gov.uk,Blaby,http://www.blaby.gov.uk,,,2014-05-02,fhrs_5_en-GB,5,,FHRS,5
45686,,,,,Jeff & Lee's Ices,Mobile caterer,7846,5,,185342,5,,,R131BR5DUN/1,209,environmental.health@blaby.gov.uk,Blaby,http://www.blaby.gov.uk,,,2014-05-02,fhrs_5_en-GB,5,,FHRS,5
45687,4 Beaumount House,12 Lutterworth Road,Blaby,Leicestershire,John Milner (Bakers) Ltd,Manufacturers/packers,7839,0,,185238,0,,52.57338000000000,R061BL12LU/1,209,environmental.health@blaby.gov.uk,Blaby,http://www.blaby.gov.uk,-1.16454400000000,LE8 4DN,2012-10-17,fhrs_5_en-GB,5,,FHRS,5
45688,,,,,Jude's Cakes,Other catering premises,7841,5,,152972,5,,,C101EN141C/1,209,environmental.health@blaby.gov.uk,Blaby,http://www.blaby.gov.uk,,,2014-05-02,fhrs_5_en-GB,5,,FHRS,5
45689,,25 Watergate Lane,Braunstone Town,Leicestershire,Jumbo's Takeaway,Takeaway/sandwich shop,7844,5,,185110,5,,52.60493900000000,R011BR25WA/1,209,environmental.health@blaby.gov.uk,Blaby,http://www.blaby.gov.uk,-1.18184100000000,LE3 2XQ,2013-07-16,fhrs_4_en-GB,4,,FHRS,10
45690,Food Court,Fosse Park Avenue,Enderby,Leicestershire,K F C,Takeaway/sandwich shop,7844,0,,185144,5,,52.59753500000000,R01GENFOSS/3,209,environmental.health@blaby.gov.uk,Blaby,http://www.blaby.gov.uk,-1.18119600000000,LE19 1HY,2014-01-23,fhrs_5_en-GB,5,,FHRS,5
45691,,57 Tournament Road,Glenfield,Leicestershire,K K Grocers,Retailers - other,4613,10,,185164,10,,52.64309600000000,R021GL57TO/1,209,environmental.health@blaby.gov.uk,Blaby,http://www.blaby.gov.uk,-1.19549500000000,LE3 8LQ,2013-03-28,fhrs_3_en-GB,3,,FHRS,5
45692,,Leicester Road,Narborough,Leicestershire,K M Brennan  (Chemist),Retailers - other,4613,,,185274,,,52.68526077270508,R09*NALEIC/1,209,environmental.health@blaby.gov.uk,Blaby,http://www.blaby.gov.uk,-1.13088500499725,LE9 5DF,2014-05-02,fhrs_exempt_en-GB,Exempt,,FHRS,
45693,,2 Cambridge Road,Whetstone,Leicestershire,Kaffir Inn,Pub/bar/nightclub,7843,10,,338100,10,,52.56190500000000,C01*WH2CAM/1,209,environmental.health@blaby.gov.uk,Blaby,http://www.blaby.gov.uk,-1.18209600000000,LE8 6LG,2013-04-30,fhrs_3_en-GB,3,,FHRS,10
45694,,,,,Karen Blair Cakes,Other catering premises,7841,,,152965,,,,C101CO11ST/1,209,environmental.health@blaby.gov.uk,Blaby,http://www.blaby.gov.uk,,,2014-05-02,fhrs_exempt_en-GB,Exempt,,FHRS,
45695,,117 Hinckley Road,Leicester Forest East,Leicestershire,Kathleen Rutland Home,Hospitals/Childcare/Caring Premises,5,5,,186026,5,,52.62516300000000,T071LE117H/1,209,environmental.health@blaby.gov.uk,Blaby,http://www.blaby.gov.uk,-1.21467400000000,LE3 3PF,2013-10-11,fhrs_5_en-GB,5,,FHRS,5
45696,,,,,Kathryn Smith Cake Design,Other catering premises,7841,0,,580925,5,,,C101CT74RI/1,209,environmental.health@blaby.gov.uk,Blaby,http://www.blaby.gov.uk,,,2014-05-02,fhrs_5_en-GB,5,,FHRS,0
45697,"The Hut, Kirby Muxloe Village Hall",Station Road,Kirby Muxloe,Leicestershire,Kidaroo After School Club,Hospitals/Childcare/Caring Premises,5,5,,160194,5,,52.62944800000000,P071KMSTAT/1,209,environmental.health@blaby.gov.uk,Blaby,http://www.blaby.gov.uk,-1.23050900000000,LE9 2EN,2014-05-02,fhrs_4_en-GB,4,,FHRS,10
45698,Thorpe Astley Community Centre,Lakin Drive,Thorpe Astley,Leicestershire,Kidaroo Ltd,Hospitals/Childcare/Caring Premises,5,,,410640,,,52.61877900000000,P07*BRLAKI/1,209,environmental.health@blaby.gov.uk,Blaby,http://www.blaby.gov.uk,-1.20091800000000,LE3 3RU,2012-09-17,fhrs_exempt_en-GB,Exempt,,FHRS,
45699,,Beggars Lane,Leicester Forest East,Leicestershire,Kingstand Golf & Country Club,Restaurant/Cafe/Canteen,1,10,,155378,5,,52.61825900000000,E191LEBEGG/1,209,environmental.health@blaby.gov.uk,Blaby,http://www.blaby.gov.uk,-1.22837200000000,LE3 3NQ,2014-05-02,fhrs_4_en-GB,4,,FHRS,5
45700,Kingsway Primary School,Kingsway North,Braunstone Town,Leicestershire,Kingsway Primary School,School/college/university,7845,0,,160062,5,,52.61770300000000,P03HBRKING/1,209,environmental.health@blaby.gov.uk,Blaby,http://www.blaby.gov.uk,-1.18427600000000,LE3 3BD,2013-10-08,fhrs_5_en-GB,5,,FHRS,5
45701,,Kirby Lane,Leicester Forest East,Leicestershire,Kirby House,Hospitals/Childcare/Caring Premises,5,5,,491617,5,,52.62617600000000,T07*LEKIRB/1,209,environmental.health@blaby.gov.uk,Blaby,http://www.blaby.gov.uk,-1.22092000000000,LE9 2JG,2014-03-19,fhrs_4_en-GB,4,,FHRS,10
45702,,Station Road,Kirby Muxloe,Leicestershire,Kirby Muxloe Bowls Club,Other catering premises,7841,5,,155282,5,,52.62944800000000,E051KMSTAT/3,209,environmental.health@blaby.gov.uk,Blaby,http://www.blaby.gov.uk,-1.23050900000000,LE9 2EN,2014-05-02,fhrs_5_en-GB,5,,FHRS,5
45703,,45 Barwell Road,Kirby Muxloe,Leicestershire,Kirby Muxloe Day Nursery,Other catering premises,7841,5,,160193,5,,52.63301400000000,P071KM45BA/1,209,environmental.health@blaby.gov.uk,Blaby,http://www.blaby.gov.uk,-1.23425900000000,LE9 2AA,2014-03-03,fhrs_5_en-GB,5,,FHRS,0
45704,,Station Road,Kirby Muxloe,Leicestershire,Kirby Muxloe Golf Club,Other catering premises,7841,10,,155281,5,,52.58568900000000,E051KMSTAT/2,209,environmental.health@blaby.gov.uk,Blaby,http://www.blaby.gov.uk,-1.27548900000000,LE9 9EP,2014-10-31,fhrs_3_en-GB,3,,FHRS,10
45705,Library Community Centre,Station Road,Kirby Muxloe,Leicestershire,Kirby Muxloe Lunch Club,Other catering premises,7841,5,,558627,10,,52.62944800000000,C09*KMSTAT/1,209,environmental.health@blaby.gov.uk,Blaby,http://www.blaby.gov.uk,-1.23050900000000,LE9 2EN,2014-05-02,fhrs_4_en-GB,4,,FHRS,5
45706,,Main Street,Kirby Muxloe,Leicestershire,Kirby Muxloe Post Office,Retailers - other,4613,,,185637,,,52.58568900000000,S460KMMAIN/1,209,environmental.health@blaby.gov.uk,Blaby,http://www.blaby.gov.uk,-1.27548900000000,LE9 9AL,2014-05-02,fhrs_exempt_en-GB,Exempt,,FHRS,
45707,Kirby Muxloe Primary School,Barwell Road,Kirby Muxloe,Leicestershire,Kirby Muxloe Primary School,School/college/university,7845,5,,159868,5,,52.63301400000000,P031KMBARW/1,209,environmental.health@blaby.gov.uk,Blaby,http://www.blaby.gov.uk,-1.23425900000000,LE9 2AA,2013-01-23,fhrs_5_en-GB,5,,FHRS,0
45708,,Ratby Lane,Kirby Muxloe,Leicestershire,Kirby Muxloe Sports & Social Club,Other catering premises,7841,5,,155280,5,,52.63946600000000,E051KMRATB/1,209,environmental.health@blaby.gov.uk,Blaby,http://www.blaby.gov.uk,-1.22823500000000,LE9 2AQ,2014-05-02,fhrs_5_en-GB,5,,FHRS,5
45709,,3 Dominus Way,Meridian Business Park,Leicestershire,Kushi Care Nursery,Hospitals/Childcare/Caring Premises,5,10,,517228,5,,,P071BR3DOM/1,209,environmental.health@blaby.gov.uk,Blaby,http://www.blaby.gov.uk,,,2013-10-14,fhrs_3_en-GB,3,,FHRS,10
45710,Langdale House,6 Church Street,Sapcote,Leicestershire,Langdale Residential Home,Hospitals/Childcare/Caring Premises,5,10,,186027,5,,52.53551400000000,T071SA6CHU/1,209,environmental.health@blaby.gov.uk,Blaby,http://www.blaby.gov.uk,-1.28108400000000,LE9 4FG,2014-03-18,fhrs_4_en-GB,4,,FHRS,5
45711,,1 New Road,Stoney Stanton,Leicestershire,Lateshop,Retailers - supermarkets/hypermarkets,7840,5,,185202,5,,52.54825800000000,R031SS1NEW/1,209,environmental.health@blaby.gov.uk,Blaby,http://www.blaby.gov.uk,-1.27885500000000,LE9 4LQ,2012-11-01,fhrs_5_en-GB,5,,FHRS,5
45712,,170 Lutterworth Road,Blaby,Leicestershire,Lavender Bush Day Nursery,Hospitals/Childcare/Caring Premises,5,5,,384213,0,,52.56744500000000,P071BL170L/2,209,environmental.health@blaby.gov.uk,Blaby,http://www.blaby.gov.uk,-1.16692900000000,LE8 4DP,2014-09-12,fhrs_5_en-GB,5,,FHRS,5
45713,Food Court,Fosse Park Avenue,Enderby,Leicestershire,Le Petit Four Francais Ltd,Takeaway/sandwich shop,7844,5,,185122,5,,52.59753500000000,R011ENFOSS/3,209,environmental.health@blaby.gov.uk,Blaby,http://www.blaby.gov.uk,-1.18119600000000,LE19 1HY,2014-03-18,fhrs_5_en-GB,5,,FHRS,0
45714,,91 Dominion Road,Glenfield,Leicestershire,Leena Stores,Retailers - other,4613,5,,185165,10,,52.64476000000000,R021GL91DO/1,209,environmental.health@blaby.gov.uk,Blaby,http://www.blaby.gov.uk,-1.19169500000000,LE3 8JB,2014-05-02,fhrs_4_en-GB,4,,FHRS,5
45715,,8 Sun Way,Braunstone Town,Leicestershire,Lees House,Takeaway/sandwich shop,7844,5,,185113,10,,52.62402300000000,R011BR8SUN/1,209,environmental.health@blaby.gov.uk,Blaby,http://www.blaby.gov.uk,-1.19346600000000,LE3 3DS,2014-03-14,fhrs_4_en-GB,4,,FHRS,5
45716,,89 Dominion Road,Glenfield,Leicestershire,Lee's Kitchen,Takeaway/sandwich shop,7844,5,,185125,0,,52.64538300000000,R011GL89DO/1,209,environmental.health@blaby.gov.uk,Blaby,http://www.blaby.gov.uk,-1.19610300000000,LE3 8FE,2014-12-18,fhrs_5_en-GB,5,,FHRS,5
45717,,Hinckley Road,Leicester Forest East,Leicestershire,Leicester Forest East Tennis Club,Other catering premises,7841,5,,155286,5,,52.61876400000000,E051LEHINC/4,209,environmental.health@blaby.gov.uk,Blaby,http://www.blaby.gov.uk,-1.23267600000000,LE3 3PJ,2014-05-02,fhrs_5_en-GB,5,,FHRS,5
45718,,Hinckley Road,Leicester Forest East,Leicestershire,Leicester Forest Rugby Football Club,Other catering premises,7841,5,,155284,5,,52.62493400000000,E051LEHINC/2,209,environmental.health@blaby.gov.uk,Blaby,http://www.blaby.gov.uk,-1.21939100000000,LE3 3PG,2014-05-20,fhrs_5_en-GB,5,,FHRS,5
45719,Sports Ground,Hinckley Road,Leicester Forest East,Leicestershire,Leicester Ivanhoe Cricket Club,Other catering premises,7841,10,,155283,5,,52.61876400000000,E051LEHINC/1,209,environmental.health@blaby.gov.uk,Blaby,http://www.blaby.gov.uk,-1.23267600000000,LE3 3PJ,2011-11-03,fhrs_4_en-GB,4,,FHRS,5
45720,,Lutterworth Road,Blaby,Leicestershire,Leicester Lions,Other catering premises,7841,5,,155275,5,,52.57338000000000,E051BLLUTT/1,209,environmental.health@blaby.gov.uk,Blaby,http://www.blaby.gov.uk,-1.16454400000000,LE8 4DN,2013-09-22,fhrs_5_en-GB,5,,FHRS,5
45721,Police Headquarters,St. Johns,Enderby,Leicestershire,Leicestershire Constabulary Staff Canteen,Restaurant/Cafe/Canteen,1,0,,159676,5,,52.59190500000000,O501ENSTJO/1,209,environmental.health@blaby.gov.uk,Blaby,http://www.blaby.gov.uk,-1.18478500000000,LE19 2BX,2012-10-25,fhrs_5_en-GB,5,,FHRS,5
45722,County Hall No.1 Offices,Leicester Road,Glenfield,Leicestershire,Leicestershire County Council,Restaurant/Cafe/Canteen,1,5,,152137,5,,52.65756000000000,C021GLLEIC/1,209,environmental.health@blaby.gov.uk,Blaby,http://www.blaby.gov.uk,-1.19151800000000,LE3 8HB,2014-01-08,fhrs_5_en-GB,5,,FHRS,5
45723,Scout Headquarters,Winchester Road,Blaby,Leicestershire,Leicestershire Scout Council,Other catering premises,7841,,,155380,,,52.56189800000000,E201BLWINC/1,209,environmental.health@blaby.gov.uk,Blaby,http://www.blaby.gov.uk,-1.15797600000000,LE8 4HN,2014-05-02,fhrs_exempt_en-GB,Exempt,,FHRS,
45724,Leysland High School,Winchester Road,Countesthorpe,Leicestershire,Leysland High School,School/college/university,7845,5,,159858,5,,52.55649200000000,P031CTWINC/1,209,environmental.health@blaby.gov.uk,Blaby,http://www.blaby.gov.uk,-1.15878800000000,LE8 5PR,2012-12-11,fhrs_5_en-GB,5,,FHRS,5
45725,,18 Hinckley Road,Leicester Forest East,Leicestershire,LFE P.O. and Postie & Toastie,Restaurant/Cafe/Canteen,1,10,,185241,10,,52.62591300000000,R061LE18HI/1,209,environmental.health@blaby.gov.uk,Blaby,http://www.blaby.gov.uk,-1.20433400000000,LE3 3GH,2013-08-08,fhrs_3_en-GB,3,,FHRS,10
45726,The Thomas Boyer Centre,Forest House Lane,Leicester Forest East,Leicestershire,Lilliput Day Nursery,Hospitals/Childcare/Caring Premises,5,5,,160196,0,,52.61738500000000,P071LEFORE/2,209,environmental.health@blaby.gov.uk,Blaby,http://www.blaby.gov.uk,-1.22259700000000,LE3 3NU,2013-07-15,fhrs_5_en-GB,5,,FHRS,5
45727,Pied Piper Day Nursery,Stamford Street,Glenfield,Leicestershire,Lilliput Montessori,Hospitals/Childcare/Caring Premises,5,5,,720146,5,,52.64820300000000,P071GLSTAM/1,209,environmental.health@blaby.gov.uk,Blaby,http://www.blaby.gov.uk,-1.20370800000000,LE3 8DL,2014-12-01,fhrs_5_en-GB,5,,FHRS,5
45728,9 Swan Yard,High Street,Whetstone,Leicestershire,Lilliput Montessori Day Nursery,Hospitals/Childcare/Caring Premises,5,5,,160199,5,,52.57053600000000,P071WHHIGH/3,209,environmental.health@blaby.gov.uk,Blaby,http://www.blaby.gov.uk,-1.17954500000000,LE8 6LQ,2013-09-09,fhrs_5_en-GB,5,,FHRS,5
45729,,,,,Linda Sturgess Cakes,Other catering premises,7841,5,,152970,0,,,C101EL3LOV/1,209,environmental.health@blaby.gov.uk,Blaby,http://www.blaby.gov.uk,,,2013-05-10,fhrs_5_en-GB,5,,FHRS,0
45730,,,,,Lindsey's Cakes Leicester,Other catering premises,7841,10,,152873,5,,,C10*GLSTEL/1,209,environmental.health@blaby.gov.uk,Blaby,http://www.blaby.gov.uk,,,2014-05-02,fhrs_4_en-GB,4,,FHRS,5
45731,,,,,Lisa Barrows,Other catering premises,7841,10,,152878,5,,,C10*NA22CA/1,209,environmental.health@blaby.gov.uk,Blaby,http://www.blaby.gov.uk,,,2014-05-02,fhrs_4_en-GB,4,,FHRS,5
45732,St Peters Church Hall,Church Lane,Whetstone,Leicestershire,Little Badgers Playgroup,Hospitals/Childcare/Caring Premises,5,0,,720145,0,,52.57262000000000,P07*WHCHUR/1,209,environmental.health@blaby.gov.uk,Blaby,http://www.blaby.gov.uk,-1.17938800000000,LE8 6BA,2014-01-17,fhrs_5_en-GB,5,,FHRS,0
45733,,Livesey Drive,Sapcote,Leicestershire,Livesey Lodge,Hospitals/Childcare/Caring Premises,5,10,,186028,10,,52.53662700000000,T071SALIVE/1,209,environmental.health@blaby.gov.uk,Blaby,http://www.blaby.gov.uk,-1.28662400000000,LE9 4LP,2014-03-17,fhrs_3_en-GB,3,,FHRS,5
45734,,Station Road,Stoney Stanton,Leicestershire,Living Rock Church,Other catering premises,7841,5,,155405,5,,52.55132500000000,E211SSSTAT/1,209,environmental.health@blaby.gov.uk,Blaby,http://www.blaby.gov.uk,-1.29262400000000,LE9 4LU,2013-03-22,fhrs_5_en-GB,5,,FHRS,5
45735,,2 Victoria Street,Narborough,Leicestershire,Lloyds Chemist,Retailers - other,4613,,,185287,,,52.57306700000000,R091NA2VIC/1,209,environmental.health@blaby.gov.uk,Blaby,http://www.blaby.gov.uk,-1.20002300000000,LE19 2DP,2014-05-02,fhrs_exempt_en-GB,Exempt,,FHRS,
45736,,21 Long Street,Stoney Stanton,Leicestershire,Lloyds Pharmacy,Retailers - other,4613,,,185288,,,52.54891500000000,R091SS21LO/1,209,environmental.health@blaby.gov.uk,Blaby,http://www.blaby.gov.uk,-1.27750300000000,LE9 4DQ,2014-05-02,fhrs_exempt_en-GB,Exempt,,FHRS,
45737,"Unit 1, Warren Court",Warren Lane,Leicester Forest East,Leicestershire,Lloyds Pharmacy,Retailers - other,4613,,,185273,,,52.61878800000000,R09*LEWARR/1,209,environmental.health@blaby.gov.uk,Blaby,http://www.blaby.gov.uk,-1.22678200000000,LE3 3LW,2014-05-02,fhrs_exempt_en-GB,Exempt,,FHRS,
45738,,5 Lutterworth Road,Blaby,Leicestershire,Lloyds Retail Chemist Ltd,Retailers - other,4613,,,185276,,,52.57329400000000,R091BL5LUT/1,209,environmental.health@blaby.gov.uk,Blaby,http://www.blaby.gov.uk,-1.16512100000000,LE8 4DW,2014-05-02,fhrs_exempt_en-GB,Exempt,,FHRS,
45739,,532 Braunstone Lane,Braunstone Town,Leicestershire,Locrendaw Chemist,Retailers - other,4613,,,185279,,,52.62626000000000,R091BR532B/1,209,environmental.health@blaby.gov.uk,Blaby,http://www.blaby.gov.uk,-1.19982200000000,LE3 3DH,2014-05-02,fhrs_exempt_en-GB,Exempt,,FHRS,
45740,,2 Underwood Court,Glenfield,Leicestershire,Londis,Retailers - supermarkets/hypermarkets,7840,10,,720148,10,,52.64486900000000,R03*GL2UND/1,209,environmental.health@blaby.gov.uk,Blaby,http://www.blaby.gov.uk,-1.20387200000000,LE3 8SG,2013-06-24,fhrs_2_en-GB,2,,FHRS,15
45741,,Brookside,Whetstone,Leicestershire,Londis,Retailers - other,4613,0,,185177,5,,52.68526077270508,R021WHBROO/1,209,environmental.health@blaby.gov.uk,Blaby,http://www.blaby.gov.uk,-1.13088500499725,LE8 3LB,2014-05-02,fhrs_5_en-GB,5,,FHRS,5
45742,,7 Sun Way,Braunstone Town,Leicestershire,Londis,Retailers - other,4613,5,,185162,5,,52.62402300000000,R021BR7SUN/1,209,environmental.health@blaby.gov.uk,Blaby,http://www.blaby.gov.uk,-1.19346600000000,LE3 3DS,2014-05-02,fhrs_4_en-GB,4,,FHRS,10
45743,,,,,Lucy's Cakes,Other catering premises,7841,5,,152978,0,,,C101LE3FIE/1,209,environmental.health@blaby.gov.uk,Blaby,http://www.blaby.gov.uk,,,2014-05-02,fhrs_5_en-GB,5,,FHRS,5
45744,,5 The Bank,Countesthorpe,Leicestershire,M Garratt Bakers,Retailers - other,4613,5,,185239,5,,52.55434900000000,R061CT5THE/1,209,environmental.health@blaby.gov.uk,Blaby,http://www.blaby.gov.uk,-1.13593800000000,LE8 5RL,2014-03-07,fhrs_5_en-GB,5,,FHRS,5
45745,,1 St Michaels Court,Stoney Stanton,Leicestershire,M.A.C Family Butchers,Retailers - other,4613,10,,185227,10,,52.54894000000000,R041SS1STM/1,209,environmental.health@blaby.gov.uk,Blaby,http://www.blaby.gov.uk,-1.27877000000000,LE9 4TH,2013-08-01,fhrs_3_en-GB,3,,FHRS,10
45746,,1-3 Waring Close,Glenfield,Leicestershire,Macintyre Care,Hospitals/Childcare/Caring Premises,5,,,186017,,,52.64973200000000,T071GL1-3W/1,209,environmental.health@blaby.gov.uk,Blaby,http://www.blaby.gov.uk,-1.18780500000000,LE3 8PZ,2013-03-22,fhrs_exempt_en-GB,Exempt,,FHRS,
45747,,Leicester Road,Enderby,Leicestershire,Macks Garage Ltd,Retailers - other,4613,5,,185601,10,,52.58217600000000,S251ENLEIC/1,209,environmental.health@blaby.gov.uk,Blaby,http://www.blaby.gov.uk,-1.19362900000000,LE19 2BF,2014-05-02,fhrs_4_en-GB,4,,FHRS,5
45748,Makro Multi-Trade Centre,Centurion Way,Meridian Business Park,Leicestershire,Makro,Distributors/Transporters,7,5,,187308,0,,52.60704800000000,W07HBRCENT/1,209,environmental.health@blaby.gov.uk,Blaby,http://www.blaby.gov.uk,-1.19445700000000,LE19 1WG,2014-02-10,fhrs_5_en-GB,5,,FHRS,0
45749,Meridian Travellers Check,Lubbesthorpe Way,Enderby,Leicestershire,Malthurst Meridian,Retailers - other,4613,5,,158659,5,,52.68526077270508,JBBQBRLUBB/1,209,environmental.health@blaby.gov.uk,Blaby,http://www.blaby.gov.uk,-1.13088500499725,LE3 2XT,2014-05-02,fhrs_5_en-GB,5,,FHRS,5
45750,,Lubbesthorpe Way,Braunstone Town,Leicestershire,Malthurst Osiers,Retailers - other,4613,5,,158660,5,,52.60188000000000,JBBQBRLUBB/2,209,environmental.health@blaby.gov.uk,Blaby,http://www.blaby.gov.uk,-1.18022900000000,LE3 2XD,2014-05-02,fhrs_5_en-GB,5,,FHRS,5
45751,,,,,Mandy Squires,Retailers - other,4613,5,,428873,5,,,C101LE6EXC/1,209,environmental.health@blaby.gov.uk,Blaby,http://www.blaby.gov.uk,,,2014-05-02,fhrs_5_en-GB,5,,FHRS,5
45752,Manorfield C Of E Primary School,Station Road,Stoney Stanton,Leicestershire,Manorfield Childrens Club,Hospitals/Childcare/Caring Premises,5,5,,152838,5,,52.55132500000000,C09*SSSTAT/1,209,environmental.health@blaby.gov.uk,Blaby,http://www.blaby.gov.uk,-1.29262400000000,LE9 4LU,2014-05-02,fhrs_5_en-GB,5,,FHRS,5
45753,,Station Road,Stoney Stanton,Leicestershire,Manorfield School,School/college/university,7845,5,,159874,5,,52.55132500000000,P031SSSTAT/1,209,environmental.health@blaby.gov.uk,Blaby,http://www.blaby.gov.uk,-1.29262400000000,LE9 4LU,2013-07-03,fhrs_4_en-GB,4,,FHRS,10
45754,,Fosse Park Avenue,Enderby,Leicestershire,Marks & Spencers Plc,Retailers - supermarkets/hypermarkets,7840,0,,185237,0,,52.58835700000000,R06*ENFOSS/1,209,environmental.health@blaby.gov.uk,Blaby,http://www.blaby.gov.uk,-1.18653300000000,LE19 2BS,2014-05-02,fhrs_5_en-GB,5,,FHRS,5
45755,,Fosse Park Avenue,Enderby,Leicestershire,Marks and Spencer Plc,Retailers - supermarkets/hypermarkets,7840,0,,185629,0,,52.59865400000000,S35GENFOSS/1,209,environmental.health@blaby.gov.uk,Blaby,http://www.blaby.gov.uk,-1.18051100000000,LE19 1HQ,2014-05-01,fhrs_5_en-GB,5,,FHRS,0
45756,Marks & Spencers Plc,Fosse Park Avenue,Enderby,Leicestershire,Marks and Spencer Staff Restaurant,Restaurant/Cafe/Canteen,1,0,,152116,0,,52.58835700000000,C02*ENFOSS/1,209,environmental.health@blaby.gov.uk,Blaby,http://www.blaby.gov.uk,-1.18653300000000,LE19 2BS,2013-03-19,fhrs_5_en-GB,5,,FHRS,5
45757,,Smith Way,Grove Park,Leicestershire,Marriott Hotel,Hotel/bed & breakfast/guest house,7842,0,,186001,0,,52.59893500000000,T015ENSMIT/1,209,environmental.health@blaby.gov.uk,Blaby,http://www.blaby.gov.uk,-1.18998400000000,LE19 1SW,2013-03-06,fhrs_5_en-GB,5,,FHRS,5
45758,6 Forge Corner,Leicester Road,Blaby,Leicestershire,Martins,Retailers - other,4613,5,,185249,5,,52.57609700000000,R071BLLEIC/1,209,environmental.health@blaby.gov.uk,Blaby,http://www.blaby.gov.uk,-1.16360700000000,LE8 4FZ,2014-05-02,fhrs_5_en-GB,5,,FHRS,5
45759,,17 Western Drive,Blaby,Leicestershire,McColl's,Retailers - other,4613,,,481517,,,52.56932900000000,R101BL17WE/1,209,environmental.health@blaby.gov.uk,Blaby,http://www.blaby.gov.uk,-1.16376500000000,LE8 4FR,2014-05-02,fhrs_exempt_en-GB,Exempt,,FHRS,
45760,,Fosse Park Avenue,Enderby,Leicestershire,McDonalds Restaurant Ltd,Restaurant/Cafe/Canteen,1,0,,152356,0,,52.59712000000000,C051ENFOSS/1,209,environmental.health@blaby.gov.uk,Blaby,http://www.blaby.gov.uk,-1.17959500000000,LE19 1HX,2012-08-31,fhrs_5_en-GB,5,,FHRS,0
45761,Mcdonalds Restaurant,Meridian East,Meridian Business Park,Leicestershire,Mcdonalds Restaurants Ltd,Restaurant/Cafe/Canteen,1,5,,481506,5,,52.60563000000000,C051BRMERI/2,209,environmental.health@blaby.gov.uk,Blaby,http://www.blaby.gov.uk,-1.18949200000000,LE19 1WZ,2013-08-15,fhrs_5_en-GB,5,,FHRS,5
45762,,1 The Bank,Countesthorpe,Leicestershire,Mercury News,Retailers - other,4613,,,185298,,,52.55434900000000,R101CT1THE/1,209,environmental.health@blaby.gov.uk,Blaby,http://www.blaby.gov.uk,-1.13593800000000,LE8 5RL,2014-05-02,fhrs_exempt_en-GB,Exempt,,FHRS,
45763,,Croft Road,Cosby,Leicestershire,Mercury News Shop,Retailers - other,4613,5,,185152,5,,52.54839800000000,R02*COCROF/1,209,environmental.health@blaby.gov.uk,Blaby,http://www.blaby.gov.uk,-1.19721200000000,LE9 1RE,2014-05-02,fhrs_5_en-GB,5,,FHRS,5
45764,,119 Station Road,Countesthorpe,Leicestershire,Mercury News Shop,Retailers - other,4613,5,,185159,5,,52.55374400000000,R020CT119S/1,209,environmental.health@blaby.gov.uk,Blaby,http://www.blaby.gov.uk,-1.14922400000000,LE8 5TD,2013-04-03,fhrs_4_en-GB,4,,FHRS,10
45765,,2 Coventry Road,Narborough,Leicestershire,Mercury News Shops,Retailers - other,4613,5,,185307,5,,52.57160800000000,R101NA2COV/1,209,environmental.health@blaby.gov.uk,Blaby,http://www.blaby.gov.uk,-1.20623200000000,LE19 2GR,2014-05-02,fhrs_5_en-GB,5,,FHRS,0
45766,,5 - 7 Mill Lane,Enderby,Leicestershire,Mercury News Shops,Retailers - other,4613,,,185300,,,52.68526077270508,R101EN5-7M/1,209,environmental.health@blaby.gov.uk,Blaby,http://www.blaby.gov.uk,-1.13088500499725,LE9 5NW,2014-05-02,fhrs_exempt_en-GB,Exempt,,FHRS,
45767,,Station Road,Glenfield,Leicestershire,Midlands Co-Operative Petrol Station,Retailers - supermarkets/hypermarkets,7840,5,,647301,5,,52.65145900000000,R02GGLSTAT/1,209,environmental.health@blaby.gov.uk,Blaby,http://www.blaby.gov.uk,-1.20385600000000,LE3 8BQ,2014-05-02,fhrs_5_en-GB,5,,FHRS,5
45768,,13a Froanes Close,Enderby,Leicestershire,Mill Hill News,Retailers - other,4613,5,,185118,5,,52.59330500000000,R011EN13AF/1,209,environmental.health@blaby.gov.uk,Blaby,http://www.blaby.gov.uk,-1.21220200000000,LE19 4XL,2015-01-27,fhrs_5_en-GB,5,,FHRS,5
45769,,12/14 Mill Hill,Enderby,Leicestershire,Mill Hill Stores,Retailers - other,4613,5,,185299,5,,52.59319200000000,R101EN1214/1,209,environmental.health@blaby.gov.uk,Blaby,http://www.blaby.gov.uk,-1.21279500000000,LE19 4AL,2014-05-02,fhrs_5_en-GB,5,,FHRS,5
45770,,Hat Road,Braunstone Town,Leicestershire,Millfield L E A D Academy,School/college/university,7845,5,,160006,5,,52.60808800000000,P03FBRHATR/1,209,environmental.health@blaby.gov.uk,Blaby,http://www.blaby.gov.uk,-1.18225500000000,LE3 2WF,2014-05-02,fhrs_5_en-GB,5,,FHRS,5
45771,,,,,Mocha Mila,Mobile caterer,7846,5,,647305,5,,,R13*BR6BEL/1,209,environmental.health@blaby.gov.uk,Blaby,http://www.blaby.gov.uk,,,2014-05-02,fhrs_5_en-GB,5,,FHRS,5
45772,,Forest Drive,Kirby Muxloe,Leicestershire,Moel-Llys,Hospitals/Childcare/Caring Premises,5,5,,186024,10,,52.58568900000000,T071KMFORE/1,209,environmental.health@blaby.gov.uk,Blaby,http://www.blaby.gov.uk,-1.27548900000000,LE9 9EA,2014-05-02,fhrs_3_en-GB,3,,FHRS,10
45773,,,,,Mollies Cupcakes,Other catering premises,7841,5,,189401,5,,,C10*BR414B/1,209,environmental.health@blaby.gov.uk,Blaby,http://www.blaby.gov.uk,,,2014-05-02,fhrs_5_en-GB,5,,FHRS,5
45774,,64 Station Road,Glenfield,Leicestershire,Morningside Pharmacy,Retailers - other,4613,,,185284,,,52.65145900000000,R091GL64ST/1,209,environmental.health@blaby.gov.uk,Blaby,http://www.blaby.gov.uk,-1.20385600000000,LE3 8BQ,2014-05-02,fhrs_exempt_en-GB,Exempt,,FHRS,
45775,,13 Ashtree Road,Cosby,Leicestershire,Mr Clutton,Mobile caterer,7846,10,,517230,10,,52.55134700000000,R13*CO13AS/1,209,environmental.health@blaby.gov.uk,Blaby,http://www.blaby.gov.uk,-1.19199600000000,LE9 1UA,2014-03-26,fhrs_3_en-GB,3,,FHRS,10
45776,,,,,Mrs Barbara Darlison - Burger City,Mobile caterer,7846,10,,185345,10,,,R131GLSTAT/1,209,environmental.health@blaby.gov.uk,Blaby,http://www.blaby.gov.uk,,,2013-09-13,fhrs_3_en-GB,3,,FHRS,10
45777,,115a Station Road,Countesthorpe,Leicestershire,Myah's Place,Restaurant/Cafe/Canteen,1,10,,152471,10,,52.55374400000000,C061CT115A/1,209,environmental.health@blaby.gov.uk,Blaby,http://www.blaby.gov.uk,-1.14922400000000,LE8 5TD,2013-10-08,fhrs_3_en-GB,3,,FHRS,10
45778,Unit 3 Meridian Leisure Park,Lubbesthorpe Way,Braunstone Town,Leicestershire,Nando's Chickenland Ltd.,Restaurant/Cafe/Canteen,1,0,,152329,5,,52.61382900000000,C05*BRLUBB/2,209,environmental.health@blaby.gov.uk,Blaby,http://www.blaby.gov.uk,-1.18560400000000,LE19 1JZ,2013-08-22,fhrs_5_en-GB,5,,FHRS,0
45779,The Ray Hurd Pavilion,Leicester Road,Narborough,Leicestershire,Narborough & Littlethorpe Sports Club,Retailers - other,4613,10,,152286,5,,52.57225200000000,C04*NALEIC/1,209,environmental.health@blaby.gov.uk,Blaby,http://www.blaby.gov.uk,-1.20303300000000,LE19 2HL,2013-02-12,fhrs_3_en-GB,3,,FHRS,10
45780,Narborough Arms,6 Coventry Road,Narborough,Leicestershire,Narborough Arms Hotel,Pub/bar/nightclub,7843,5,,331911,5,,52.57166300000000,C011NA6COV/2,209,environmental.health@blaby.gov.uk,Blaby,http://www.blaby.gov.uk,-1.20636300000000,LE19 2GR,2014-01-30,fhrs_5_en-GB,5,,FHRS,5
45781,Narborough Bowling And Social Club,Coventry Road,Narborough,Leicestershire,Narborough Bowling Club,Other catering premises,7841,5,,155287,5,,52.57178800000000,E051NACOVE/1,209,environmental.health@blaby.gov.uk,Blaby,http://www.blaby.gov.uk,-1.20497400000000,LE19 2GT,2014-05-02,fhrs_5_en-GB,5,,FHRS,5
45782,,29 Leicester Road,Narborough,Leicestershire,Narborough General Store,Retailers - other,4613,10,,697278,15,,52.57225200000000,R11*NA29LE/1,209,environmental.health@blaby.gov.uk,Blaby,http://www.blaby.gov.uk,-1.20303300000000,LE19 2HL,2014-08-19,fhrs_2_en-GB,2,,FHRS,15
45783,Parish Centre,Desford Road,Narborough,Leicestershire,Narborough Parish Council,Restaurant/Cafe/Canteen,1,10,,160156,10,,52.57258200000000,P06*NADESF/1,209,environmental.health@blaby.gov.uk,Blaby,http://www.blaby.gov.uk,-1.20676000000000,LE19 2EL,2013-03-19,fhrs_3_en-GB,3,,FHRS,10
45784,2 Royal Court,Leicester Road,Narborough,Leicestershire,Narborough Post Office,Retailers - other,4613,5,,185308,5,,52.68526077270508,R101NALEIC/1,209,environmental.health@blaby.gov.uk,Blaby,http://www.blaby.gov.uk,-1.13088500499725,LE9 5DF,2014-05-02,fhrs_5_en-GB,5,,FHRS,5
45785,,,,,Narborough Preserves,Retailers - other,4613,5,,152877,5,,,C10*NA10BU/1,209,environmental.health@blaby.gov.uk,Blaby,http://www.blaby.gov.uk,,,2014-05-02,fhrs_5_en-GB,5,,FHRS,0
45786,,Narborough Post Office,Royal Court,Leicestershire,Narborough Village Post Office,Retailers - other,4613,5,,558630,5,,52.57403500000000,R10*NANARB/1,209,environmental.health@blaby.gov.uk,Blaby,http://www.blaby.gov.uk,-1.20090500000000,LE19 2DF,2014-05-02,fhrs_5_en-GB,5,,FHRS,5
45787,,19 Camden Road,Braunstone Town,Leicestershire,National Autistic Society,Hospitals/Childcare/Caring Premises,5,5,,186008,5,,52.61351500000000,T071BR19CA/1,209,environmental.health@blaby.gov.uk,Blaby,http://www.blaby.gov.uk,-1.17147500000000,LE3 2GF,2014-05-02,fhrs_5_en-GB,5,,FHRS,5
45788,,Sapcote Road,Stoney Stanton,Leicestershire,Nemo's Bar & Diner,Pub/bar/nightclub,7843,5,,151890,5,,52.54542700000000,C011SSSAPC/1,209,environmental.health@blaby.gov.uk,Blaby,http://www.blaby.gov.uk,-1.27605600000000,LE9 4DW,2013-07-18,fhrs_4_en-GB,4,,FHRS,10
45789,,11 Mill Lane,Enderby,Leicestershire,New Wok Express,Takeaway/sandwich shop,7844,5,,185117,10,,52.58719800000000,R011EN11MI/1,209,environmental.health@blaby.gov.uk,Blaby,http://www.blaby.gov.uk,-1.20781000000000,LE19 4NW,2013-06-20,fhrs_4_en-GB,4,,FHRS,5
45790,,107a Turnbull Drive,Braunstone Town,Leicestershire,Newell Chemist,Retailers - other,4613,,,185277,,,52.60982000000000,R091BR107A/1,209,environmental.health@blaby.gov.uk,Blaby,http://www.blaby.gov.uk,-1.17794000000000,LE3 2JW,2014-05-02,fhrs_exempt_en-GB,Exempt,,FHRS,
45791,,Desford Road,Enderby,Leicestershire,Next Directory,Restaurant/Cafe/Canteen,1,10,,152115,10,,52.59896000000000,C02*ENDESF/1,209,environmental.health@blaby.gov.uk,Blaby,http://www.blaby.gov.uk,-1.22732300000000,LE19 4AD,2014-10-27,fhrs_3_en-GB,3,,FHRS,5
45792,,Desford Road,Enderby,Leicestershire,Next Plc,Restaurant/Cafe/Canteen,1,5,,159661,5,,52.59151900000000,O111ENDESF/1,209,environmental.health@blaby.gov.uk,Blaby,http://www.blaby.gov.uk,-1.21273600000000,LE19 4AB,2013-05-23,fhrs_5_en-GB,5,,FHRS,0
45793,Next Plc,Desford Road,Enderby,Leicestershire,Next Steps Nursery,Hospitals/Childcare/Caring Premises,5,0,,558626,0,,52.59896000000000,C08*ENDESF/1,209,environmental.health@blaby.gov.uk,Blaby,http://www.blaby.gov.uk,-1.22732300000000,LE19 4AD,2015-02-03,fhrs_5_en-GB,5,,FHRS,5
45794,,,,,Occasional Cakes Leicester,Other catering premises,7841,5,,152967,5,,,C101CT18HE/1,209,environmental.health@blaby.gov.uk,Blaby,http://www.blaby.gov.uk,,,2014-05-02,fhrs_5_en-GB,5,,FHRS,5
45795,"Unit 5, Copt Oak Court",Hardwicke Road,Narborough,Leicestershire,Old Barn Day Nursery,Hospitals/Childcare/Caring Premises,5,5,,434447,0,,52.57582800000000,P07*NAHARD/2,209,environmental.health@blaby.gov.uk,Blaby,http://www.blaby.gov.uk,-1.21762100000000,LE19 3WY,2014-01-27,fhrs_5_en-GB,5,,FHRS,5
45796,Sports Ground,Hinckley Road,Leicester Forest East,Leicestershire,Old Newtonians R.F.C,Other catering premises,7841,10,,155285,10,,52.61876400000000,E051LEHINC/3,209,environmental.health@blaby.gov.uk,Blaby,http://www.blaby.gov.uk,-1.23267600000000,LE3 3PJ,2012-11-30,fhrs_3_en-GB,3,,FHRS,10
45797,,,,,Oliveti Mobile Ice Cream,Mobile caterer,7846,5,,185354,10,,,R13GBR20RA/1,209,environmental.health@blaby.gov.uk,Blaby,http://www.blaby.gov.uk,,,2014-05-02,fhrs_4_en-GB,4,,FHRS,5
45798,,13 Watergate Lane,Braunstone Town,Leicestershire,One Stop,Retailers - other,4613,5,,720147,5,,52.60493900000000,R02*BR13WA/1,209,environmental.health@blaby.gov.uk,Blaby,http://www.blaby.gov.uk,-1.18184100000000,LE3 2XQ,2014-05-02,fhrs_5_en-GB,5,,FHRS,5
45799,,26 Main Street,Kirby Muxloe,Leicestershire,One Stop Plc,Retailers - other,4613,5,,185154,10,,52.63567500000000,R02*KM26MA/1,209,environmental.health@blaby.gov.uk,Blaby,http://www.blaby.gov.uk,-1.23418300000000,LE9 2AL,2013-07-29,fhrs_3_en-GB,3,,FHRS,10
45800,,81 Henley Crescent,Braunstone Town,Leicestershire,Oriental House,Takeaway/sandwich shop,7844,10,,185099,15,,52.61513100000000,R01*BR81HE/2,209,environmental.health@blaby.gov.uk,Blaby,http://www.blaby.gov.uk,-1.17890400000000,LE3 2SB,2013-10-10,fhrs_2_en-GB,2,,FHRS,10
45801,,63 Victoria Road,Whetstone,Leicestershire,Oriental Kitchen,Takeaway/sandwich shop,7844,5,,331915,5,,52.57514700000000,C05*WH63VI/1,209,environmental.health@blaby.gov.uk,Blaby,http://www.blaby.gov.uk,-1.17820400000000,LE8 6JY,2013-10-09,fhrs_5_en-GB,5,,FHRS,5
45802,,Johns Court,Blaby,Leicestershire,P & S Reeves Twin News,Retailers - other,4613,5,,185248,5,,52.57471900000000,R071BLJOHN/1,209,environmental.health@blaby.gov.uk,Blaby,http://www.blaby.gov.uk,-1.16364700000000,,2014-05-02,fhrs_5_en-GB,5,,FHRS,5
45803,,,,,P.s. I Love Cake,Other catering premises,7841,5,,535041,5,,,C101BR16FO/1,209,environmental.health@blaby.gov.uk,Blaby,http://www.blaby.gov.uk,,,2014-05-02,fhrs_5_en-GB,5,,FHRS,5
45804,,79 St Johns,Enderby,Leicestershire,Palmers Garden Centre,Restaurant/Cafe/Canteen,1,10,,570037,10,,52.58835700000000,S231EN79ST/1,209,environmental.health@blaby.gov.uk,Blaby,http://www.blaby.gov.uk,-1.18653300000000,LE19 2BS,2013-06-11,fhrs_3_en-GB,3,,FHRS,5
45805,,102 Dominion Road,Glenfield,Leicestershire,Parkem Chemist Limited,Retailers - other,4613,,,185283,,,52.64581300000000,R091GL102D/1,209,environmental.health@blaby.gov.uk,Blaby,http://www.blaby.gov.uk,-1.19584400000000,LE3 8FB,2014-05-02,fhrs_exempt_en-GB,Exempt,,FHRS,
45806,"Unit 4, Copt Oak Court",Hardwicke Road,Narborough,Leicestershire,Pastures Chinese Takeaway,Takeaway/sandwich shop,7844,20,,331921,10,,52.57582800000000,R01*NAHARD/1,209,environmental.health@blaby.gov.uk,Blaby,http://www.blaby.gov.uk,-1.21762100000000,LE19 3WY,2013-10-11,fhrs_1_en-GB,1,,FHRS,10
45807,,,,,Patricia Taylor,Other catering premises,7841,5,,710585,5,,,C10*SS2JAM/1,209,environmental.health@blaby.gov.uk,Blaby,http://www.blaby.gov.uk,,,2014-09-29,fhrs_5_en-GB,5,,FHRS,5
45808,,3 Broughton Road,Stoney Stanton,Leicestershire,Peking House,Takeaway/sandwich shop,7844,10,,447131,10,,52.54616000000000,R01*SS3BRO/1,209,environmental.health@blaby.gov.uk,Blaby,http://www.blaby.gov.uk,-1.26951100000000,LE9 4JA,2013-09-18,fhrs_3_en-GB,3,,FHRS,10
45809,,,,,Petals Party Pieces,Retailers - other,4613,,,464706,,,,R50*BR4MAN/1,209,environmental.health@blaby.gov.uk,Blaby,http://www.blaby.gov.uk,,,2014-05-02,fhrs_exempt_en-GB,Exempt,,FHRS,
45810,Corner Stone St Andrews Church,Main Street,Countesthorpe,Leicestershire,Petites Playschool,Hospitals/Childcare/Caring Premises,5,5,,160206,10,,52.55305900000000,P07HCTMAIN/1,209,environmental.health@blaby.gov.uk,Blaby,http://www.blaby.gov.uk,-1.13774800000000,LE8 5QX,2014-05-02,fhrs_3_en-GB,3,,FHRS,10
45811,,,,,Pickle And Spice Ltd,Other catering premises,7841,20,,430077,15,,,C10*GP10BR/1,209,environmental.health@blaby.gov.uk,Blaby,http://www.blaby.gov.uk,,,2014-02-19,fhrs_1_en-GB,1,,FHRS,10
45812,Glenfield House,The Square,Glenfield,Leicestershire,Pied Piper Day Nursery,Hospitals/Childcare/Caring Premises,5,5,,160191,5,,52.64979800000000,P071GLTHES/1,209,environmental.health@blaby.gov.uk,Blaby,http://www.blaby.gov.uk,-1.20561500000000,LE3 8DQ,2015-02-04,fhrs_5_en-GB,5,,FHRS,5
45813,,,,,Pips Puds,Other catering premises,7841,5,,552870,5,,,C101SS72UN/1,209,environmental.health@blaby.gov.uk,Blaby,http://www.blaby.gov.uk,,,2014-05-02,fhrs_5_en-GB,5,,FHRS,5
45814,,19 Watergate Lane,Braunstone Town,Leicestershire,Pizza Chef,Takeaway/sandwich shop,7844,10,,656684,5,,52.60493900000000,R01*BR19WA/1,209,environmental.health@blaby.gov.uk,Blaby,http://www.blaby.gov.uk,-1.18184100000000,LE3 2XQ,2014-03-20,fhrs_4_en-GB,4,,FHRS,0
45815,,"Meridian Leisure Park, Lubbesthorpe Way",Braunstone Town,Leicestershire,Pizza Hut,Restaurant/Cafe/Canteen,1,5,,152351,5,,52.61382900000000,C051BRMERI/3,209,environmental.health@blaby.gov.uk,Blaby,http://www.blaby.gov.uk,-1.18560400000000,LE19 1JZ,2013-02-18,fhrs_5_en-GB,5,,FHRS,5
45816,,Grove Farm Triangle,Enderby,Leicestershire,Pizza Hut (Uk) Ltd,Restaurant/Cafe/Canteen,1,0,,152357,5,,52.59800700000000,C051ENGROV/1,209,environmental.health@blaby.gov.uk,Blaby,http://www.blaby.gov.uk,-1.18566100000000,LE19 1WW,2013-03-05,fhrs_5_en-GB,5,,FHRS,5
45817,Food Court - Unit 3,Fosse Park Avenue,Enderby,Leicestershire,Pizza Hut Express,Takeaway/sandwich shop,7844,5,,185123,5,,52.59753500000000,R011ENFOSS/5,209,environmental.health@blaby.gov.uk,Blaby,http://www.blaby.gov.uk,-1.18119600000000,LE19 1HY,2014-01-23,fhrs_5_en-GB,5,,FHRS,0
45818,"Unit 3, Copt Oak Court",Hardwicke Road,Narborough,Leicestershire,Pizza Plaza,Takeaway/sandwich shop,7844,5,,331923,5,,52.57582800000000,R01FNAHARD/1,209,environmental.health@blaby.gov.uk,Blaby,http://www.blaby.gov.uk,-1.21762100000000,LE19 3WY,2014-12-18,fhrs_4_en-GB,4,,FHRS,10
45819,,2 The Bank,Countesthorpe,Leicestershire,Pizza Point,Takeaway/sandwich shop,7844,20,,535043,15,,52.55434900000000,R01*CT2THE/1,209,environmental.health@blaby.gov.uk,Blaby,http://www.blaby.gov.uk,-1.13593800000000,LE8 5RL,2014-09-17,fhrs_1_en-GB,1,,FHRS,10
45820,,,,,Pop Delivery,Mobile caterer,7846,5,,185321,5,,,R13*CT65BA/1,209,environmental.health@blaby.gov.uk,Blaby,http://www.blaby.gov.uk,,,2014-05-02,fhrs_5_en-GB,5,,FHRS,5
