,businessname,ratingvalue,structural,hygiene,confidenceinmanagement,ratingdate,latitude,longitude
45444,"""woodhouse Farm, Shop & Butchery""",5,5,5,5,2014-12-09,52.554214,-1.308286
45445,1st Stoney Stanton Scouts,Exempt,nan,nan,nan,2014-05-02,52.54616,-1.269511
45446,360 Play (Leicester) Ltd,5,5,0,5,2014-06-10,,
45447,42nd Leic Scouts Group Scout Hut,Exempt,nan,nan,nan,2014-05-02,52.648203,-1.203708
45448,A & J Mobile Catering,5,5,5,5,2014-05-02,,
45449,A A Moore & Sons,5,5,5,5,2014-05-02,52.585689,-1.275489
45450,Aldi Stores Ltd.,5,5,5,5,2014-05-02,52.614482,-1.191736
45451,Aldi Stores Ltd.,3,10,10,10,2013-05-13,,
45452,Alexandra House,2,5,15,10,2014-02-17,52.570897,-1.234913
45453,All Saints Church,Exempt,nan,nan,nan,2013-03-19,52.535514,-1.281084
45454,Amy's Cakes,5,5,5,5,2014-05-02,,
45455,Anchor Trust,5,0,0,5,2014-03-31,52.604966,-1.179286
45456,Andy Kims Movie Zone,Exempt,nan,nan,nan,2014-05-02,52.624059,-1.200083
45457,Annie's Patisserie,3,10,10,10,2014-03-17,52.576606,-1.16311
45458,Aquarius Fish Bar,5,5,5,5,2014-03-27,52.650521,-1.194146
45459,Asda - Staff Canteen,5,5,5,5,2012-10-03,52.59994,-1.177918
45460,Asda Cafe,5,0,0,5,2014-05-12,52.59994,-1.177918
45461,Asda Stores Ltd,5,5,5,5,2014-05-12,52.59994,-1.177918
45462,Aspects at the Plough,1,10,15,20,2014-10-29,52.593192,-1.212795
45463,Attfields Farm Shop Ltd.,3,10,10,10,2013-06-12,52.549973,-1.179191
45464,Audi Leicester,Exempt,nan,nan,nan,2014-05-02,52.604154,-1.174974
45465,Axe & Square,3,10,10,10,2014-09-05,52.555264,-1.135581
45466,Aylesham Nursing Home,5,0,5,5,2014-03-19,52.622211,-1.226426
45467,Ayston Chippy,5,5,5,5,2013-10-04,52.614488,-1.170512
45468,Ayston Road Post Office,Exempt,nan,nan,nan,2014-05-02,52.614488,-1.170512
45469,Ayston Road Supermarket,4,5,5,10,2014-01-23,52.614488,-1.170512
45470,Badger Brook Primary School,5,5,5,0,2013-07-11,52.547384,-1.05364
45471,Badgers Mount Hotel and Restaurant,3,10,10,5,2014-09-15,52.560841,-1.311751
45472,Baked Cakes,5,5,5,5,2014-05-02,,
45473,Bakers Arms,3,10,10,10,2014-02-20,52.576488,-1.160383
45474,Bangla Lodge,1,10,10,20,2014-03-20,52.549172,-1.193452
45475,Bargain Booze,5,5,5,5,2014-05-02,52.625473,-1.196497
45476,Bargain Booze,5,0,5,5,2014-05-02,52.575705,-1.167953
45477,Bargain Booze,5,5,5,5,2014-05-02,52.648203,-1.203708
45478,Bay Tree Cafe,5,5,5,0,2014-08-19,52.60924,-1.168292
45479,BB19 Youth Bus,AwaitingInspection,nan,nan,nan,,,
45480,Beacon Fish Bar,2,10,15,10,2014-02-06,52.624059,-1.200083
45481,Bella Italia,5,5,0,5,2013-06-25,52.613829,-1.185604
45482,Belly's Hog Roast,3,5,10,10,2013-03-18,,
45483,BHS,5,0,0,0,2013-07-01,52.59712,-1.179595
45484,Bidford General Store,2,15,5,10,2014-02-10,52.619363,-1.183729
45485,Bidford News,4,10,5,5,2014-02-10,52.620974,-1.185338
45486,Bja Sweets,5,5,0,5,2014-05-02,,
45487,Blaby & District Royal British Legion,5,5,5,5,2014-05-02,52.576131,-1.161998
45488,Blaby & Whetstone  Boys Club,3,5,10,10,2014-12-10,52.56773,-1.180733
45489,Blaby and District Social Centre,Exempt,nan,nan,nan,2014-05-02,52.577312,-1.163791
45490,Blaby Bowling Club,5,5,5,5,2013-03-19,52.577186,-1.163734
45491,Blaby Butchers Shop Limited,4,10,5,0,2014-09-29,52.57554,-1.163692
45492,Blaby Chippy,5,5,5,5,2013-03-15,52.574886,-1.163911
45493,Blaby Golf Range,4,10,5,5,2014-05-02,52.567445,-1.166929
45494,Blaby Hotel,1,10,10,20,2014-10-21,52.575705,-1.167953
45495,Blaby Post Office,Exempt,nan,nan,nan,2014-05-02,52.576606,-1.16311
45496,Blaby Tea Rooms,3,10,10,10,2014-02-20,52.573294,-1.165121
45497,Black Box Kitchen,4,5,5,10,2014-07-17,,
45498,Black Horse Public House,3,10,10,5,2014-03-17,52.576131,-1.161998
45499,Blackberry Bush Nursery,5,5,0,5,2014-03-10,52.556936,-1.135533
45500,Boots The Chemist,5,0,0,0,2014-05-02,52.597108,-1.180481
45501,Bp Oil Uk Ltd,5,5,5,5,2013-07-04,,
45502,Bp Oil Uk Ltd,2,15,15,10,2014-03-28,,
45503,Braunstone and District WMC,3,10,5,10,2011-11-09,52.61354,-1.16988
45504,Braunstone Chippy,5,5,5,5,2013-09-04,52.608599,-1.178125
45505,Braunstone Spice & Rice,1,10,10,20,2014-03-27,52.624172,-1.192857
45506,Braunstone Sure Start Children's Centre,Exempt,nan,nan,nan,2014-05-02,52.617703,-1.184276
45507,Breaking News,Exempt,nan,nan,nan,2014-05-02,52.64476,-1.191695
45508,Britannia Buffet Services Ltd,AwaitingInspection,nan,nan,nan,,52.56608,-1.18128
45509,Britannia Buffet Services Ltd,5,0,5,0,2013-12-19,52.5964431763,-1.19024002552
45510,Brockington College,5,0,0,5,2013-03-22,52.586577,-1.203644
45511,Brooke House Day School,5,0,0,5,2013-03-12,52.549537,-1.199566
45512,Bulls Head,5,5,5,5,2014-05-02,52.553059,-1.137748
45513,Bunning Memorial Hall,5,0,0,0,2014-12-09,52.549172,-1.193452
45514,Burger King,5,0,0,5,2012-12-03,52.614412,-1.186819
45515,Busy Bees Day Nursery,5,0,0,0,2013-07-02,52.583323,-1.209075
45516,Busy Bees Day Nursery,5,5,0,0,2014-12-11,52.613829,-1.185604
45517,Buzy Bees Cakes,5,0,5,5,2014-05-02,,
45518,C88 Cafe Project,5,5,5,5,2014-05-02,52.556492,-1.158788
45519,Cafe Apple,5,0,0,0,2013-03-19,52.565862,-1.17975
45520,Cafe Narborough,3,10,10,10,2014-03-25,52.574035,-1.200905
45521,Cafe Oasis,3,5,10,10,2013-10-09,52.587198,-1.20781
45522,Cake Lounge,5,5,0,5,2014-05-02,,
45523,Cakes by Deborah,3,10,10,10,2014-12-05,52.586532,-1.209017
45524,Cakes By Nicola,5,0,5,0,2014-05-02,,
45525,Cakes I Bake,5,5,5,5,2014-05-02,,
45526,Carlton Stores,3,5,10,10,2013-08-29,52.5785,-1.211213
45527,Carvers Cobs,2,10,15,10,2014-12-10,52.58665,-1.158358
45528,Catering Day - Colleagues Canteen,4,5,5,10,2014-01-07,52.598866,-1.183755
45529,Caterplus,AwaitingInspection,nan,nan,nan,,52.587671,-1.168007
45530,Cavendish Cakes,AwaitingInspection,nan,nan,nan,,,
45531,Central England Cooperataive Society,5,5,5,5,2014-05-02,52.548398,-1.197212
45532,Central England Co-operative Society,4,5,10,5,2013-03-28,52.555851,-1.242343
45533,Central England Co-operative Society,5,5,0,5,2013-03-06,52.553059,-1.137748
45534,Central England Co-operative Society,5,5,5,5,2014-05-02,52.585689,-1.275489
45535,Central England Co-operative Society,5,5,5,5,2014-05-02,52.60982,-1.17794
45536,Central England Co-operative Society,4,5,10,0,2014-09-01,52.561329,-1.180631
45537,Central England Co-operative Society,5,5,5,5,2014-05-02,52.571564,-1.203665
45538,Central England Co-operative Society,5,5,5,5,2014-05-02,52.625913,-1.204334
45539,Central England Co-operative Society,5,5,5,5,2014-05-21,52.651459,-1.203856
45540,Centrepiece Creations,5,5,0,5,2014-05-02,,
45541,Chamelee Balti & Tandoori,1,15,15,20,2014-03-25,52.6852607727,-1.130885005
45542,Chamneys Nurseries,Exempt,nan,nan,nan,2014-05-02,52.568144,-1.167801
45543,Chataway Residential Home,1,10,10,20,2014-11-24,52.574668,-1.177756
45544,Cherry Tree Gifts,5,0,0,0,2014-05-02,52.62331,-1.229568
45545,Cherrytree Gifts/cakes,5,0,0,0,2014-05-02,,
45546,Cherrytree Residential Home,5,5,5,5,2014-03-10,52.553744,-1.149224
45547,China City,3,10,10,5,2013-07-02,52.624059,-1.200083
45548,"Chiquito, Unit D",4,10,5,0,2013-01-29,52.613829,-1.185604
45549,Chives,4,10,5,5,2014-06-12,52.557715,-1.133969
45550,Church Farm Croft Ltd,4,10,5,5,2014-03-19,52.560872,-1.252952
45551,Cini Restaurant,1,10,10,20,2014-06-02,52.59008,-1.209869
45552,Claire Heath,4,0,5,10,2014-05-02,,
45553,Clairebears Cakes,3,10,10,10,2012-10-23,,
45554,Claire's Bakery,3,10,10,10,2014-12-08,52.571564,-1.203665
45555,Community Centre Playgroup,4,5,5,10,2014-05-02,52.551325,-1.292624
45556,Compton Lodge Entertainments,4,5,5,10,2014-05-02,52.545427,-1.276056
45557,Congregational Church,Exempt,nan,nan,nan,2014-05-02,52.573907,-1.166644
45558,Cooke's Cabin,4,5,10,5,2013-07-17,52.577301,-1.171551
45559,Coombs Catering Partnership,5,5,5,5,2013-03-04,52.553856,-1.278528
45560,Co-op,5,5,5,5,2014-05-20,52.586662,-1.147421
45561,Coppice Stores,1,10,10,20,2014-07-25,52.57395,-1.212402
45562,Cork Lane Pre-School,4,0,10,5,2014-03-17,52.586638,-1.166728
45563,Cornflowers Catering,5,0,0,5,2013-12-16,,
45564,Cosby Community Playgroup,5,5,5,5,2014-05-02,52.55038,-1.195214
45565,Cosby Fish Bar,5,5,5,0,2014-10-03,52.6852607727,-1.130885005
45566,Cosby Golf Club,5,5,5,5,2014-05-02,52.545676,-1.196259
45567,Cosby Primary School,5,5,5,0,2013-03-12,52.555479,-1.194192
45568,Cosby Utd. FC Snack Bar,AwaitingInspection,nan,nan,nan,,52.6227340698,-1.11904501915
45569,Cosby Village Hall,4,5,5,10,2014-05-02,52.6852607727,-1.130885005
45570,Cosby Working Mens Club,Exempt,nan,nan,nan,2014-05-02,52.549172,-1.193452
45571,Costa Coffee,5,5,5,5,2014-01-29,52.597535,-1.181196
45572,Countersthorpe Chemist,Exempt,nan,nan,nan,2014-05-02,52.554463,-1.136732
45573,Countesthorpe Bowling Club,5,5,5,5,2013-05-30,52.553788,-1.141539
45574,Countesthorpe College Before & After School Club,5,5,5,5,2013-05-07,52.556492,-1.158788
45575,"Countesthorpe College, Day Nursery",5,5,0,5,2014-03-14,52.556492,-1.158788
45576,Countesthorpe Community College,5,5,5,5,2012-12-11,52.556492,-1.158788
45577,Countesthorpe Cricket Club,4,10,5,5,2012-08-31,52.552894,-1.144742
45578,Countesthorpe Express,4,10,10,0,2013-03-28,52.553744,-1.149224
45579,Countesthorpe Fish Bar,3,10,10,5,2014-03-07,52.554451,-1.137573
45580,Countesthorpe Methodist Church,5,5,0,5,2014-05-07,52.555264,-1.135581
45581,Countesthorpe Post Office,5,5,5,5,2014-05-02,52.554013,-1.145399
45582,Countesthorpe Sure Start Children's Centre,5,5,5,5,2014-05-02,52.556492,-1.158788
45583,Cream Of The Bakes,5,5,5,5,2014-05-02,,
45584,Croft C of E Primary School,5,5,5,5,2014-05-02,52.554067,-1.24171
45585,Croft Community Centre,4,5,5,10,2014-05-02,52.554067,-1.24171
45586,Croft Fish Bar,5,0,0,0,2014-03-19,52.555851,-1.242343
45587,Croft P O & Newsagent,5,5,5,5,2014-05-02,52.555851,-1.242343
45588,Croft Service Station - Euro Garages,5,5,5,5,2014-05-02,52.554267,-1.232311
45589,Crossways Farm.,Exempt,nan,nan,nan,2014-05-02,,
45590,Daisy And Tallulah,5,5,5,5,2014-05-02,,
45591,Daisy Chain Childrens Nursery,5,5,5,5,2014-03-13,52.567445,-1.166929
45592,Daisy's Cakes,5,5,0,5,2014-05-02,,
45593,Dallington House Care Home,4,10,5,5,2014-02-21,52.582176,-1.193629
45594,Danemill Primary School,5,5,5,5,2014-03-25,52.586118,-1.206235
45595,David Lloyd Health & Fitness Club,5,5,5,5,2014-01-23,52.613829,-1.185604
45596,David Lloyd Leisure,4,5,10,5,2014-01-07,52.5760004563,-1.2035765894
45597,Days Leisure Coffee Dreams,5,5,5,5,2014-05-02,,
45598,Deborah Watts,4,5,5,10,2014-05-02,,
45599,Diana Spencer,4,5,5,10,2014-05-02,,
45600,Diana's Designs,5,5,5,5,2014-05-02,,
45601,Dina's Cakes,Exempt,nan,nan,nan,2014-05-02,,
45602,Dine India,4,5,5,10,2014-10-02,52.553059,-1.137748
45603,Dipali Fine Dinee,AwaitingInspection,nan,nan,nan,,52.573294,-1.165121
45604,Dive Inn,5,5,5,5,2014-05-02,52.545787,-1.285045
45605,Dog & Gun,5,5,5,5,2014-05-02,52.589047,-1.210035
45606,Dog & Gun,3,10,10,10,2013-03-11,52.547384,-1.05364
45607,Dookies Cakes,5,5,5,0,2014-05-02,,
45608,Double Dragon,4,5,10,5,2014-03-25,52.575705,-1.167953
45609,Druckers Vienna Patisserie,4,5,5,10,2014-02-17,52.597535,-1.181196
45610,Ebiscuit,5,5,5,5,2014-05-02,,
45611,Elite Catering,Exempt,nan,nan,nan,2014-03-24,52.587352,-1.222877
45612,Ellies Breakfast Bar,3,10,5,10,2014-10-27,52.595287,-1.212949
45613,Emerson Process Management,5,0,0,0,2013-04-13,52.603711,-1.19031
45614,Enderby & District Social Club,4,5,5,10,2013-03-26,52.586397,-1.215854
45615,Enderby Bowls Club,5,5,5,5,2014-05-02,52.588186,-1.208943
45616,Enderby Conservative Club,5,5,5,5,2014-05-02,52.58948,-1.210219
45617,Enderby Cricket Club,4,5,0,10,2014-05-02,52.585689,-1.275489
45618,Enderby Grange,5,5,5,5,2014-06-16,52.581348,-1.192183
45619,Enderby Leisure Centre,5,5,5,5,2014-01-27,52.588186,-1.208943
45620,Enderby Methodist Church,5,0,0,5,2013-03-27,52.589047,-1.210035
45621,Enderby Pharmacy,Exempt,nan,nan,nan,2014-05-02,52.587198,-1.20781
45622,Enderby Service Station,5,0,5,5,2014-05-02,52.588761,-1.209964
45623,Enderby United Reformed Church Hall,Exempt,nan,nan,nan,2014-05-02,52.590052,-1.212497
45624,Eric's Ice Cream,5,5,5,5,2014-05-02,,
45625,Eurest - National Distribution Centre,5,0,5,0,2012-07-10,52.598541,-1.192738
45626,Eurest c/o Centrica Business,5,5,5,0,2013-05-07,52.5964431763,-1.19024002552
45627,Evangelical Church,Exempt,nan,nan,nan,2014-05-02,52.587139,-1.259119
45628,Faire Convenience,3,5,10,10,2014-08-18,52.650521,-1.194146
45629,Faire News,Exempt,nan,nan,nan,2014-05-02,52.650521,-1.194146
45630,Fairy Tales Day Nursery,3,10,10,10,2014-03-13,52.578263,-1.15083
45631,Famille House,5,5,5,0,2013-12-16,52.631938,-1.234706
45632,Fish & Chip Co,3,10,10,10,2015-01-16,52.624592,-1.216663
45633,Flour To Flour,4,5,10,5,2014-05-02,,
45634,Fox & Tiger,1,10,10,20,2014-03-13,52.57338,-1.164544
45635,Francis Arms incorporating Chefs East Meets West,1,15,10,20,2014-09-30,52.554193,-1.279201
45636,Frankie & Benny's,5,5,5,0,2013-01-29,52.613829,-1.185604
45637,Fruitas,5,5,5,5,2014-05-02,52.573294,-1.165121
45638,Full Of Flavour Catering,5,5,0,5,2014-05-02,,
45639,Geena Stores,5,5,5,5,2014-05-02,52.615131,-1.178904
45640,Gillivers Rehabilitation Home,5,0,0,0,2014-05-02,52.641391,-1.196014
45641,Glebe Garden Centre,Exempt,nan,nan,nan,2014-05-02,52.6852607727,-1.130885005
45642,Glenfield Fish Salon,1,10,10,20,2013-10-09,52.64476,-1.191695
45643,Glenfield House,2,5,15,10,2013-11-26,52.648203,-1.203708
45644,Glenfield Parish Council,5,5,5,5,2014-05-02,52.648203,-1.203708
45645,Glenfield Primary School,5,0,5,0,2013-09-24,52.648203,-1.203708
45646,Glenfield Social Club,Exempt,nan,nan,nan,2014-05-02,52.651459,-1.203856
45647,Glenhills Pharmacy,Exempt,nan,nan,nan,2014-05-02,52.586972,-1.160684
45648,Glenhills Primary School,4,5,10,5,2014-05-20,52.598636,-1.139865
45649,Glenhills Sports and Social Club,Exempt,nan,nan,nan,2014-05-02,52.585647,-1.165211
45650,Golden Orient,3,10,10,10,2014-06-25,52.650521,-1.194146
45651,Grange Stores,3,5,10,10,2013-07-01,52.586972,-1.160684
45652,Granny Smiths,3,10,10,10,2014-06-13,52.547537,-1.194971
45653,Green Gate Farm,5,5,5,5,2014-05-02,52.618259,-1.228372
45654,Greenfield Primary School,4,5,10,5,2014-04-30,52.6852607727,-1.130885005
45655,Greengrass Farmhouse Preserves,5,5,5,5,2014-05-02,,
45656,Greets Fruit,Exempt,nan,nan,nan,2014-05-02,,
45657,Greggs,5,5,5,5,2014-02-13,52.574886,-1.163911
45658,Greggs,5,5,5,0,2014-09-04,52.588357,-1.186533
45659,Greystoke County Primary School,5,5,0,0,2012-10-09,52.573812,-1.202518
45660,Grove Farm,5,0,5,5,2014-07-04,,
45661,Harlequins Day Nursery,5,5,5,5,2014-03-13,52.587196,-1.212873
45662,Harvester Meridian,4,5,10,5,2014-11-14,52.613829,-1.185604
45663,Hayre Newsagents,5,5,5,5,2014-05-02,52.625913,-1.204334
45664,Heart of England Co-Op Society,5,5,0,0,2013-03-28,52.535514,-1.281084
45665,Heathcote Arms,4,5,10,5,2014-03-26,52.559504,-1.245688
45666,Hedgerow Products Ltd,5,0,5,5,2013-03-05,,
45667,Hem's Catering,5,5,5,5,2014-05-02,,
45668,Hillside Tea Rooms,4,10,5,5,2014-11-27,52.581633,-1.260672
45669,Hi-Tide Fish Bar,5,0,5,5,2013-03-20,52.587198,-1.20781
45670,Hi-Tide Fish Bar,5,5,5,5,2013-03-21,52.572252,-1.203033
45671,Hollywood Bowl,5,5,5,0,2015-01-08,52.613829,-1.185604
45672,Holmes Park,4,5,5,10,2012-10-19,52.56075,-1.17632
45673,Home 2 Home Childcare,4,0,5,10,2014-05-02,52.618779,-1.200918
45674,Honey Bees Ltd,Exempt,nan,nan,nan,2014-05-02,52.587198,-1.20781
45675,Hong Kong Take Away,5,5,5,5,2014-03-26,52.573294,-1.165121
45676,Howard Road Off Licence,5,5,5,5,2014-05-02,52.586769,-1.165042
45677,Huncote Community Playgroup,Exempt,nan,nan,nan,2014-05-02,52.57417,-1.234915
45678,Huncote Fish Bar,3,10,10,10,2014-08-22,52.571471,-1.240245
45679,Huncote Methodist Church & Hall,5,5,5,0,2014-02-17,52.573845,-1.237518
45680,Huncote Primary School,5,5,0,0,2013-12-03,52.57417,-1.234915
45681,Huncote Sports & Social Club,Exempt,nan,nan,nan,2014-05-02,52.588725,-1.249881
45682,Huncote Sure Start Children's Centre,Exempt,nan,nan,nan,2014-05-02,52.575066,-1.241437
45683,J C Mini Market,1,5,5,20,2014-02-18,52.624059,-1.200083
45684,Jane's Catering,3,10,10,10,2014-12-17,52.649545,-1.216085
45685,Janes Sweet Treats,5,5,5,5,2014-05-02,,
45686,Jeff & Lee's Ices,5,5,5,5,2014-05-02,,
45687,John Milner (Bakers) Ltd,5,5,0,0,2012-10-17,52.57338,-1.164544
45688,Jude's Cakes,5,5,5,5,2014-05-02,,
45689,Jumbo's Takeaway,4,10,5,5,2013-07-16,52.604939,-1.181841
45690,K F C,5,5,5,0,2014-01-23,52.597535,-1.181196
45691,K K Grocers,3,5,10,10,2013-03-28,52.643096,-1.195495
45692,K M Brennan  (Chemist),Exempt,nan,nan,nan,2014-05-02,52.6852607727,-1.130885005
45693,Kaffir Inn,3,10,10,10,2013-04-30,52.561905,-1.182096
45694,Karen Blair Cakes,Exempt,nan,nan,nan,2014-05-02,,
45695,Kathleen Rutland Home,5,5,5,5,2013-10-11,52.625163,-1.214674
45696,Kathryn Smith Cake Design,5,0,5,0,2014-05-02,,
45697,Kidaroo After School Club,4,10,5,5,2014-05-02,52.629448,-1.230509
45698,Kidaroo Ltd,Exempt,nan,nan,nan,2012-09-17,52.618779,-1.200918
45699,Kingstand Golf & Country Club,4,5,5,10,2014-05-02,52.618259,-1.228372
45700,Kingsway Primary School,5,5,5,0,2013-10-08,52.617703,-1.184276
45701,Kirby House,4,10,5,5,2014-03-19,52.626176,-1.22092
45702,Kirby Muxloe Bowls Club,5,5,5,5,2014-05-02,52.629448,-1.230509
45703,Kirby Muxloe Day Nursery,5,0,5,5,2014-03-03,52.633014,-1.234259
45704,Kirby Muxloe Golf Club,3,10,5,10,2014-10-31,52.585689,-1.275489
45705,Kirby Muxloe Lunch Club,4,5,10,5,2014-05-02,52.629448,-1.230509
45706,Kirby Muxloe Post Office,Exempt,nan,nan,nan,2014-05-02,52.585689,-1.275489
45707,Kirby Muxloe Primary School,5,0,5,5,2013-01-23,52.633014,-1.234259
45708,Kirby Muxloe Sports & Social Club,5,5,5,5,2014-05-02,52.639466,-1.228235
45709,Kushi Care Nursery,3,10,5,10,2013-10-14,,
45710,Langdale Residential Home,4,5,5,10,2014-03-18,52.535514,-1.281084
45711,Lateshop,5,5,5,5,2012-11-01,52.548258,-1.278855
45712,Lavender Bush Day Nursery,5,5,0,5,2014-09-12,52.567445,-1.166929
45713,Le Petit Four Francais Ltd,5,0,5,5,2014-03-18,52.597535,-1.181196
45714,Leena Stores,4,5,10,5,2014-05-02,52.64476,-1.191695
45715,Lees House,4,5,10,5,2014-03-14,52.624023,-1.193466
45716,Lee's Kitchen,5,5,0,5,2014-12-18,52.645383,-1.196103
45717,Leicester Forest East Tennis Club,5,5,5,5,2014-05-02,52.618764,-1.232676
45718,Leicester Forest Rugby Football Club,5,5,5,5,2014-05-20,52.624934,-1.219391
45719,Leicester Ivanhoe Cricket Club,4,5,5,10,2011-11-03,52.618764,-1.232676
45720,Leicester Lions,5,5,5,5,2013-09-22,52.57338,-1.164544
45721,Leicestershire Constabulary Staff Canteen,5,5,5,0,2012-10-25,52.591905,-1.184785
45722,Leicestershire County Council,5,5,5,5,2014-01-08,52.65756,-1.191518
45723,Leicestershire Scout Council,Exempt,nan,nan,nan,2014-05-02,52.561898,-1.157976
45724,Leysland High School,5,5,5,5,2012-12-11,52.556492,-1.158788
45725,LFE P.O. and Postie & Toastie,3,10,10,10,2013-08-08,52.625913,-1.204334
45726,Lilliput Day Nursery,5,5,0,5,2013-07-15,52.617385,-1.222597
45727,Lilliput Montessori,5,5,5,5,2014-12-01,52.648203,-1.203708
45728,Lilliput Montessori Day Nursery,5,5,5,5,2013-09-09,52.570536,-1.179545
45729,Linda Sturgess Cakes,5,0,0,5,2013-05-10,,
45730,Lindsey's Cakes Leicester,4,5,5,10,2014-05-02,,
45731,Lisa Barrows,4,5,5,10,2014-05-02,,
45732,Little Badgers Playgroup,5,0,0,0,2014-01-17,52.57262,-1.179388
45733,Livesey Lodge,3,5,10,10,2014-03-17,52.536627,-1.286624
45734,Living Rock Church,5,5,5,5,2013-03-22,52.551325,-1.292624
45735,Lloyds Chemist,Exempt,nan,nan,nan,2014-05-02,52.573067,-1.200023
45736,Lloyds Pharmacy,Exempt,nan,nan,nan,2014-05-02,52.548915,-1.277503
45737,Lloyds Pharmacy,Exempt,nan,nan,nan,2014-05-02,52.618788,-1.226782
45738,Lloyds Retail Chemist Ltd,Exempt,nan,nan,nan,2014-05-02,52.573294,-1.165121
45739,Locrendaw Chemist,Exempt,nan,nan,nan,2014-05-02,52.62626,-1.199822
45740,Londis,2,15,10,10,2013-06-24,52.644869,-1.203872
45741,Londis,5,5,5,0,2014-05-02,52.6852607727,-1.130885005
45742,Londis,4,10,5,5,2014-05-02,52.624023,-1.193466
45743,Lucy's Cakes,5,5,0,5,2014-05-02,,
45744,M Garratt Bakers,5,5,5,5,2014-03-07,52.554349,-1.135938
45745,M.A.C Family Butchers,3,10,10,10,2013-08-01,52.54894,-1.27877
45746,Macintyre Care,Exempt,nan,nan,nan,2013-03-22,52.649732,-1.187805
45747,Macks Garage Ltd,4,5,10,5,2014-05-02,52.582176,-1.193629
45748,Makro,5,0,0,5,2014-02-10,52.607048,-1.194457
45749,Malthurst Meridian,5,5,5,5,2014-05-02,52.6852607727,-1.130885005
45750,Malthurst Osiers,5,5,5,5,2014-05-02,52.60188,-1.180229
45751,Mandy Squires,5,5,5,5,2014-05-02,,
45752,Manorfield Childrens Club,5,5,5,5,2014-05-02,52.551325,-1.292624
45753,Manorfield School,4,10,5,5,2013-07-03,52.551325,-1.292624
45754,Marks & Spencers Plc,5,5,0,0,2014-05-02,52.588357,-1.186533
45755,Marks and Spencer Plc,5,0,0,0,2014-05-01,52.598654,-1.180511
45756,Marks and Spencer Staff Restaurant,5,5,0,0,2013-03-19,52.588357,-1.186533
45757,Marriott Hotel,5,5,0,0,2013-03-06,52.598935,-1.189984
45758,Martins,5,5,5,5,2014-05-02,52.576097,-1.163607
45759,McColl's,Exempt,nan,nan,nan,2014-05-02,52.569329,-1.163765
45760,McDonalds Restaurant Ltd,5,0,0,0,2012-08-31,52.59712,-1.179595
45761,Mcdonalds Restaurants Ltd,5,5,5,5,2013-08-15,52.60563,-1.189492
45762,Mercury News,Exempt,nan,nan,nan,2014-05-02,52.554349,-1.135938
45763,Mercury News Shop,5,5,5,5,2014-05-02,52.548398,-1.197212
45764,Mercury News Shop,4,10,5,5,2013-04-03,52.553744,-1.149224
45765,Mercury News Shops,5,0,5,5,2014-05-02,52.571608,-1.206232
45766,Mercury News Shops,Exempt,nan,nan,nan,2014-05-02,52.6852607727,-1.130885005
45767,Midlands Co-Operative Petrol Station,5,5,5,5,2014-05-02,52.651459,-1.203856
45768,Mill Hill News,5,5,5,5,2015-01-27,52.593305,-1.212202
45769,Mill Hill Stores,5,5,5,5,2014-05-02,52.593192,-1.212795
45770,Millfield L E A D Academy,5,5,5,5,2014-05-02,52.608088,-1.182255
45771,Mocha Mila,5,5,5,5,2014-05-02,,
45772,Moel-Llys,3,10,10,5,2014-05-02,52.585689,-1.275489
45773,Mollies Cupcakes,5,5,5,5,2014-05-02,,
45774,Morningside Pharmacy,Exempt,nan,nan,nan,2014-05-02,52.651459,-1.203856
45775,Mr Clutton,3,10,10,10,2014-03-26,52.551347,-1.191996
45776,Mrs Barbara Darlison - Burger City,3,10,10,10,2013-09-13,,
45777,Myah's Place,3,10,10,10,2013-10-08,52.553744,-1.149224
45778,Nando's Chickenland Ltd.,5,0,5,0,2013-08-22,52.613829,-1.185604
45779,Narborough & Littlethorpe Sports Club,3,10,5,10,2013-02-12,52.572252,-1.203033
45780,Narborough Arms Hotel,5,5,5,5,2014-01-30,52.571663,-1.206363
45781,Narborough Bowling Club,5,5,5,5,2014-05-02,52.571788,-1.204974
45782,Narborough General Store,2,15,15,10,2014-08-19,52.572252,-1.203033
45783,Narborough Parish Council,3,10,10,10,2013-03-19,52.572582,-1.20676
45784,Narborough Post Office,5,5,5,5,2014-05-02,52.6852607727,-1.130885005
45785,Narborough Preserves,5,0,5,5,2014-05-02,,
45786,Narborough Village Post Office,5,5,5,5,2014-05-02,52.574035,-1.200905
45787,National Autistic Society,5,5,5,5,2014-05-02,52.613515,-1.171475
45788,Nemo's Bar & Diner,4,10,5,5,2013-07-18,52.545427,-1.276056
45789,New Wok Express,4,5,10,5,2013-06-20,52.587198,-1.20781
45790,Newell Chemist,Exempt,nan,nan,nan,2014-05-02,52.60982,-1.17794
45791,Next Directory,3,5,10,10,2014-10-27,52.59896,-1.227323
45792,Next Plc,5,0,5,5,2013-05-23,52.591519,-1.212736
45793,Next Steps Nursery,5,5,0,0,2015-02-03,52.59896,-1.227323
45794,Occasional Cakes Leicester,5,5,5,5,2014-05-02,,
45795,Old Barn Day Nursery,5,5,0,5,2014-01-27,52.575828,-1.217621
45796,Old Newtonians R.F.C,3,10,10,10,2012-11-30,52.618764,-1.232676
45797,Oliveti Mobile Ice Cream,4,5,10,5,2014-05-02,,
45798,One Stop,5,5,5,5,2014-05-02,52.604939,-1.181841
45799,One Stop Plc,3,10,10,5,2013-07-29,52.635675,-1.234183
45800,Oriental House,2,10,15,10,2013-10-10,52.615131,-1.178904
45801,Oriental Kitchen,5,5,5,5,2013-10-09,52.575147,-1.178204
45802,P & S Reeves Twin News,5,5,5,5,2014-05-02,52.574719,-1.163647
45803,P.s. I Love Cake,5,5,5,5,2014-05-02,,
45804,Palmers Garden Centre,3,5,10,10,2013-06-11,52.588357,-1.186533
45805,Parkem Chemist Limited,Exempt,nan,nan,nan,2014-05-02,52.645813,-1.195844
45806,Pastures Chinese Takeaway,1,10,10,20,2013-10-11,52.575828,-1.217621
45807,Patricia Taylor,5,5,5,5,2014-09-29,,
45808,Peking House,3,10,10,10,2013-09-18,52.54616,-1.269511
45809,Petals Party Pieces,Exempt,nan,nan,nan,2014-05-02,,
45810,Petites Playschool,3,10,10,5,2014-05-02,52.553059,-1.137748
45811,Pickle And Spice Ltd,1,10,15,20,2014-02-19,,
45812,Pied Piper Day Nursery,5,5,5,5,2015-02-04,52.649798,-1.205615
45813,Pips Puds,5,5,5,5,2014-05-02,,
45814,Pizza Chef,4,0,5,10,2014-03-20,52.604939,-1.181841
45815,Pizza Hut,5,5,5,5,2013-02-18,52.613829,-1.185604
45816,Pizza Hut (Uk) Ltd,5,5,5,0,2013-03-05,52.598007,-1.185661
45817,Pizza Hut Express,5,0,5,5,2014-01-23,52.597535,-1.181196
45818,Pizza Plaza,4,10,5,5,2014-12-18,52.575828,-1.217621
45819,Pizza Point,1,10,15,20,2014-09-17,52.554349,-1.135938
45820,Pop Delivery,5,5,5,5,2014-05-02,,
45821,Portland House Care Home,5,5,5,5,2014-05-06,52.631361,-1.228924
45822,Premier,5,5,5,5,2014-05-02,52.617385,-1.222597
45823,Premier Inn,4,10,10,0,2014-08-26,52.625203,-1.208498
45824,Priory Forest House School,5,0,0,5,2014-03-27,,
45825,Proppa Coffee,Exempt,nan,nan,nan,2014-05-02,,
45826,Ragg Butchers,3,10,5,10,2014-11-27,52.624592,-1.216664
45827,Ravenhurst Primary School,5,5,5,5,2013-12-23,52.610713,-1.176993
45828,Real Flavours,AwaitingInspection,nan,nan,nan,,52.635209,-1.234457
45829,Red Cow,5,5,5,5,2014-03-03,52.624934,-1.219391
45830,Redhill Field Primary School,5,5,0,0,2013-12-24,52.575012,-1.213947
45831,Richard Eggs,5,5,5,5,2014-05-02,,
45832,Rob John Nursery,5,5,5,5,2014-05-02,52.572567,-1.204532
45833,Russell Smith Butchers,4,10,5,5,2013-08-20,52.547537,-1.194971
45834,Rutland Vinters,5,0,5,5,2014-05-02,52.595281,-1.178935
45835,S J Langton Finest Meats,5,5,5,5,2013-10-29,52.649798,-1.205615
45836,S&d Enterprise Ltd,1,15,10,20,2014-03-24,52.586972,-1.160684
45837,S.D. Rusch Market Garden,AwaitingInspection,nan,nan,nan,,52.562093,-1.327767
45838,Saap Thai Noodles,5,5,5,5,2014-05-08,,
45839,Saffron Dynamo Fc,5,5,5,5,2014-05-02,52.533056,-1.233183
45840,Sainsburys Customer Cafe,5,0,5,0,2013-03-11,52.598007,-1.185661
45841,Sainsbury's Local,5,5,0,0,2015-01-27,52.624592,-1.216664
45842,Sainsburys Petrol Station,5,0,5,5,2014-05-02,52.6852607727,-1.130885005
45843,Sainsburys Supermarket Plc,5,0,0,0,2012-11-21,52.598866,-1.183755
45844,Salad Works Canteen,5,5,5,0,2013-02-27,52.629544,-1.208301
45845,Samworth Brothers - Canteen (Unique Catering),5,5,5,0,2013-02-18,52.611266,-1.194734
45846,Sandra's Jams,5,5,5,5,2014-05-02,52.537469,-1.163884
45847,Sands,3,5,10,10,2014-03-26,52.651459,-1.203856
45848,Sandwich Chef,1,10,5,20,2014-03-24,,
45849,Sapcote Methodist Church,Exempt,nan,nan,nan,2013-03-19,52.536089,-1.276637
45850,Sapcote News Post,Exempt,nan,nan,nan,2014-05-02,52.538816,-1.280057
45851,Sapcote Pre School Play Group,4,10,5,5,2014-05-02,52.536089,-1.276637
45852,Sapcote Primary School,5,5,5,5,2014-05-02,52.534279,-1.283404
45853,Sapcote Working Mens Club,3,10,10,10,2015-01-07,52.536717,-1.282258
45854,Sett House Nursery,Exempt,nan,nan,nan,2014-05-02,52.54616,-1.269511
45855,Shakespeare Park Bowls Club,5,5,5,5,2014-05-02,52.617135,-1.180076
45856,Sharnford Arms Chinese,3,10,10,5,2014-03-19,52.521379,-1.292589
45857,Sharnford Ce Primary School,5,5,5,5,2014-05-02,52.524586,-1.29357
45858,Sharnford Cricket Club,5,5,5,5,2014-05-02,52.521599,-1.290257
45859,Sharnford Gardens Ltd,Exempt,nan,nan,nan,2014-07-17,52.519324,-1.296248
45860,Sharnford Post Office & Village Store,4,10,5,5,2013-10-30,52.521379,-1.292589
45861,Sharnford Pre-School Playgroup,3,10,10,5,2013-03-19,52.521379,-1.292589
45862,Sharon Holling,4,5,5,10,2014-05-02,,
45863,Shell Branting Hill,5,5,5,5,2014-05-02,52.658302,-1.201514
45864,Shining Stars,Exempt,nan,nan,nan,2014-05-02,52.567481,-1.159212
45865,Shiv Shakti,4,0,5,10,2014-05-02,52.569404,-1.169326
45866,Simon's Sausage,5,5,5,5,2012-09-08,,
45867,Simply Delicious,5,5,5,5,2013-08-02,52.587456,-1.210123
45868,Sm Catering,5,5,5,5,2013-09-16,,
45869,Smarties Day Nursery,5,5,0,5,2014-09-01,52.584556,-1.210618
45870,Smudge's Baps,4,5,10,5,2014-04-29,52.558871,-1.183541
45871,Sonichem Pharmacy,Exempt,nan,nan,nan,2014-05-02,52.60686,-1.176326
45872,Sopers Bridge Meats,5,5,5,5,2014-05-02,52.54616,-1.269511
45873,South Leicestershire Day Service - Blaby Base,Exempt,nan,nan,nan,2014-05-02,52.577267,-1.163762
45874,Spar,3,10,5,10,2014-03-31,52.565293,-1.200371
45875,Spar Eight 'till Late,4,5,5,10,2013-03-28,52.571471,-1.240245
45876,Spice 45,2,10,15,10,2014-03-20,52.572252,-1.203033
45877,Springfield Nursery,5,5,5,5,2014-05-02,52.549477,-1.198682
45878,St Georges Nursery,5,0,5,0,2014-05-07,52.595287,-1.212949
45879,St Georges Nursery School,5,0,5,0,2014-12-08,52.574035,-1.200905
45880,St John's Store,4,10,5,5,2012-02-20,52.583764,-1.189216
45881,St Marys C of E Primary School,5,5,5,5,2014-05-02,52.553031,-1.086112
45882,St Peters C Of E Primary School,5,0,0,0,2013-12-16,52.571207,-1.176448
45883,Stafford Leys Primary School,4,10,5,5,2014-06-10,52.622532,-1.220556
45884,Stanton Lakes,2,15,10,10,2014-03-25,52.54616,-1.269511
45885,Stewart House,5,0,5,0,2014-03-14,52.582969,-1.211354
45886,Stokes C of E Primary School,5,0,5,5,2012-10-17,52.572209,-1.168093
45887,Stoney Stanton Chip Shop,5,5,5,5,2013-03-22,52.547141,-1.282959
45888,Stoney Stanton Social Club,3,10,10,10,2012-10-18,52.585689,-1.275489
45889,Stoney Stanton Supermarket,3,10,5,10,2013-12-18,52.54894,-1.27877
45890,Street News,4,5,5,10,2012-10-02,52.615131,-1.178904
45891,Sugar and Ice,4,10,5,5,2014-05-02,52.60924,-1.168292
45892,Summers & Sons,5,0,0,5,2014-05-02,52.588237,-1.261417
45893,Sunrise Superstore,3,5,10,10,2014-08-04,52.646006,-1.200496
45894,Sunway News,Exempt,nan,nan,nan,2014-03-31,52.624023,-1.193466
45895,Sutton Elms Filling Station,5,5,5,5,2014-05-02,52.540089,-1.251948
45896,Swattys,1,10,15,20,2014-12-11,52.650521,-1.194146
45897,Sweet Foxylicious,5,5,0,0,2014-05-02,,
45898,Swidi Food & Wine,3,5,10,10,2014-03-31,52.610984,-1.170844
45899,T U Formers,Exempt,nan,nan,nan,2014-05-02,52.614488,-1.170512
45900,T W Catering,5,5,5,5,2013-05-09,,
45901,Tastes,0,15,20,30,2013-06-25,52.614412,-1.186819
45902,Tavey House,5,5,5,5,2013-07-22,52.567729,-1.176617
45903,Tesco Express,5,0,0,0,2014-08-11,52.554451,-1.137573
45904,Tesco Express,5,5,5,5,2014-05-02,52.645813,-1.195844
45905,Tesco Express,4,5,10,5,2013-03-28,52.575828,-1.217621
45906,The 19th Hole Cafe,4,10,5,5,2014-02-19,52.567445,-1.166929
45907,The Bee's Knees,4,10,5,5,2014-08-18,52.614482,-1.191736
45908,The Blue Bell Inn,3,10,10,5,2014-09-29,52.548915,-1.277503
45909,The Bulls Head,4,5,5,10,2014-02-18,52.585689,-1.275489
45910,The Bulls Head,5,5,5,5,2014-05-02,52.547537,-1.194971
45911,The Bulls Head,1,10,20,20,2013-10-02,52.575447,-1.178553
45912,The Bulls Head,3,10,5,10,2013-09-10,52.57338,-1.164544
45913,The Bull's Head,4,5,5,10,2013-08-29,52.549486,-1.276933
45914,The Castle Hotel & Restaurant,4,10,5,5,2014-12-04,52.637461,-1.229674
45915,The Coffee Bean,5,0,5,0,2013-03-11,52.547384,-1.05364
45916,The Co-operative,5,5,0,5,2013-06-12,52.589047,-1.210035
45917,The Cooperative Forecourt and Supermarket,4,10,5,5,2014-05-02,52.568144,-1.167801
45918,The Copt Oak Public House,3,10,10,10,2013-09-03,52.572272,-1.219603
45919,The Corner Shop,5,0,0,0,2014-05-02,52.6852607727,-1.130885005
45920,The Country Kitchen,5,5,5,5,2013-06-20,52.648203,-1.203708
45921,The Countryman,2,15,15,10,2014-07-17,52.521379,-1.292589
45922,The Dog And Gun,5,5,5,5,2013-10-21,52.553031,-1.086112
45923,The Donut Factory,5,5,5,5,2014-05-02,,
45924,The Drop In Centre,5,5,0,0,2014-02-19,52.6852607727,-1.130885005
45925,The Elephant & Castle,2,15,10,10,2014-05-21,52.587234,-1.259308
45926,The Forest Chapel Play Group,3,10,10,10,2013-09-20,52.62648,-1.212641
45927,The Forge Inn,5,5,0,5,2013-06-06,52.64987,-1.206885
45928,The Glen Parva Manor,4,10,5,0,2013-03-07,52.578268,-1.146551
45929,The Glenfield Project,4,5,10,5,2014-08-26,52.652593,-1.20147
45930,The Grange,4,10,5,5,2014-05-02,,
45931,The Grange Bakery Deli,4,5,5,10,2013-09-16,52.625913,-1.204334
45932,The Gynsills,3,10,10,5,2014-06-26,52.657665,-1.191088
45933,The Hall Primary School,5,5,5,5,2014-10-28,52.650769,-1.18443
45934,The Hallam Bakery,4,5,5,10,2014-05-02,,
45935,The Healthy Food Co,5,5,5,5,2014-05-02,,
45936,The Heritage Hotel,3,10,5,10,2014-09-17,52.575943,-1.19848
45937,The Hilton Hotel,5,5,0,5,2013-08-09,52.631585,-1.192636
45938,The Indian Gate,5,5,5,5,2012-10-04,52.604939,-1.181841
45939,The Little Baker,4,10,5,5,2014-05-02,,
45940,The Luscious Cake Company,AwaitingInspection,nan,nan,nan,,,
45941,The Nags Head,5,5,5,5,2014-02-21,52.589047,-1.210035
45942,The Nags Head Public House,2,10,15,10,2014-11-11,52.651459,-1.203856
45943,The New Blaby Balti,3,10,10,10,2012-10-25,52.575731,-1.162611
45944,The New Inn,4,5,10,5,2014-03-21,52.590018,-1.210047
45945,The Observatory Beefeater,5,5,0,0,2013-03-28,52.614482,-1.191736
45946,The Office,2,15,10,10,2014-06-20,52.601312,-1.189158
45947,The Old Inn,4,0,10,5,2014-05-02,52.567493,-1.202558
45948,The Old Vicarage,3,10,10,10,2014-08-18,52.576592,-1.17772
45949,The Pastures County Primary School,5,5,5,5,2014-05-02,52.583044,-1.218615
45950,The Pavilion,4,5,5,10,2014-03-31,52.6852607727,-1.130885005
45951,The Play Pad,5,5,5,5,2014-05-02,52.622532,-1.220556
45952,The Plough Inn,3,10,10,5,2014-03-18,52.568455,-1.202556
45953,The Railway Inn,4,5,5,10,2012-03-30,52.553744,-1.149224
45954,The Railway Inn,4,5,10,5,2014-08-04,52.652593,-1.20147
45955,The Rainbow Shop,5,5,5,5,2014-05-02,52.6852607727,-1.130885005
45956,The Rainbow Tree,5,5,0,5,2013-03-11,52.570536,-1.179545
45957,The Red Lion,4,5,10,5,2013-08-20,52.6852607727,-1.130885005
45958,The Red Lion,5,5,5,5,2014-05-02,52.535514,-1.281084
45959,The Royal Oak,2,10,15,5,2014-05-06,52.635209,-1.234457
45960,The Shakespeare,0,15,20,30,2014-01-29,52.618956,-1.180885
45961,The Sharnford Arms,Exempt,nan,nan,nan,2014-05-02,52.521379,-1.292589
45962,The Spa Fairy,Exempt,nan,nan,nan,2012-05-23,52.624059,-1.200083
45963,The Star Inn,4,5,5,10,2013-09-18,52.548258,-1.278855
45964,The Wentworth Arms,5,5,0,0,2013-07-16,52.556605,-1.305298
45965,The Woodland Pre School,5,5,5,5,2014-03-18,52.589047,-1.210035
45966,The Yum Yum Sweet Company,2,15,15,10,2014-08-19,52.574886,-1.163911
45967,Thistly Meadow Primary School,5,5,5,0,2014-09-05,52.569468,-1.157994
45968,Thompsons,Exempt,nan,nan,nan,2014-05-02,52.633014,-1.234259
45969,Thorntons,3,10,5,10,2013-03-19,52.597535,-1.181196
45970,Three Oaks Home,3,10,10,5,2014-05-02,52.614044,-1.182867
45971,Thurlaston Primary School,5,0,0,5,2013-03-15,52.588237,-1.261417
45972,TJs Kebabs and Burgers Ltd,4,5,5,10,2014-01-22,,
45973,Tnt Retail Express Ltd,5,5,5,5,2014-08-04,,
45974,Toby Carvery,4,10,5,5,2014-10-28,52.582197,-1.192772
45975,Tom Thumb,1,15,15,20,2014-03-17,52.571034,-1.169679
45976,Top Spot Snooker,5,5,5,5,2014-05-02,52.651459,-1.203856
45977,Totally Cakes,5,5,5,5,2014-05-02,,
45978,Travelodge,5,0,0,0,2014-05-02,52.624934,-1.219391
45979,Troodos Taverna,1,10,10,20,2013-10-09,52.64476,-1.191695
45980,Ty-Gwyn,5,5,5,5,2013-08-28,52.587404,-1.207377
45981,UK Takeaway,1,5,10,20,2014-09-04,52.594329,-1.180205
45982,Undre's Bakes,5,5,5,5,2015-01-28,52.616935,-1.192872
45983,Unique Catering @ Blueberry Foods,5,0,0,0,2013-03-19,52.629728,-1.211622
45984,Village Pharmacy,Exempt,nan,nan,nan,2014-05-02,52.635209,-1.234457
45985,Vipers Rugby Football Club,5,5,5,5,2013-09-22,52.539386,-1.179624
45986,Vue Cinema,5,5,0,0,2014-05-02,52.631585,-1.192636
45987,Waitrose Ltd,5,0,0,0,2014-03-31,52.574886,-1.163911
45988,Wans House,3,10,10,10,2014-12-18,52.576131,-1.161998
45989,Warwick Bridge Farm,5,5,5,5,2014-05-02,52.567171,-1.188297
45990,Watergate Fish Bar,4,0,10,5,2014-03-27,52.604939,-1.181841
45991,Watergate Stores,4,5,5,10,2012-07-23,52.604939,-1.181841
45992,Welcome Break - Burger King,2,10,15,5,2014-01-24,52.619967,-1.207883
45993,Welcome Break - Days Inn,5,5,5,5,2014-05-02,52.619967,-1.207883
45994,Welcome Break - Eat In,5,5,5,5,2013-07-04,52.619967,-1.207883
45995,Welcome Break - K F C,5,5,5,0,2012-12-17,52.619967,-1.207883
45996,Welcome Break - Starbucks,4,10,5,5,2013-03-28,,
45997,"Welcome Break - Starbucks,",5,5,5,0,2014-05-02,52.619134,-1.205698
45998,Welcome Break - Waitrose,5,5,0,0,2014-05-02,52.619967,-1.207883
45999,Welcome Traders UK LTD,4,10,5,5,2014-01-22,52.613235,-1.255281
46000,Westview Residential Home,3,10,10,10,2013-08-05,52.587894,-1.161375
46001,Whetstone Baptist Church,5,5,5,5,2013-03-22,52.570741,-1.177992
46002,Whetstone Cafe,5,5,5,5,2014-03-27,52.57801,-1.182652
46003,Whetstone Chemist,Exempt,nan,nan,nan,2014-05-02,52.572734,-1.180197
46004,Whetstone Fish Bar,1,10,15,20,2013-09-17,52.575147,-1.178204
46005,Whetstone Fruit,5,5,5,0,2010-07-26,52.537469,-1.163884
46006,Whetstone Golf Club Ltd,4,5,10,5,2014-01-17,52.55637,-1.18773
46007,Whetstone Grange,3,10,10,5,2014-08-22,52.576592,-1.17772
46008,Whetstone Lunch Club,4,5,5,10,2013-10-09,52.57262,-1.179388
46009,Whetstone News,5,0,0,5,2014-05-02,52.572734,-1.180197
46010,Whetstone Village Store,5,5,5,5,2014-05-02,52.572734,-1.180197
46011,William James Ward,3,10,10,10,2014-03-21,52.554139,-1.136709
46012,Wings Takeaway,4,5,10,5,2014-03-19,52.547384,-1.05364
46013,Winley Chinese Restaurant,1,5,20,10,2014-09-17,52.547537,-1.194971
46014,Winstanley Arms,5,5,5,5,2014-03-25,52.606208,-1.180857
46015,Winstanley Community College,5,5,5,5,2013-10-11,,
46016,Wok In,5,0,5,5,2014-04-29,52.555851,-1.242343
46017,Wongs Wonderful Cakes,5,5,5,5,2014-06-11,,
46018,Woodheyes Residential Home,5,5,0,5,2013-08-08,52.622211,-1.226426
46019,Woodway House,5,5,5,5,2014-02-13,52.575705,-1.167953
46020,Yorke Catering,4,10,5,5,2014-03-21,,
