,addressline1,addressline2,addressline3,addressline4,businessname,businesstype,businesstypeid,confidenceinmanagement,extractdate,fhrsid,hygiene,itemcount,latitude,localauthoritybusinessid,localauthoritycode,localauthorityemailaddress,localauthorityname,localauthoritywebsite,longitude,postcode,ratingdate,ratingkey,ratingvalue,returncode,schemetype,structural
48059,,32 Baxter Gate,,Loughborough,12 Degrees West,Pub/bar/nightclub,7843,10,,136500,5,,52.77302100000000,7081,210,food.hygiene@charnwood.gov.uk,Charnwood,http://www.charnwood.gov.uk/,-1.20278200000000,LE11 1TQ,2012-02-14,fhrs_4_en-GB,4,,FHRS,5
48060,,16 Swan Street,,Loughborough,2 Monkeys Cafe,Restaurant/Cafe/Canteen,1,5,,406269,5,,52.77264100000000,40513,210,food.hygiene@charnwood.gov.uk,Charnwood,http://www.charnwood.gov.uk/,-1.20771000000000,LE11 5BL,2013-12-06,fhrs_5_en-GB,5,,FHRS,5
48061,,120 Derby Road,,Loughborough,300 Spartans,Takeaway/sandwich shop,7844,5,,126004,5,,52.77800800000000,5473,210,food.hygiene@charnwood.gov.uk,Charnwood,http://www.charnwood.gov.uk/,-1.21864200000000,LE11 5HL,2013-09-13,fhrs_5_en-GB,5,,FHRS,5
48062,,Derby Road,,Loughborough,3M Health Care Ltd,Restaurant/Cafe/Canteen,1,5,,126541,5,,52.78581300000000,5561,210,food.hygiene@charnwood.gov.uk,Charnwood,http://www.charnwood.gov.uk/,-1.24108500000000,LE11 5SF,2013-08-15,fhrs_5_en-GB,5,,FHRS,5
48063,,1 Morley Street,,Loughborough,3m Healthcare Canteen,Restaurant/Cafe/Canteen,1,10,,64259,10,,52.77676600000000,14245,210,food.hygiene@charnwood.gov.uk,Charnwood,http://www.charnwood.gov.uk/,-1.19690200000000,LE11 1EP,2014-10-15,fhrs_3_en-GB,3,,FHRS,5
48064,,Barkby Thorpe Lane,,Thurmaston,5 Star Club,Other catering premises,7841,5,,105142,5,,52.68422800000000,36053,210,food.hygiene@charnwood.gov.uk,Charnwood,http://www.charnwood.gov.uk/,-1.08794800000000,LE4 8GP,2013-01-10,fhrs_5_en-GB,5,,FHRS,5
48065,,8 Market Street,,Loughborough,99p + Plus Stores,Retailers - other,4613,10,,462564,5,,52.77125800000000,40788,210,food.hygiene@charnwood.gov.uk,Charnwood,http://www.charnwood.gov.uk/,-1.20797200000000,LE11 3EP,2014-11-04,fhrs_3_en-GB,3,,FHRS,10
48066,,33 Southdown Drive,,Thurmaston,A K Milk Products,Distributors/Transporters,7,,,100728,,,52.66985800000000,32549,210,food.hygiene@charnwood.gov.uk,Charnwood,http://www.charnwood.gov.uk/,-1.09555200000000,LE4 8HS,2013-07-29,fhrs_exempt_en-GB,Exempt,,FHRS,
48067,,,,,A Little Bit of What You Fancy! Catering,Other catering premises,7841,5,,481424,5,,,40795,210,food.hygiene@charnwood.gov.uk,Charnwood,http://www.charnwood.gov.uk/,,,2012-11-08,fhrs_5_en-GB,5,,FHRS,5
48068,,Warners Lane,,Loughborough,A Perfect Blend Ltd,Restaurant/Cafe/Canteen,1,5,,732864,5,,52.77314200000000,43766,210,food.hygiene@charnwood.gov.uk,Charnwood,http://www.charnwood.gov.uk/,-1.20612900000000,LE11 1UL,2015-01-08,fhrs_5_en-GB,5,,FHRS,5
48069,,Granite Way,,Mountsorrel,A W Catering,Mobile caterer,7846,,,682601,,,52.73704700000000,42955,210,food.hygiene@charnwood.gov.uk,Charnwood,http://www.charnwood.gov.uk/,-1.15057500000000,,2014-08-21,fhrs_5_en-GB,5,,FHRS,
48070,,3 Coppice Court,,Thurmaston,Aaron Lodge Guest House,Hotel/bed & breakfast/guest house,7842,5,,636559,5,,52.67592600000000,42440,210,food.hygiene@charnwood.gov.uk,Charnwood,http://www.charnwood.gov.uk/,-1.08153900000000,LE4 8PJ,2014-02-27,fhrs_5_en-GB,5,,FHRS,5
48071,,44 Westfield Drive,,Loughborough,Abbeyfield Loughborough Society Ltd,Hospitals/Childcare/Caring Premises,5,5,,78195,5,,52.77082400000000,18551,210,food.hygiene@charnwood.gov.uk,Charnwood,http://www.charnwood.gov.uk/,-1.22115700000000,LE11 3QL,2014-05-16,fhrs_5_en-GB,5,,FHRS,5
48072,,59 Forest Road,,Loughborough,Abbeyfield Loughborough Society Ltd,Hospitals/Childcare/Caring Premises,5,5,,41615,5,,52.76606100000000,10307,210,food.hygiene@charnwood.gov.uk,Charnwood,http://www.charnwood.gov.uk/,-1.21322400000000,LE11 3NW,2014-10-06,fhrs_5_en-GB,5,,FHRS,5
48073,,190 Ashby Road,,Loughborough,Abbeyfield Loughborough Society Ltd,Hospitals/Childcare/Caring Premises,5,10,,133731,5,,52.77169400000000,6666,210,food.hygiene@charnwood.gov.uk,Charnwood,http://www.charnwood.gov.uk/,-1.21955600000000,LE11 3AG,2013-01-31,fhrs_4_en-GB,4,,FHRS,0
48074,,35 Sutton Close,,Quorn,Abbeyfield Society Quorn,Hospitals/Childcare/Caring Premises,5,5,,87193,5,,52.74339300000000,22446,210,food.hygiene@charnwood.gov.uk,Charnwood,http://www.charnwood.gov.uk/,-1.17808100000000,LE12 8GA,2013-04-25,fhrs_5_en-GB,5,,FHRS,5
48075,,2 Cotton Mill Crescent,,Shepshed,Acorn Close Care Centre,Hospitals/Childcare/Caring Premises,5,10,,106768,5,,52.76784100000000,37312,210,food.hygiene@charnwood.gov.uk,Charnwood,http://www.charnwood.gov.uk/,-1.28873600000000,LE12 9JG,2014-07-21,fhrs_4_en-GB,4,,FHRS,5
48076,,Greengate Lane,,Birstall,Acorn Under Fives (Birstall),School/college/university,7845,5,,109256,5,,52.68007800000000,39380,210,food.hygiene@charnwood.gov.uk,Charnwood,http://www.charnwood.gov.uk/,-1.13143300000000,LE4 3DL,2014-01-07,fhrs_5_en-GB,5,,FHRS,5
48077,,Broomfield,,East Goscote,Active 5 Morning Club,Hospitals/Childcare/Caring Premises,5,5,,636570,0,,52.71301000000000,42677,210,food.hygiene@charnwood.gov.uk,Charnwood,http://www.charnwood.gov.uk/,-1.05297500000000,LE7 3ZQ,2014-02-24,fhrs_5_en-GB,5,,FHRS,0
48078,,71 Central Avenue,,Syston,Adell Mason,Other catering premises,7841,,,507657,,,52.69902700000000,28246,210,food.hygiene@charnwood.gov.uk,Charnwood,http://www.charnwood.gov.uk/,-1.06732100000000,LE7 2EF,2015-01-19,fhrs_exempt_en-GB,Exempt,,FHRS,
48079,,Alfred Street,,Loughborough,Age Concern,Other catering premises,7841,5,,131649,5,,52.77787300000000,6318,210,food.hygiene@charnwood.gov.uk,Charnwood,http://www.charnwood.gov.uk/,-1.20639900000000,LE11 1NG,2013-10-02,fhrs_5_en-GB,5,,FHRS,5
48080,,3 Wards End,,Loughborough,Age UK,Restaurant/Cafe/Canteen,1,5,,103621,5,,52.76908100000000,34900,210,food.hygiene@charnwood.gov.uk,Charnwood,http://www.charnwood.gov.uk/,-1.20783400000000,LE11 3HA,2014-10-15,fhrs_5_en-GB,5,,FHRS,5
48081,,105 Leicester Road,,Mountsorrel,Age UK Leicestershire & Rutland,Hospitals/Childcare/Caring Premises,5,10,,108173,5,,52.72845300000000,38490,210,food.hygiene@charnwood.gov.uk,Charnwood,http://www.charnwood.gov.uk/,-1.13775800000000,LE12 7AJ,2012-10-10,fhrs_4_en-GB,4,,FHRS,5
48082,,67 Charnwood Road,,Shepshed,Akash Tandoori,Takeaway/sandwich shop,7844,5,,90038,5,,52.76813400000000,24354,210,food.hygiene@charnwood.gov.uk,Charnwood,http://www.charnwood.gov.uk/,-1.29414200000000,LE12 9NL,2013-09-09,fhrs_5_en-GB,5,,FHRS,5
48083,,64 Nottingham Road,,Loughborough,Al Hamra,Retailers - other,4613,20,,109692,15,,52.77486200000000,39689,210,food.hygiene@charnwood.gov.uk,Charnwood,http://www.charnwood.gov.uk/,-1.20108800000000,LE11 1EU,2014-03-13,fhrs_1_en-GB,1,,FHRS,15
48084,,57 Alan Moss Road,,Loughborough,Alan Moss Stores,Retailers - other,4613,5,,129710,5,,52.77629800000000,6064,210,food.hygiene@charnwood.gov.uk,Charnwood,http://www.charnwood.gov.uk/,-1.22101500000000,LE11 5LR,2012-05-01,fhrs_5_en-GB,5,,FHRS,5
48085,,1169 Melton Road,,Syston,Aldi,Retailers - supermarkets/hypermarkets,7840,5,,105695,5,,52.69794700000000,36402,210,food.hygiene@charnwood.gov.uk,Charnwood,http://www.charnwood.gov.uk/,-1.07403300000000,LE7 2JT,2012-05-01,fhrs_5_en-GB,5,,FHRS,5
48086,,51 Belton Road,,Loughborough,Aldi,Retailers - supermarkets/hypermarkets,7840,5,,139297,5,,52.77975600000000,7486,210,food.hygiene@charnwood.gov.uk,Charnwood,http://www.charnwood.gov.uk/,-1.20300000000000,LE11 1JA,2013-01-31,fhrs_5_en-GB,5,,FHRS,5
48087,,,,,Alicia Mullins,Retailers - other,4613,5,,585348,5,,,41873,210,food.hygiene@charnwood.gov.uk,Charnwood,http://www.charnwood.gov.uk/,,,2013-08-28,fhrs_5_en-GB,5,,FHRS,5
48088,,Thorpe Acre Road,,Loughborough,All Saints Church Centre,Other catering premises,7841,5,,76139,5,,52.77656300000000,17908,210,food.hygiene@charnwood.gov.uk,Charnwood,http://www.charnwood.gov.uk/,-1.23550900000000,LE11 4LF,2015-01-22,fhrs_5_en-GB,5,,FHRS,5
48089,,73 Sibson Road,,Birstall,Allens Family Bakery,Retailers - other,4613,5,,108600,5,,52.67708200000000,3885,210,food.hygiene@charnwood.gov.uk,Charnwood,http://www.charnwood.gov.uk/,-1.12139000000000,LE4 4DX,2014-10-01,fhrs_5_en-GB,5,,FHRS,5
48090,,16 Station Road,,Quorn,Alliance Pharmacy,Retailers - other,4613,,,87089,,,52.74461700000000,22380,210,food.hygiene@charnwood.gov.uk,Charnwood,http://www.charnwood.gov.uk/,-1.16789600000000,LE12 8BS,2012-11-08,fhrs_exempt_en-GB,Exempt,,FHRS,
48091,,1257 Melton Road,,Syston,Alloro Italian Restaurant,Restaurant/Cafe/Canteen,1,5,,682597,5,,52.69794700000000,42804,210,food.hygiene@charnwood.gov.uk,Charnwood,http://www.charnwood.gov.uk/,-1.07403300000000,LE7 2JT,2014-06-08,fhrs_5_en-GB,5,,FHRS,5
48092,,10 Leicester Road,,Quorn,Amirul,Restaurant/Cafe/Canteen,1,5,,593786,5,,52.74262700000000,42126,210,food.hygiene@charnwood.gov.uk,Charnwood,http://www.charnwood.gov.uk/,-1.16743000000000,LE12 8ET,2014-09-04,fhrs_4_en-GB,4,,FHRS,10
48093,,2 Angel Yard,,Loughborough,Amore Gelato,Other catering premises,7841,5,,682605,5,,52.77175800000000,43199,210,food.hygiene@charnwood.gov.uk,Charnwood,http://www.charnwood.gov.uk/,-1.20744400000000,LE11 3XA,2014-06-30,fhrs_5_en-GB,5,,FHRS,5
48094,,13 Bedford Square,,Loughborough,Angies Fish Bar,Takeaway/sandwich shop,7844,10,,138616,10,,52.76884500000000,7394,210,food.hygiene@charnwood.gov.uk,Charnwood,http://www.charnwood.gov.uk/,-1.20740800000000,LE11 2TP,2013-07-23,fhrs_3_en-GB,3,,FHRS,10
48095,,,,,Angie's Pantry,Other catering premises,7841,5,,108372,5,,,38641,210,food.hygiene@charnwood.gov.uk,Charnwood,http://www.charnwood.gov.uk/,,,2013-04-22,fhrs_5_en-GB,5,,FHRS,5
48096,,,,,Anisha Mistry Ltd,Other catering premises,7841,5,,110215,5,,,39965,210,food.hygiene@charnwood.gov.uk,Charnwood,http://www.charnwood.gov.uk/,,,2012-10-26,fhrs_5_en-GB,5,,FHRS,5
48097,,20 Woodgate,,Rothley,Anmol Restaurant,Restaurant/Cafe/Canteen,1,5,,88945,5,,52.70832500000000,23574,210,food.hygiene@charnwood.gov.uk,Charnwood,http://www.charnwood.gov.uk/,-1.13896900000000,LE7 7LJ,2015-01-19,fhrs_4_en-GB,4,,FHRS,10
48098,,,,,Annette Fairbrother,Other catering premises,7841,0,,108881,0,,,39101,210,food.hygiene@charnwood.gov.uk,Charnwood,http://www.charnwood.gov.uk/,,,2013-09-23,fhrs_5_en-GB,5,,FHRS,0
48099,,9A Leicester Road,,Anstey,Anstey and District Funeral Service,Other catering premises,7841,5,,106139,5,,52.67182400000000,36770,210,food.hygiene@charnwood.gov.uk,Charnwood,http://www.charnwood.gov.uk/,-1.18570900000000,LE7 7AT,2012-08-09,fhrs_5_en-GB,5,,FHRS,5
48100,,16 Kitchener Road,,Anstey,Anstey Balti House,Takeaway/sandwich shop,7844,5,,144763,5,,52.67632000000000,842,210,food.hygiene@charnwood.gov.uk,Charnwood,http://www.charnwood.gov.uk/,-1.18586200000000,LE7 7EA,2014-09-04,fhrs_4_en-GB,4,,FHRS,10
48101,,25 The Nook,,Anstey,Anstey Chippy,Takeaway/sandwich shop,7844,5,,54289,5,,52.67270600000000,1224,210,food.hygiene@charnwood.gov.uk,Charnwood,http://www.charnwood.gov.uk/,-1.18729000000000,LE7 7AZ,2013-07-08,fhrs_5_en-GB,5,,FHRS,5
48102,,Church Lane,,Anstey,Anstey Early Learning,Hospitals/Childcare/Caring Premises,5,5,,636568,0,,52.67233300000000,42675,210,food.hygiene@charnwood.gov.uk,Charnwood,http://www.charnwood.gov.uk/,-1.18926400000000,LE7 7AF,2014-03-13,fhrs_5_en-GB,5,,FHRS,5
48103,,Latimer Street,,Anstey,Anstey Latimer Primary School,School/college/university,7845,5,,145425,5,,52.67152200000000,862,210,food.hygiene@charnwood.gov.uk,Charnwood,http://www.charnwood.gov.uk/,-1.18762300000000,LE7 7AW,2012-02-02,fhrs_5_en-GB,5,,FHRS,5
48104,,Cropston Road,,Anstey,Anstey Nomads Football Club,Pub/bar/nightclub,7843,5,,123582,5,,52.67342400000000,520,210,food.hygiene@charnwood.gov.uk,Charnwood,http://www.charnwood.gov.uk/,-1.18446700000000,LE7 7BP,2014-03-26,fhrs_5_en-GB,5,,FHRS,5
48105,,11 Bradgate Road,,Anstey,Anstey Post Office And Store,Retailers - other,4613,5,,89594,5,,52.67204300000000,240,210,food.hygiene@charnwood.gov.uk,Charnwood,http://www.charnwood.gov.uk/,-1.18884100000000,LE7 7AB,2014-01-08,fhrs_5_en-GB,5,,FHRS,5
48106,,17 Sibson Road,,Birstall,Aroma Spice,Takeaway/sandwich shop,7844,5,,108304,5,,52.67708200000000,3860,210,food.hygiene@charnwood.gov.uk,Charnwood,http://www.charnwood.gov.uk/,-1.12139000000000,LE4 4DX,2014-07-07,fhrs_4_en-GB,4,,FHRS,10
48107,,Epinal Way,,Loughborough,Arts Cafe (Cope Auditorium),Restaurant/Cafe/Canteen,1,5,,109169,5,,52.76488200000000,39330,210,food.hygiene@charnwood.gov.uk,Charnwood,http://www.charnwood.gov.uk/,-1.22948900000000,LE11 3TU,2013-10-16,fhrs_4_en-GB,4,,FHRS,10
48108,,Barkby Thorpe Lane,,Thurmaston,Asda Stores,Retailers - supermarkets/hypermarkets,7840,5,,98110,5,,52.68640600000000,30793,210,food.hygiene@charnwood.gov.uk,Charnwood,http://www.charnwood.gov.uk/,-1.09294700000000,LE4 8GQ,2013-10-22,fhrs_5_en-GB,5,,FHRS,5
48109,,25 Charnwood Road,,Shepshed,Asda Supermarket,Retailers - supermarkets/hypermarkets,7840,5,,445949,10,,52.77115400000000,40739,210,food.hygiene@charnwood.gov.uk,Charnwood,http://www.charnwood.gov.uk/,-1.29099500000000,LE12 9QE,2014-02-06,fhrs_4_en-GB,4,,FHRS,5
48110,,14 Old Ashby Road,,Loughborough,Ashby Road Estate Community Association,Pub/bar/nightclub,7843,5,,108930,5,,52.76800027000000,39143,210,food.hygiene@charnwood.gov.uk,Charnwood,http://www.charnwood.gov.uk/,-1.24035109000000,,2014-02-27,fhrs_5_en-GB,5,,FHRS,5
48111,,2 Ashby Square,,Loughborough,Ashby Square News,Retailers - other,4613,5,,134819,5,,52.77210400000000,6831,210,food.hygiene@charnwood.gov.uk,Charnwood,http://www.charnwood.gov.uk/,-1.20943900000000,LE11 5AA,2014-06-18,fhrs_5_en-GB,5,,FHRS,5
48112,,Thorpe Hill,,Loughborough,Ashmount  School,School/college/university,7845,5,,636551,5,,52.77000800000000,40466,210,food.hygiene@charnwood.gov.uk,Charnwood,http://www.charnwood.gov.uk/,-1.23958100000000,LE11 4SQ,2014-01-20,fhrs_5_en-GB,5,,FHRS,5
48113,,,,,Aunty Gills Cakes,Other catering premises,7841,5,,81042,5,,,1972,210,food.hygiene@charnwood.gov.uk,Charnwood,http://www.charnwood.gov.uk/,,,2012-09-04,fhrs_5_en-GB,5,,FHRS,5
48114,,65 Ashby Road Central,,Shepshed,Autograph The Food People,Restaurant/Cafe/Canteen,1,0,,109113,5,,52.76023900000000,39275,210,food.hygiene@charnwood.gov.uk,Charnwood,http://www.charnwood.gov.uk/,-1.29532100000000,LE12 9EQ,2013-11-18,fhrs_5_en-GB,5,,FHRS,5
48115,,Ashby Road,,Loughborough,"Avenance, Henry Ford College",Restaurant/Cafe/Canteen,1,5,,134246,5,,52.77257600000000,6753,210,food.hygiene@charnwood.gov.uk,Charnwood,http://www.charnwood.gov.uk/,-1.21292900000000,LE11 3AA,2013-03-21,fhrs_5_en-GB,5,,FHRS,5
48116,,86 Loughborough Road,,Mountsorrel,Ayeesha Raj Care Home,Hospitals/Childcare/Caring Premises,5,5,,83263,5,,52.73387700000000,20307,210,food.hygiene@charnwood.gov.uk,Charnwood,http://www.charnwood.gov.uk/,-1.14684800000000,LE12 7AU,2013-10-17,fhrs_5_en-GB,5,,FHRS,5
48117,,20 King Street,,Barkby Thorpe,B D Mount & Sons,Retailers - other,4613,5,,94825,5,,52.67574800000000,27987,210,food.hygiene@charnwood.gov.uk,Charnwood,http://www.charnwood.gov.uk/,-1.06113200000000,LE7 3QE,2013-01-31,fhrs_5_en-GB,5,,FHRS,5
48118,,83 Nottingham Road,,Loughborough,B J & Sons,Retailers - other,4613,10,,65335,10,,52.77561300000000,14667,210,food.hygiene@charnwood.gov.uk,Charnwood,http://www.charnwood.gov.uk/,-1.19913200000000,LE11 1ES,2014-10-09,fhrs_2_en-GB,2,,FHRS,15
48119,,Jubilee Drive,,Loughborough,B&Q Warehouse,Restaurant/Cafe/Canteen,1,5,,53536,5,,52.78173800000000,12061,210,food.hygiene@charnwood.gov.uk,Charnwood,http://www.charnwood.gov.uk/,-1.21314900000000,LE11 5XS,2014-03-06,fhrs_5_en-GB,5,,FHRS,5
48120,,7 Limehurst Avenue,,Loughborough,Babblebrooke Day Nursery,Hospitals/Childcare/Caring Premises,5,5,,593783,5,,52.77671200000000,42011,210,food.hygiene@charnwood.gov.uk,Charnwood,http://www.charnwood.gov.uk/,-1.21020100000000,LE11 1PE,2014-03-19,fhrs_4_en-GB,4,,FHRS,10
48121,,Reservoir Road,,Cropston,Badgers Sett,Pub/bar/nightclub,7843,5,,97817,5,,52.69338900000000,30560,210,food.hygiene@charnwood.gov.uk,Charnwood,http://www.charnwood.gov.uk/,-1.18556000000000,LE7 7GQ,2013-10-08,fhrs_5_en-GB,5,,FHRS,5
48122,,121 Sibson Road,,Birstall,Bains Fish Bar,Takeaway/sandwich shop,7844,20,,109962,10,,52.68005500000000,39802,210,food.hygiene@charnwood.gov.uk,Charnwood,http://www.charnwood.gov.uk/,-1.12467400000000,LE4 4ND,2014-09-05,fhrs_1_en-GB,1,,FHRS,5
48123,,,,,Baked 4 U,Other catering premises,7841,5,,535217,5,,,35174,210,food.hygiene@charnwood.gov.uk,Charnwood,http://www.charnwood.gov.uk/,,,2013-02-22,fhrs_5_en-GB,5,,FHRS,0
48124,,119 Leicester Road,,Shepshed,Baker's News,Retailers - other,4613,5,,91559,5,,52.76258400000000,25379,210,food.hygiene@charnwood.gov.uk,Charnwood,http://www.charnwood.gov.uk/,-1.28754800000000,LE12 9DG,2014-10-02,fhrs_5_en-GB,5,,FHRS,5
48125,,41 Market Street,,Loughborough,Baobab Cafe,Restaurant/Cafe/Canteen,1,5,,110206,5,,52.77165700000000,39950,210,food.hygiene@charnwood.gov.uk,Charnwood,http://www.charnwood.gov.uk/,-1.20848400000000,LE11 3ER,2014-09-05,fhrs_5_en-GB,5,,FHRS,5
48126,,Prestwold Lane,,Prestwold,Barefoot Festival,Mobile caterer,7846,,,102546,,,52.78827500000000,34044,210,food.hygiene@charnwood.gov.uk,Charnwood,http://www.charnwood.gov.uk/,-1.14314500000000,LE12 5SQ,2013-07-12,fhrs_exempt_en-GB,Exempt,,FHRS,
48127,,1110 Melton Road,,Syston,Bargain Booze,Retailers - other,4613,5,,95995,5,,52.69505800000000,28937,210,food.hygiene@charnwood.gov.uk,Charnwood,http://www.charnwood.gov.uk/,-1.07936200000000,LE7 2HA,2012-04-20,fhrs_5_en-GB,5,,FHRS,5
48128,,9 Ling Road,,Loughborough,Bargain Booze,Retailers - other,4613,10,,60297,5,,52.75750300000000,13170,210,food.hygiene@charnwood.gov.uk,Charnwood,http://www.charnwood.gov.uk/,-1.20386500000000,LE11 2LW,2013-01-15,fhrs_3_en-GB,3,,FHRS,10
48129,,95 Sibson Road,,Birstall,Bargain Booze,Retailers - other,4613,20,,109107,10,,52.67896500000000,3927,210,food.hygiene@charnwood.gov.uk,Charnwood,http://www.charnwood.gov.uk/,-1.12317200000000,LE4 4NB,2014-10-20,fhrs_1_en-GB,1,,FHRS,15
48130,,49 Rothley Road,,Mountsorrel,Bargain Booze Plus,Retailers - other,4613,5,,83694,5,,52.72525600000000,20580,210,food.hygiene@charnwood.gov.uk,Charnwood,http://www.charnwood.gov.uk/,-1.13937600000000,LE12 7JS,2014-10-14,fhrs_5_en-GB,5,,FHRS,5
48131,,220 Barkby Road,,Syston,Barkby,Hospitals/Childcare/Caring Premises,5,5,,106776,5,,52.69320600000000,37325,210,food.hygiene@charnwood.gov.uk,Charnwood,http://www.charnwood.gov.uk/,-1.06328800000000,LE7 2AJ,2014-03-07,fhrs_5_en-GB,5,,FHRS,5
48132,,Beeby Road,,Barkby,Barkby United Cricket Club,Pub/bar/nightclub,7843,5,,406266,5,,52.68018600000000,1299,210,food.hygiene@charnwood.gov.uk,Charnwood,http://www.charnwood.gov.uk/,-1.05729400000000,LE7 3QB,2014-06-17,fhrs_5_en-GB,5,,FHRS,5
48133,,19 Beeby Road,,Barkby,Barkby Village Hall,Other catering premises,7841,5,,57740,5,,52.68018600000000,1295,210,food.hygiene@charnwood.gov.uk,Charnwood,http://www.charnwood.gov.uk/,-1.05729400000000,LE7 3QB,2013-07-26,fhrs_5_en-GB,5,,FHRS,5
48134,,7E Brook Street,,Shepshed,Baron's,Takeaway/sandwich shop,7844,10,,107018,5,,52.77471500000000,37573,210,food.hygiene@charnwood.gov.uk,Charnwood,http://www.charnwood.gov.uk/,-1.28967700000000,LE12 9RE,2013-08-13,fhrs_3_en-GB,3,,FHRS,10
48135,,20 Beveridge Street,,Barrow Upon Soar,Barrow Baptist Church,Other catering premises,7841,5,,64951,10,,52.75150100000000,1454,210,food.hygiene@charnwood.gov.uk,Charnwood,http://www.charnwood.gov.uk/,-1.14731900000000,LE12 8PL,2014-01-10,fhrs_4_en-GB,4,,FHRS,5
48136,,,,,Barrow Cakes,Retailers - other,4613,5,,109972,5,,,39817,210,food.hygiene@charnwood.gov.uk,Charnwood,http://www.charnwood.gov.uk/,,,2014-07-23,fhrs_5_en-GB,5,,FHRS,5
48137,,14 North Street,,Barrow Upon Soar,Barrow Conservative Club,Pub/bar/nightclub,7843,5,,83552,5,,52.75371900000000,2051,210,food.hygiene@charnwood.gov.uk,Charnwood,http://www.charnwood.gov.uk/,-1.14583800000000,LE12 8QA,2014-08-22,fhrs_5_en-GB,5,,FHRS,0
48138,,Nottingham Road,,Barrow Upon Soar,Barrow Cricket Club,Pub/bar/nightclub,7843,5,,85307,5,,52.76256000000000,2142,210,food.hygiene@charnwood.gov.uk,Charnwood,http://www.charnwood.gov.uk/,-1.14012300000000,LE12 8JA,2012-11-08,fhrs_5_en-GB,5,,FHRS,5
48139,,31 North Street,,Barrow Upon Soar,Barrow Express,Retailers - other,4613,5,,83964,10,,52.75385400000000,2072,210,food.hygiene@charnwood.gov.uk,Charnwood,http://www.charnwood.gov.uk/,-1.14699100000000,LE12 8PZ,2013-06-19,fhrs_4_en-GB,4,,FHRS,5
48140,,22 High Street,,Barrow Upon Soar,Barrow of Treats,Restaurant/Cafe/Canteen,1,5,,107526,5,,52.75153200000000,38007,210,food.hygiene@charnwood.gov.uk,Charnwood,http://www.charnwood.gov.uk/,-1.14915500000000,LE12 8PY,2014-09-26,fhrs_5_en-GB,5,,FHRS,5
48141,,North Street,,Barrow Upon Soar,Barrow Pre School Playgroup,School/college/university,7845,5,,360887,5,,52.75371900000000,40183,210,food.hygiene@charnwood.gov.uk,Charnwood,http://www.charnwood.gov.uk/,-1.14583800000000,LE12 8QA,2014-05-15,fhrs_5_en-GB,5,,FHRS,0
48142,,Barrow Road,,Quorn,Barrow Town Football Club,Pub/bar/nightclub,7843,5,,85547,5,,,2160,210,food.hygiene@charnwood.gov.uk,Charnwood,http://www.charnwood.gov.uk/,,,2014-03-06,fhrs_5_en-GB,5,,FHRS,5
48143,,Market Place,,Loughborough,Bartholomuch,Mobile caterer,7846,5,,102343,5,,52.77166900000000,33917,210,food.hygiene@charnwood.gov.uk,Charnwood,http://www.charnwood.gov.uk/,-1.20648200000000,,2015-01-23,fhrs_5_en-GB,5,,FHRS,5
48144,,63 Church Gate,,Loughborough,Bartholomuch Ice-cream,Other catering premises,7841,5,,690416,5,,52.77305600000000,43307,210,food.hygiene@charnwood.gov.uk,Charnwood,http://www.charnwood.gov.uk/,-1.20524200000000,LE11 1UE,2014-07-30,fhrs_5_en-GB,5,,FHRS,5
48145,,51 Baxter Gate,,Loughborough,Baxter Gate Convenience,Retailers - other,4613,10,,636552,10,,52.77216200000000,40803,210,food.hygiene@charnwood.gov.uk,Charnwood,http://www.charnwood.gov.uk/,-1.20469500000000,LE11 1TH,2014-01-14,fhrs_3_en-GB,3,,FHRS,10
48146,,91 Sibson Road,,Birstall,Baxters Bakery,Retailers - other,4613,20,,109018,5,,52.67896500000000,3921,210,food.hygiene@charnwood.gov.uk,Charnwood,http://www.charnwood.gov.uk/,-1.12317200000000,LE4 4NB,2014-08-07,fhrs_1_en-GB,1,,FHRS,10
48147,,,,,Bay Tree Bakes,Other catering premises,7841,5,,682595,5,,,28446,210,food.hygiene@charnwood.gov.uk,Charnwood,http://www.charnwood.gov.uk/,,,2014-07-03,fhrs_5_en-GB,5,,FHRS,5
48148,,Baxter Gate,,Loughborough,Beacon Bingo,Pub/bar/nightclub,7843,5,,137029,5,,52.77249600000000,7167,210,food.hygiene@charnwood.gov.uk,Charnwood,http://www.charnwood.gov.uk/,-1.20497000000000,LE11 1TG,2013-10-02,fhrs_5_en-GB,5,,FHRS,5
48149,,294-296 Park Road,,Loughborough,Beacon Christian Centre,Other catering premises,7841,5,,74405,5,,52.75605900000000,17148,210,food.hygiene@charnwood.gov.uk,Charnwood,http://www.charnwood.gov.uk/,-1.20968500000000,LE11 2HL,2013-04-10,fhrs_5_en-GB,5,,FHRS,5
48150,,,,,Beaufleur Cakes,Other catering premises,7841,5,,564432,5,,,40742,210,food.hygiene@charnwood.gov.uk,Charnwood,http://www.charnwood.gov.uk/,,,2013-06-11,fhrs_5_en-GB,5,,FHRS,5
48151,,Beaumanor Drive,,Woodhouse,Beaumanor Hall,Restaurant/Cafe/Canteen,1,5,,101380,5,,52.73561500000000,33110,210,food.hygiene@charnwood.gov.uk,Charnwood,http://www.charnwood.gov.uk/,-1.20155400000000,LE12 8TX,2013-08-29,fhrs_5_en-GB,5,,FHRS,5
48152,,Cartwright Street,,Loughborough,Beaumanor Nursing Home,Hospitals/Childcare/Caring Premises,5,0,,146247,0,,52.77821200000000,8874,210,food.hygiene@charnwood.gov.uk,Charnwood,http://www.charnwood.gov.uk/,-1.20064100000000,LE11 1JW,2014-10-17,fhrs_5_en-GB,5,,FHRS,5
48153,,170 Broome Lane,,East Goscote,Beedles Lake Golf Centre,Pub/bar/nightclub,7843,10,,120564,5,,52.71720200000000,4950,210,food.hygiene@charnwood.gov.uk,Charnwood,http://www.charnwood.gov.uk/,-1.05227800000000,LE7 3WQ,2014-02-10,fhrs_4_en-GB,4,,FHRS,5
48154,,,,,Bellalicious Petite Cakes,Other catering premises,7841,5,,499320,5,,,41007,210,food.hygiene@charnwood.gov.uk,Charnwood,http://www.charnwood.gov.uk/,,,2012-12-07,fhrs_5_en-GB,5,,FHRS,5
48155,,35 Bridge Street,,Barrow Upon Soar,Bengal Tandoori & Balti Restau,Restaurant/Cafe/Canteen,1,10,,68726,15,,52.75016700000000,1538,210,food.hygiene@charnwood.gov.uk,Charnwood,http://www.charnwood.gov.uk/,-1.15189300000000,LE12 8PN,2014-11-27,fhrs_2_en-GB,2,,FHRS,10
48156,,1001 Melton Road,,Syston,Berrystead Nursing Home,Hospitals/Childcare/Caring Premises,5,5,,95940,5,,52.69042800000000,28889,210,food.hygiene@charnwood.gov.uk,Charnwood,http://www.charnwood.gov.uk/,-1.08749300000000,LE7 2BE,2014-07-03,fhrs_5_en-GB,5,,FHRS,5
48157,,5A Gregory Street,,Loughborough,Bharat Club,Pub/bar/nightclub,7843,5,,50202,5,,52.76907200000000,11178,210,food.hygiene@charnwood.gov.uk,Charnwood,http://www.charnwood.gov.uk/,-1.20112000000000,LE11 1AS,2014-05-12,fhrs_4_en-GB,4,,FHRS,10
48158,,Station Road,,Quorn,Biancas Pizza,Takeaway/sandwich shop,7844,5,,87173,5,,52.74461700000000,22425,210,food.hygiene@charnwood.gov.uk,Charnwood,http://www.charnwood.gov.uk/,-1.16789600000000,LE12 8BS,2014-02-20,fhrs_5_en-GB,5,,FHRS,5
48159,,2 Ingleberry Road,,Shepshed,Bill Cooling Butchers,Retailers - other,4613,5,,91336,5,,52.75387500000000,25192,210,food.hygiene@charnwood.gov.uk,Charnwood,http://www.charnwood.gov.uk/,-1.28203000000000,LE12 9DE,2013-08-06,fhrs_5_en-GB,5,,FHRS,5
48160,,18-18A Lonsdale Road,,Thurmaston,Bindis Supermarket,Retailers - other,4613,5,,99754,5,,52.67429200000000,31703,210,food.hygiene@charnwood.gov.uk,Charnwood,http://www.charnwood.gov.uk/,-1.09584500000000,LE4 8JF,2013-05-10,fhrs_5_en-GB,5,,FHRS,0
48161,,7 The Nook,,Anstey,Birds The Confectioners,Retailers - other,4613,5,,188871,5,,52.67270600000000,40094,210,food.hygiene@charnwood.gov.uk,Charnwood,http://www.charnwood.gov.uk/,-1.18729000000000,LE7 7AZ,2013-07-08,fhrs_5_en-GB,5,,FHRS,5
48162,,26 Carillon Court,,Loughborough,Birds The Confectioners,Retailers - other,4613,5,,145962,5,,52.77175800000000,8790,210,food.hygiene@charnwood.gov.uk,Charnwood,http://www.charnwood.gov.uk/,-1.20744400000000,LE11 3XA,2014-02-17,fhrs_5_en-GB,5,,FHRS,5
48163,,School Lane,,Birstall,Birstall Bowling Club,Pub/bar/nightclub,7843,5,,107880,5,,52.67412800000000,3822,210,food.hygiene@charnwood.gov.uk,Charnwood,http://www.charnwood.gov.uk/,-1.12304700000000,LE4 4EA,2014-10-02,fhrs_5_en-GB,5,,FHRS,5
48164,,1 Sibson Road,,Birstall,Birstall Fisheries,Takeaway/sandwich shop,7844,5,,107978,5,,52.67708200000000,3831,210,food.hygiene@charnwood.gov.uk,Charnwood,http://www.charnwood.gov.uk/,-1.12139000000000,LE4 4DX,2013-05-08,fhrs_5_en-GB,5,,FHRS,5
48165,,Wanlip Lane,,Birstall,Birstall Methodist Church,Other catering premises,7841,5,,114435,5,,52.67701300000000,4348,210,food.hygiene@charnwood.gov.uk,Charnwood,http://www.charnwood.gov.uk/,-1.11930600000000,LE4 4JS,2014-01-08,fhrs_5_en-GB,5,,FHRS,5
48166,,68-74 Wanlip Lane,,Birstall,Birstall Rainbow Nursery,Hospitals/Childcare/Caring Premises,5,0,,114487,0,,52.68138100000000,4354,210,food.hygiene@charnwood.gov.uk,Charnwood,http://www.charnwood.gov.uk/,-1.11806500000000,LE4 4GF,2014-11-28,fhrs_5_en-GB,5,,FHRS,5
48167,,16-18 Wanlip Lane,,Birstall,Birstall Social Club,Pub/bar/nightclub,7843,5,,113415,5,,52.67701300000000,4246,210,food.hygiene@charnwood.gov.uk,Charnwood,http://www.charnwood.gov.uk/,-1.11930600000000,LE4 4JS,2013-07-26,fhrs_5_en-GB,5,,FHRS,5
48168,,Meadow Lane,,Birstall,Birstall United Social Football Club,Pub/bar/nightclub,7843,5,,103651,5,,52.68308800000000,3493,210,food.hygiene@charnwood.gov.uk,Charnwood,http://www.charnwood.gov.uk/,-1.11297100000000,LE4 4GR,2013-11-04,fhrs_4_en-GB,4,,FHRS,10
48169,,School Lane,,Birstall,Birstall Youth Cafe,Restaurant/Cafe/Canteen,1,10,,108856,0,,52.67440700000000,39088,210,food.hygiene@charnwood.gov.uk,Charnwood,http://www.charnwood.gov.uk/,-1.12283200000000,,2013-03-25,fhrs_4_en-GB,4,,FHRS,10
48170,,Barkby Thorpe Lane,,Thurmaston,Bishop Ellis Catholic Primary,School/college/university,7845,5,,98101,5,,52.68422800000000,30787,210,food.hygiene@charnwood.gov.uk,Charnwood,http://www.charnwood.gov.uk/,-1.08794800000000,LE4 8GP,2014-06-25,fhrs_5_en-GB,5,,FHRS,5
48171,,Broomfield,,East Goscote,Bizzy Bees Preschool,Hospitals/Childcare/Caring Premises,5,5,,109344,5,,52.71301000000000,39454,210,food.hygiene@charnwood.gov.uk,Charnwood,http://www.charnwood.gov.uk/,-1.05297500000000,LE7 3ZQ,2014-02-24,fhrs_5_en-GB,5,,FHRS,0
48172,,2-4 Church Lane,,Barrow Upon Soar,Blacksmith Arms,Pub/bar/nightclub,7843,5,,84923,5,,52.75333400000000,2115,210,food.hygiene@charnwood.gov.uk,Charnwood,http://www.charnwood.gov.uk/,-1.14725300000000,LE12 8PP,2013-07-12,fhrs_5_en-GB,5,,FHRS,5
48173,,8 King Street,,Sileby,Bobbo's Fish Bar,Takeaway/sandwich shop,7844,5,,106904,5,,52.73180400000000,37465,210,food.hygiene@charnwood.gov.uk,Charnwood,http://www.charnwood.gov.uk/,-1.10942100000000,LE12 7NA,2013-09-16,fhrs_5_en-GB,5,,FHRS,5
48174,,,,,Bom Bom Patisserie,Other catering premises,7841,5,,564440,5,,,41743,210,food.hygiene@charnwood.gov.uk,Charnwood,http://www.charnwood.gov.uk/,,,2013-06-19,fhrs_5_en-GB,5,,FHRS,5
48175,,1173 Melton Road,,Syston,Bombay Wok,Restaurant/Cafe/Canteen,1,10,,481431,15,,52.69482900000000,40955,210,food.hygiene@charnwood.gov.uk,Charnwood,http://www.charnwood.gov.uk/,-1.07887800000000,LE7 2JS,2014-06-19,fhrs_2_en-GB,2,,FHRS,10
48176,,Old Ashby Road,,Loughborough,Boothwood Primary School,School/college/university,7845,10,,65771,5,,52.76648000000000,14811,210,food.hygiene@charnwood.gov.uk,Charnwood,http://www.charnwood.gov.uk/,-1.24179100000000,LE11 4PG,2013-09-30,fhrs_4_en-GB,4,,FHRS,5
48177,,Barkby Thorpe Lane,,Thurmaston,Boots,Retailers - other,4613,5,,105887,5,,52.68422800000000,36561,210,food.hygiene@charnwood.gov.uk,Charnwood,http://www.charnwood.gov.uk/,-1.08794800000000,LE4 8GP,2014-08-15,fhrs_5_en-GB,5,,FHRS,5
48178,,11-13 Market Place,,Loughborough,Boots,Retailers - supermarkets/hypermarkets,7840,5,,61805,5,,52.77170800000000,13609,210,food.hygiene@charnwood.gov.uk,Charnwood,http://www.charnwood.gov.uk/,-1.20676300000000,LE11 3EA,2014-10-02,fhrs_5_en-GB,5,,FHRS,5
48179,,123 Sibson Road,,Birstall,Boots,Retailers - other,4613,5,,109476,5,,52.68005500000000,3959,210,food.hygiene@charnwood.gov.uk,Charnwood,http://www.charnwood.gov.uk/,-1.12467400000000,LE4 4ND,2015-01-26,fhrs_5_en-GB,5,,FHRS,5
48180,,54 Swan Street,,Sileby,Boots UK Ltd,Retailers - other,4613,,,94433,,,52.73227500000000,27616,210,food.hygiene@charnwood.gov.uk,Charnwood,http://www.charnwood.gov.uk/,-1.10633100000000,LE12 7NW,2015-01-26,fhrs_exempt_en-GB,Exempt,,FHRS,
48181,,3 Sibson Road,,Birstall,Booze Stop,Retailers - other,4613,5,,110187,5,,52.67708200000000,39933,210,food.hygiene@charnwood.gov.uk,Charnwood,http://www.charnwood.gov.uk/,-1.12139000000000,LE4 4DX,2014-10-02,fhrs_5_en-GB,5,,FHRS,5
48182,,Ashby Road,,Loughborough,BP Connect/Wild Bean Cafe,Retailers - other,4613,10,,134452,10,,52.76100300000000,6788,210,food.hygiene@charnwood.gov.uk,Charnwood,http://www.charnwood.gov.uk/,-1.25848400000000,LE11 3QU,2012-12-17,fhrs_3_en-GB,3,,FHRS,10
48183,,15 Station Road,,Cropston,Bradgate Arms,Pub/bar/nightclub,7843,5,,97854,5,,52.69411900000000,30590,210,food.hygiene@charnwood.gov.uk,Charnwood,http://www.charnwood.gov.uk/,-1.17801500000000,LE7 7HG,2014-02-06,fhrs_4_en-GB,4,,FHRS,10
48184,,Bradgate Road,,Newtown Linford,Bradgate Deer Barn Tea Rooms (Centre Park),Restaurant/Cafe/Canteen,1,5,,106209,5,,,36809,210,food.hygiene@charnwood.gov.uk,Charnwood,http://www.charnwood.gov.uk/,,,2012-10-16,fhrs_5_en-GB,5,,FHRS,5
48185,,3 Bradgate Road,,Anstey,Bradgate Fisheries,Takeaway/sandwich shop,7844,5,,54126,5,,52.67204300000000,122,210,food.hygiene@charnwood.gov.uk,Charnwood,http://www.charnwood.gov.uk/,-1.18884100000000,LE7 7AB,2013-06-04,fhrs_5_en-GB,5,,FHRS,5
48186,,Bradgate Road,,Newtown Linford,Bradgate Park Conservatory Tea Room  & Shop,Restaurant/Cafe/Canteen,1,5,,608414,5,,,40389,210,food.hygiene@charnwood.gov.uk,Charnwood,http://www.charnwood.gov.uk/,,,2014-05-06,fhrs_5_en-GB,5,,FHRS,5
48187,,Bradgate Road,,Newtown Linford,Bradgate Park Deer Barn Tea Rooms & Visitor Centre Shop,Restaurant/Cafe/Canteen,1,5,,84270,5,,52.68947500000000,20915,210,food.hygiene@charnwood.gov.uk,Charnwood,http://www.charnwood.gov.uk/,-1.20495500000000,LE6 0HE,2014-05-06,fhrs_5_en-GB,5,,FHRS,5
48188,,26 Woodgate,,Rothley,Bradleys,Retailers - other,4613,5,,88962,5,,52.70832500000000,23585,210,food.hygiene@charnwood.gov.uk,Charnwood,http://www.charnwood.gov.uk/,-1.13896900000000,LE7 7LJ,2014-02-21,fhrs_5_en-GB,5,,FHRS,5
48189,,20 Station Road,,Quorn,Bradleys,Retailers - other,4613,5,,87095,5,,52.74461700000000,22385,210,food.hygiene@charnwood.gov.uk,Charnwood,http://www.charnwood.gov.uk/,-1.16789600000000,LE12 8BS,2014-10-23,fhrs_5_en-GB,5,,FHRS,5
48190,,1487 Melton Road,,Queniborough,Branstons Simply Food Connect,Retailers - other,4613,5,,647324,5,,52.67478500000000,42618,210,food.hygiene@charnwood.gov.uk,Charnwood,http://www.charnwood.gov.uk/,-1.01015600000000,LE7 3FQ,2014-03-20,fhrs_4_en-GB,4,,FHRS,10
48191,,Southfield Road,,Loughborough,Break Out,Restaurant/Cafe/Canteen,1,5,,106314,5,,52.76884700000000,36889,210,food.hygiene@charnwood.gov.uk,Charnwood,http://www.charnwood.gov.uk/,-1.20638600000000,LE11 2TS,2014-03-21,fhrs_5_en-GB,5,,FHRS,5
48192,,158 Ashby Road West,,Shepshed,Briarvale Residential Home,Hospitals/Childcare/Caring Premises,5,,,647311,,,52.75966500000000,41577,210,food.hygiene@charnwood.gov.uk,Charnwood,http://www.charnwood.gov.uk/,-1.30005800000000,LE12 9EE,2015-01-06,fhrs_4_en-GB,4,,FHRS,
48193,,,,,Brina's Cakes,Mobile caterer,7846,5,,109410,5,,,39514,210,food.hygiene@charnwood.gov.uk,Charnwood,http://www.charnwood.gov.uk/,,,2014-07-21,fhrs_5_en-GB,5,,FHRS,5
48194,,32-34 Britannia Street,,Shepshed,Britannia Spice,Other catering premises,7841,5,,673187,5,,52.77264200000000,42961,210,food.hygiene@charnwood.gov.uk,Charnwood,http://www.charnwood.gov.uk/,-1.29184500000000,LE12 9AE,2014-05-07,fhrs_4_en-GB,4,,FHRS,10
48195,,65 Clarence Street,,Loughborough,British Islamic Stores,Retailers - other,4613,20,,148204,15,,52.77655600000000,9278,210,food.hygiene@charnwood.gov.uk,Charnwood,http://www.charnwood.gov.uk/,-1.20041900000000,LE11 1DY,2013-10-24,fhrs_1_en-GB,1,,FHRS,15
48196,,,,,Brook House,Retailers - other,4613,5,,427584,5,,,27797,210,food.hygiene@charnwood.gov.uk,Charnwood,http://www.charnwood.gov.uk/,,,2012-07-09,fhrs_5_en-GB,5,,FHRS,5
48197,,35 Brookside,,Barkby,Brookside Inn,Pub/bar/nightclub,7843,5,,60045,5,,52.68017100000000,1314,210,food.hygiene@charnwood.gov.uk,Charnwood,http://www.charnwood.gov.uk/,-1.05433600000000,LE7 3QD,2014-03-21,fhrs_5_en-GB,5,,FHRS,5
48198,,129 Cropston Road,,Anstey,Brookside Nurseries,Retailers - other,4613,5,,119648,5,,52.67893400000000,488,210,food.hygiene@charnwood.gov.uk,Charnwood,http://www.charnwood.gov.uk/,-1.17906900000000,LE7 7BR,2012-04-30,fhrs_5_en-GB,5,,FHRS,5
48199,,Broomfield,,East Goscote,Broomfield Primary School,School/college/university,7845,5,,122617,5,,52.71301000000000,5107,210,food.hygiene@charnwood.gov.uk,Charnwood,http://www.charnwood.gov.uk/,-1.05297500000000,LE7 3ZQ,2014-02-24,fhrs_5_en-GB,5,,FHRS,5
48200,,75 Cropston Road,,Anstey,Broughtons Interiors Coffee Lounge,Restaurant/Cafe/Canteen,1,5,,104031,5,,52.67342400000000,35258,210,food.hygiene@charnwood.gov.uk,Charnwood,http://www.charnwood.gov.uk/,-1.18446700000000,LE7 7BP,2013-12-17,fhrs_5_en-GB,5,,FHRS,5
48201,,2a Browns Lane,,Loughborough,Browns Lane Restaurant,Restaurant/Cafe/Canteen,1,,,107530,,,52.76828300000000,38009,210,food.hygiene@charnwood.gov.uk,Charnwood,http://www.charnwood.gov.uk/,-1.20949400000000,LE11 3HE,2015-02-09,fhrs_5_en-GB,5,,FHRS,
48202,,124a Derby Road,,Loughborough,Brunch Bites,Restaurant/Cafe/Canteen,1,5,,126062,10,,52.77800800000000,5484,210,food.hygiene@charnwood.gov.uk,Charnwood,http://www.charnwood.gov.uk/,-1.21864200000000,LE11 5HL,2013-07-16,fhrs_3_en-GB,3,,FHRS,10
48203,,Watermead Lane,,Loughborough,Brush Bowls And Sports Club,Pub/bar/nightclub,7843,5,,64601,5,,52.75710200000000,14384,210,food.hygiene@charnwood.gov.uk,Charnwood,http://www.charnwood.gov.uk/,-1.23306300000000,LE11 3SU,2013-11-06,fhrs_5_en-GB,5,,FHRS,5
48204,,18 Fennel Street,,Loughborough,Brush Sports & Social Centre,Pub/bar/nightclub,7843,10,,41135,5,,52.77393200000000,10219,210,food.hygiene@charnwood.gov.uk,Charnwood,http://www.charnwood.gov.uk/,-1.20590800000000,LE11 1UQ,2014-03-13,fhrs_4_en-GB,4,,FHRS,5
48205,,Granite Way,,Mountsorrel,Budgens,Retailers - supermarkets/hypermarkets,7840,20,,81423,20,,52.76393900000000,19868,210,food.hygiene@charnwood.gov.uk,Charnwood,http://www.charnwood.gov.uk/,-1.10300100000000,LE12 7BG,2014-10-16,fhrs_0_en-GB,0,,FHRS,15
48206,,Granite Way,,Mountsorrel,Budgens Texaco,Retailers - other,4613,5,,732863,5,,52.73561200000000,43682,210,food.hygiene@charnwood.gov.uk,Charnwood,http://www.charnwood.gov.uk/,-1.15195300000000,LE12 7TZ,2014-11-27,fhrs_5_en-GB,5,,FHRS,5
48207,,,,,Buns On The Run,Other catering premises,7841,5,,92686,5,,,26226,210,food.hygiene@charnwood.gov.uk,Charnwood,http://www.charnwood.gov.uk/,,,2013-02-12,fhrs_5_en-GB,5,,FHRS,0
48208,,University Road,,University Campus,Burleigh Court Hotel,Hotel/bed & breakfast/guest house,7842,5,,134044,5,,52.76186700000000,6715,210,food.hygiene@charnwood.gov.uk,Charnwood,http://www.charnwood.gov.uk/,-1.23871500000000,LE11 3TD,2013-11-27,fhrs_5_en-GB,5,,FHRS,5
48209,,Loughborough Road,,Burton On The Wolds,Burton on the Wolds Pre-School Playgroup,Hospitals/Childcare/Caring Premises,5,0,,116039,0,,52.78504400000000,4523,210,food.hygiene@charnwood.gov.uk,Charnwood,http://www.charnwood.gov.uk/,-1.12913800000000,LE12 5AF,2014-09-02,fhrs_5_en-GB,5,,FHRS,0
48210,,Barrow Road,,Burton On The Wolds,Burton On The Wolds Primary School,School/college/university,7845,5,,115730,0,,52.78216600000000,4492,210,food.hygiene@charnwood.gov.uk,Charnwood,http://www.charnwood.gov.uk/,-1.12898700000000,LE12 5TB,2013-02-21,fhrs_5_en-GB,5,,FHRS,5
48211,,A50 From Roundabout At Field Head To Slip Roads To From Whitwick Road,,Newtown Linford,Busy Bee Cafe,Mobile caterer,7846,5,,647317,5,,,42415,210,food.hygiene@charnwood.gov.uk,Charnwood,http://www.charnwood.gov.uk/,,,2014-04-07,fhrs_5_en-GB,5,,FHRS,5
48212,,76-78 Heathcote Drive,,Sileby,Busy Bee's Supermarket,Retailers - other,4613,10,,93567,5,,52.73668900000000,26947,210,food.hygiene@charnwood.gov.uk,Charnwood,http://www.charnwood.gov.uk/,-1.10033100000000,LE12 7ND,2014-06-10,fhrs_4_en-GB,4,,FHRS,5
48213,,7 Market Place,,Mountsorrel,Buttermarket Off Licence,Retailers - other,4613,5,,83439,5,,52.73034000000000,20432,210,food.hygiene@charnwood.gov.uk,Charnwood,http://www.charnwood.gov.uk/,-1.14006100000000,LE12 7BA,2014-08-28,fhrs_5_en-GB,5,,FHRS,5
48214,,10-12 Cromwell Road,,Mountsorrel,Bye Rite Stores (Londis),Retailers - other,4613,5,,81035,5,,52.71951000000000,19716,210,food.hygiene@charnwood.gov.uk,Charnwood,http://www.charnwood.gov.uk/,-1.14547000000000,LE12 7EY,2013-10-09,fhrs_5_en-GB,5,,FHRS,5
48215,,,,,C & M Management Services,Mobile caterer,7846,5,,580614,5,,,12850,210,food.hygiene@charnwood.gov.uk,Charnwood,http://www.charnwood.gov.uk/,,,2013-07-11,fhrs_5_en-GB,5,,FHRS,5
48216,,Markfield Lane,,Newtown Linford,C E Cook & Sons,Retailers - other,4613,5,,84720,0,,52.68650300000000,21034,210,food.hygiene@charnwood.gov.uk,Charnwood,http://www.charnwood.gov.uk/,-1.24104600000000,LE6 0AB,2013-02-01,fhrs_5_en-GB,5,,FHRS,5
48217,,,,,C L Barker,Mobile caterer,7846,5,,93023,5,,,26497,210,food.hygiene@charnwood.gov.uk,Charnwood,http://www.charnwood.gov.uk/,,,2013-03-18,fhrs_5_en-GB,5,,FHRS,5
48218,,17 High Street,,Loughborough,Cactus Cafe Limited,Restaurant/Cafe/Canteen,1,20,,110343,20,,52.77154300000000,40037,210,food.hygiene@charnwood.gov.uk,Charnwood,http://www.charnwood.gov.uk/,-1.20494300000000,LE11 2PY,2015-01-15,fhrs_0_en-GB,0,,FHRS,15
48219,,23 Westfield Lane,,Rothley,Caddy Shack,Restaurant/Cafe/Canteen,1,5,,673180,5,,52.70504300000000,42795,210,food.hygiene@charnwood.gov.uk,Charnwood,http://www.charnwood.gov.uk/,-1.15639400000000,LE7 7LH,2014-05-20,fhrs_5_en-GB,5,,FHRS,5
48220,,,,,Cafe 2U Loughborough,Mobile caterer,7846,5,,462562,5,,,40746,210,food.hygiene@charnwood.gov.uk,Charnwood,http://www.charnwood.gov.uk/,,,2012-10-24,fhrs_5_en-GB,5,,FHRS,5
48221,,Ashby Road,,Loughborough,Cafe 641/Paper 676,Restaurant/Cafe/Canteen,1,5,,109017,0,,52.77257600000000,39209,210,food.hygiene@charnwood.gov.uk,Charnwood,http://www.charnwood.gov.uk/,-1.21292900000000,LE11 3AA,2014-02-18,fhrs_5_en-GB,5,,FHRS,5
48222,,Groby Lane,,Newtown Linford,Cafe 7,Restaurant/Cafe/Canteen,1,5,,110285,5,,52.67535500000000,40008,210,food.hygiene@charnwood.gov.uk,Charnwood,http://www.charnwood.gov.uk/,-1.22983600000000,LE6 0HG,2013-06-12,fhrs_5_en-GB,5,,FHRS,0
48223,,147 Melton Road,,Burton On The Wolds,CafÃ© Mash Restaurant & Bar,Restaurant/Cafe/Canteen,1,10,,709026,5,,,43200,210,food.hygiene@charnwood.gov.uk,Charnwood,http://www.charnwood.gov.uk/,,,2014-09-17,fhrs_3_en-GB,3,,FHRS,10
48224,,19 High Street,,Sileby,Cafe Nineteen,Restaurant/Cafe/Canteen,1,5,,108792,5,,52.73041500000000,39017,210,food.hygiene@charnwood.gov.uk,Charnwood,http://www.charnwood.gov.uk/,-1.11121200000000,LE12 7RX,2013-08-12,fhrs_5_en-GB,5,,FHRS,5
48225,,Union Way,,University Campus,Cafe Piazza,Restaurant/Cafe/Canteen,1,5,,134384,10,,,6771,210,food.hygiene@charnwood.gov.uk,Charnwood,http://www.charnwood.gov.uk/,,,2014-05-06,fhrs_4_en-GB,4,,FHRS,5
48226,,8 Cropston Road,,Anstey,Cafe Yum Yum,Restaurant/Cafe/Canteen,1,10,,108621,10,,52.67373900000000,38879,210,food.hygiene@charnwood.gov.uk,Charnwood,http://www.charnwood.gov.uk/,-1.18452000000000,LE7 7BJ,2015-01-12,fhrs_3_en-GB,3,,FHRS,10
48227,,8 Market Place,,Loughborough,Caffe Nero,Restaurant/Cafe/Canteen,1,5,,314445,5,,52.77170800000000,40210,210,food.hygiene@charnwood.gov.uk,Charnwood,http://www.charnwood.gov.uk/,-1.20676300000000,LE11 3EA,2013-10-21,fhrs_5_en-GB,5,,FHRS,5
48228,,3 Pontylue Way,,Syston,Caffe Pausa @ Watermead,Restaurant/Cafe/Canteen,1,5,,109803,5,,52.69968800000000,39732,210,food.hygiene@charnwood.gov.uk,Charnwood,http://www.charnwood.gov.uk/,-1.07362600000000,LE7 1WA,2014-03-13,fhrs_5_en-GB,5,,FHRS,5
48229,,,,,Cakes by Maya,Other catering premises,7841,5,,566876,5,,,41545,210,food.hygiene@charnwood.gov.uk,Charnwood,http://www.charnwood.gov.uk/,,,2013-07-10,fhrs_5_en-GB,5,,FHRS,0
48230,,,,,Cakes by Natalie,Other catering premises,7841,5,,109357,5,,,39464,210,food.hygiene@charnwood.gov.uk,Charnwood,http://www.charnwood.gov.uk/,,,2014-01-23,fhrs_5_en-GB,5,,FHRS,5
48231,,,,,Cakes By Serveeka,Other catering premises,7841,5,,499310,5,,,40655,210,food.hygiene@charnwood.gov.uk,Charnwood,http://www.charnwood.gov.uk/,,,2012-12-13,fhrs_5_en-GB,5,,FHRS,5
48232,,,,,Cakes-by-Emma,Other catering premises,7841,5,,107606,10,,,38074,210,food.hygiene@charnwood.gov.uk,Charnwood,http://www.charnwood.gov.uk/,,,2012-02-02,fhrs_4_en-GB,4,,FHRS,5
48233,,,,,Cakesville,Other catering premises,7841,5,,105120,5,,,36038,210,food.hygiene@charnwood.gov.uk,Charnwood,http://www.charnwood.gov.uk/,,,2014-10-06,fhrs_5_en-GB,5,,FHRS,5
48234,,,,,Calypso Spice,Other catering premises,7841,5,,606730,5,,,35948,210,food.hygiene@charnwood.gov.uk,Charnwood,http://www.charnwood.gov.uk/,,,2013-11-01,fhrs_5_en-GB,5,,FHRS,5
48235,,,,,Campesinas,Retailers - other,4613,5,,109822,5,,,39742,210,food.hygiene@charnwood.gov.uk,Charnwood,http://www.charnwood.gov.uk/,,,2014-04-29,fhrs_5_en-GB,5,,FHRS,5
48236,,,,,Candy Boat,Retailers - other,4613,5,,246443,5,,,40194,210,food.hygiene@charnwood.gov.uk,Charnwood,http://www.charnwood.gov.uk/,,,2015-01-26,fhrs_5_en-GB,5,,FHRS,5
48237,,80 Leicester Road,,Loughborough,Cantonese Kitchen,Takeaway/sandwich shop,7844,10,,636563,10,,52.76912300000000,42552,210,food.hygiene@charnwood.gov.uk,Charnwood,http://www.charnwood.gov.uk/,-1.20196400000000,LE11 2AG,2014-01-09,fhrs_3_en-GB,3,,FHRS,10
48238,,Huston Close,,Barrow Upon Soar,Caravan Site,Pub/bar/nightclub,7843,5,,78901,5,,52.74425300000000,1891,210,food.hygiene@charnwood.gov.uk,Charnwood,http://www.charnwood.gov.uk/,-1.13338700000000,LE12 8NB,2013-02-26,fhrs_5_en-GB,5,,FHRS,5
48239,,11-12 Sparrow Hill,,Loughborough,Caravelli,Restaurant/Cafe/Canteen,1,5,,108487,5,,52.77445900000000,38740,210,food.hygiene@charnwood.gov.uk,Charnwood,http://www.charnwood.gov.uk/,-1.20268100000000,LE11 1BT,2014-02-27,fhrs_5_en-GB,5,,FHRS,5
48240,,25 Carillon Court,,Loughborough,Card Factory,Retailers - other,4613,10,,406272,5,,52.77175800000000,8788,210,food.hygiene@charnwood.gov.uk,Charnwood,http://www.charnwood.gov.uk/,-1.20744400000000,LE11 3XA,2012-06-06,fhrs_4_en-GB,4,,FHRS,5
48241,,18 Carillon Court,,Loughborough,Carillon News,Retailers - other,4613,10,,145924,0,,52.77175800000000,8778,210,food.hygiene@charnwood.gov.uk,Charnwood,http://www.charnwood.gov.uk/,-1.20744400000000,LE11 3XA,2013-01-31,fhrs_4_en-GB,4,,FHRS,5
48242,,Wymeswold Road,,Hoton,Carnival Of Food,Mobile caterer,7846,5,,129163,5,,52.79859500000000,5963,210,food.hygiene@charnwood.gov.uk,Charnwood,http://www.charnwood.gov.uk/,-1.14564200000000,LE12 5SN,2013-05-23,fhrs_5_en-GB,5,,FHRS,5
48243,,Wharncliffe Road,,Loughborough,Carpenters Arms (Midlands) Ltd,Retailers - other,4613,5,,107502,5,,52.77092700000000,37988,210,food.hygiene@charnwood.gov.uk,Charnwood,http://www.charnwood.gov.uk/,-1.19745400000000,LE11 1SL,2013-08-19,fhrs_5_en-GB,5,,FHRS,5
48244,,5 Church Gate,,Loughborough,Casa Cafe,Restaurant/Cafe/Canteen,1,5,,147209,5,,52.77334500000000,9113,210,food.hygiene@charnwood.gov.uk,Charnwood,http://www.charnwood.gov.uk/,-1.20547400000000,LE11 1UD,2013-01-25,fhrs_5_en-GB,5,,FHRS,5
48245,,12-12a Devonshire Square,,Loughborough,Cashino,Restaurant/Cafe/Canteen,1,10,,150162,5,,52.77001400000000,9748,210,food.hygiene@charnwood.gov.uk,Charnwood,http://www.charnwood.gov.uk/,-1.20750600000000,LE11 3DW,2014-02-07,fhrs_4_en-GB,4,,FHRS,5
48246,,Watling Street,,Mountsorrel,Castle View Day Nursery,Hospitals/Childcare/Caring Premises,5,,,535220,,,52.72911200000000,40964,210,food.hygiene@charnwood.gov.uk,Charnwood,http://www.charnwood.gov.uk/,-1.14060300000000,LE12 7BD,2014-11-20,fhrs_5_en-GB,5,,FHRS,
48247,,,,,Cathlene's Cakes,Other catering premises,7841,5,,198113,5,,,40067,210,food.hygiene@charnwood.gov.uk,Charnwood,http://www.charnwood.gov.uk/,,,2014-12-18,fhrs_5_en-GB,5,,FHRS,5
48248,,Broad Street,,Syston,Catholic Church Of The Divine Infant,Hospitals/Childcare/Caring Premises,5,5,,481434,5,,,41068,210,food.hygiene@charnwood.gov.uk,Charnwood,http://www.charnwood.gov.uk/,,,2012-11-08,fhrs_5_en-GB,5,,FHRS,5
48249,,Ashby Road,,Loughborough,Cayley/Rutherford Dining Hall,School/college/university,7845,5,,134181,5,,52.76656700000000,6740,210,food.hygiene@charnwood.gov.uk,Charnwood,http://www.charnwood.gov.uk/,-1.22483700000000,LE11 3AH,2013-03-25,fhrs_5_en-GB,5,,FHRS,0
48250,,249 Station Road,,Rothley,Cedar House Residential Care Home,Hospitals/Childcare/Caring Premises,5,5,,88640,5,,52.70342100000000,23336,210,food.hygiene@charnwood.gov.uk,Charnwood,http://www.charnwood.gov.uk/,-1.16219700000000,LE7 7LD,2015-01-12,fhrs_4_en-GB,4,,FHRS,10
48251,,Hall Croft,,Shepshed,Central England Co-operative,Retailers - supermarkets/hypermarkets,7840,5,,91277,5,,52.77295000000000,25133,210,food.hygiene@charnwood.gov.uk,Charnwood,http://www.charnwood.gov.uk/,-1.29074300000000,LE12 9AN,2015-01-27,fhrs_5_en-GB,5,,FHRS,5
48252,,23 Loughborough Road,,Quorn,Central England Co-operative,Retailers - supermarkets/hypermarkets,7840,0,,732860,5,,52.74585000000000,42833,210,food.hygiene@charnwood.gov.uk,Charnwood,http://www.charnwood.gov.uk/,-1.17588700000000,LE12 8DU,2015-01-05,fhrs_5_en-GB,5,,FHRS,5
48253,,59 Bradgate Road,,Anstey,Charles Barrie Till,Retailers - other,4613,5,,73238,5,,52.67204300000000,168,210,food.hygiene@charnwood.gov.uk,Charnwood,http://www.charnwood.gov.uk/,-1.18884100000000,LE7 7AB,2014-03-25,fhrs_4_en-GB,4,,FHRS,10
48254,,17 Queensgate Drive,,Birstall,Charlie's,Other catering premises,7841,5,,109547,5,,52.68199700000000,39640,210,food.hygiene@charnwood.gov.uk,Charnwood,http://www.charnwood.gov.uk/,-1.13571400000000,LE4 3JS,2014-05-02,fhrs_5_en-GB,5,,FHRS,5
48255,,Loughborough Road,,Rothley,Charlies Diner,Mobile caterer,7846,5,,673193,5,,52.72019100000000,43219,210,food.hygiene@charnwood.gov.uk,Charnwood,http://www.charnwood.gov.uk/,-1.12900800000000,LE7 7NL,2014-06-11,fhrs_5_en-GB,5,,FHRS,5
48256,,Shelthorpe Avenue,,Loughborough,Charnwood Club,Pub/bar/nightclub,7843,10,,74164,10,,52.75962900000000,17056,210,food.hygiene@charnwood.gov.uk,Charnwood,http://www.charnwood.gov.uk/,-1.20321900000000,LE11 2ND,2013-04-11,fhrs_3_en-GB,3,,FHRS,10
48257,,Thorpe Hill,,Loughborough,Charnwood College (High Kitchen),School/college/university,7845,5,,454408,0,,52.77000800000000,40780,210,food.hygiene@charnwood.gov.uk,Charnwood,http://www.charnwood.gov.uk/,-1.23958100000000,LE11 4SQ,2014-03-20,fhrs_5_en-GB,5,,FHRS,0
48258,,Thorpe Hill,,Loughborough,Charnwood College Post 16,School/college/university,7845,5,,76189,5,,52.77000800000000,17925,210,food.hygiene@charnwood.gov.uk,Charnwood,http://www.charnwood.gov.uk/,-1.23958100000000,LE11 4SQ,2013-02-22,fhrs_5_en-GB,5,,FHRS,5
48259,,Thorpe Hill,,Loughborough,Charnwood College Upper,School/college/university,7845,5,,76164,5,,52.77000800000000,17918,210,food.hygiene@charnwood.gov.uk,Charnwood,http://www.charnwood.gov.uk/,-1.23958100000000,LE11 4SQ,2013-02-22,fhrs_5_en-GB,5,,FHRS,5
48260,,,,,Charnwood Confectionery,Mobile caterer,7846,5,,106726,5,,,37262,210,food.hygiene@charnwood.gov.uk,Charnwood,http://www.charnwood.gov.uk/,,,2014-12-18,fhrs_5_en-GB,5,,FHRS,5
48261,,,,,Charnwood Cupcakes,Other catering premises,7841,5,,109925,5,,,39791,210,food.hygiene@charnwood.gov.uk,Charnwood,http://www.charnwood.gov.uk/,,,2014-08-20,fhrs_5_en-GB,5,,FHRS,5
48262,,120 Charnwood Road,,Shepshed,Charnwood Day Nursery,Hospitals/Childcare/Caring Premises,5,0,,90088,0,,52.76773700000000,24389,210,food.hygiene@charnwood.gov.uk,Charnwood,http://www.charnwood.gov.uk/,-1.29392600000000,LE12 9NP,2014-06-12,fhrs_5_en-GB,5,,FHRS,0
48263,,17-19 Charnwood Road,,Shepshed,Charnwood Fish Bar,Takeaway/sandwich shop,7844,5,,90184,5,,52.77106600000000,24445,210,food.hygiene@charnwood.gov.uk,Charnwood,http://www.charnwood.gov.uk/,-1.29132200000000,LE12 9QE,2014-07-21,fhrs_5_en-GB,5,,FHRS,5
48264,,Breakback Road,,Woodhouse Eaves,Charnwood Forest Golf Club,Pub/bar/nightclub,7843,5,,101295,5,,52.73299400000000,33036,210,food.hygiene@charnwood.gov.uk,Charnwood,http://www.charnwood.gov.uk/,-1.23350100000000,LE12 8TA,2013-07-17,fhrs_5_en-GB,5,,FHRS,5
48265,,38 Charnwood Road,,Shepshed,Charnwood Hall Nursing Home,Hospitals/Childcare/Caring Premises,5,0,,90012,0,,52.76611500000000,24325,210,food.hygiene@charnwood.gov.uk,Charnwood,http://www.charnwood.gov.uk/,-1.30545300000000,LE12 9ND,2015-01-19,fhrs_5_en-GB,5,,FHRS,5
48266,,Browns Lane,,Loughborough,Charnwood Indoor Bowls Club,Pub/bar/nightclub,7843,10,,144188,10,,52.76828300000000,8248,210,food.hygiene@charnwood.gov.uk,Charnwood,http://www.charnwood.gov.uk/,-1.20949400000000,LE11 3HE,2013-01-10,fhrs_3_en-GB,3,,FHRS,10
48267,,Woodhouse Lane,,"Nanpantan, Loughborough",Charnwood Lodge CBU,Hospitals/Childcare/Caring Premises,5,5,,110176,5,,52.74535700000000,39925,210,food.hygiene@charnwood.gov.uk,Charnwood,http://www.charnwood.gov.uk/,-1.24789100000000,LE11 3YG,2013-05-15,fhrs_5_en-GB,5,,FHRS,5
48268,,136 Leicester Road,,Loughborough,Charnwood Lodge Guest House,Hotel/bed & breakfast/guest house,7842,5,,56683,5,,52.76631700000000,12823,210,food.hygiene@charnwood.gov.uk,Charnwood,http://www.charnwood.gov.uk/,-1.19905100000000,LE11 2AQ,2014-10-16,fhrs_5_en-GB,5,,FHRS,5
48269,,63 Sandiacre Drive,,Thurmaston,Charnwood Mini Market,Retailers - other,4613,5,,110237,5,,52.67892800000000,39982,210,food.hygiene@charnwood.gov.uk,Charnwood,http://www.charnwood.gov.uk/,-1.09073500000000,LE4 8GD,2014-10-14,fhrs_5_en-GB,5,,FHRS,5
48270,,22 Lonsdale Road,,Thurmaston,Charnwood Nursery & Pre-School,Hospitals/Childcare/Caring Premises,5,5,,99762,5,,52.67429200000000,31710,210,food.hygiene@charnwood.gov.uk,Charnwood,http://www.charnwood.gov.uk/,-1.09584500000000,LE4 8JF,2015-01-23,fhrs_5_en-GB,5,,FHRS,5
48271,,1 Cotton Mill Crescent,,Shepshed,Charnwood Oaks,Hospitals/Childcare/Caring Premises,5,5,,105970,5,,52.76784100000000,36638,210,food.hygiene@charnwood.gov.uk,Charnwood,http://www.charnwood.gov.uk/,-1.28873600000000,LE12 9JG,2014-12-01,fhrs_5_en-GB,5,,FHRS,5
48272,,Charnwood Road,,Shepshed,Charnwood Road Baptist Church,Other catering premises,7841,5,,108467,5,,52.77056300000000,38720,210,food.hygiene@charnwood.gov.uk,Charnwood,http://www.charnwood.gov.uk/,-1.29146400000000,LE12 9QF,2014-03-31,fhrs_5_en-GB,5,,FHRS,5
48273,,Ashby Road Central,,Shepshed,Charnwood Snack Stop,Mobile caterer,7846,5,,246442,5,,52.75990900000000,40132,210,food.hygiene@charnwood.gov.uk,Charnwood,http://www.charnwood.gov.uk/,-1.29205000000000,,2013-08-20,fhrs_5_en-GB,5,,FHRS,5
48274,,151 Charnwood Road,,Shepshed,Charnwood Stores,Retailers - other,4613,5,,108662,5,,52.76813400000000,38915,210,food.hygiene@charnwood.gov.uk,Charnwood,http://www.charnwood.gov.uk/,-1.29414200000000,LE12 9NL,2013-12-06,fhrs_5_en-GB,5,,FHRS,5
48275,,20-22 Nottingham Road,,Loughborough,Chengdu,Restaurant/Cafe/Canteen,1,10,,109422,10,,52.77486200000000,39529,210,food.hygiene@charnwood.gov.uk,Charnwood,http://www.charnwood.gov.uk/,-1.20108800000000,LE11 1EU,2014-11-13,fhrs_3_en-GB,3,,FHRS,10
48276,,2 Cropston Road,,Anstey,Chequers Express,Takeaway/sandwich shop,7844,20,,115811,15,,52.67373900000000,450,210,food.hygiene@charnwood.gov.uk,Charnwood,http://www.charnwood.gov.uk/,-1.18452000000000,LE7 7BJ,2014-07-03,fhrs_1_en-GB,1,,FHRS,10
48277,,,,,Cherrytree Leicestershire and Rutland,Mobile caterer,7846,5,,636566,5,,,42627,210,food.hygiene@charnwood.gov.uk,Charnwood,http://www.charnwood.gov.uk/,,,2014-02-07,fhrs_2_en-GB,2,,FHRS,15
48278,,Flat SS203 Ashby Road,,Loughborough,Chicken Run,Distributors/Transporters,7,,,606735,,,,42249,210,food.hygiene@charnwood.gov.uk,Charnwood,http://www.charnwood.gov.uk/,,,2013-10-09,fhrs_exempt_en-GB,Exempt,,FHRS,
48279,,55 Forest Street,,Shepshed,Children 1st,School/college/university,7845,0,,108851,5,,52.77161000000000,39076,210,food.hygiene@charnwood.gov.uk,Charnwood,http://www.charnwood.gov.uk/,-1.28618500000000,LE12 9BZ,2014-06-20,fhrs_5_en-GB,5,,FHRS,5
48280,,48 Cossington Road,,Sileby,Childrens Unit,Hospitals/Childcare/Caring Premises,5,5,,102586,5,,52.72687800000000,34097,210,food.hygiene@charnwood.gov.uk,Charnwood,http://www.charnwood.gov.uk/,-1.11067600000000,LE12 7RS,2013-10-02,fhrs_5_en-GB,5,,FHRS,5
48281,,Market Place,,Loughborough,Chill Grill,Mobile caterer,7846,5,,108066,5,,52.77170800000000,38393,210,food.hygiene@charnwood.gov.uk,Charnwood,http://www.charnwood.gov.uk/,-1.20676300000000,LE11 3EA,2013-10-02,fhrs_4_en-GB,4,,FHRS,10
48282,,16 The Green,,Syston,China China Takeaway,Takeaway/sandwich shop,7844,10,,96838,5,,52.70059500000000,29783,210,food.hygiene@charnwood.gov.uk,Charnwood,http://www.charnwood.gov.uk/,-1.07581200000000,LE7 1HQ,2013-08-22,fhrs_4_en-GB,4,,FHRS,5
48283,,53a Wards End,,Loughborough,Chiquitas,Takeaway/sandwich shop,7844,10,,673183,15,,52.76903400000000,42890,210,food.hygiene@charnwood.gov.uk,Charnwood,http://www.charnwood.gov.uk/,-1.20747900000000,LE11 3HB,2014-06-05,fhrs_2_en-GB,2,,FHRS,10
48284,,,,,Chocanana,Mobile caterer,7846,5,,109974,5,,,39818,210,food.hygiene@charnwood.gov.uk,Charnwood,http://www.charnwood.gov.uk/,,,2014-09-04,fhrs_5_en-GB,5,,FHRS,5
48285,,5 Churchgate Mews,,Loughborough,Chocolate Alchemy Ltd,Retailers - other,4613,,,608415,,,52.77305300000000,42262,210,food.hygiene@charnwood.gov.uk,Charnwood,http://www.charnwood.gov.uk/,-1.20626500000000,LE11 1TZ,2013-09-23,fhrs_awaitinginspection_en-GB,AwaitingInspection,,FHRS,
48286,,1 Merchants Common,,East Goscote,Choo Choo's,Restaurant/Cafe/Canteen,1,5,,427592,5,,52.71476300000000,40498,210,food.hygiene@charnwood.gov.uk,Charnwood,http://www.charnwood.gov.uk/,-1.05077600000000,LE7 3XR,2014-01-22,fhrs_5_en-GB,5,,FHRS,5
48287,,8 Rothley Road,,Mountsorrel,Christ Church & St Peters School,School/college/university,7845,5,,83811,5,,52.72484400000000,20635,210,food.hygiene@charnwood.gov.uk,Charnwood,http://www.charnwood.gov.uk/,-1.13960600000000,LE12 7JU,2014-02-13,fhrs_5_en-GB,5,,FHRS,5
48288,,Field Street,,Shepshed,Christchurch Methodist Church,Other catering premises,7841,5,,105325,5,,52.77167000000000,36182,210,food.hygiene@charnwood.gov.uk,Charnwood,http://www.charnwood.gov.uk/,-1.29160900000000,LE12 9AL,2012-11-19,fhrs_5_en-GB,5,,FHRS,5
48289,,Maxwell Drive,,Loughborough,Christo's,Takeaway/sandwich shop,7844,5,,62474,10,,52.77921000000000,13796,210,food.hygiene@charnwood.gov.uk,Charnwood,http://www.charnwood.gov.uk/,-1.24045800000000,LE11 4RZ,2014-02-19,fhrs_3_en-GB,3,,FHRS,10
48290,,86 Althorpe Drive,,Loughborough,Church Gate Tram Company,Mobile caterer,7846,5,,108264,5,,52.77327900000000,38570,210,food.hygiene@charnwood.gov.uk,Charnwood,http://www.charnwood.gov.uk/,-1.24211800000000,LE11 4QU,2014-06-30,fhrs_4_en-GB,4,,FHRS,10
48291,,Lower Church Street,,Syston,Church Hall,Other catering premises,7841,5,,95911,5,,52.70098800000000,28846,210,food.hygiene@charnwood.gov.uk,Charnwood,http://www.charnwood.gov.uk/,-1.07556700000000,LE7 1GX,2012-05-01,fhrs_5_en-GB,5,,FHRS,5
48292,,Church Hill Road,,Thurmaston,Church Hill C Of E Junior School,School/college/university,7845,5,,98586,5,,52.67693900000000,31083,210,food.hygiene@charnwood.gov.uk,Charnwood,http://www.charnwood.gov.uk/,-1.09286200000000,LE4 8DE,2013-03-21,fhrs_5_en-GB,5,,FHRS,5
48293,,Church Hill Road,,Thurmaston,Church Hill Infant School,School/college/university,7845,0,,102358,0,,52.67693900000000,33929,210,food.hygiene@charnwood.gov.uk,Charnwood,http://www.charnwood.gov.uk/,-1.09286200000000,LE4 8DE,2013-02-01,fhrs_5_en-GB,5,,FHRS,0
48294,,Nanpantan Road,,Loughborough,Church of St Mary In Charnwood,Other catering premises,7841,5,,64617,5,,52.75177600000000,14391,210,food.hygiene@charnwood.gov.uk,Charnwood,http://www.charnwood.gov.uk/,-1.24650600000000,LE11 3YE,2014-10-01,fhrs_5_en-GB,5,,FHRS,5
48295,,63 Broad Street,,Syston,Church Of The Divine Infant,Other catering premises,7841,5,,95099,5,,52.69605600000000,28096,210,food.hygiene@charnwood.gov.uk,Charnwood,http://www.charnwood.gov.uk/,-1.07940000000000,LE7 1GH,2012-12-12,fhrs_5_en-GB,5,,FHRS,5
48296,,81-87 Lansdowne Drive,,Loughborough,Cinnamon Restaurant,Restaurant/Cafe/Canteen,1,30,,55863,20,,52.76002000000000,12612,210,food.hygiene@charnwood.gov.uk,Charnwood,http://www.charnwood.gov.uk/,-1.20928700000000,LE11 2BX,2014-05-14,fhrs_0_en-GB,0,,FHRS,10
48297,,Carillon Court,,Loughborough,Cino Cafe,Restaurant/Cafe/Canteen,1,5,,246460,5,,52.77175800000000,40245,210,food.hygiene@charnwood.gov.uk,Charnwood,http://www.charnwood.gov.uk/,-1.20744400000000,LE11 3XA,2013-10-02,fhrs_5_en-GB,5,,FHRS,5
48298,,Leicester Road,,Anstey,Coach & Horses,Pub/bar/nightclub,7843,10,,146936,5,,52.67182400000000,903,210,food.hygiene@charnwood.gov.uk,Charnwood,http://www.charnwood.gov.uk/,-1.18570900000000,LE7 7AT,2013-03-26,fhrs_4_en-GB,4,,FHRS,5
48299,,Cobden Street,,Loughborough,Cobden Primary School & Commun,School/college/university,7845,5,,52946,5,,52.77145200000000,11993,210,food.hygiene@charnwood.gov.uk,Charnwood,http://www.charnwood.gov.uk/,-1.20066100000000,LE11 1AF,2014-10-13,fhrs_5_en-GB,5,,FHRS,5
48300,,1 Joseph Close,,Hoton,Coffee Box,Mobile caterer,7846,5,,454405,5,,52.79718400000000,40715,210,food.hygiene@charnwood.gov.uk,Charnwood,http://www.charnwood.gov.uk/,-1.14946600000000,LE12 5SP,2012-10-01,fhrs_5_en-GB,5,,FHRS,5
48301,,Ashby Road,,Loughborough,Coffee Corner,Restaurant/Cafe/Canteen,1,5,,109027,5,,52.77257600000000,39213,210,food.hygiene@charnwood.gov.uk,Charnwood,http://www.charnwood.gov.uk/,-1.21292900000000,LE11 3AA,2012-11-21,fhrs_5_en-GB,5,,FHRS,5
48302,,31 Far Street,,Wymeswold,Collingtons Butchers,Retailers - other,4613,0,,101871,5,,52.80622100000000,33519,210,food.hygiene@charnwood.gov.uk,Charnwood,http://www.charnwood.gov.uk/,-1.10926700000000,LE12 6TZ,2014-03-20,fhrs_5_en-GB,5,,FHRS,5
48303,,Bradgate Road,,Cropston,Come And See Centre,Restaurant/Cafe/Canteen,1,5,,97810,5,,52.69824800000000,30551,210,food.hygiene@charnwood.gov.uk,Charnwood,http://www.charnwood.gov.uk/,-1.18197600000000,,2015-01-23,fhrs_5_en-GB,5,,FHRS,5
48304,,29 Loughborough Road,,Quorn,Community Living Project,Hospitals/Childcare/Caring Premises,5,10,,86614,10,,52.74585000000000,22086,210,food.hygiene@charnwood.gov.uk,Charnwood,http://www.charnwood.gov.uk/,-1.17588700000000,LE12 8DU,2014-01-27,fhrs_3_en-GB,3,,FHRS,10
48305,,6 Cossington Road,,Sileby,Complete Wasters @ The Green Place,Restaurant/Cafe/Canteen,1,5,,106818,5,,52.72687800000000,37364,210,food.hygiene@charnwood.gov.uk,Charnwood,http://www.charnwood.gov.uk/,-1.11067600000000,LE12 7RS,2013-09-11,fhrs_5_en-GB,5,,FHRS,5
48306,,,,,Confident Cook,Other catering premises,7841,5,,732870,5,,,44062,210,food.hygiene@charnwood.gov.uk,Charnwood,http://www.charnwood.gov.uk/,,,2015-01-15,fhrs_5_en-GB,5,,FHRS,0
48307,,Victoria Place,,Loughborough,Connaught House,Hospitals/Childcare/Caring Premises,5,5,,102028,5,,52.76712200000000,33644,210,food.hygiene@charnwood.gov.uk,Charnwood,http://www.charnwood.gov.uk/,-1.20385300000000,LE11 2EY,2014-11-11,fhrs_5_en-GB,5,,FHRS,0
48308,,1216 Melton Road,,Syston,Continental Cafe,Restaurant/Cafe/Canteen,1,5,,96138,5,,52.67478500000000,29000,210,food.hygiene@charnwood.gov.uk,Charnwood,http://www.charnwood.gov.uk/,-1.01015600000000,LE7 8HB,2014-07-17,fhrs_5_en-GB,5,,FHRS,5
48309,,212 Park Road,,Loughborough,Cooking Made Simple,Restaurant/Cafe/Canteen,1,5,,68541,10,,52.75855600000000,15327,210,food.hygiene@charnwood.gov.uk,Charnwood,http://www.charnwood.gov.uk/,-1.20679500000000,LE11 2HJ,2013-10-21,fhrs_3_en-GB,3,,FHRS,10
48310,,,,,Cool Kids Catering,Other catering premises,7841,5,,636558,5,,,42274,210,food.hygiene@charnwood.gov.uk,Charnwood,http://www.charnwood.gov.uk/,,,2014-02-04,fhrs_5_en-GB,5,,FHRS,5
48311,,111 Rothley Road,,Mountsorrel,Co-operative Supermarket,Retailers - supermarkets/hypermarkets,7840,10,,83754,5,,52.72200100000000,20608,210,food.hygiene@charnwood.gov.uk,Charnwood,http://www.charnwood.gov.uk/,-1.13812200000000,LE12 7JT,2013-04-30,fhrs_3_en-GB,3,,FHRS,10
48312,,17 Town Square,,Syston,Co-operative Supermarket,Retailers - supermarkets/hypermarkets,7840,5,,96944,5,,52.69938300000000,29903,210,food.hygiene@charnwood.gov.uk,Charnwood,http://www.charnwood.gov.uk/,-1.07376600000000,LE7 1GZ,2013-03-12,fhrs_5_en-GB,5,,FHRS,5
48313,,17-25 Cropston Road,,Anstey,Co-operative Supermarket,Retailers - supermarkets/hypermarkets,7840,0,,122932,5,,52.67342400000000,514,210,food.hygiene@charnwood.gov.uk,Charnwood,http://www.charnwood.gov.uk/,-1.18446700000000,LE7 7BP,2014-03-03,fhrs_5_en-GB,5,,FHRS,5
48314,,929-931 Loughborough Road,,Rothley,Co-operative Supermarket,Retailers - supermarkets/hypermarkets,7840,0,,507661,0,,52.70804400000000,41164,210,food.hygiene@charnwood.gov.uk,Charnwood,http://www.charnwood.gov.uk/,-1.12757700000000,LE7 7NH,2013-02-06,fhrs_5_en-GB,5,,FHRS,0
48315,,Main Street,,Cossington,Cossington C Of E Primary School,School/college/university,7845,5,,118418,5,,52.71772800000000,4775,210,food.hygiene@charnwood.gov.uk,Charnwood,http://www.charnwood.gov.uk/,-1.10614000000000,LE7 4UU,2013-02-25,fhrs_5_en-GB,5,,FHRS,5
48316,,1 Market Place,,Loughborough,Costa Coffee,Restaurant/Cafe/Canteen,1,5,,61596,10,,52.77170800000000,13541,210,food.hygiene@charnwood.gov.uk,Charnwood,http://www.charnwood.gov.uk/,-1.20676300000000,LE11 3EA,2014-01-29,fhrs_4_en-GB,4,,FHRS,5
48317,,Westmoreland Avenue,,Thurmaston,Costco,Retailers - supermarkets/hypermarkets,7840,0,,507658,5,,,40747,210,food.hygiene@charnwood.gov.uk,Charnwood,http://www.charnwood.gov.uk/,,LE4 8PH,2013-01-17,fhrs_5_en-GB,5,,FHRS,0
48318,,112-114 Barrow Road,,Sileby,Costcutter,Retailers - other,4613,5,,93084,5,,52.73233900000000,26530,210,food.hygiene@charnwood.gov.uk,Charnwood,http://www.charnwood.gov.uk/,-1.11237200000000,LE12 7LP,2014-09-05,fhrs_5_en-GB,5,,FHRS,5
48319,,Prince William Way,,Loughborough,Crave Catering Ltd,Other catering premises,7841,5,,732871,5,,52.78051900000000,44123,210,food.hygiene@charnwood.gov.uk,Charnwood,http://www.charnwood.gov.uk/,-1.21228100000000,LE11 5DD,2015-01-12,fhrs_5_en-GB,5,,FHRS,5
48320,,16 Church Gate,,Loughborough,Creations,Other catering premises,7841,,,481433,,,52.77334500000000,41051,210,food.hygiene@charnwood.gov.uk,Charnwood,http://www.charnwood.gov.uk/,-1.20547400000000,LE11 1UD,2012-12-06,fhrs_exempt_en-GB,Exempt,,FHRS,
48321,,,,,Creative Cakes by Eimz*,Other catering premises,7841,5,,624002,0,,,42405,210,food.hygiene@charnwood.gov.uk,Charnwood,http://www.charnwood.gov.uk/,,,2013-11-29,fhrs_5_en-GB,5,,FHRS,5
48322,,82 Chaveney Road,,Quorn,Creative Support,Hospitals/Childcare/Caring Premises,5,10,,85944,5,,52.73973800000000,21790,210,food.hygiene@charnwood.gov.uk,Charnwood,http://www.charnwood.gov.uk/,-1.18117100000000,LE12 8AD,2012-06-18,fhrs_4_en-GB,4,,FHRS,5
48323,,138 Leicester Road,,Thurcaston,Croft House,Hospitals/Childcare/Caring Premises,5,5,,105977,0,,52.69305500000000,36640,210,food.hygiene@charnwood.gov.uk,Charnwood,http://www.charnwood.gov.uk/,-1.15954000000000,LE7 7JJ,2013-09-06,fhrs_5_en-GB,5,,FHRS,5
48324,,14 Cromwell Road,,Mountsorrel,Cromwell Road Coffee House,Restaurant/Cafe/Canteen,1,5,,107367,5,,52.71951000000000,37880,210,food.hygiene@charnwood.gov.uk,Charnwood,http://www.charnwood.gov.uk/,-1.14547000000000,LE12 7EY,2014-02-14,fhrs_5_en-GB,5,,FHRS,0
48325,,Waterfield Road,,Cropston,Cropston Cricket Club,Pub/bar/nightclub,7843,5,,98007,5,,52.69240700000000,30719,210,food.hygiene@charnwood.gov.uk,Charnwood,http://www.charnwood.gov.uk/,-1.17786100000000,,2013-07-05,fhrs_4_en-GB,4,,FHRS,10
48326,,Station Road,,Cropston,Cropston Pre School,Hospitals/Childcare/Caring Premises,5,5,,593780,5,,52.69355200000000,30673,210,food.hygiene@charnwood.gov.uk,Charnwood,http://www.charnwood.gov.uk/,-1.18045200000000,LE7 7HD,2013-10-10,fhrs_5_en-GB,5,,FHRS,5
48327,,12 Cross Street,,Hathern,Cross Street Stores,Retailers - other,4613,5,,124946,5,,52.79657000000000,5343,210,food.hygiene@charnwood.gov.uk,Charnwood,http://www.charnwood.gov.uk/,-1.25470500000000,LE12 5LB,2013-03-25,fhrs_5_en-GB,5,,FHRS,5
48328,,62 Queniborough Road,,Queniborough,Crossroads Stores & Post Office,Retailers - other,4613,10,,593788,10,,52.70542000000000,42234,210,food.hygiene@charnwood.gov.uk,Charnwood,http://www.charnwood.gov.uk/,-1.04816700000000,LE7 3DG,2014-11-07,fhrs_3_en-GB,3,,FHRS,10
48329,,1209 Melton Road,,Syston,Cupatino,Restaurant/Cafe/Canteen,1,10,,624007,5,,52.69794700000000,42512,210,food.hygiene@charnwood.gov.uk,Charnwood,http://www.charnwood.gov.uk/,-1.07403300000000,LE7 2JT,2013-12-16,fhrs_4_en-GB,4,,FHRS,5
48330,,1 Mountsorrel Lane,,Rothley,Cuppas of Rothley,Restaurant/Cafe/Canteen,1,5,,481422,5,,52.71057600000000,40422,210,food.hygiene@charnwood.gov.uk,Charnwood,http://www.charnwood.gov.uk/,-1.13692600000000,LE7 7PS,2014-09-18,fhrs_5_en-GB,5,,FHRS,5
48331,,216 Park Road,,Loughborough,Curry Royale,Takeaway/sandwich shop,7844,5,,68568,5,,52.75855600000000,15333,210,food.hygiene@charnwood.gov.uk,Charnwood,http://www.charnwood.gov.uk/,-1.20679500000000,LE11 2HJ,2015-01-22,fhrs_5_en-GB,5,,FHRS,5
48332,,92 Main Street,,Woodhouse Eaves,Curtain Cottage B & B,Hotel/bed & breakfast/guest house,7842,5,,101444,5,,52.72562500000000,33179,210,food.hygiene@charnwood.gov.uk,Charnwood,http://www.charnwood.gov.uk/,-1.21601000000000,LE12 8RZ,2012-11-08,fhrs_5_en-GB,5,,FHRS,5
48333,,44 Maplewell Road,,Woodhouse Eaves,Curzon Arms,Pub/bar/nightclub,7843,5,,101569,5,,52.72208600000000,33270,210,food.hygiene@charnwood.gov.uk,Charnwood,http://www.charnwood.gov.uk/,-1.21785000000000,LE12 8QZ,2013-03-04,fhrs_5_en-GB,5,,FHRS,5
48334,,6 Baxter Gate,,Loughborough,Custard House,Pub/bar/nightclub,7843,5,,107874,5,,52.77249600000000,38215,210,food.hygiene@charnwood.gov.uk,Charnwood,http://www.charnwood.gov.uk/,-1.20497000000000,LE11 1TG,2014-07-30,fhrs_4_en-GB,4,,FHRS,10
48335,,171 Cossington Road,,Sileby,D & G Stores,Retailers - other,4613,5,,93349,5,,52.72568300000000,26778,210,food.hygiene@charnwood.gov.uk,Charnwood,http://www.charnwood.gov.uk/,-1.10960500000000,LE12 7RP,2015-01-30,fhrs_5_en-GB,5,,FHRS,5
48336,,29 Main Street,,Queniborough,D R Clarke Butcher,Retailers - other,4613,5,,85123,5,,52.70272300000000,21272,210,food.hygiene@charnwood.gov.uk,Charnwood,http://www.charnwood.gov.uk/,-1.04150600000000,LE7 3DB,2015-01-14,fhrs_5_en-GB,5,,FHRS,5
48337,,1000 Loughborough Road,,Rothley,Daisy's Tea Room,Restaurant/Cafe/Canteen,1,5,,108072,5,,52.72019100000000,38396,210,food.hygiene@charnwood.gov.uk,Charnwood,http://www.charnwood.gov.uk/,-1.12900800000000,LE7 7NL,2014-10-23,fhrs_4_en-GB,4,,FHRS,10
48338,,517 Loughborough Road,,Birstall,Damascus House,Hospitals/Childcare/Caring Premises,5,5,,102918,5,,52.67151300000000,3434,210,food.hygiene@charnwood.gov.uk,Charnwood,http://www.charnwood.gov.uk/,-1.12809800000000,LE4 4BJ,2013-07-04,fhrs_5_en-GB,5,,FHRS,5
48339,,,,,Dan's Special Occassion Cakes,Other catering premises,7841,5,,636562,5,,,42548,210,food.hygiene@charnwood.gov.uk,Charnwood,http://www.charnwood.gov.uk/,,,2014-01-14,fhrs_5_en-GB,5,,FHRS,5
48340,,6 Mccarthy Road,,Shepshed,Dark Convenience Store,Retailers - other,4613,10,,246468,5,,52.77118000000000,39904,210,food.hygiene@charnwood.gov.uk,Charnwood,http://www.charnwood.gov.uk/,-1.29997700000000,LE12 9LR,2014-02-25,fhrs_4_en-GB,4,,FHRS,5
48341,,Ashby Road,,Loughborough,David Collett Dining Hall,School/college/university,7845,5,,134117,5,,52.77257600000000,6729,210,food.hygiene@charnwood.gov.uk,Charnwood,http://www.charnwood.gov.uk/,-1.21292900000000,LE11 3AA,2014-07-16,fhrs_5_en-GB,5,,FHRS,5
48342,,289 Station Road,,Rothley,David North of Rothley,Retailers - other,4613,10,,624008,5,,52.70342100000000,42513,210,food.hygiene@charnwood.gov.uk,Charnwood,http://www.charnwood.gov.uk/,-1.16219700000000,LE7 7LD,2013-11-13,fhrs_4_en-GB,4,,FHRS,5
48343,,Thorpe Hill,,Loughborough,De Lisle Catholic Science College,School/college/university,7845,10,,76182,5,,52.77000800000000,17921,210,food.hygiene@charnwood.gov.uk,Charnwood,http://www.charnwood.gov.uk/,-1.23958100000000,LE11 4SQ,2013-09-02,fhrs_4_en-GB,4,,FHRS,5
48344,,,,,Debbie Campbell Cakes,Other catering premises,7841,5,,88038,5,,,23,210,food.hygiene@charnwood.gov.uk,Charnwood,http://www.charnwood.gov.uk/,,,2012-04-30,fhrs_5_en-GB,5,,FHRS,5
48345,,29-30 Derby Square,,Loughborough,Delhi Bites,Takeaway/sandwich shop,7844,20,,552957,20,,52.77243000000000,41249,210,food.hygiene@charnwood.gov.uk,Charnwood,http://www.charnwood.gov.uk/,-1.20848500000000,LE11 5AL,2015-01-08,fhrs_0_en-GB,0,,FHRS,15
48346,,1b Sibson Road,,Birstall,Delhi Tiffin,Takeaway/sandwich shop,7844,5,,636560,5,,52.67708200000000,42448,210,food.hygiene@charnwood.gov.uk,Charnwood,http://www.charnwood.gov.uk/,-1.12139000000000,LE4 4DX,2014-01-15,fhrs_4_en-GB,4,,FHRS,10
48347,,68 Nottingham Road,,Loughborough,Deli Bites,Restaurant/Cafe/Canteen,1,5,,717176,5,,52.77486200000000,43543,210,food.hygiene@charnwood.gov.uk,Charnwood,http://www.charnwood.gov.uk/,-1.20108800000000,LE11 1EU,2014-11-20,fhrs_5_en-GB,5,,FHRS,5
48348,,7-8 Baxter Gate,,Loughborough,Delice Fine Foods Ltd,Restaurant/Cafe/Canteen,1,5,,456639,5,,52.77249600000000,40622,210,food.hygiene@charnwood.gov.uk,Charnwood,http://www.charnwood.gov.uk/,-1.20497000000000,LE11 1TG,2014-11-14,fhrs_5_en-GB,5,,FHRS,5
48349,,,,,Deluxe Fountains,Other catering premises,7841,5,,110029,5,,,39838,210,food.hygiene@charnwood.gov.uk,Charnwood,http://www.charnwood.gov.uk/,,,2013-03-19,fhrs_5_en-GB,5,,FHRS,5
48350,,213-215 Derby Road,,Loughborough,Derby Road Stores,Retailers - other,4613,10,,126364,10,,52.77886500000000,5534,210,food.hygiene@charnwood.gov.uk,Charnwood,http://www.charnwood.gov.uk/,-1.21913100000000,LE11 5HJ,2013-09-12,fhrs_3_en-GB,3,,FHRS,10
48351,,Main Street,,Cossington,Derry's Nurseries,Retailers - other,4613,,,360898,,,52.71772800000000,4774,210,food.hygiene@charnwood.gov.uk,Charnwood,http://www.charnwood.gov.uk/,-1.10614000000000,LE7 4UU,2014-05-16,fhrs_exempt_en-GB,Exempt,,FHRS,
48352,,16 Derwent Drive,,Loughborough,Derwent News,Retailers - other,4613,5,,150016,5,,52.76021100000000,9708,210,food.hygiene@charnwood.gov.uk,Charnwood,http://www.charnwood.gov.uk/,-1.23704000000000,LE11 3RJ,2013-07-12,fhrs_4_en-GB,4,,FHRS,10
48353,,35 Devonshire Square,,Loughborough,Devonshire Fisheries,Restaurant/Cafe/Canteen,1,5,,150153,5,,52.77001400000000,9743,210,food.hygiene@charnwood.gov.uk,Charnwood,http://www.charnwood.gov.uk/,-1.20750600000000,LE11 3DW,2014-06-06,fhrs_5_en-GB,5,,FHRS,5
48354,,49 Loughborough Road,,Hathern,Dew Drop Inn,Pub/bar/nightclub,7843,5,,127484,5,,52.79279600000000,5683,210,food.hygiene@charnwood.gov.uk,Charnwood,http://www.charnwood.gov.uk/,-1.25781000000000,LE12 5HY,2014-10-06,fhrs_5_en-GB,5,,FHRS,5
48355,,871 Melton Road,,Thurmaston,Dexters,Restaurant/Cafe/Canteen,1,10,,100186,15,,52.68016000000000,32077,210,food.hygiene@charnwood.gov.uk,Charnwood,http://www.charnwood.gov.uk/,-1.09785400000000,LE4 8EE,2013-08-01,fhrs_2_en-GB,2,,FHRS,10
48356,,,,,Diane Catering,Other catering premises,7841,5,,105911,5,,,36585,210,food.hygiene@charnwood.gov.uk,Charnwood,http://www.charnwood.gov.uk/,,,2014-10-01,fhrs_5_en-GB,5,,FHRS,5
48357,,75 Meadow Lane,,Loughborough,Diedronka,Retailers - other,4613,20,,673184,15,,52.77619900000000,42908,210,food.hygiene@charnwood.gov.uk,Charnwood,http://www.charnwood.gov.uk/,-1.20207200000000,LE11 1JU,2014-06-17,fhrs_1_en-GB,1,,FHRS,10
48358,,1 Brook Street,,Shepshed,Dilips Megabooze,Retailers - other,4613,5,,89701,5,,52.77471500000000,24085,210,food.hygiene@charnwood.gov.uk,Charnwood,http://www.charnwood.gov.uk/,-1.28967700000000,LE12 9RE,2014-10-02,fhrs_5_en-GB,5,,FHRS,5
48359,,4 Market Place,,Shepshed,Dilips Multi Store,Retailers - other,4613,5,,91714,5,,52.77374600000000,25471,210,food.hygiene@charnwood.gov.uk,Charnwood,http://www.charnwood.gov.uk/,-1.29006300000000,LE12 9RT,2014-12-04,fhrs_5_en-GB,5,,FHRS,5
48360,,115 Wanlip Lane,,Birstall,Dining Room Restaurant,Restaurant/Cafe/Canteen,1,5,,108941,10,,52.68144900000000,39156,210,food.hygiene@charnwood.gov.uk,Charnwood,http://www.charnwood.gov.uk/,-1.11744200000000,LE4 4GL,2013-11-04,fhrs_4_en-GB,4,,FHRS,5
48361,,Maxwell Drive,,Loughborough,Dishley Grange Preskool,Hospitals/Childcare/Caring Premises,5,5,,673190,5,,52.77921000000000,43027,210,food.hygiene@charnwood.gov.uk,Charnwood,http://www.charnwood.gov.uk/,-1.24045800000000,LE11 4RZ,2014-05-14,fhrs_5_en-GB,5,,FHRS,0
48362,,28 Chapel Street,,Syston,Dog & Gun,Pub/bar/nightclub,7843,5,,95297,5,,52.69931200000000,28287,210,food.hygiene@charnwood.gov.uk,Charnwood,http://www.charnwood.gov.uk/,-1.07618000000000,LE7 1GN,2013-09-25,fhrs_5_en-GB,5,,FHRS,5
48363,,14 Woodgate,,Rothley,Dolce & Verde,Restaurant/Cafe/Canteen,1,10,,647321,5,,52.70832500000000,42490,210,food.hygiene@charnwood.gov.uk,Charnwood,http://www.charnwood.gov.uk/,-1.13896900000000,LE7 7LJ,2014-03-06,fhrs_3_en-GB,3,,FHRS,10
48364,,13a High Street,,Loughborough,Dominics Pizza and Kebab,Takeaway/sandwich shop,7844,10,,447999,10,,52.77154300000000,40716,210,food.hygiene@charnwood.gov.uk,Charnwood,http://www.charnwood.gov.uk/,-1.20494300000000,LE11 2PY,2014-02-18,fhrs_3_en-GB,3,,FHRS,10
48365,,9-11 Humberstone Lane,,Thurmaston,Dominos Pizza,Takeaway/sandwich shop,7844,5,,104827,5,,52.67306100000000,35850,210,food.hygiene@charnwood.gov.uk,Charnwood,http://www.charnwood.gov.uk/,-1.10187500000000,LE4 8HJ,2013-08-12,fhrs_5_en-GB,5,,FHRS,5
48366,,153 Derby Road,,Loughborough,Domino's Pizza,Takeaway/sandwich shop,7844,5,,126236,5,,52.77886500000000,5513,210,food.hygiene@charnwood.gov.uk,Charnwood,http://www.charnwood.gov.uk/,-1.21913100000000,LE11 5HJ,2014-02-18,fhrs_5_en-GB,5,,FHRS,5
48367,,4 King Street,,Sileby,Doner Master,Takeaway/sandwich shop,7844,5,,377450,5,,52.73180400000000,40019,210,food.hygiene@charnwood.gov.uk,Charnwood,http://www.charnwood.gov.uk/,-1.10942100000000,LE12 7NA,2013-11-11,fhrs_5_en-GB,5,,FHRS,5
48368,,332 Park Road,,Loughborough,Dragon Cottage,Takeaway/sandwich shop,7844,5,,624011,10,,52.75317600000000,42567,210,food.hygiene@charnwood.gov.uk,Charnwood,http://www.charnwood.gov.uk/,-1.21424200000000,LE11 2HN,2013-12-02,fhrs_4_en-GB,4,,FHRS,5
48369,,Barkby Thorpe Lane,,Thurmaston,Dunelm,Restaurant/Cafe/Canteen,1,5,,98098,5,,52.68422800000000,30784,210,food.hygiene@charnwood.gov.uk,Charnwood,http://www.charnwood.gov.uk/,-1.08794800000000,LE4 8GP,2013-10-24,fhrs_5_en-GB,5,,FHRS,5
48370,,15 High Street,,Loughborough,Dynamite Gym,Retailers - other,4613,,,580613,,,52.77154300000000,11660,210,food.hygiene@charnwood.gov.uk,Charnwood,http://www.charnwood.gov.uk/,-1.20494300000000,LE11 2PY,2013-07-29,fhrs_exempt_en-GB,Exempt,,FHRS,
48371,,Ashby Road,,Loughborough,E H Grill & Restaurant/Fuel Box,School/college/university,7845,20,,134113,15,,52.77257600000000,6727,210,food.hygiene@charnwood.gov.uk,Charnwood,http://www.charnwood.gov.uk/,-1.21292900000000,LE11 3AA,2014-12-08,fhrs_1_en-GB,1,,FHRS,15
48372,,210 Park Road,,Loughborough,E Oakland,Retailers - other,4613,5,,68528,5,,52.75855600000000,15323,210,food.hygiene@charnwood.gov.uk,Charnwood,http://www.charnwood.gov.uk/,-1.20679500000000,LE11 2HJ,2014-11-20,fhrs_5_en-GB,5,,FHRS,5
48373,,3r Belton Road West Extension,,Loughborough,E2 Save.Com,Restaurant/Cafe/Canteen,1,5,,139441,5,,52.77972400000000,7510,210,food.hygiene@charnwood.gov.uk,Charnwood,http://www.charnwood.gov.uk/,-1.21576500000000,LE11 5XH,2014-12-19,fhrs_5_en-GB,5,,FHRS,5
48374,,Belton Road West,,Loughborough,Eaga Bites Ltd,Mobile caterer,7846,10,,106932,15,,52.78354600000000,37492,210,food.hygiene@charnwood.gov.uk,Charnwood,http://www.charnwood.gov.uk/,-1.22210800000000,,2013-08-21,fhrs_2_en-GB,2,,FHRS,10
48375,,Front Street,,Birstall,Earl Of Stamford,Pub/bar/nightclub,7843,10,,97350,5,,52.67491100000000,3016,210,food.hygiene@charnwood.gov.uk,Charnwood,http://www.charnwood.gov.uk/,-1.11834300000000,LE4 4DQ,2014-01-27,fhrs_3_en-GB,3,,FHRS,10
48376,,7 Merchants Common,,East Goscote,East Goscote Fish Bar,Takeaway/sandwich shop,7844,5,,122976,5,,52.71476300000000,5143,210,food.hygiene@charnwood.gov.uk,Charnwood,http://www.charnwood.gov.uk/,-1.05077600000000,LE7 3XR,2014-02-17,fhrs_5_en-GB,5,,FHRS,5
48377,,6 Merchants Common,,East Goscote,East Goscote Post Office & Sto,Retailers - other,4613,5,,122924,5,,52.71476300000000,5139,210,food.hygiene@charnwood.gov.uk,Charnwood,http://www.charnwood.gov.uk/,-1.05077600000000,LE7 3XR,2013-11-27,fhrs_5_en-GB,5,,FHRS,5
48378,,Long Furrow,,East Goscote,East Goscote Village Hall,Other catering premises,7841,5,,122599,5,,52.71232500000000,5105,210,food.hygiene@charnwood.gov.uk,Charnwood,http://www.charnwood.gov.uk/,-1.05165800000000,LE7 3ZL,2015-01-22,fhrs_5_en-GB,5,,FHRS,5
48379,,22 Woodgate,,Rothley,Eastern Chef,Restaurant/Cafe/Canteen,1,5,,88955,5,,52.70832500000000,23580,210,food.hygiene@charnwood.gov.uk,Charnwood,http://www.charnwood.gov.uk/,-1.13896900000000,LE7 7LJ,2014-11-10,fhrs_5_en-GB,5,,FHRS,5
48380,,Eastfield Road,,Thurmaston,Eastfield Primary School,School/college/university,7845,5,,99423,5,,52.68094900000000,31402,210,food.hygiene@charnwood.gov.uk,Charnwood,http://www.charnwood.gov.uk/,-1.08591500000000,LE4 8FP,2015-01-27,fhrs_5_en-GB,5,,FHRS,5
48381,,Biggin Street,,Loughborough,Echos Nightclub,Pub/bar/nightclub,7843,5,,140346,5,,52.77341200000000,7652,210,food.hygiene@charnwood.gov.uk,Charnwood,http://www.charnwood.gov.uk/,-1.20605100000000,LE11 1UA,2013-11-08,fhrs_4_en-GB,4,,FHRS,10
48382,,Loughborough Road,,Rothley,Edinburgh Woollen Mill,Retailers - other,4613,5,,462566,5,,52.72019100000000,40946,210,food.hygiene@charnwood.gov.uk,Charnwood,http://www.charnwood.gov.uk/,-1.12900800000000,LE7 7NL,2012-10-22,fhrs_5_en-GB,5,,FHRS,5
48383,,173 Charnwood Road,,Shepshed,Edinburgh Woollen Mills,Retailers - other,4613,5,,314451,0,,52.76559100000000,40284,210,food.hygiene@charnwood.gov.uk,Charnwood,http://www.charnwood.gov.uk/,-1.29594600000000,LE12 9NN,2015-01-30,fhrs_5_en-GB,5,,FHRS,5
48384,,112 Halstead Road,,Mountsorrel,Educare Adolescent Services,Hospitals/Childcare/Caring Premises,5,5,,103949,5,,52.72270200000000,35188,210,food.hygiene@charnwood.gov.uk,Charnwood,http://www.charnwood.gov.uk/,-1.15547600000000,LE12 7HG,2013-04-19,fhrs_5_en-GB,5,,FHRS,5
48385,,,,,Eggless Desserts,Other catering premises,7841,5,,188873,5,,,39989,210,food.hygiene@charnwood.gov.uk,Charnwood,http://www.charnwood.gov.uk/,,,2013-07-01,fhrs_5_en-GB,5,,FHRS,5
48386,,,,,Eggleston Cakes & Flowers,Other catering premises,7841,5,,109379,5,,,39480,210,food.hygiene@charnwood.gov.uk,Charnwood,http://www.charnwood.gov.uk/,,,2014-02-07,fhrs_5_en-GB,5,,FHRS,5
48387,,,,,Eleanor's Pantry,Mobile caterer,7846,5,,624004,10,,,42468,210,food.hygiene@charnwood.gov.uk,Charnwood,http://www.charnwood.gov.uk/,,,2013-11-28,fhrs_4_en-GB,4,,FHRS,5
48388,,26 Market Street,,Loughborough,Elf Foods,Retailers - other,4613,10,,62074,5,,52.77165700000000,13686,210,food.hygiene@charnwood.gov.uk,Charnwood,http://www.charnwood.gov.uk/,-1.20848400000000,LE11 3ER,2013-08-15,fhrs_4_en-GB,4,,FHRS,5
48389,,,,,Elf Snacks,Retailers - other,4613,5,,360881,5,,,34132,210,food.hygiene@charnwood.gov.uk,Charnwood,http://www.charnwood.gov.uk/,,,2012-04-23,fhrs_5_en-GB,5,,FHRS,5
48390,,Checkland Road,,Thurmaston,Elizabeth Park Sports & Comm.Centre,Other catering premises,7841,5,,98481,5,,52.68110600000000,31036,210,food.hygiene@charnwood.gov.uk,Charnwood,http://www.charnwood.gov.uk/,-1.09233200000000,LE4 8FN,2015-01-22,fhrs_5_en-GB,5,,FHRS,5
48391,,,,,Elizabeth Scott's Cake Farm,Other catering premises,7841,5,,246445,5,,,40126,210,food.hygiene@charnwood.gov.uk,Charnwood,http://www.charnwood.gov.uk/,,,2015-01-30,fhrs_5_en-GB,5,,FHRS,5
48392,,,,,Elizabeth's Home-Made .....,Other catering premises,7841,5,,535218,5,,,37611,210,food.hygiene@charnwood.gov.uk,Charnwood,http://www.charnwood.gov.uk/,,,2013-03-26,fhrs_5_en-GB,5,,FHRS,5
48393,,Westfield Lane,,Rothley,Ellis's Tea Room,Restaurant/Cafe/Canteen,1,5,,88840,5,,52.70504300000000,23497,210,food.hygiene@charnwood.gov.uk,Charnwood,http://www.charnwood.gov.uk/,-1.15639400000000,LE7 7LH,2014-09-22,fhrs_5_en-GB,5,,FHRS,5
48394,,Ashby Road,,Loughborough,Elvyn Richards Kitchen & Dining Hall,Restaurant/Cafe/Canteen,1,5,,636564,5,,52.76415300000000,42576,210,food.hygiene@charnwood.gov.uk,Charnwood,http://www.charnwood.gov.uk/,-1.23486600000000,LE11 3UQ,2014-01-23,fhrs_5_en-GB,5,,FHRS,5
48395,,,,,Emma Smith,Mobile caterer,7846,5,,109053,5,,,39231,210,food.hygiene@charnwood.gov.uk,Charnwood,http://www.charnwood.gov.uk/,,,2013-10-14,fhrs_5_en-GB,5,,FHRS,5
48396,,Forest Road,,Loughborough,Emmanuel Church Centre,Other catering premises,7841,5,,42346,5,,52.76606100000000,10445,210,food.hygiene@charnwood.gov.uk,Charnwood,http://www.charnwood.gov.uk/,-1.21322400000000,LE11 3NW,2013-02-12,fhrs_5_en-GB,5,,FHRS,5
48397,,Forest Road,,Loughborough,Emmanuel Church Hall,Other catering premises,7841,5,,42290,0,,52.76606100000000,10436,210,food.hygiene@charnwood.gov.uk,Charnwood,http://www.charnwood.gov.uk/,-1.21322400000000,LE11 3NW,2014-12-01,fhrs_5_en-GB,5,,FHRS,0
48398,,77 Empress Road,,Loughborough,Empress Stores,Retailers - other,4613,5,,150837,5,,52.77047900000000,9924,210,food.hygiene@charnwood.gov.uk,Charnwood,http://www.charnwood.gov.uk/,-1.19248200000000,LE11 1RH,2012-08-31,fhrs_5_en-GB,5,,FHRS,5
48399,,Loughborough Road,,Birstall,Etap Hotel,Hotel/bed & breakfast/guest house,7842,5,,107469,5,,52.69033900000000,37944,210,food.hygiene@charnwood.gov.uk,Charnwood,http://www.charnwood.gov.uk/,-1.12708700000000,LE4 3BT,2014-09-26,fhrs_5_en-GB,5,,FHRS,5
48400,,Park Road,,Loughborough,Eurest - Tesco Customer Cafe,Restaurant/Cafe/Canteen,1,5,,102726,5,,52.75866100000000,34201,210,food.hygiene@charnwood.gov.uk,Charnwood,http://www.charnwood.gov.uk/,-1.20900100000000,LE11 2EX,2013-07-02,fhrs_5_en-GB,5,,FHRS,5
48401,,Barkby Thorpe Lane,,Thurmaston,Eurest Asda Customer Restaurant,Restaurant/Cafe/Canteen,1,5,,102393,5,,52.68640600000000,33949,210,food.hygiene@charnwood.gov.uk,Charnwood,http://www.charnwood.gov.uk/,-1.09294700000000,LE4 8GQ,2013-10-22,fhrs_4_en-GB,4,,FHRS,10
48402,,64 Pinfold Gate,,Loughborough,Euro Asia Cash & Carry Ltd,Retailers - other,4613,5,,709035,5,,52.77209000000000,43771,210,food.hygiene@charnwood.gov.uk,Charnwood,http://www.charnwood.gov.uk/,-1.20207300000000,LE11 1AZ,2014-10-02,fhrs_5_en-GB,5,,FHRS,5
48403,,1111 Melton Road,,Syston,Evangelical Baptist Church,Other catering premises,7841,5,,95576,5,,52.69482900000000,28585,210,food.hygiene@charnwood.gov.uk,Charnwood,http://www.charnwood.gov.uk/,-1.07887800000000,LE7 2JS,2014-09-26,fhrs_5_en-GB,5,,FHRS,5
48404,,Prestwold Lane,,Prestwold,Everyman Driving Experience,Restaurant/Cafe/Canteen,1,5,,84881,10,,52.78827500000000,21126,210,food.hygiene@charnwood.gov.uk,Charnwood,http://www.charnwood.gov.uk/,-1.14314500000000,LE12 5SQ,2014-02-20,fhrs_4_en-GB,4,,FHRS,5
48405,,,,,Evi's Bakes,Other catering premises,7841,10,,647330,5,,,42769,210,food.hygiene@charnwood.gov.uk,Charnwood,http://www.charnwood.gov.uk/,,,2014-03-05,fhrs_4_en-GB,4,,FHRS,5
48406,,1092 Melton Road,,Syston,F Peberday,Retailers - other,4613,5,,95980,5,,52.69505800000000,28924,210,food.hygiene@charnwood.gov.uk,Charnwood,http://www.charnwood.gov.uk/,-1.07936200000000,LE7 2HA,2015-01-26,fhrs_5_en-GB,5,,FHRS,5
48407,,48 Ribble Drive,,Barrow Upon Soar,Fab Juices,Retailers - other,4613,5,,673181,5,,52.74726700000000,42835,210,food.hygiene@charnwood.gov.uk,Charnwood,http://www.charnwood.gov.uk/,-1.14615700000000,LE12 8LJ,2014-06-05,fhrs_5_en-GB,5,,FHRS,5
48408,,47 Church Gate,,Loughborough,Fair Trading,Restaurant/Cafe/Canteen,1,10,,110156,5,,52.77305600000000,39908,210,food.hygiene@charnwood.gov.uk,Charnwood,http://www.charnwood.gov.uk/,-1.20524200000000,LE11 1UE,2014-09-26,fhrs_4_en-GB,4,,FHRS,5
48409,,5 Leicester Road,,Loughborough,Fairfield School Kitchen,School/college/university,7845,5,,56168,5,,52.77022400000000,12688,210,food.hygiene@charnwood.gov.uk,Charnwood,http://www.charnwood.gov.uk/,-1.20387000000000,LE11 2AE,2014-03-25,fhrs_5_en-GB,5,,FHRS,5
48410,,1307 Melton Road,,Syston,Family Cellar,Retailers - other,4613,5,,647309,5,,52.69974700000000,41050,210,food.hygiene@charnwood.gov.uk,Charnwood,http://www.charnwood.gov.uk/,-1.07079800000000,LE7 2EN,2014-03-21,fhrs_5_en-GB,5,,FHRS,5
48411,,46 Albion Street,,Anstey,Family Choice Superstore,Retailers - other,4613,5,,93625,10,,52.67512200000000,27,210,food.hygiene@charnwood.gov.uk,Charnwood,http://www.charnwood.gov.uk/,-1.18693500000000,LE7 7DE,2013-07-23,fhrs_4_en-GB,4,,FHRS,5
48412,,Ashby Road,,Loughborough,Faraday/Royce Dining Hall,School/college/university,7845,5,,134133,5,,52.77257600000000,6731,210,food.hygiene@charnwood.gov.uk,Charnwood,http://www.charnwood.gov.uk/,-1.21292900000000,LE11 3AA,2013-03-21,fhrs_5_en-GB,5,,FHRS,5
48413,,31-32 Cattlemarket,,Loughborough,Farmfood Freezer Centres,Retailers - supermarkets/hypermarkets,7840,5,,85747,5,,52.77023400000000,21705,210,food.hygiene@charnwood.gov.uk,Charnwood,http://www.charnwood.gov.uk/,-1.20673100000000,LE11 3DL,2015-02-09,fhrs_5_en-GB,5,,FHRS,5
48414,,82 Derby Road,,Loughborough,Farouks Tandoori,Takeaway/sandwich shop,7844,10,,105636,5,,52.77544700000000,36362,210,food.hygiene@charnwood.gov.uk,Charnwood,http://www.charnwood.gov.uk/,-1.21336600000000,LE11 5BX,2013-07-25,fhrs_3_en-GB,3,,FHRS,10
48415,,Rectory Road,,Loughborough,Fearon Community Association Ltd,Other catering premises,7841,5,,71796,5,,52.77549900000000,16319,210,food.hygiene@charnwood.gov.uk,Charnwood,http://www.charnwood.gov.uk/,-1.20368500000000,LE11 1PL,2014-03-14,fhrs_4_en-GB,4,,FHRS,10
48416,,7 High Street,,Loughborough,Fernandez Grillhouse,Restaurant/Cafe/Canteen,1,5,,564434,5,,52.77154300000000,41250,210,food.hygiene@charnwood.gov.uk,Charnwood,http://www.charnwood.gov.uk/,-1.20494300000000,LE11 2PY,2013-07-01,fhrs_5_en-GB,5,,FHRS,5
48417,,4 High Street,,Quorn,Ferraris Trattoria,Restaurant/Cafe/Canteen,1,5,,86152,5,,52.74315000000000,21931,210,food.hygiene@charnwood.gov.uk,Charnwood,http://www.charnwood.gov.uk/,-1.17153800000000,LE12 8DT,2013-03-25,fhrs_5_en-GB,5,,FHRS,5
48418,,320 Markfield Lane,,Newtown Linford,Field Head Hotel,Hotel/bed & breakfast/guest house,7842,,,84774,,,52.68678600000000,21064,210,food.hygiene@charnwood.gov.uk,Charnwood,http://www.charnwood.gov.uk/,-1.25605700000000,LE67 9PS,2014-09-16,fhrs_5_en-GB,5,,FHRS,
48419,,Epinal Way,,Loughborough,Field House,School/college/university,7845,10,,39734,5,,52.76845900000000,10019,210,food.hygiene@charnwood.gov.uk,Charnwood,http://www.charnwood.gov.uk/,-1.22243000000000,LE11 3GE,2014-10-17,fhrs_4_en-GB,4,,FHRS,5
48420,,137 Meadow Lane,,Loughborough,Finnies Deli,Takeaway/sandwich shop,7844,5,,63105,0,,52.77953100000000,13976,210,food.hygiene@charnwood.gov.uk,Charnwood,http://www.charnwood.gov.uk/,-1.20164000000000,LE11 1JX,2014-02-21,fhrs_5_en-GB,5,,FHRS,0
48421,,Bishop Meadow Road,,Loughborough,Fisher Scientific UK Ltd,Restaurant/Cafe/Canteen,1,5,,140694,5,,52.78478400000000,7674,210,food.hygiene@charnwood.gov.uk,Charnwood,http://www.charnwood.gov.uk/,-1.22385900000000,LE11 5RG,2013-10-10,fhrs_5_en-GB,5,,FHRS,5
48422,,,,,Flair4Food,Other catering premises,7841,5,,106564,0,,,37080,210,food.hygiene@charnwood.gov.uk,Charnwood,http://www.charnwood.gov.uk/,,,2014-12-12,fhrs_5_en-GB,5,,FHRS,5
48423,,1260 Melton Road,,Syston,Flames,Takeaway/sandwich shop,7844,20,,96200,10,,52.69718800000000,29036,210,food.hygiene@charnwood.gov.uk,Charnwood,http://www.charnwood.gov.uk/,-1.07584000000000,LE7 2HB,2014-08-07,fhrs_1_en-GB,1,,FHRS,10
48424,,Loughborough Road,,Rothley,Florist Sundries Direct,Retailers - other,4613,5,,110154,5,,52.72019100000000,39906,210,food.hygiene@charnwood.gov.uk,Charnwood,http://www.charnwood.gov.uk/,-1.12900800000000,LE7 7NL,2014-10-01,fhrs_5_en-GB,5,,FHRS,5
48425,,,,,Focaccia per Tutti,Other catering premises,7841,5,,456636,5,,,2500,210,food.hygiene@charnwood.gov.uk,Charnwood,http://www.charnwood.gov.uk/,,,2012-10-10,fhrs_5_en-GB,5,,FHRS,5
48426,,Gelders Hall Road,,Shepshed,Food Factory,Mobile caterer,7846,10,,90843,15,,,24944,210,food.hygiene@charnwood.gov.uk,Charnwood,http://www.charnwood.gov.uk/,,,2014-09-18,fhrs_2_en-GB,2,,FHRS,15
48427,,Ashby Road,,Loughborough,Food Shop,Retailers - other,4613,5,,134430,5,,52.77257600000000,6782,210,food.hygiene@charnwood.gov.uk,Charnwood,http://www.charnwood.gov.uk/,-1.21292900000000,LE11 3AA,2014-01-14,fhrs_5_en-GB,5,,FHRS,5
48428,,55 Forest Road,,Loughborough,Forest Rise Hotel,Hotel/bed & breakfast/guest house,7842,10,,42252,10,,52.76606100000000,10429,210,food.hygiene@charnwood.gov.uk,Charnwood,http://www.charnwood.gov.uk/,-1.21322400000000,LE11 3NW,2014-08-05,fhrs_3_en-GB,3,,FHRS,5
48429,,Fosse Way,,Syston,Fosse Fitness,Restaurant/Cafe/Canteen,1,10,,481425,5,,52.69909700000000,40799,210,food.hygiene@charnwood.gov.uk,Charnwood,http://www.charnwood.gov.uk/,-1.08558100000000,LE7 1NL,2014-12-10,fhrs_4_en-GB,4,,FHRS,0
48430,,Fosse Way,,Syston,Fosseway Bowls Club,Pub/bar/nightclub,7843,5,,95525,5,,52.69232600000000,28503,210,food.hygiene@charnwood.gov.uk,Charnwood,http://www.charnwood.gov.uk/,-1.08882900000000,LE7 1NE,2013-06-13,fhrs_5_en-GB,5,,FHRS,5
48431,,2 High Street,,Syston,Fox & Hounds,Pub/bar/nightclub,7843,5,,95652,5,,52.69981200000000,28629,210,food.hygiene@charnwood.gov.uk,Charnwood,http://www.charnwood.gov.uk/,-1.07454100000000,LE7 1GP,2014-01-27,fhrs_5_en-GB,5,,FHRS,5
48432,,,,,Francesca Owen Crafts,Retailers - other,4613,5,,507664,5,,,41258,210,food.hygiene@charnwood.gov.uk,Charnwood,http://www.charnwood.gov.uk/,,,2013-02-08,fhrs_5_en-GB,5,,FHRS,5
48433,,,,,Frans Snack Bar,Mobile caterer,7846,5,,647328,10,,,42746,210,food.hygiene@charnwood.gov.uk,Charnwood,http://www.charnwood.gov.uk/,,,2014-03-26,fhrs_4_en-GB,4,,FHRS,5
48434,,39 Frederick Street,,Loughborough,Frederick Street Community Opportunities,Hospitals/Childcare/Caring Premises,5,5,,108255,5,,52.77035600000000,38560,210,food.hygiene@charnwood.gov.uk,Charnwood,http://www.charnwood.gov.uk/,-1.21160500000000,LE11 3BH,2015-01-23,fhrs_5_en-GB,5,,FHRS,5
48435,,Alfred Street,,Loughborough,Free Food,Pub/bar/nightclub,7843,5,,109317,5,,52.77787300000000,39422,210,food.hygiene@charnwood.gov.uk,Charnwood,http://www.charnwood.gov.uk/,-1.20639900000000,LE11 1NG,2014-08-04,fhrs_5_en-GB,5,,FHRS,5
48436,,70 Conway Drive,,Shepshed,Freedom Care Limited,Hospitals/Childcare/Caring Premises,5,10,,90347,5,,52.76426400000000,24553,210,food.hygiene@charnwood.gov.uk,Charnwood,http://www.charnwood.gov.uk/,-1.30561600000000,LE12 9PP,2013-09-23,fhrs_4_en-GB,4,,FHRS,5
48437,,362 Park Road,,Loughborough,Freedom Care Ltd,Hospitals/Childcare/Caring Premises,5,5,,107077,5,,52.75317600000000,37626,210,food.hygiene@charnwood.gov.uk,Charnwood,http://www.charnwood.gov.uk/,-1.21424200000000,LE11 2HN,2014-01-07,fhrs_5_en-GB,5,,FHRS,5
48438,,1487 Melton Road,,Queniborough,Fresh 4 All Occasions,Other catering premises,7841,5,,593785,5,,52.67478500000000,42026,210,food.hygiene@charnwood.gov.uk,Charnwood,http://www.charnwood.gov.uk/,-1.01015600000000,LE7 3FQ,2013-10-11,fhrs_5_en-GB,5,,FHRS,5
48439,,36 High Street,,Syston,Friday Lunch Club,Other catering premises,7841,5,,624000,5,,52.69981200000000,42365,210,food.hygiene@charnwood.gov.uk,Charnwood,http://www.charnwood.gov.uk/,-1.07454100000000,LE7 1GP,2015-01-23,fhrs_5_en-GB,5,,FHRS,5
48440,,Ashby Road,,Loughborough,Fuel Station,Restaurant/Cafe/Canteen,1,10,,109031,0,,52.77257600000000,39215,210,food.hygiene@charnwood.gov.uk,Charnwood,http://www.charnwood.gov.uk/,-1.21292900000000,LE11 3AA,2013-01-10,fhrs_4_en-GB,4,,FHRS,10
48441,,Ashby Road,,Loughborough,fuel@design school,Restaurant/Cafe/Canteen,1,5,,499311,5,,52.77257600000000,40701,210,food.hygiene@charnwood.gov.uk,Charnwood,http://www.charnwood.gov.uk/,-1.21292900000000,LE11 3AA,2013-05-24,fhrs_5_en-GB,5,,FHRS,5
48442,,Prestwold Lane,,Prestwold,Function & Conference Centre,Restaurant/Cafe/Canteen,1,5,,84880,5,,52.78827500000000,21123,210,food.hygiene@charnwood.gov.uk,Charnwood,http://www.charnwood.gov.uk/,-1.14314500000000,LE12 5SQ,2013-03-20,fhrs_5_en-GB,5,,FHRS,5
48443,,Radmoor Road,,Loughborough,Futures at Radmoor Centre,Restaurant/Cafe/Canteen,1,0,,106240,5,,52.77072100000000,36829,210,food.hygiene@charnwood.gov.uk,Charnwood,http://www.charnwood.gov.uk/,-1.21783900000000,LE11 3BP,2013-03-22,fhrs_5_en-GB,5,,FHRS,5
48444,,8 The Stockwell,,Wymeswold,G G Granville,Retailers - other,4613,5,,104812,5,,52.80509300000000,35845,210,food.hygiene@charnwood.gov.uk,Charnwood,http://www.charnwood.gov.uk/,-1.10758400000000,LE12 6UF,2013-10-24,fhrs_5_en-GB,5,,FHRS,5
48445,,5 Market Place,,Shepshed,G T Webster Family Butchers,Retailers - other,4613,5,,91718,5,,52.77374600000000,25475,210,food.hygiene@charnwood.gov.uk,Charnwood,http://www.charnwood.gov.uk/,-1.29006300000000,LE12 9RT,2013-11-07,fhrs_5_en-GB,5,,FHRS,5
48446,,1193 Melton Road,,Syston,Gamble and Hollis,Retailers - other,4613,10,,107848,10,,52.69794700000000,38200,210,food.hygiene@charnwood.gov.uk,Charnwood,http://www.charnwood.gov.uk/,-1.07403300000000,LE7 2JT,2014-03-24,fhrs_3_en-GB,3,,FHRS,10
48447,,31 Carillon Court,,Loughborough,Game,Retailers - other,4613,,,552963,,,52.77173200000000,8808,210,food.hygiene@charnwood.gov.uk,Charnwood,http://www.charnwood.gov.uk/,-1.20757800000000,LE11 3XA,2013-05-30,fhrs_exempt_en-GB,Exempt,,FHRS,
48448,,92 Leicester Road,,Loughborough,Garendon Park Hotel,Hotel/bed & breakfast/guest house,7842,5,,56616,5,,52.76631700000000,12810,210,food.hygiene@charnwood.gov.uk,Charnwood,http://www.charnwood.gov.uk/,-1.19905100000000,LE11 2AQ,2014-09-25,fhrs_5_en-GB,5,,FHRS,5
48449,,Schofield Road,,Loughborough,Garendon Public House,Pub/bar/nightclub,7843,5,,76183,5,,52.76758800000000,17923,210,food.hygiene@charnwood.gov.uk,Charnwood,http://www.charnwood.gov.uk/,-1.23926700000000,LE11 4QH,2014-04-23,fhrs_5_en-GB,5,,FHRS,5
48450,,52 Garendon Road,,Loughborough,Garendon Residential Home,Hospitals/Childcare/Caring Premises,5,5,,43894,5,,52.77267900000000,10678,210,food.hygiene@charnwood.gov.uk,Charnwood,http://www.charnwood.gov.uk/,-1.22989900000000,LE11 4QD,2015-01-22,fhrs_5_en-GB,5,,FHRS,5
48451,,Lemyngton Street,,Loughborough,Geeta Bhawan Centre,Other catering premises,7841,5,,57177,5,,52.77325700000000,12900,210,food.hygiene@charnwood.gov.uk,Charnwood,http://www.charnwood.gov.uk/,-1.20451200000000,LE11 1UH,2014-03-10,fhrs_5_en-GB,5,,FHRS,5
48452,,,,,Gem's Sweet Treats,Other catering premises,7841,5,,499308,0,,,38629,210,food.hygiene@charnwood.gov.uk,Charnwood,http://www.charnwood.gov.uk/,,,2013-01-17,fhrs_5_en-GB,5,,FHRS,0
48453,,85 Ashby Road,,Loughborough,Generous Briton,Pub/bar/nightclub,7843,10,,133120,10,,52.77242600000000,6556,210,food.hygiene@charnwood.gov.uk,Charnwood,http://www.charnwood.gov.uk/,-1.21740800000000,LE11 3AB,2013-08-01,fhrs_3_en-GB,3,,FHRS,10
48454,,59 Wards End,,Loughborough,George Hill Ltd of Loughborough,Retailers - other,4613,5,,77963,5,,52.76903400000000,18440,210,food.hygiene@charnwood.gov.uk,Charnwood,http://www.charnwood.gov.uk/,-1.20747900000000,LE11 3HB,2015-01-27,fhrs_5_en-GB,5,,FHRS,5
48455,,44 Leicester Road,,Loughborough,George's Tradition,Takeaway/sandwich shop,7844,5,,647323,5,,52.76912300000000,42591,210,food.hygiene@charnwood.gov.uk,Charnwood,http://www.charnwood.gov.uk/,-1.20196400000000,LE11 2AG,2014-03-26,fhrs_5_en-GB,5,,FHRS,5
48456,,,,,Gerry's Cakes & Treats,Retailers - other,4613,5,,709031,5,,,43553,210,food.hygiene@charnwood.gov.uk,Charnwood,http://www.charnwood.gov.uk/,,,2014-09-25,fhrs_5_en-GB,5,,FHRS,5
48457,,53 Ashby Road Central,,Shepshed,Gilburn B&B,Hotel/bed & breakfast/guest house,7842,5,,106115,5,,52.75960600000000,36756,210,food.hygiene@charnwood.gov.uk,Charnwood,http://www.charnwood.gov.uk/,-1.28724100000000,LE12 9BS,2013-01-29,fhrs_5_en-GB,5,,FHRS,5
48458,,72 Wanlip Road,,Syston,Gills Off Licence,Retailers - other,4613,20,,97153,15,,52.69523700000000,30017,210,food.hygiene@charnwood.gov.uk,Charnwood,http://www.charnwood.gov.uk/,-1.08980500000000,LE7 1PB,2013-11-18,fhrs_1_en-GB,1,,FHRS,10
48459,,8 Church Hill,,Woodhouse Eaves,Gino's Pear Tree,Restaurant/Cafe/Canteen,1,10,,101338,15,,52.72214700000000,33070,210,food.hygiene@charnwood.gov.uk,Charnwood,http://www.charnwood.gov.uk/,-1.21472500000000,LE12 8RT,2014-06-10,fhrs_2_en-GB,2,,FHRS,10
48460,,9 Shelley Street,,Loughborough,Glebe House,Hospitals/Childcare/Caring Premises,5,5,,647310,5,,52.77695500000000,41239,210,food.hygiene@charnwood.gov.uk,Charnwood,http://www.charnwood.gov.uk/,-1.23080200000000,LE11 5LD,2014-03-24,fhrs_5_en-GB,5,,FHRS,5
48461,,Thorpe Road,,Shepshed,Glenmore Community Centre,Other catering premises,7841,5,,92718,5,,52.76859700000000,26247,210,food.hygiene@charnwood.gov.uk,Charnwood,http://www.charnwood.gov.uk/,-1.30095200000000,LE12 9LU,2012-09-03,fhrs_5_en-GB,5,,FHRS,5
48462,,1 Ratcliffe Road,,Sileby,Glenn Lewin Butchers,Retailers - other,4613,5,,118769,5,,52.73158700000000,4807,210,food.hygiene@charnwood.gov.uk,Charnwood,http://www.charnwood.gov.uk/,-1.10095500000000,LE12 7PU,2014-02-12,fhrs_5_en-GB,5,,FHRS,5
48463,,,,,Gluten Head,Other catering premises,7841,5,,647312,5,,,41592,210,food.hygiene@charnwood.gov.uk,Charnwood,http://www.charnwood.gov.uk/,,,2014-03-12,fhrs_5_en-GB,5,,FHRS,5
48464,,80 Derby Road,,Loughborough,Golden Chau,Takeaway/sandwich shop,7844,10,,125688,10,,52.77544700000000,5423,210,food.hygiene@charnwood.gov.uk,Charnwood,http://www.charnwood.gov.uk/,-1.21336600000000,LE11 5BX,2014-08-27,fhrs_3_en-GB,3,,FHRS,10
48465,,13 Sharpley Road,,Loughborough,Golden Choice,Takeaway/sandwich shop,7844,5,,73529,10,,52.76569500000000,16914,210,food.hygiene@charnwood.gov.uk,Charnwood,http://www.charnwood.gov.uk/,-1.24121200000000,LE11 4PJ,2013-10-22,fhrs_3_en-GB,3,,FHRS,10
48466,,24 Ratcliffe Road,,Loughborough,Golden City,Takeaway/sandwich shop,7844,10,,360889,10,,52.77911100000000,40220,210,food.hygiene@charnwood.gov.uk,Charnwood,http://www.charnwood.gov.uk/,-1.20065400000000,LE11 1LQ,2013-11-06,fhrs_3_en-GB,3,,FHRS,10
48467,,52 Church Gate,,Loughborough,Goodliffes,Restaurant/Cafe/Canteen,1,5,,106247,5,,52.77305600000000,36837,210,food.hygiene@charnwood.gov.uk,Charnwood,http://www.charnwood.gov.uk/,-1.20524200000000,LE11 1UE,2013-10-21,fhrs_4_en-GB,4,,FHRS,10
