,businessname,ratingvalue,structural,hygiene,confidenceinmanagement,ratingdate,latitude,longitude
222674,A Moveable Feast,5,0,0,5,2012-03-15,,
222675,Abbeyfield Amersham (The Leys),5,0,5,5,2013-07-05,51.681304,-0.600462
222676,Abbeyfield Great Missenden & District Society,5,0,0,5,2012-02-28,51.704497,-0.707462
222677,Abbeyfield Society,5,0,5,0,2014-03-03,51.678651,-0.610987
222678,Abrakebabra,4,5,0,10,2014-10-15,51.710531,-0.60907
222679,ACAS Club,Exempt,nan,nan,nan,2001-03-21,51.676272,-0.602252
222680,Accent Catering Services Ltd,5,0,5,5,2013-10-16,51.626875,-0.654928
222681,Acrewood Nursery School,5,0,0,5,2013-12-10,51.673378,-0.593302
222682,Age Concern Lunch Club,3,5,10,10,2012-05-31,51.676272,-0.602252
222683,Age Concern Lunch Club,5,0,0,5,2013-07-25,51.701563,-0.704781
222684,AGVA Limited,5,5,5,5,2009-09-18,51.67782,-0.602378
222685,Al Halal Meat and Grocery Store,5,0,5,0,2014-03-14,51.709198,-0.610428
222686,Alde House,5,5,5,5,2012-06-13,51.631505,-0.685061
222687,All Pickled Out,Exempt,nan,nan,nan,2014-01-30,,
222688,Alliance In Partnership,4,5,5,10,2014-06-09,51.708844,-0.600235
222689,Alliance In Partnership,5,5,0,5,2013-11-21,51.676245,-0.609831
222690,Alliance In Partnership,5,5,5,0,2014-06-09,51.64088,-0.553207
222691,Amanda Jayne Smith,5,0,0,5,2012-02-22,,
222692,Ambers Of Amersham,5,0,5,0,2011-10-24,51.664586,-0.607036
222693,Amersham and Chiltern Rugby Club,5,0,0,5,2013-03-04,51.682013,-0.623931
222694,Amersham Cricket Club,5,5,5,0,2014-07-01,51.671502,-0.644829
222695,Amersham Fish Bar,4,5,5,10,2011-04-05,51.6777,-0.603596
222696,Amersham Hill Cricket Club,Exempt,nan,nan,nan,2003-06-30,51.674779,-0.596932
222697,Amersham School,5,0,0,0,2013-06-27,51.666875,-0.596179
222698,Amersham Town Football Club,2,10,15,10,2013-09-21,51.671096,-0.625332
222699,Angelic Cupcakes,4,5,5,10,2011-08-18,,
222700,Anna's Bakes,5,0,0,0,2013-02-06,,
222701,Annes Fish Bar,3,10,5,10,2013-07-09,51.714133,-0.605703
222702,Aramark Ltd,5,5,5,5,2014-05-19,51.681962,-0.612723
222703,Around The Pound,4,0,10,10,2014-09-15,,
222704,Artizian Catering Services Ltd,5,5,5,5,2013-03-05,51.597798,-0.548686
222705,Asco Foods,Exempt,nan,nan,nan,2014-11-12,51.673541,-0.585212
222706,Asheridge Food Store,5,0,0,5,2014-01-06,51.715057,-0.618514
222707,ASK,5,5,0,0,2013-02-11,51.666021,-0.615104
222708,Austenwood Nursing Home,5,nan,nan,nan,2014-06-09,51.595815,-0.551983
222709,Avenue Stores,4,10,0,10,2013-02-25,51.671229,-0.56728
222710,Barracuda Cafe,2,10,15,10,2014-06-26,51.678391,-0.605007
222711,Barry Price Meats Ltd,5,5,5,0,2011-09-27,,
222712,Baskin Robbin,5,0,0,0,2013-08-20,51.676019,-0.607394
222713,Beaconsfield Golf Club,5,5,0,5,2014-02-10,51.609648,-0.608761
222714,Beehive Montessori School,5,5,5,5,2010-03-01,51.677544,-0.606349
222715,Beijing,5,5,5,5,2013-02-21,51.703841,-0.613602
222716,Bell Lane County Combined School,5,5,5,5,2012-01-17,51.672525,-0.571028
222717,Bellingdon News and Off Licence,1,0,0,20,2013-04-25,51.710857,-0.613069
222718,Belly Busters,2,15,10,10,2014-03-22,51.674716,-0.608215
222719,Berkeley Stores,1,0,0,20,2012-06-07,51.712494,-0.62609
222720,Best One,5,0,5,0,2012-03-08,51.618229,-0.60743
222721,Best One,4,0,5,10,2012-02-16,51.709198,-0.610428
222722,Big Bite,3,10,5,10,2014-08-18,51.710583,-0.609662
222723,Big Day Bakery,5,5,5,5,2009-04-08,,
222724,Bills Diner,5,0,5,0,2014-02-13,,
222725,Birchwood - Scope Chess Section,4,0,5,10,2010-08-10,51.699915,-0.616949
222726,Birring Greengrocers,5,5,5,5,2012-02-09,51.606905,-0.558749
222727,Blackwells,5,5,5,5,2012-02-09,51.631272,-0.57049
222728,Blast (Busy Living After School Team),5,5,5,5,2010-06-24,51.599927,-0.56463
222729,Blossoming Cooks,5,0,0,0,2012-12-11,,
222730,Blue Lily,4,5,0,10,2014-03-26,51.678391,-0.605007
222731,Blue Orchid,5,5,5,5,2013-02-04,51.678391,-0.605007
222732,BMI Healthcare Group Plc,4,10,0,5,2014-11-17,51.690524,-0.693682
222733,Bojangles,5,5,5,5,2012-09-18,51.676019,-0.607394
222734,Boo Lee Scrumptious,5,5,5,5,2013-05-02,,
222735,Boot and Slipper,4,5,10,5,2013-04-24,51.679802,-0.607929
222736,Boots Co Plc,5,0,0,0,2010-03-01,51.704895,-0.613049
222737,Boots Co Plc,5,5,0,5,2012-04-11,51.677544,-0.606349
222738,Botley Stores,5,5,5,5,2012-01-30,51.710392,-0.577941
222739,Brazils,4,5,5,10,2012-09-20,51.703725,-0.612955
222740,Broadway Baptist Church,5,0,0,0,2012-03-20,51.706215,-0.612878
222741,Broadway Newsagency,5,5,5,0,2013-08-28,51.665719,-0.613855
222742,Broadway Newsagents,5,5,5,5,2011-02-24,51.706824,-0.61189
222743,Brown Sugar,3,10,10,10,2012-02-15,51.706215,-0.612878
222744,Brushwood Junior School,5,5,5,5,2012-11-15,51.714943,-0.596761
222745,Bubbles Fish and Chips,4,0,10,5,2014-01-14,51.711554,-0.611963
222746,Bucks MIND,5,0,0,0,2012-08-29,51.704264,-0.615196
222747,Budgens,2,10,15,10,2014-06-09,51.606867,-0.557841
222748,Bulldog Newsagents,4,0,0,10,2010-11-05,51.7035,-0.612889
222749,Burger Inn,4,0,10,10,2014-04-14,51.707175,-0.611185
222750,Busy Living After School And Pre School Club,5,5,5,5,2012-10-29,51.613406,-0.545646
222751,Busy Living Out Of School Club,5,5,5,0,2011-11-30,51.682852,-0.596755
222752,Busy Living Pre School,5,0,5,0,2013-09-26,51.667907,-0.561008
222753,Cafe Africa,3,10,5,10,2014-04-28,51.677386,-0.607424
222754,Cafe Africa,4,0,10,5,2013-03-27,51.676245,-0.609831
222755,Cafe at Kings Auction Old Amersham,4,10,0,10,2013-07-22,51.663769,-0.618542
222756,Cafe Encore,5,0,0,5,2013-09-30,51.708043,-0.61233
222757,Cafe Toria,5,0,5,5,2012-12-19,51.701563,-0.704781
222758,Cafe Twit,4,10,5,5,2014-03-13,51.702831,-0.706453
222759,Caffe Nero,5,5,0,5,2012-02-16,51.706215,-0.612878
222760,Cake Elation,4,10,5,0,2013-05-08,,
222761,Cakes,5,0,0,0,2014-07-18,,
222762,Cakes About U,5,0,0,0,2012-11-26,,
222763,Cakes By Caz,4,0,10,10,2012-03-21,,
222764,Camaraderie,5,5,0,0,2014-06-18,51.681441,-0.595338
222765,Caramel Square,4,5,5,10,2012-06-27,51.663944,-0.696008
222766,Carlsburger,5,0,5,0,2013-02-15,51.715914,-0.623294
222767,Cater Link,4,10,5,5,2012-05-11,51.667313,-0.569862
222768,Cater Link,5,0,0,0,2014-10-06,51.70238,-0.703788
222769,Caterlink,4,10,0,0,2014-03-05,51.668289,-0.590365
222770,Celebrate Cakes,5,0,0,5,2010-08-18,,
222771,Celebratory Cakes,5,0,0,0,2011-07-26,,
222772,Central Cafe,5,5,0,5,2013-03-25,51.704895,-0.613049
222773,Centurion Healthcare Ltd,4,5,5,10,2014-05-20,51.711054,-0.623716
222774,Chalfont Classic Cuisine,5,0,5,5,2013-06-14,51.673028,-0.586603
222775,Chalfont Common Food Fayre Ltd,4,5,0,10,2012-02-22,51.618674,-0.548395
222776,Chalfont Lodge Nursing Care Home,5,0,0,0,2013-11-19,51.598833,-0.537896
222777,Chalfont Market Garden,5,5,5,5,2012-03-20,51.621846,-0.550475
222778,Chalfont Oriental,3,10,5,10,2014-03-13,51.671301,-0.584343
222779,Chalfont Park Hospitality Ltd,5,0,0,0,2013-12-10,51.597798,-0.548686
222780,Chalfont Park Nursery,5,5,5,0,2014-06-23,51.597798,-0.548686
222781,Chalfont St Giles Bowling Club,Exempt,nan,nan,nan,2009-05-07,51.628885,-0.581228
222782,Chalfont St Giles County First School,5,0,5,5,2006-10-02,51.63133,-0.572236
222783,Chalfont St Giles Infant School And Nursery,5,5,5,0,2014-05-09,51.63133,-0.572236
222784,Chalfont St Giles Pre School Playgroup,5,5,5,5,2013-09-09,51.62834,-0.57038
222785,Chalfont St Giles Tennis Club,Exempt,nan,nan,nan,2013-04-04,51.628885,-0.581228
222786,Chalfont St Giles Youth Club,5,0,0,0,2012-03-15,51.627941,-0.582731
222787,Chalfont St Peter Football Club,2,0,15,10,2014-03-15,51.61027,-0.558946
222788,Chalfont St Peter Infant School,5,5,5,5,2011-08-18,51.610837,-0.567767
222789,Chalfont St Peter Tennis Club,Exempt,nan,nan,nan,2008-03-25,51.61027,-0.558946
222790,Chalfont St Peter Youth Centre,Exempt,nan,nan,nan,2012-06-08,51.608051,-0.553211
222791,Chalfont Tandoori,3,10,10,10,2014-08-28,51.667907,-0.561008
222792,Chalfonts Way SF Connect,5,0,0,0,2014-01-22,51.671536,-0.583699
222793,Chalk Leys Elderly Peoples Home,5,5,0,0,2014-06-16,51.701563,-0.704781
222794,Chartridge Centre Ltd,5,0,0,5,2014-09-02,51.729796,-0.661331
222795,Chartridge Park Golf Club,5,5,5,5,2013-03-12,51.72339,-0.648403
222796,Chassebi's,5,0,0,5,2014-01-15,,
222797,Chenies Baptist Church,5,0,0,5,2011-11-15,51.6718292236,-0.524252414703
222798,Chequers Peking Cuisine,2,10,15,10,2014-03-22,51.699969,-0.74177
222799,Cheriton Residential Care Home,5,5,0,0,2013-06-24,51.684233,-0.596481
222800,Cherry Garth,5,0,5,5,2014-09-29,51.66281,-0.695896
222801,Chesham & Ley Hill Golf Club,5,5,5,5,2014-09-22,51.705734,-0.561646
222802,Chesham 1879 Lawn Tennis and Squash Club,5,0,0,5,2013-10-01,51.703499,-0.621254
222803,Chesham Bakehouse,3,10,10,10,2014-06-26,51.704895,-0.613049
222804,Chesham Bois CE Combined School,5,0,0,0,2009-12-11,51.687618,-0.5983
222805,Chesham Bois Cricket Club,Exempt,nan,nan,nan,2008-12-22,51.683674,-0.604671
222806,Chesham Bois Manor,5,5,0,0,2014-01-15,51.698962,-0.611639
222807,Chesham Bois Tennis and Squash Club,Exempt,nan,nan,nan,2014-06-16,51.682893,-0.619233
222808,Chesham Bowls Club,5,0,0,0,2013-05-02,51.704447,-0.615451
222809,Chesham Cottage Chinese Restaurant,5,5,0,5,2013-03-21,51.704264,-0.615196
222810,Chesham Moor Gym & Swim,5,0,0,5,2014-08-08,51.702257,-0.616516
222811,Chesham Preparatory School,5,0,0,5,2013-11-12,51.722215,-0.578598
222812,Chesham Stags Rugby Club,5,0,0,5,2011-11-24,51.711054,-0.623716
222813,Chesham Tandoori,4,0,5,10,2013-02-26,51.709198,-0.610428
222814,Chesham United Football Club,4,5,0,10,2013-09-03,51.698962,-0.611639
222815,Chesham Youth Centre,Exempt,nan,nan,nan,2014-07-18,51.707962,-0.613882
222816,Chess Vale Bowling Club,Exempt,nan,nan,nan,2013-12-13,51.718154,-0.622676
222817,Childlink Early Learning Centre,5,0,5,0,2014-12-04,51.615855,-0.551706
222818,Chilli Indian Restaurant,2,15,5,10,2014-04-28,51.674859,-0.607444
222819,Chiltern Farm Food,4,0,0,10,2013-12-13,51.637617,-0.610666
222820,Chiltern Hills Academy,5,5,0,0,2013-10-09,51.711054,-0.623716
222821,Chiltern Nursery,5,0,0,5,2014-06-09,51.594671,-0.556928
222822,Chiltern Open Air Museum Enterprises Ltd Cafe,4,5,5,10,2014-10-21,51.632197,-0.539656
222823,Chiltern Opportunity Playgroup,5,5,5,5,2011-05-31,51.67782,-0.602378
222824,Chiltern Skills and Enterprise Centre,5,0,5,5,2014-03-03,51.71157,-0.601873
222825,Chiltern Way Federation,5,0,0,5,2011-12-08,51.693755,-0.728385
222826,Chiltern Youth Centre,Exempt,nan,nan,nan,2008-12-22,51.676272,-0.602252
222827,Chilterns Montessori School,5,5,5,5,2010-01-21,51.620643,-0.602531
222828,Chimichanga,4,10,5,5,2014-01-30,51.666295,-0.61472
222829,Choice Care Group,5,0,0,0,2014-03-18,51.667948,-0.699522
222830,Chung Ying House,3,5,10,10,2014-12-12,51.605885,-0.562132
222831,Claire's Cake Boutique,4,0,0,10,2013-02-18,,
222832,Classic Caterine,4,10,5,5,2010-03-03,,
222833,Coffee Approach,4,5,5,10,2013-06-19,51.703525,-0.707402
222834,Coleshill Cricket Club,Exempt,nan,nan,nan,2002-04-24,51.653053,-0.623349
222835,Compass Catering UK and Ireland,5,5,0,5,2012-11-09,51.671727,-0.58686
222836,Compass Group,5,5,5,5,2012-11-16,51.667925,-0.563986
222837,Compass Services UK Ltd,4,0,10,5,2013-01-08,51.655369,-0.571857
222838,Confident Computing Limited,Exempt,nan,nan,nan,2011-09-26,51.707528,-0.610624
222839,Convenience Store,2,10,15,10,2014-06-12,51.675001,-0.608018
222840,Co-op,4,10,5,0,2013-03-04,51.699541,-0.739582
222841,Co-op,5,5,5,5,2012-02-28,51.704323,-0.708798
222842,Co-op,5,0,5,5,2014-10-21,51.632898,-0.569558
222843,Coriander Restaurant,5,0,0,0,2013-11-25,51.674716,-0.608215
222844,Cornelli Sugarcraft Specialists,4,0,0,10,2011-08-12,,
222845,Costa,5,0,5,5,2013-05-08,51.677756,-0.60682
222846,Costa Coffee,5,5,5,0,2014-01-07,51.66687,-0.563759
222847,Costa Coffee,2,15,5,10,2014-10-07,51.705228,-0.61233
222848,Costa Coffee,5,0,0,0,2011-12-13,51.666175,-0.611354
222849,Costa Coffee,5,0,5,5,2014-12-31,51.631732,-0.570605
222850,Costcutters,4,0,0,10,2014-01-15,51.721512,-0.61687
222851,Costcutters,3,10,10,10,2014-05-12,51.69944,-0.741958
222852,Country Markets,5,5,5,5,2009-12-08,,
222853,Croft Cottage,5,0,5,5,2014-06-27,51.616627,-0.552346
222854,Crown Inn,5,0,0,0,2013-05-21,51.631605,-0.677126
222855,Crumbs,4,5,5,10,2014-05-20,51.60733,-0.557523
222856,Culwood House Residential Home,5,0,0,5,2011-05-18,51.715496,-0.591055
222857,Cupcakes Joy,3,10,10,10,2014-03-31,,
222858,Cupcakes Of Chalfont,5,5,5,0,2012-06-21,51.667627,-0.552919
222859,Cygnet Catering,4,5,0,10,2011-12-07,51.672489,-0.590408
222860,Daves Snacks,3,5,10,10,2014-02-12,51.673542,-0.585213
222861,Day Nursery Amersham Hospital,5,0,0,0,2012-05-28,51.662957,-0.6214
222862,Daybreak Nurseries,5,0,0,0,2014-03-26,51.676377,-0.603464
222863,Daybreak Nurseries,5,5,5,5,2014-05-19,51.67466,-0.608853
222864,De Vere Venues,5,nan,nan,nan,2014-01-15,51.679413,-0.55561
222865,Deep Mill Diner,3,5,10,10,2013-10-23,51.68588,-0.682778
222866,Delhi Spice,4,10,5,5,2013-08-19,51.606925,-0.557449
222867,Dinky Donuts,5,0,0,0,2013-07-15,,
222868,Dinners For Sinners,5,0,5,5,2002-06-26,,
222869,DJ BBQ Limited,5,0,5,5,2013-08-15,51.642318,-0.574464
222870,Dolce Ltd @ Chestnut School,4,0,10,10,2013-05-07,51.68156,-0.597793
222871,Dominos Pizza,5,5,5,5,2012-11-06,51.677544,-0.606349
222872,Dominos Pizzas,5,0,0,0,2014-12-04,51.606607,-0.560116
222873,Douglas McMinn Centre,5,0,5,0,2011-07-05,51.704076,-0.612235
222874,Dulce @ Elangeni School (lunch Supply),4,0,10,5,2013-05-07,51.682852,-0.596755
222875,Eastern Flavours,3,10,5,10,2014-08-18,51.664704,-0.695639
222876,Education and Youth Services,5,0,0,0,2013-10-21,51.705499,-0.611612
222877,Elephant and Castle,3,10,10,10,2013-10-07,51.667172,-0.618915
222878,Elior Uk Plc,5,5,5,0,2014-05-22,51.613724,-0.576703
222879,Elmtree School,5,0,0,0,2009-12-01,51.711066,-0.617072
222880,Emmanuel Church,5,5,0,5,2014-09-09,51.710531,-0.60907
222881,Euphorium Bakery at Tesco Superstore,4,0,10,10,2014-11-24,51.666175,-0.611354
222882,Everyeventuality,5,5,0,0,2013-01-14,51.677532,-0.597816
222883,Extravaganza Food,4,10,5,5,2012-04-05,,
222884,Farmhouse Pizza,3,10,10,10,2014-05-06,51.707528,-0.610624
222885,Feature Academy,5,5,0,5,2013-09-12,51.632197,-0.539656
222886,Filippetto's,5,0,0,0,2013-04-11,51.66687,-0.563759
222887,Fitches Service Station Ltd,5,5,5,5,2013-05-22,51.701035,-0.611315
222888,Flames and Fries,4,0,5,10,2013-11-12,51.606561,-0.556349
222889,Flexmore Farm,4,5,0,10,2012-11-14,51.637904,-0.585729
222890,Flying Saucers,4,0,5,10,2013-02-18,,
222891,FMY Chemists Ltd,Exempt,nan,nan,nan,2006-10-31,51.704895,-0.613049
222892,For Goodness Cake...,5,5,5,0,2011-10-26,,
222893,Forest View,4,5,5,10,2011-01-21,51.750943,-0.6644
222894,Four Seasons Catering,5,0,0,5,2014-02-06,,
222895,Fox and Hounds,4,10,5,5,2013-08-28,51.632732,-0.572915
222896,Garlicks Chemist,Exempt,nan,nan,nan,2011-01-25,51.703115,-0.613075
222897,Gateway School Limited,5,0,5,0,2011-11-15,51.705893,-0.709318
222898,Gather and Gather Ltd,4,5,5,10,2014-01-23,51.671727,-0.58686
222899,Gayhurst School,5,0,0,0,2013-09-12,51.594514,-0.566144
222900,George Inn Public House,5,5,0,5,2014-03-22,51.607873,-0.555599
222901,Gerrards Cross Golf Club,5,5,5,5,2011-09-13,51.597798,-0.548686
222902,Gerrards Cross Lawn Tennis Club,4,0,10,10,2011-12-06,51.595189,-0.56465
222903,Gerry Martins Butchers,5,0,5,0,2011-09-21,51.704895,-0.613049
222904,Gilbeys Restaurant,5,0,0,5,2014-11-17,51.666565,-0.616244
222905,Gold Hill Baptist Church,5,0,5,5,2014-10-29,51.603077,-0.564127
222906,Gold Hill Housing Association,5,0,0,0,2014-02-27,51.602072,-0.565054
222907,Golden River Takeaway,4,0,10,5,2014-10-17,51.605323,-0.555175
222908,Granby's Drinks Company Ltd,5,0,0,0,2013-08-06,51.614013,-0.596265
222909,Graziemille Restaurant at The Cock and Rabbit,3,10,10,10,2014-10-06,51.7300643921,-0.699593961239
222910,Great Griddler (Trading @ Frith Hill Lay-by Great Missenden),2,15,15,10,2014-03-26,,
222911,Great Missenden Lawn Tennis Club,5,0,0,5,2014-02-19,51.700506,-0.702684
222912,Green Man,5,5,5,5,2009-01-08,51.700182,-0.729782
222913,Greene House,4,0,5,10,2013-02-11,51.621846,-0.550475
222914,Greggs,5,5,0,0,2013-11-08,51.677544,-0.606349
222915,Greggs,5,5,0,5,2012-04-24,51.705228,-0.61233
222916,Guido's Restaurant,5,5,0,5,2012-05-16,51.681696,-0.607726
222917,Gusto Cuisine,4,0,0,10,2014-01-15,,
222918,H Sears and Sons,5,5,0,5,2012-07-05,51.679911,-0.589961
222919,Halls Patisserie,4,0,10,10,2013-12-13,51.607112,-0.55584
222920,Handy Stores,4,5,5,10,2013-05-31,51.604233,-0.566747
222921,Happy Hog Roast,4,10,0,0,2014-06-05,,
222922,Harewood Downs Golf Club (Bar Only),5,5,5,5,2009-02-11,51.655487,-0.580788
222923,Harewood Downs Golf Club Ltd,3,10,5,10,2014-09-15,51.655487,-0.580788
222924,Harris & Hoole,5,0,0,5,2014-10-06,51.677756,-0.60682
222925,Harte and Magpies,4,10,5,5,2013-08-05,51.639297,-0.624228
222926,Hazeldene Farm,4,0,0,10,2013-01-30,51.722465,-0.632187
222927,Hebborns Burger Bars,4,10,0,10,2014-03-19,,
222928,Hedgerow Flat,3,5,10,10,2014-09-11,51.621846,-0.550475
222929,Helen Walker,4,0,0,10,2012-05-30,,
222930,Heritage House School,3,10,5,10,2014-04-29,51.71157,-0.601873
222931,Highclere Farm,5,0,5,0,2014-05-14,51.624826,-0.593663
222932,Hill House Bed and Breakfast,4,0,5,10,2013-03-04,51.687261,-0.596301
222933,Hings Fish and Chips,3,10,5,10,2014-11-20,51.698794,-0.606594
222934,Hollytree Flat,5,0,5,0,2014-09-11,51.621846,-0.550475
222935,Holmer Green Baptist Church,5,0,0,0,2014-04-25,51.667015,-0.690786
222936,Holmer Green First School,5,0,0,0,2011-04-28,51.664168,-0.70404
222937,Holmer Green Fruit,5,0,0,0,2011-08-18,51.664701,-0.694569
222938,Holmer Green Junior School,5,5,5,5,2009-01-21,51.667015,-0.690786
222939,Holmer Green Kebabs,4,10,5,5,2014-03-17,51.664123,-0.695135
222940,Holmer Green Methodist Pre School,5,0,0,0,2010-11-17,51.663968,-0.693346
222941,Holmer Green Royal British Legion Club,Exempt,nan,nan,nan,2014-01-19,51.667948,-0.699522
222942,Holmer Green Sports Association,Exempt,nan,nan,nan,2007-03-26,51.664659,-0.70459
222943,Holmer Green Youth Club,Exempt,nan,nan,nan,2010-02-08,51.66634,-0.698006
222944,Holroyd Howe Independent,5,0,0,0,2011-03-09,51.59735,-0.567108
222945,Horigan Pies,4,5,5,10,2012-11-21,,
222946,Hyde Heath Infant School,5,0,0,0,2012-01-30,51.693706,-0.65454
222947,Hyde Heath Pre School,5,5,0,0,2011-04-28,51.693706,-0.65454
222948,Ice It Right,5,0,0,0,2012-02-22,,
222949,Iceland,5,5,0,0,2011-01-31,51.677756,-0.60682
222950,In The Mix Company,5,0,0,5,2014-02-21,,
222951,Indian Massala,4,10,0,10,2013-12-12,51.721512,-0.61687
222952,Inglenook Catering,5,0,0,5,2014-04-03,,
222953,Innovate Services Limited,2,15,10,10,2014-11-10,51.698649,-0.704676
222954,Innovate Services Ltd,5,5,5,5,2011-12-08,51.66634,-0.698006
222955,Interval,3,5,10,10,2014-01-30,,
222956,Irene Spoor,5,5,5,5,2012-09-18,,
222957,Ivy Stores,4,0,10,5,2013-02-25,51.678365,-0.595274
222958,J and L Mash,4,5,0,10,2013-07-02,51.618229,-0.60743
222959,J P Gleeson,4,10,0,10,2014-01-07,51.641799,-0.693796
222960,Jackie Evans,Exempt,nan,nan,nan,2015-01-19,,
222961,Jane Carty,5,0,5,5,2013-03-04,,
222962,Janet Horton,4,5,10,5,2014-05-02,,
222963,Jasmine Thai Kitchen,4,10,0,10,2014-09-29,51.705228,-0.61233
222964,Jay Newsagents,4,0,0,10,2013-02-25,51.671301,-0.584343
222965,Jeanne Goode Catering,5,5,0,5,2011-03-29,,
222966,JG & BM Newman,4,0,0,10,2013-09-25,51.744726,-0.596925
222967,JM Catering,5,0,5,0,2014-03-31,,
222968,Joannas Cakes,5,0,0,5,2014-04-07,,
222969,Joe's Cafe,3,10,10,5,2014-10-24,51.708836,-0.610164
222970,Jordans Village Nursery,5,5,0,5,2013-04-24,51.614013,-0.596265
222971,Jordans Village Store Ltd,5,5,5,5,2013-02-14,51.614013,-0.596265
222972,Judith Palfreman,5,5,5,5,2011-02-03,,
222973,Just Cakes,4,10,5,5,2012-05-25,,
222974,Just Keep Stirring,5,0,5,5,2012-03-20,,
222975,Just Puddings,5,5,5,5,2013-01-08,,
222976,Kamila's Snack Bar,4,5,5,10,2013-08-27,,
222977,Katsina Bed and Breakfast,5,5,5,5,2013-01-08,51.709515,-0.579792
222978,Katy The Cook.com,4,0,0,10,2013-10-15,,
222979,"Kebab House (Trading @ Chesham Market, High Street, Chesham)",2,15,15,10,2013-06-12,,
222980,Ken's Beijing,3,10,10,10,2013-07-17,51.673195,-0.608088
222981,Kerridge's Kitchen,4,0,10,10,2014-02-28,,
222982,Kings Church,4,0,0,10,2014-02-12,51.674509,-0.587135
222983,Kings Head,3,5,10,10,2013-08-21,51.68763,-0.734835
222984,Kings Roast,4,0,10,10,2014-05-08,51.674509,-0.587135
222985,Kinton Pharmacy,Exempt,nan,nan,nan,2009-01-30,51.703525,-0.707402
222986,Kiosk,5,0,0,5,2013-08-13,51.674716,-0.608215
222987,Knotty Green Cricket Club,Exempt,nan,nan,nan,2007-09-28,51.621706,-0.656598
222988,Kracklin Hog Company Ltd,5,0,0,5,2013-12-18,51.686213,-0.614068
222989,La Baguette,3,10,10,10,2013-11-14,51.675891,-0.607976
222990,La Petite Auberge,4,0,10,0,2014-03-11,51.701563,-0.704781
222991,Lambs Newsagents,4,5,5,10,2013-05-21,51.617808,-0.605363
222992,Lanterns (Bucks Mind),5,0,0,0,2012-04-24,51.603077,-0.564127
222993,Laziza Catering Services,4,10,0,5,2013-07-16,51.71337,-0.609649
222994,Lee Singer,4,5,0,10,2013-04-04,,
222995,Leeside Nursery School,5,5,0,0,2012-03-31,51.727887,-0.682585
222996,Ley Hill Owls,5,0,0,0,2013-04-24,51.709565,-0.571975
222997,Linas,5,0,0,0,2009-09-24,51.671229,-0.56728
222998,Liri Cafe,4,5,5,10,2014-02-13,51.706215,-0.612878
222999,Little Bears Pre School,5,5,5,5,2010-02-11,51.755369,-0.678135
223000,Little Chalfont Primary School,4,10,5,5,2010-04-27,51.667627,-0.552919
223001,Little Cherubs Chesham,5,0,0,5,2014-02-19,51.710583,-0.609662
223002,Little Cravings Catering and Attic By Night,5,0,5,0,2011-10-25,,
223003,Little Dragons Pre School,5,5,5,5,2012-09-18,51.672489,-0.590408
223004,Little Missenden C Of E Infant School,Exempt,nan,nan,nan,2010-03-30,51.682372,-0.671525
223005,Little Oaks Nurseries Ltd,5,5,0,0,2014-10-16,51.631605,-0.677126
223006,Little Scholars Montessori School,Exempt,nan,nan,nan,2014-11-10,51.680499,-0.66251
223007,Little Stanleys Homemade,4,0,0,10,2012-02-13,,
223008,Lloyds Pharmacy,Exempt,nan,nan,nan,2012-03-21,51.631272,-0.57049
223009,Lorraine Brooker (Chesham Bed and Breakfast),5,5,5,5,2014-06-04,51.708146,-0.615757
223010,Lovel End Nursery,5,5,5,5,2012-02-08,51.610837,-0.567767
223011,Lovelly Cakes,5,5,0,0,2013-05-28,,
223012,Lunch Break,5,0,5,5,2011-05-03,51.67782,-0.602378
223013,Lunch Club,4,0,5,10,2013-08-13,51.617021,-0.607987
223014,M F Asian Aroma,5,0,5,5,2014-04-10,,
223015,Madeira Coffee Shop,4,5,10,5,2013-10-15,51.606561,-0.556349
223016,Mans Oriental Cafe,5,5,0,5,2013-03-19,51.666618,-0.61844
223017,Marks & Spencer,5,0,5,5,2010-07-28,51.677544,-0.606349
223018,Martins,5,5,5,5,2010-02-08,51.66687,-0.563759
223019,Maryland Pre School Nursery,4,10,5,5,2009-12-02,51.682684,-0.603819
223020,Master Chef,4,0,10,10,2014-03-05,51.677756,-0.60682
223021,Mayo Bros,4,0,0,10,2013-12-10,51.68316,-0.601476
223022,McColls,5,0,5,0,2014-11-06,51.607112,-0.55584
223023,Meadowcroft Flat,3,10,10,10,2014-09-11,51.621846,-0.550475
223024,Meat At Judds,5,5,5,5,2014-05-09,51.606561,-0.556349
223025,Medirest,5,0,5,0,2013-12-03,51.662957,-0.6214
223026,"Megabite (Trading at Wickes, Townsend Rd, Chesham)",4,0,0,10,2013-10-24,,
223027,Meng House,3,10,5,10,2013-07-30,51.666655,-0.566008
223028,Merlins Cave,3,10,5,10,2014-09-23,51.632247,-0.569303
223029,Metro Piazza,5,5,5,5,2013-03-25,51.606905,-0.558749
223030,Michelle Bunty Patte,5,5,5,5,2012-01-27,,
223031,Micholls House - Balmoral Flat,4,0,10,10,2014-09-29,51.621846,-0.550475
223032,Micholls House - Eden Flat,4,5,10,5,2013-09-03,51.621846,-0.550475
223033,Micholls House - Kew Flat,4,0,0,10,2014-02-25,51.621846,-0.550475
223034,Micholls House - Windsor House,5,0,5,5,2013-09-03,51.621846,-0.550475
223035,Mikes Snack Bar,5,0,0,5,2014-03-14,51.66771,-0.687021
223036,Mile End Farm,5,5,5,5,2012-01-22,51.680155,-0.669434
223037,Milton House,5,0,0,0,2010-09-17,51.621846,-0.550475
223038,Miltons Head,4,5,10,5,2013-09-13,51.63033,-0.575071
223039,Miltons Indian Restaurant,4,0,10,5,2014-06-17,51.630731,-0.572559
223040,Missenden Abbey Ltd,4,10,5,5,2014-06-02,51.700506,-0.702684
223041,Mokarram Brothers,4,10,10,0,2013-09-03,51.713408,-0.608273
223042,Monkey Puzzle Day Nursery,5,5,0,5,2014-10-20,51.701178,-0.615768
223043,Moonraker Preserves,5,0,0,0,2012-09-10,,
223044,Morton House,4,0,5,10,2013-06-26,51.621846,-0.550475
223045,Mr Crusty Sandwich Bar,5,0,0,0,2011-08-09,51.606655,-0.55675
223046,Mr G.A.Orme,4,5,10,5,2012-03-09,51.71056,-0.615351
223047,Mr Poons,3,10,10,10,2014-10-16,51.63194,-0.565513
223048,Mr Simms Olde Sweet Shop,5,0,0,0,2014-01-08,51.706087,-0.611927
223049,Mr Wright And Mrs Wright,Exempt,nan,nan,nan,2010-02-10,51.666286,-0.60788
223050,Mrs Allen,5,5,5,5,2001-11-09,51.664307,-0.599497
223051,Mrs Anne Begley,5,0,0,0,2011-08-31,,
223052,Mrs Betty Wright,5,0,5,5,2011-05-03,,
223053,Mrs Cuthbertson,5,0,5,0,2014-02-17,,
223054,Mrs Felicity Beynon,5,5,0,0,2011-08-31,,
223055,Mrs M Crowshaw,4,5,5,10,2011-07-06,,
223056,Mrs N Hurley,4,0,0,10,2013-08-02,51.668535,-0.601145
223057,Mrs Sheila Johnson,Exempt,nan,nan,nan,2002-03-22,51.607279,-0.562853
223058,Mrs Teresa Watson,5,5,5,5,2012-05-14,,
223059,Mulberry Court,5,5,0,0,2014-07-31,51.603977,-0.561976
223060,N Stirrett Butchers,5,5,5,5,2014-03-28,51.69944,-0.741958
223061,Nautica,5,0,5,5,2013-05-29,51.675891,-0.607976
223062,New Akash,1,15,10,20,2014-03-17,51.702382,-0.706451
223063,New International,2,15,15,10,2013-11-27,51.707528,-0.610624
223064,New Town News,4,5,0,10,2013-05-20,51.712194,-0.608295
223065,Newburys Greengrocers,4,10,5,5,2010-12-02,51.678623,-0.605607
223066,Newtown Early Years and Infant School,3,10,5,10,2014-07-14,51.713526,-0.607574
223067,Newtown Neighbours (luncheon Meeting),5,0,0,5,2013-03-07,51.713526,-0.607574
223068,Nikki's Cakes,4,0,0,10,2013-02-18,,
223069,Northend Playgroup,5,5,5,5,2013-01-08,51.713526,-0.607574
223070,Nortons Farm,3,10,10,10,2014-06-09,,
223071,Not Fridays,5,0,0,0,2014-10-14,,
223072,Nuts N Tings,5,0,0,0,2014-11-12,51.722465,-0.632187
223073,Oakland Park Golf Club,5,0,5,5,2013-12-20,51.626196,-0.587914
223074,Old Amersham Sweet Shop,4,10,0,5,2013-08-20,51.666233,-0.616327
223075,Old MacDonald's Day Nursery Ltd.,5,5,0,5,2014-05-21,51.686377,-0.55669
223076,Olga Johnson,4,0,5,10,2014-01-29,51.619306,-0.547913
223077,Origins,3,10,10,10,2014-02-03,51.702831,-0.706453
223078,Our Ladys Catholic Primary School,5,0,0,5,2014-01-23,51.690303,-0.614667
223079,Out Of School Club,4,0,5,10,2012-09-27,51.669342,-0.619167
223080,Ozzy's Coffee House,2,10,15,10,2014-08-22,51.666601,-0.565257
223081,P E M Newsagents,Exempt,nan,nan,nan,2012-03-12,51.699498,-0.734765
223082,PACCAR Scout Camp,Exempt,nan,nan,nan,2011-08-16,51.610406,-0.545179
223083,Painted Barn Tea & Vintage,3,10,5,10,2014-09-18,51.722465,-0.632187
223084,Papad,4,0,5,10,2014-03-25,51.710531,-0.60907
223085,Pathila Tandoori and Pappa's Pizza,5,nan,nan,nan,2014-04-15,51.69944,-0.741958
223086,Patty Cakes Chesham,4,5,0,10,2014-02-24,,
223087,Penn and Tylers Green Sports and Social Club,4,10,0,5,2012-03-22,51.635602,-0.690361
223088,Penn Street and Holmer Green PCC,Exempt,nan,nan,nan,2006-03-30,51.669281,-0.691632
223089,Peri Peri Original,1,15,10,20,2014-09-02,51.703841,-0.613602
223090,Peterley Manor Farm Shop,5,5,0,0,2014-01-22,51.68667,-0.727556
223091,Pippin Bucks MIND,5,0,0,0,2014-03-31,51.699117,-0.738624
223092,Pizza Express,4,10,5,5,2014-11-17,51.677544,-0.606349
223093,Pizza Express Summer On Tour,5,0,0,0,2014-07-21,51.642318,-0.574464
223094,Pizza Go Go,5,5,0,5,2014-10-02,51.707528,-0.610624
223095,Playmates Nursery,5,0,0,5,2013-11-21,51.664168,-0.70404
223096,Polish Ex-servicemen's Club,5,5,5,5,2008-08-07,51.674509,-0.587135
223097,Poppins,4,5,5,10,2014-05-06,51.704398,-0.612862
223098,Porkie Pig,5,0,0,0,2011-11-30,,
223099,Potdeli @ Great Missenden Station,4,10,0,10,2014-01-15,,
223100,Prestwood Food Store,5,5,0,5,2014-01-22,51.695221,-0.737503
223101,Prestwood Infant School (breakfast and After School Club),5,5,5,0,2010-02-11,51.703366,-0.739114
223102,Prestwood Plaice,4,0,10,0,2013-12-18,51.69944,-0.741958
223103,Prestwood Pre School Group,Exempt,nan,nan,nan,2014-01-31,51.68763,-0.734835
223104,Prezzo,5,0,5,0,2011-10-25,51.665764,-0.616153
223105,Queen Elizabeth House,5,5,5,5,2012-02-24,51.621846,-0.550475
223106,Quickstop,5,0,0,5,2014-01-07,51.616453,-0.552077
223107,R M Terry Newsagents,4,0,10,10,2013-03-28,51.678623,-0.605607
223108,Raffety,5,5,5,5,2012-01-17,51.715924,-0.696757
223109,Raj Darbar Restaurant,3,5,10,10,2013-12-13,51.606607,-0.560116
223110,Raj Gate,3,10,10,10,2014-10-20,51.666021,-0.615104
223111,Rajasthan,3,10,5,10,2014-08-15,51.707175,-0.611185
223112,Rayners (Extra Care Home) Ltd,5,0,5,0,2012-02-09,51.692749,-0.653396
223113,Reach,4,5,5,10,2014-07-03,51.717781,-0.607038
223114,Rebecca's Delicatessen,5,0,0,5,2014-07-01,51.618229,-0.60743
223115,Rectory Hill Pre School,5,5,5,5,2010-01-21,51.67199,-0.613461
223116,Reel To Reel,5,5,5,5,2013-09-27,,
223117,Religious Society Of Friends,Exempt,nan,nan,nan,2004-03-23,51.609617,-0.594061
223118,Rex Bakery Ltd,4,10,0,10,2013-07-23,,
223119,Robertswood School,4,5,10,5,2012-04-04,51.613406,-0.545646
223120,Rocca,2,15,0,5,2014-01-06,51.709198,-0.610428
223121,Roundwood Stores,4,0,0,10,2013-02-25,51.677819,-0.590937
223122,Royal British Legion Club Ltd (Amersham On The Hill),Exempt,nan,nan,nan,2011-11-10,51.676393,-0.600281
223123,Royal Standard Of England,4,10,0,10,2014-02-12,51.617187,-0.66482
223124,Rucola Italian Restaurant,5,5,5,5,2014-01-15,51.667301,-0.562199
223125,Rumbles Pantry,5,5,0,0,2014-11-07,51.70395,-0.613744
223126,Rushymead Residential Care Home,3,5,10,10,2014-07-14,51.651035,-0.619218
223127,Rustica,4,0,0,10,2014-01-31,,
223128,Sainsburys,5,0,0,0,2012-07-30,51.707559,-0.611737
223129,Sainsbury's,5,0,0,0,2014-06-02,51.698663,-0.742414
223130,Sally Ali,3,10,10,10,2011-02-08,,
223131,Samways News,5,5,5,5,2009-06-09,51.704323,-0.708798
223132,Santha Services,5,0,5,5,2013-01-08,51.700056,-0.610607
223133,Santhi,3,10,5,10,2013-10-30,51.675891,-0.607976
223134,Seasons Cafe @ Rowan,4,0,10,5,2013-04-17,51.632197,-0.539656
223135,Seasons Cafe Deli,3,10,10,10,2014-09-08,51.666233,-0.616327
223136,Seasons Catering Co. Ltd.,5,0,0,5,2014-04-25,51.710402,-0.611824
223137,Seaworld Fish and Chips,3,5,10,10,2014-05-14,51.666601,-0.565257
223138,Seeleys House Day Service,5,5,0,5,2014-12-16,51.61966,-0.653047
223139,Seeleys House Respite Centre,5,0,5,0,2012-11-29,51.61966,-0.653047
223140,Seer Green Preschool,5,0,0,0,2014-03-26,51.613701,-0.606283
223141,Shahins,3,10,10,10,2014-08-07,51.666655,-0.566008
223142,Shangri La,3,10,10,5,2013-05-22,51.710583,-0.609662
223143,Shell Missenden,5,0,0,0,2011-12-06,51.68588,-0.682778
223144,Shire Lane Cakes,5,0,5,5,2011-04-14,,
223145,Sinnful American Homemade Pies,4,0,0,10,2010-12-07,,
223146,Sophies Chocolates,4,0,5,10,2012-03-29,51.706596,-0.6132
223147,South Hill Fish and Chips,5,0,5,0,2014-03-04,51.664123,-0.695135
223148,Southernwood,4,5,5,10,2012-05-14,51.674113,-0.591616
223149,Spar,5,0,0,0,2011-08-31,51.664123,-0.695135
223150,Spice,5,0,0,5,2011-12-20,51.606905,-0.558749
223151,Spice Society,4,5,10,5,2013-06-05,51.665263,-0.617151
223152,Splendiferous,4,0,0,10,2012-03-01,,
223153,St Catherins,5,5,5,5,2009-10-06,51.680212,-0.600858
223154,St Josephs Pre School,4,5,10,5,2014-11-24,51.599927,-0.56463
223155,St Josephs Roman Catholic Combined School,5,0,0,5,2012-12-03,51.599927,-0.56463
223156,St Marys C E Primary School,5,0,5,0,2012-03-26,51.669342,-0.619167
223157,St Marys Pre School (Chesham),5,5,5,5,2010-06-29,51.703783,-0.615587
223158,St Michaels and All Angels Church and Hall,Exempt,nan,nan,nan,2010-03-15,51.677544,-0.606349
223159,St Peters News,4,0,10,10,2014-03-18,51.606905,-0.558749
223160,Star Bakes,4,0,5,10,2013-09-25,,
223161,Stardust Cakes,5,5,5,5,2010-10-20,,
223162,Stepping Stones Nursery,3,10,10,10,2014-06-16,51.671502,-0.644829
223163,Stony Dean School,4,5,0,10,2014-10-09,51.669753,-0.587934
223164,Stratton Bakery,5,0,0,5,2013-12-13,51.606905,-0.558749
223165,Stratton Bakery,4,10,5,5,2014-01-02,51.631272,-0.57049
223166,Subway,5,0,0,0,2013-10-09,51.675001,-0.608018
223167,Sukhothai,3,10,5,10,2013-12-20,51.702382,-0.706451
223168,Sunday Lunches at Royal British Legion - Holmer Green,3,10,10,10,2014-01-19,51.668252,-0.698588
223169,Sunrise Fish and Chips,4,10,0,5,2013-08-27,51.606399,-0.560802
223170,Superb Kebabs,3,10,5,10,2013-06-10,51.675891,-0.607976
223171,T A Robertson,5,5,5,5,2013-08-01,51.66687,-0.563759
223172,Teddies Chesham Bois,4,0,0,10,2014-06-06,51.693259,-0.603103
223173,Tesco,5,5,0,0,2011-09-15,51.666175,-0.611354
223174,Tesco Express,5,5,5,5,2012-02-09,51.66687,-0.563759
223175,Tesco Express,5,5,0,5,2010-02-11,51.613897,-0.556304
223176,Tesco Express,5,0,5,0,2011-06-01,51.674587,-0.607973
223177,Thai at Queen's Head,4,0,10,10,2014-08-13,51.703098,-0.616939
223178,The Abbeyfield Chalfonts Society Limited,4,0,0,10,2012-04-24,51.6005,-0.560728
223179,The Abbeyfield Society,5,5,5,0,2014-01-27,51.678082,-0.586677
223180,The Artichoke,5,0,5,0,2011-09-15,51.666565,-0.616244
223181,The Bat and Ball,5,5,5,5,2012-08-09,51.668646,-0.68951
223182,The Bedford Arms Hotel,2,10,15,10,2014-08-27,51.673368,-0.527196
223183,The Bell Public House,3,10,10,10,2013-09-20,51.72339,-0.648403
223184,The Bellcote,5,0,0,0,2014-09-22,51.726649,-0.596645
223185,The Black Cat,5,0,0,5,2011-11-24,51.720459,-0.58731
223186,The Black Horse,5,0,0,0,2012-05-14,51.710315,-0.712405
223187,The Blue Ball Public House,5,0,0,5,2014-07-16,51.732735,-0.644026
223188,The Chalfonts Community College,5,0,5,5,2014-02-25,51.609842,-0.570224
223189,The Chatgaon Indian Cuisine,5,0,0,5,2014-10-06,51.710583,-0.609662
223190,The Chequers,4,0,10,10,2014-10-13,51.664586,-0.607036
223191,The Collection,3,10,10,10,2013-12-03,51.68316,-0.601476
223192,The Croft Residential Home,4,10,0,10,2013-12-12,51.680142,-0.596521
223193,The Cross Keys,1,15,15,20,2013-12-09,51.703525,-0.707402
223194,The Crown,3,10,10,10,2013-08-19,51.707357,-0.569367
223195,The Crown Inn,4,5,10,0,2013-01-16,51.666275,-0.616817
223196,The Crown Public House,5,0,0,5,2014-11-17,51.68146,-0.664854
223197,The Deli,3,5,10,10,2014-08-12,51.632247,-0.569303
223198,The Drawing Room,2,15,5,10,2014-03-26,51.704076,-0.612235
223199,The Eagle,3,10,10,10,2014-03-26,51.667584,-0.620334
223200,The Earl Howe,2,15,10,10,2014-09-29,51.663688,-0.6924
223201,The Feathers,5,5,5,5,2012-04-04,51.631732,-0.570606
223202,The Flying Tea Parlour Limited,4,5,5,10,2012-11-13,51.691961,-0.601291
223203,The Friends Centre,5,5,5,5,2014-05-14,51.632197,-0.539656
223204,The Full Moon,4,0,5,10,2014-01-20,51.7527999878,-0.643469154835
223205,The Full Moon Public House,5,5,5,5,2014-09-22,51.683736,-0.709977
223206,The Gamekeepers Lodge,5,0,0,0,2013-01-08,51.711843,-0.613531
223207,The George and Dragon,3,5,10,10,2011-08-03,51.704895,-0.613049
223208,The Golden Eagle,4,5,10,5,2014-08-27,51.738521,-0.587066
223209,The Greyhound Inn,4,5,10,5,2014-09-11,51.607429,-0.55674
223210,The Grocer at 15,3,10,10,5,2014-06-19,51.666295,-0.61472
223211,The Grocer at 91,4,0,10,10,2013-04-10,51.667172,-0.618915
223212,The Hen and Chickens,3,10,5,10,2014-03-26,51.709319,-0.592593
223213,The Hidden Tea Shop,4,5,0,10,2014-08-20,51.667301,-0.562199
223214,The Hit Or Miss Inn,5,0,5,5,2014-03-04,51.653648,-0.66716
223215,The Hyde Heath Village Shop Ltd,4,0,5,10,2011-03-22,51.693688,-0.655249
223216,The Ivy House,3,10,10,10,2014-09-01,51.649768,-0.578567
223217,The Jolly Cricketers,3,5,10,10,2014-09-08,51.617808,-0.605363
223218,The Jolly Sportsman,4,5,5,10,2014-08-18,51.710857,-0.607714
223219,The Kings Arms,3,nan,nan,nan,2014-06-16,51.666618,-0.61844
223220,The Limes Coffee Shop,4,10,5,5,2014-07-07,51.68763,-0.734835
223221,The Little Orchard,4,5,5,10,2014-10-09,51.70512,-0.613086
223222,The Lop Eared Pig  Or Duende,5,0,0,5,2014-07-03,,
223223,The Misty Moon,3,10,5,10,2014-02-11,51.706087,-0.611927
223224,The Myrtle Tree,5,0,0,0,2010-12-14,51.606905,-0.558749
223225,The Nags Head,4,5,10,5,2013-09-02,51.693578,-0.69818
223226,The Old Swan,4,5,0,10,2013-04-25,51.741157,-0.695379
223227,The Olde Post House,5,5,5,5,2012-09-26,51.632898,-0.569558
223228,The Pantry,4,5,5,10,2014-05-12,51.704323,-0.708798
223229,The Perfect Retreat,4,5,5,10,2014-06-12,51.706824,-0.61189
223230,The Pheasant,5,0,0,0,2010-10-25,51.6961860657,-0.603591859341
223231,The Plough,2,5,15,10,2014-09-17,51.645805,-0.652807
223232,The Plough Public House,3,10,5,10,2013-12-16,51.693706,-0.65454
223233,The Polecat Inn,5,5,0,5,2014-09-22,51.68763,-0.734835
223234,The Pomeroy Inn,4,10,5,5,2012-02-23,51.670601,-0.582195
223235,The Potters Arms,2,10,15,10,2014-06-16,51.644907,-0.652877
223236,The Queens Head,5,5,5,5,2012-07-19,51.703098,-0.616939
223237,The Red Lion,3,10,10,10,2013-06-26,51.6718292236,-0.524252414703
223238,The Red Lion,4,5,0,10,2013-12-18,51.635602,-0.690361
223239,The Red Lion,5,5,0,5,2014-03-13,51.646568,-0.630916
223240,The Red Lion,4,0,10,5,2014-01-13,51.703115,-0.613075
223241,The Red Lion Public House,5,0,0,5,2013-12-18,51.62372,-0.656581
223242,The Red Lion Public House,2,15,10,10,2013-09-18,51.681812,-0.667274
223243,The Robert Brown Green,5,5,5,5,2010-11-01,51.596898,-0.563975
223244,The Royal Voluntary Services Coffee Shop,5,0,0,0,2014-07-01,51.662957,-0.6214
223245,The Saracens Head Inn,3,10,10,10,2014-04-28,51.680155,-0.669434
223246,The School On The Green,5,5,5,5,2012-01-30,51.653648,-0.66716
223247,The Sir William Gower Assessment Centre,5,0,0,0,2012-01-26,51.621846,-0.550475
223248,The Squirrel,4,10,0,5,2014-09-11,51.653648,-0.66716
223249,The Stay and Play,4,10,0,10,2014-03-04,51.70512,-0.613086
223250,The Sugar Loaf Inn,4,10,0,10,2013-02-22,51.667745,-0.562474
223251,The Swan,5,0,5,5,2012-02-15,51.706771,-0.568517
223252,The Swan,5,5,0,0,2011-09-06,51.667322,-0.621745
223253,The Three Oaks,2,10,15,10,2014-08-01,51.597531,-0.556938
223254,The Venture Hall,Exempt,nan,nan,nan,2003-08-13,51.620474,-0.601164
223255,The Village Chippy (Traditional Foods Ltd),4,10,5,0,2014-08-05,51.628032,-0.584274
223256,The Village Hall,5,5,0,0,2013-08-19,51.603239,-0.565638
223257,The White Hart,5,0,0,0,2012-10-31,51.606655,-0.55675
223258,The White Hart,4,10,5,5,2014-06-18,51.726264,-0.554494
223259,The White Hart,4,10,5,5,2013-08-05,51.628836,-0.583873
223260,The White Rose Cake Company,5,5,5,5,2011-09-15,,
223261,The Wild Kitchen,5,0,0,5,2014-05-27,,
223262,The Willow,5,0,0,0,2011-09-20,51.711054,-0.623716
223263,Thomas Franks Ltd,5,0,5,0,2011-02-16,51.624914,-0.59876
223264,Thomas Harding Junior School,5,0,0,0,2014-09-08,51.701178,-0.615768
223265,Thorpe House School,5,0,0,5,2013-10-10,51.594994,-0.556874
223266,Timo's Potatoes,5,5,0,5,2014-06-04,51.697526,-0.603507
223267,Tom Yum Thai Restaurant,4,10,5,5,2014-03-20,51.678623,-0.605607
223268,Tonys Catering,4,0,10,10,2014-02-05,51.670315,-0.568972
223269,Tristana's Treats,5,0,0,0,2012-06-01,,
223270,Truly Scrumptious,4,10,0,0,2014-05-06,51.707175,-0.611185
223271,Truly Scrumptious,5,0,5,5,2014-02-19,,
223272,TS One Stop Shop,5,0,0,5,2011-04-29,51.672144,-0.588611
223273,Utterly Delicious Cakes,5,0,5,5,2011-06-15,,
223274,Van Hage Garden Centre Ltd,5,5,5,5,2011-12-28,51.670979,-0.528821
223275,Vietnam Eats,4,0,10,10,2014-06-09,51.711843,-0.613531
223276,Village Centre Pre-School Nursery,5,0,5,5,2010-10-05,51.668096,-0.692591
223277,Village Mangal,4,0,0,10,2013-07-15,51.674859,-0.607444
223278,Village Wine,Exempt,nan,nan,nan,2011-02-16,51.66687,-0.563759
223279,V's Kitchen,3,5,10,10,2014-01-21,51.665934,-0.615309
223280,W & M Stevens,5,5,5,5,2013-05-02,51.664704,-0.695639
223281,Waffle House,4,5,5,10,2014-02-14,51.699818,-0.608024
223282,Waitrose,5,5,5,0,2014-08-18,51.677544,-0.606349
223283,Waitrose Ltd,5,5,5,0,2014-08-18,51.707011,-0.611031
223284,Ward Kitchens (only Fridges For Patients Drinks),4,0,0,10,2013-12-03,51.662957,-0.6214
223285,Warners,3,10,10,10,2013-10-02,51.631272,-0.57049
223286,Waterside County Combined School,5,5,5,0,2012-02-27,51.695104,-0.599429
223287,Waterside News,5,5,0,5,2011-09-21,51.701198,-0.609834
223288,Wendy's Kitchen,5,0,0,0,2013-04-29,,
223289,Wesley Hall,5,0,0,0,2012-01-12,51.707962,-0.613882
223290,White Hill House,5,5,0,5,2014-07-31,51.708912,-0.605197
223291,White Hill Pre School,5,0,5,5,2011-08-18,51.706304,-0.609735
223292,White Lion Amersham,2,15,10,10,2014-04-09,51.668275,-0.579448
223293,Whitewebbs Bed and Breakfast,5,5,5,0,2012-02-06,51.606655,-0.55675
223294,Who Ate The Cake,5,5,0,0,2012-09-09,,
223295,Wild Strawberry Cafe,4,0,10,10,2014-07-22,51.68667,-0.727556
223296,Wilson Vale,5,nan,nan,nan,2014-09-15,51.687652,-0.614849
223297,Wimpy,4,0,0,10,2014-03-19,51.678623,-0.605607
223298,Winchmore Hill Cricket Club,Exempt,nan,nan,nan,2008-12-22,51.647247,-0.66492
223299,Winkers Farm Country Club,Exempt,nan,nan,nan,2008-08-05,51.610406,-0.545179
223300,Woodlands Day Nursery,5,5,5,5,2010-12-09,51.68156,-0.597793
223301,Woodlands Park Care Centre,5,0,5,5,2013-12-12,51.721505,-0.720209
223302,Woodrow High House Sodexo,5,0,0,0,2012-11-28,51.660451,-0.651823
223303,Woodside Flat,5,5,0,5,2014-09-12,51.621846,-0.550475
223304,Zorans Bakery,1,5,15,20,2013-11-13,51.69967,-0.740693
