,businessname,ratingvalue,structural,hygiene,confidenceinmanagement,ratingdate,latitude,longitude
62873,2 Little Cupcakes,5,0,0,5,2014-05-20,,
62874,A Sweet Message,5,5,5,5,2013-07-22,,
62875,A W Curtis & Sons Ltd,5,5,5,5,2014-02-03,53.240333,-0.556805
62876,A W Curtis Bakers & Butchers,4,5,5,10,2014-02-12,53.240333,-0.556805
62877,A W Curtis Bakers & Butchers,4,5,5,10,2014-02-12,53.240333,-0.556805
62878,A W Curtis Bakers & Butchers,5,0,0,0,2014-02-12,53.240333,-0.556805
62879,Abbey Pre School,4,10,0,5,2015-01-06,53.229087,-0.53176
62880,Acts Trust,5,5,5,5,2013-08-09,53.225064,-0.540901
62881,Adam & Eve,5,5,0,5,2014-05-07,53.233239,-0.532367
62882,Admiral Guest House,5,0,5,0,2012-11-09,53.232089,-0.55079
62883,Agra,4,5,5,10,2014-02-18,53.250608,-0.516454
62884,Aldi,5,0,0,0,2012-01-17,53.241147,-0.514039
62885,Aldi,5,0,0,0,2014-10-31,,
62886,Alexanders,5,0,0,5,2013-07-02,53.24806,-0.506066
62887,Allied Bakeries,Exempt,nan,nan,nan,2012-10-08,53.200738,-0.592449
62888,Altham Court Nursing Home,5,0,0,0,2013-12-16,53.213505,-0.551357
62889,American Fried Chicken,5,5,5,5,2014-08-11,53.222983,-0.543458
62890,Ancaster Day Centre,5,0,0,0,2013-08-29,53.209718,-0.551874
62891,Anglian Water Services Limited,5,0,0,0,2014-03-19,53.225774,-0.527709
62892,Ann Summers,Exempt,nan,nan,nan,2013-04-29,53.228851,-0.540352
62893,Arboretum Corner,5,0,0,0,2015-01-05,53.230817,-0.529888
62894,Argos,Exempt,nan,nan,nan,2014-09-08,53.242437,-0.500717
62895,Argos Limited,Exempt,nan,nan,nan,2013-01-10,53.225047,-0.543163
62896,Asda Living,Exempt,nan,nan,nan,2014-10-29,53.222508,-0.55691
62897,Asda Supermarket,5,5,5,0,2013-06-12,53.250608,-0.516454
62898,Ashley Court Care Home,5,5,5,0,2013-08-13,53.209398,-0.552903
62899,Asia Garden,3,10,10,10,2014-02-13,53.241147,-0.514039
62900,Ask Restaurant,4,10,5,0,2014-02-05,53.229801,-0.546732
62901,Autograph the Food People,5,5,5,5,2014-04-14,53.227372,-0.559218
62902,B & M Homestore,Exempt,nan,nan,nan,2012-03-21,53.209258,-0.57489
62903,Back of the Net,5,0,0,5,2013-09-12,53.220267,-0.539716
62904,Baggholme Fish & Chip Shop,3,10,10,10,2014-03-28,53.228742,-0.530034
62905,Bailgate Post Office,Exempt,nan,nan,nan,2014-02-14,53.234909,-0.538798
62906,Bake Your Day,5,0,0,0,2013-12-03,,
62907,Baked By Eileen,5,0,0,5,2012-01-26,53.241595,-0.536457
62908,Baked Potato Stall,1,5,10,20,2013-09-16,53.227437,-0.538663
62909,Baltic Food,3,10,10,10,2013-04-10,53.218113,-0.545121
62910,Banks Takeaway,3,10,10,10,2014-07-07,53.227437,-0.538663
62911,Bar Unico,5,0,5,5,2014-02-19,53.228012,-0.541564
62912,Bargain Booze,4,5,0,10,2013-01-29,53.219777,-0.599973
62913,Bargain Food & Wine,4,10,0,10,2013-01-14,53.230827,-0.530712
62914,Bargain Food & Wine,4,5,5,10,2014-05-28,53.207274,-0.550504
62915,Baxter Storey (Homelet),5,5,0,0,2014-04-15,53.229525,-0.558022
62916,Beauty Secrets,Exempt,nan,nan,nan,2007-07-04,53.221203,-0.544237
62917,Bella Paella,5,0,0,5,2013-02-06,53.216869,-0.590528
62918,Bellamys Butchers Ltd,5,5,5,5,2013-10-22,53.251423,-0.53146
62919,Bells Tea & Coffee House,5,5,0,5,2014-02-24,53.233937,-0.538696
62920,Benefit Agency,5,0,5,5,2013-04-12,53.231878,-0.544579
62921,Bentleys,5,5,5,5,2013-08-15,53.250608,-0.516454
62922,Bernadette House,5,5,0,5,2014-02-10,53.214235,-0.544084
62923,Best Kebab House,4,5,5,10,2013-11-26,53.223875,-0.543622
62924,BHS,4,5,10,0,2014-04-02,53.227865,-0.541285
62925,BHS,Exempt,nan,nan,nan,2012-11-09,53.22525,-0.547995
62926,Bigger of Bailgate Ltd,Exempt,nan,nan,nan,2012-06-21,53.236363,-0.538598
62927,Birchwood Colts Junior Football Club,5,5,5,5,2014-03-16,53.224356,-0.602595
62928,Birchwood Fish Bar,5,5,5,5,2014-02-12,53.215272,-0.605317
62929,Birchwood Junior School,5,0,0,0,2013-12-16,53.21703,-0.604211
62930,Birchwood Leisure Centre,Exempt,nan,nan,nan,2014-08-07,53.217083,-0.601768
62931,Birchwood Methodist Church Hall,5,0,0,0,2012-10-16,53.217083,-0.601768
62932,Birchwood Social Club,3,10,10,5,2013-03-19,53.217083,-0.601768
62933,Birchwood Youth Centre,5,0,0,5,2013-03-28,53.219777,-0.599973
62934,Bishop Grosseteste University,5,0,5,0,2013-02-22,53.244023,-0.53573
62935,Bishop King School,5,5,5,5,2013-01-14,53.219265,-0.534987
62936,Black Peppermint Food Company,5,0,5,5,2013-07-01,53.23896,-0.513845
62937,Blacks,Exempt,nan,nan,nan,2013-10-11,53.230073,-0.540341
62938,BMI Lincoln,5,5,0,0,2014-09-25,53.237944,-0.533375
62939,Bombay Restaurant,4,5,5,10,2013-10-10,53.231902,-0.53917
62940,Bonbonbouche,3,5,10,10,2013-09-02,53.232992,-0.538608
62941,Book & Latte Cafe,5,0,5,5,2013-01-15,53.226574,-0.543815
62942,Booker Cash & Carry,5,5,0,0,2014-03-27,53.203577,-0.609934
62943,Boots Pharmacy,5,5,5,5,2013-01-10,53.215618,-0.60562
62944,Boots the Chemist,Exempt,nan,nan,nan,2012-11-15,53.2415,-0.507703
62945,Boots The Chemists,5,0,0,0,2013-01-04,53.227881,-0.54043
62946,Boots The Chemists Limited,5,5,5,5,2012-11-16,53.224764,-0.543592
62947,Boultham Park House,5,5,0,5,2013-08-20,53.208657,-0.561523
62948,Boultham Park Takeaway,5,0,5,5,2013-07-09,53.21532,-0.555699
62949,Bracebridge Cafe,5,5,5,5,2014-01-07,53.205408,-0.550822
62950,Bracebridge Community Centre,Exempt,nan,nan,nan,2013-06-07,53.20298,-0.550035
62951,Bracebridge Infant School,5,0,0,5,2014-04-28,53.205658,-0.549975
62952,Bracebridge Mini Market,4,0,0,10,2012-06-25,53.204229,-0.55143
62953,Brantley Manor Residential Care Home,5,5,0,0,2014-06-08,53.198456,-0.552059
62954,Brayford Guest House,5,0,0,5,2014-03-17,53.232117,-0.552407
62955,Bridge Church Lincoln,5,5,0,5,2013-10-22,53.209087,-0.549514
62956,Browns Pie Shop,5,5,5,5,2014-08-19,53.233937,-0.538696
62957,BT Call Centre,5,0,5,5,2013-05-13,53.288454,-0.648974
62958,Bubbles,5,5,5,5,2014-05-09,53.216955,-0.556393
62959,Bubbles Breakfast Club,5,5,5,5,2014-06-30,53.195252,-0.568843
62960,Bubbles Day Nursery,5,5,5,5,2014-06-30,53.191739,-0.572058
62961,Bunkers Hill Care Home,5,5,5,5,2014-08-12,53.243319,-0.505856
62962,Bunty's Tea Room,5,0,5,5,2013-09-12,53.232992,-0.538608
62963,Burger King,5,0,0,0,2014-04-07,53.225062,-0.54881
62964,Burger King,5,5,0,5,2014-02-07,53.228776,-0.539396
62965,Burton Pizza House,4,0,5,10,2014-04-14,53.239395,-0.545433
62966,Burton Road Fish & Chips Restaurant & Takeaway,5,0,0,0,2013-01-17,53.240003,-0.545892
62967,Burton Spice,5,0,5,5,2014-05-20,53.239051,-0.544501
62968,Busy Bees Nursery,5,5,0,5,2014-04-14,53.223691,-0.541082
62969,Buttercup Cakes,5,5,0,5,2014-05-14,,
62970,Butty Boy,5,5,0,0,2013-04-30,53.229557,-0.542216
62971,C J Butchers,5,5,0,0,2014-03-26,53.202594,-0.610415
62972,Cactus,2,5,15,10,2014-03-19,53.218113,-0.545121
62973,Cafe 42,4,5,5,10,2014-07-11,53.230827,-0.530712
62974,Cafe 44,5,5,0,5,2013-05-03,53.227437,-0.538663
62975,Cafe Bistro,5,0,5,5,2014-06-16,53.228843,-0.549251
62976,Cafe Delight /Delight Kebab,3,5,10,10,2014-03-06,53.158665,-0.580127
62977,Cafe Express,5,0,0,0,2014-01-13,53.226097,-0.539397
62978,Cafe M,4,0,10,10,2014-03-21,53.225047,-0.543163
62979,Cafe Portico,5,5,0,5,2012-11-06,53.23136,-0.5382
62980,Cafe Ritazza,5,0,0,0,2014-11-06,53.222508,-0.55691
62981,Cafe Zest in House of Fraser,4,10,5,5,2013-11-20,53.229822,-0.540379
62982,Cafe Zoot,5,5,0,5,2014-02-14,53.234909,-0.538798
62983,Caffe Italiano,4,0,10,10,2014-02-07,53.228776,-0.539396
62984,Caffe Nero,4,10,0,0,2014-04-02,53.23005,-0.539877
62985,Caffe Nero,4,10,0,5,2013-01-29,53.227647,-0.539629
62986,Caffe Pausa (Dunelm Mill),5,0,0,0,2013-03-08,53.242094,-0.500594
62987,Cake It Or Leave It,5,0,0,5,2013-06-18,,
62988,Cake Stall,5,5,0,0,2012-07-26,,
62989,Cakes By Zoe Lincoln,5,0,0,0,2014-04-30,,
62990,Caldo Pizza,5,5,5,5,2014-04-02,53.220472,-0.602572
62991,Candy News,4,5,5,10,2014-08-06,53.226903,-0.539834
62992,Canwick Court Care Home,5,0,0,0,2014-09-10,53.217678,-0.53531
62993,Capri Pizza House,5,5,5,5,2013-11-06,53.230391,-0.540555
62994,Card Factory,5,5,5,5,2012-05-09,53.226083,-0.542589
62995,Card Factory,5,5,5,5,2012-05-09,53.227647,-0.539629
62996,Care Home,5,0,0,5,2014-07-18,53.220741,-0.542411
62997,Carholme Childrens Centre,5,0,0,0,2012-02-28,53.234323,-0.554145
62998,Carholme Food & Wine,4,5,5,10,2014-10-30,53.231677,-0.552422
62999,Carholme Golf Club,5,5,5,5,2014-09-09,53.233937,-0.560166
63000,Carholme Guest House,5,0,0,5,2013-06-06,53.233433,-0.556363
63001,Carholme News,5,5,5,5,2014-07-01,53.230933,-0.548926
63002,Carline Guest House,5,5,0,0,2012-02-13,53.236138,-0.547387
63003,Carlton Day Nursery,4,5,10,5,2013-12-17,53.2415,-0.507703
63004,Carluccio's,5,5,0,0,2013-04-03,53.230073,-0.540341
63005,Caroline Mitchell Cakes,5,0,0,0,2014-04-02,,
63006,Carousel,5,0,0,5,2014-01-17,53.233937,-0.538696
63007,Castle Hill Club,4,10,5,5,2014-08-20,53.23459,-0.539153
63008,Castle Ward WMC,5,5,0,5,2013-10-23,53.239598,-0.543688
63009,Castlegate,0,15,20,20,2014-12-08,53.218113,-0.545121
63010,Cathedral Nursing Home,5,5,5,0,2014-04-09,53.286595,-0.487887
63011,Cathedral View Guest House,5,0,0,5,2014-09-01,53.23506,-0.537909
63012,Central Cafe,3,10,5,10,2014-02-19,53.227437,-0.538663
63013,Central Methodist Church,5,0,5,5,2012-09-10,53.222832,-0.544332
63014,Central Production Unit,5,5,5,5,2015-01-12,53.233585,-0.519665
63015,Chad Varah School,5,0,0,0,2013-12-17,53.243106,-0.517598
63016,Charlotte House Hotel,5,5,0,0,2014-02-03,53.23504,-0.542884
63017,Chartwells,5,5,0,5,2014-09-15,53.23361,-0.539202
63018,Chartwells (Deans Sports and Leisure),5,0,0,0,2013-03-20,53.230944,-0.532131
63019,Chaz Cake Treats,5,5,5,5,2014-04-07,,
63020,Chef Phong,2,15,15,10,2014-02-05,53.230526,-0.540625
63021,Cherry Bug Bakery,5,0,5,5,2013-06-03,53.219363,-0.609168
63022,Cherry Tree House,4,5,5,10,2014-08-11,53.247937,-0.513549
63023,Cherry Tree Nursery,5,0,5,5,2014-08-15,53.218508,-0.550979
63024,Children 1st,2,15,0,10,2015-01-20,53.238542,-0.52357
63025,Chimichanga,5,5,5,5,2013-02-25,53.229453,-0.545441
63026,Choices,Exempt,nan,nan,nan,2013-01-10,53.2415,-0.507703
63027,Chuck Wagon,4,10,5,5,2013-09-11,53.203863,-0.602843
63028,Churchill's (Lincoln),5,5,5,5,2014-11-05,53.230086,-0.539876
63029,City of Lincoln Council,5,5,5,5,2014-07-14,53.211101,-0.560648
63030,City of Lincoln Council,5,5,5,5,2014-05-13,53.22897,-0.539809
63031,City Vaults,4,0,10,10,2014-11-07,53.221616,-0.544927
63032,Civil Defence Club,5,5,5,5,2011-10-24,,
63033,Claires Accessories,Exempt,nan,nan,nan,2014-08-27,53.228776,-0.539396
63034,Claires Cakes,5,0,0,5,2012-10-05,,
63035,Clayton Sports Association,3,10,10,10,2013-08-05,53.239088,-0.526278
63036,Clifford's Cakes,5,5,5,5,2014-06-20,,
63037,Clinton Cards,Exempt,nan,nan,nan,2014-08-27,53.227991,-0.540621
63038,Cloud 9,5,5,5,5,2012-03-27,53.230781,-0.539418
63039,Coffee Aroma (Lincoln) Ltd,4,5,0,10,2013-04-30,53.229356,-0.541219
63040,Coffee Beanz,4,5,5,10,2013-07-11,53.24402,-0.556921
63041,Coffee In The Courtyard,5,0,5,5,2014-05-30,53.229283,-0.54263
63042,Come Dine With Us,5,0,0,5,2013-02-27,53.205337,-0.576278
63043,Common Room,5,0,0,0,2012-02-07,53.236583,-0.539685
63044,Community Breakfast & Tuesday Bingo Club,4,0,5,10,2013-06-28,53.245663,-0.516446
63045,Compass Group (staff canteen),5,0,0,5,2014-10-14,53.23989,-0.515611
63046,Compton's Steep Hill Tea Rooms,5,5,5,0,2014-04-28,53.233937,-0.538696
63047,Convenio,4,5,10,5,2013-08-28,53.218113,-0.545121
63048,Cooks Kitchen,5,0,0,5,2014-03-24,,
63049,Co-op Food Store,5,5,0,0,2012-02-28,53.230664,-0.523361
63050,Co-op Pharmacy,Exempt,nan,nan,nan,2014-06-06,53.210412,-0.56392
63051,Cooplands,5,5,0,5,2014-05-28,53.235801,-0.538198
63052,Cooplands (Doncaster) Ltd,5,5,5,5,2013-06-10,53.2415,-0.507703
63053,Cooplands (Doncaster) Ltd,5,5,0,5,2014-03-10,53.227437,-0.538663
63054,Cooplands (Doncaster) Ltd,5,5,5,5,2014-03-10,53.225912,-0.541875
63055,Corner Store,4,0,5,10,2014-01-13,53.220692,-0.54063
63056,Cornhill Discounts,5,0,5,0,2013-11-12,53.227647,-0.539629
63057,Cornhill Ice Cream,5,5,0,5,2013-07-30,53.227647,-0.539629
63058,Costa,5,0,0,0,2013-05-13,53.222275,-0.557697
63059,Costa,5,0,5,5,2013-09-20,53.222275,-0.557697
63060,Costa Coffee,5,0,5,5,2014-01-10,53.224764,-0.543592
63061,Costa Coffee,5,5,0,0,2012-12-21,53.228851,-0.540352
63062,Costa Coffee,5,0,5,0,2013-06-25,53.242094,-0.500594
63063,Countdown Drug Stores,Exempt,nan,nan,nan,2012-06-21,53.239051,-0.544501
63064,County Assembly Rooms,4,10,0,10,2013-11-15,53.235801,-0.538198
63065,County Hospital Day Nursery,5,5,5,5,2013-10-31,53.233585,-0.519665
63066,County Restaurant,5,5,0,0,2014-04-07,53.231541,-0.545639
63067,Cousins Cakes To Go,5,0,0,5,2013-11-22,,
63068,Craft,4,10,5,5,2013-11-06,53.230918,-0.539578
63069,Crawshaw Butchers,5,5,5,5,2014-08-28,53.227437,-0.538663
63070,Creston Villa Guest House,5,0,0,5,2012-02-15,53.213329,-0.547215
63071,Crust Restaurant,4,5,5,10,2014-10-01,53.231075,-0.539887
63072,Curtis of Lincoln Ltd,5,0,0,0,2014-08-27,53.218142,-0.608534
63073,Curtis of Lincoln Ltd,5,5,0,5,2014-04-02,53.227437,-0.538663
63074,Curtis of Lincoln Ltd,4,10,5,5,2014-02-14,53.208657,-0.561523
63075,Curtis of Lincoln Ltd,5,5,5,0,2014-05-07,53.226083,-0.542589
63076,Curtis of Lincoln Ltd,5,5,5,5,2013-01-09,53.235359,-0.538827
63077,Curtis of Lincoln Ltd,5,5,0,0,2014-06-16,53.2208,-0.54509
63078,Curtis of Lincoln Ltd,4,5,0,10,2014-03-24,53.229451,-0.539448
63079,Curtis of Lincoln Ltd,5,5,5,0,2013-03-06,53.241147,-0.514039
63080,Curtis of Lincoln Ltd,5,0,5,0,2012-11-19,53.238291,-0.544062
63081,Curtis of Lincoln Ltd,4,10,0,5,2013-08-21,53.191377,-0.556923
63082,Custom Cakes Lincoln,5,0,0,0,2014-03-19,,
63083,D & M Catering,5,5,5,5,2012-11-13,,
63084,D Holmes Butchers Ltd,5,5,0,5,2014-02-10,53.215272,-0.605317
63085,D W Sports Fitness,Exempt,nan,nan,nan,2014-03-05,53.209258,-0.57489
63086,Dainava,4,5,10,5,2014-08-06,53.227437,-0.538663
63087,Damons Restaurant,5,5,5,5,2014-07-01,53.207205,-0.615057
63088,Daniels,4,5,5,10,2013-11-12,53.239463,-0.538538
63089,De Wint Court,5,0,0,0,2013-12-16,53.201679,-0.574078
63090,De Wint Resource Centre,5,0,0,5,2010-08-06,53.203513,-0.574107
63091,Debenhams Plc,5,5,0,0,2012-10-16,53.225451,-0.543883
63092,Decks Lincoln,5,0,5,5,2014-06-18,53.23989,-0.515611
63093,Deli-Licious,5,5,5,5,2014-06-12,53.21803,-0.545678
63094,Derek Miller Court,5,0,0,0,2012-02-28,53.231054,-0.547783
63095,Dhindsa Stores,3,5,10,10,2014-05-01,53.234346,-0.549365
63096,Diamonds Cupcakes And Dreams,5,0,0,0,2013-07-26,,
63097,Dine Contract Catering Limited,5,5,5,5,2013-02-14,53.206012,-0.551729
63098,Dinos,3,10,10,5,2014-09-15,53.241147,-0.514039
63099,Discovery Cafe CIC,5,0,5,5,2014-05-23,53.244307,-0.55829
63100,Domino Pizza,5,5,0,5,2013-01-14,53.219455,-0.544641
63101,Dominos Pizza,5,0,0,0,2014-05-19,53.241657,-0.511669
63102,Dominos Pizza Limited,5,5,0,0,2013-03-06,53.209258,-0.57489
63103,Double M (Fish & Chip Trailer),5,0,0,0,2014-04-30,53.218186,-0.540071
63104,Double M (General Purpose Trailer No 1),5,0,0,0,2014-04-30,53.218186,-0.540071
63105,Double M (General Purpose Trailer No 2),5,0,0,0,2014-04-30,53.218186,-0.540071
63106,Double M (Red Beef Trailer),5,0,0,0,2014-04-30,53.218186,-0.540071
63107,Double M (Scampi Trailer),5,0,0,0,2014-04-30,53.218186,-0.540071
63108,Double M Catering Ltd,4,5,10,5,2014-09-09,53.218186,-0.540071
63109,Double M Catering Ltd,4,5,10,5,2014-09-09,53.218186,-0.540071
63110,Double M Catering Ltd,4,5,10,5,2014-09-09,53.218186,-0.540071
63111,Double M Catering Ltd,4,5,10,5,2014-09-09,53.218186,-0.540071
63112,Double M Sandwich Bar,4,5,10,5,2014-01-29,53.158665,-0.580127
63113,Double Tree by Hilton Hotel,5,0,5,5,2013-11-14,53.229801,-0.546732
63114,Doughty Cakes Ltd,5,5,0,0,2013-10-15,53.230463,-0.502199
63115,Downtown Store,5,0,5,5,2014-04-07,53.203076,-0.581907
63116,Dungeon Delights,5,5,5,5,2011-06-20,53.230944,-0.532131
63117,Dynex (Host Catering),4,0,10,10,2013-10-21,53.205965,-0.611219
63118,East Midlands Ambulance Service,5,0,0,0,2012-07-25,53.2391,-0.510619
63119,Eastgate Club,5,5,5,5,2013-01-10,53.235868,-0.531243
63120,Eastholme Nursing Home,4,10,5,5,2014-06-16,53.217678,-0.53531
63121,Eccleshare Court,5,5,5,0,2013-06-06,53.212242,-0.582383
63122,Eccleshare Outreach Centre Lincoln,5,5,5,5,2013-07-03,,
63123,Eden House,5,0,0,0,2014-10-10,53.2429,-0.544655
63124,Edinburgh Wool Shop,Exempt,nan,nan,nan,2013-01-10,53.229727,-0.539963
63125,EFES Kebab,5,5,0,5,2014-01-24,53.22897,-0.539809
63126,Eggstramile,5,0,0,0,2013-01-08,53.225912,-0.541875
63127,Elena's Kitchen,5,5,0,0,2013-07-30,53.233038,-0.54905
63128,Elior UK,5,5,5,5,2014-10-29,53.204852,-0.580786
63129,Elite Fish & Chip Restaurant,5,0,0,0,2014-04-07,53.203634,-0.582742
63130,Elite Meats,3,5,10,10,2014-06-11,53.235801,-0.538198
63131,Enterprise @ Lincoln,5,0,5,5,2014-04-15,53.22638,-0.54556
63132,Enterprise House Cafe,5,0,5,5,2013-05-03,53.248698,-0.538733
63133,Environment Agency,5,0,5,0,2013-08-19,53.22847,-0.532036
63134,Ermine House,5,0,0,0,2014-02-19,53.246881,-0.53205
63135,Ermine Primary Academy,5,0,0,5,2014-05-19,53.24938,-0.526224
63136,Eskimoo Milkshakes,5,5,5,5,2013-04-11,53.2259,-0.543134
63137,Eskimoo Milkshakes,5,5,5,5,2013-04-10,53.229179,-0.54145
63138,Esso Lindum Service Station,5,5,0,0,2014-03-25,53.201932,-0.557002
63139,European Foods,4,5,5,10,2013-04-30,53.2208,-0.54509
63140,Everest Xpress,3,10,10,10,2014-04-29,53.219455,-0.544641
63141,EYS,Exempt,nan,nan,nan,2013-01-15,53.228055,-0.537728
63142,F Maltby & Sons Limited,Exempt,nan,nan,nan,2013-04-05,53.2391,-0.510619
63143,F Pepperdine & Son,4,10,5,5,2014-04-22,53.227437,-0.538663
63144,Fab Disco's,5,5,5,5,2013-04-12,,
63145,Falcon Inn,4,10,0,5,2012-08-16,53.22897,-0.539809
63146,Famous Bacon Roll,3,10,5,10,2014-02-05,53.222585,-0.535233
63147,Farm Foods,5,5,5,5,2012-11-15,53.222508,-0.55691
63148,Feed The Homeless,5,5,5,5,2012-05-04,,
63149,Felicity Kelsall,5,0,0,0,2013-07-25,,
63150,Fine Food 2U Ltd,5,5,0,0,2012-10-09,53.236445,-0.551182
63151,Fish King,5,0,0,5,2013-08-08,53.251423,-0.53146
63152,Fitspace,5,0,0,0,2013-02-22,53.219832,-0.555622
63153,Fodders,5,5,5,0,2014-01-13,53.230248,-0.54429
63154,Food First,3,10,10,10,2014-03-25,53.227537,-0.54173
63155,Fortuna Primary School,5,0,5,5,2013-02-07,53.211632,-0.610706
63156,Forum,5,5,0,0,2014-03-24,53.229451,-0.539448
63157,Fosse House,5,5,0,0,2014-12-10,53.201291,-0.558281
63158,Francis Willis Unit,5,0,0,0,2014-01-15,53.232398,-0.518163
63159,Frango Grilled Chicken,4,5,10,5,2014-03-06,53.218113,-0.545121
63160,Fratelli,4,10,5,5,2014-10-31,53.238764,-0.537977
63161,Fred's Fish,5,5,5,5,2012-10-10,53.227437,-0.538663
63162,Fresh From The Fields,4,10,0,5,2014-03-05,53.235359,-0.538827
63163,Fresh From The Fields,5,5,5,5,2012-07-05,53.208657,-0.561523
63164,Fresh From The Fields Ltd,3,10,10,10,2013-01-29,53.251423,-0.53146
63165,Futures Cafe,4,5,5,10,2014-02-10,53.214235,-0.544084
63166,G F & M A Sellars,4,10,5,5,2013-09-18,53.230323,-0.518294
63167,G Simpson Butchers Limited,5,0,0,5,2014-04-02,53.250608,-0.516454
63168,Gabby's Greek Restaurant,5,5,0,0,2014-01-28,53.222983,-0.543458
63169,Gaia Wholefoods,5,5,0,0,2013-02-06,53.227437,-0.538663
63170,Gala Clubs,5,5,5,0,2013-08-12,53.22897,-0.539809
63171,Game,Exempt,nan,nan,nan,2013-04-08,53.227647,-0.539629
63172,Game,Exempt,nan,nan,nan,2012-02-01,53.222508,-0.55691
63173,Gatehouse Tea Room,5,0,0,5,2013-01-10,53.237963,-0.544478
63174,Gillings Fruit and Veg,4,5,5,10,2013-02-13,,
63175,Ginos,5,5,5,5,2014-01-14,53.235261,-0.538951
63176,Gino's L'espressa,5,5,5,5,2013-05-02,53.234909,-0.538798
63177,Golden Bowl Chinese Takeaway,5,5,0,0,2013-03-20,53.221203,-0.544237
63178,Golden Eagle,5,5,5,5,2014-08-06,53.216452,-0.546016
63179,Golden Fryer,4,10,5,5,2014-11-24,53.215586,-0.546554
63180,Golden Hall,5,5,5,5,2013-03-28,53.191377,-0.556923
63181,Goodies of Lincoln,5,5,5,5,2013-06-07,53.231902,-0.53917
63182,Grapevine,5,5,0,0,2012-02-02,53.240003,-0.545892
63183,Grayz In The Bail,5,5,5,5,2014-07-16,53.235261,-0.538951
63184,Great Wall,2,10,15,10,2014-04-08,53.244348,-0.519863
63185,Green Barrel,5,0,0,5,2012-02-16,53.221256,-0.600419
63186,Greenhouse Coffee Shop Ltd,5,5,0,0,2014-03-05,53.237101,-0.543098
63187,Green's Health,4,0,10,10,2014-08-06,53.226903,-0.539834
63188,Greetwell Hollow Day Nursery,5,5,0,0,2014-04-28,53.241425,-0.504634
63189,Greetwell Nursing Home,5,5,5,5,2014-06-24,53.236457,-0.521469
63190,Greetwell Place Managed Workspace,Exempt,nan,nan,nan,2012-08-09,53.234821,-0.511382
63191,Greggs,5,0,0,0,2014-09-10,53.191377,-0.556923
63192,Greggs plc,5,0,0,0,2014-09-24,53.227865,-0.541285
63193,Greggs plc,5,0,0,0,2014-04-02,53.236363,-0.538598
63194,Grosvenor Hall Nursing Home,5,5,0,5,2014-08-08,53.20298,-0.550035
63195,Gwynnes Social Club,4,10,0,5,2014-03-31,53.217403,-0.544441
63196,H J's Mobile Catering,5,0,0,5,2014-01-15,53.231989,-0.504183
63197,H M Prison,3,10,5,10,2014-08-20,53.235408,-0.518089
63198,Halfords,Exempt,nan,nan,nan,2014-02-25,53.22312,-0.552486
63199,Halfords Limited,Exempt,nan,nan,nan,2014-01-05,53.242322,-0.509458
63200,Hamiltons Hotel,5,5,5,5,2012-10-09,53.21232,-0.548552
63201,Hamper Van,4,0,5,10,2014-07-23,53.245524,-0.559328
63202,Hartsholme Community Contact Centre,5,5,5,5,2013-01-10,53.209551,-0.579867
63203,Hartsholme Park,5,5,0,5,2014-08-26,53.210348,-0.581113
63204,Hartsholme Primary School,5,0,0,5,2014-05-12,53.212706,-0.580586
63205,Hartsholme/Lincoln United Sports Association,4,0,0,10,2014-06-11,53.210615,-0.583141
63206,Hartsholme/Lincoln Utd Sports Association,3,10,5,10,2014-04-28,53.210615,-0.583141
63207,Harvest House Nursing Home,5,5,5,5,2010-10-05,53.232367,-0.554421
63208,Harvester,5,5,0,0,2014-03-19,53.229801,-0.546732
63209,Healthy Appetites,3,5,10,10,2014-12-16,53.230526,-0.540625
63210,Heather's House,5,5,0,0,2012-10-25,53.190238,-0.559356
63211,Henry's Tea Rooms (Ruddocks),5,5,5,5,2013-04-22,53.230125,-0.539425
63212,Heron Foods Ltd,2,10,15,10,2013-03-11,53.227437,-0.538663
63213,Hicksons Fresh Foods,3,5,10,10,2013-03-04,53.220472,-0.602572
63214,High Street Food Bar,5,5,5,5,2013-08-14,53.222465,-0.54373
63215,Hillcrest Hotel,4,10,5,5,2014-02-06,53.232418,-0.527047
63216,HMV UK Limited,Exempt,nan,nan,nan,2013-10-08,53.227196,-0.541053
63217,Holiday Inn,5,5,0,0,2014-03-19,53.229801,-0.546732
63218,Holiday Inn Express,5,0,5,5,2015-01-12,53.225934,-0.551102
63219,Holland & Barrett,5,0,0,0,2014-01-13,53.227196,-0.541053
63220,Hollies Hotel,5,5,5,5,2013-11-12,53.232117,-0.552407
63221,Holy Cross Church Hall,Exempt,nan,nan,nan,2012-07-23,53.210821,-0.564266
63222,Home,5,5,5,5,2013-06-18,53.230391,-0.540555
63223,Homer Lodge Nursing Home,5,5,5,5,2014-08-12,53.222596,-0.541973
63224,Homesense,Exempt,nan,nan,nan,2014-12-02,53.22312,-0.552486
63225,Hot - Pot SW,4,5,5,10,2014-06-10,,
63226,Hot Plate Cafe,4,5,10,5,2014-07-15,53.227437,-0.538663
63227,Hotjacks Limited,4,0,10,10,2014-01-17,53.228776,-0.539396
63228,Hykeham Road Post Office,4,5,5,10,2014-02-24,53.2,-0.561544
63229,Ians,4,5,0,10,2013-02-27,53.229856,-0.52706
63230,Iceland Frozen Foods Ltd,5,0,0,0,2013-02-05,53.225912,-0.541875
63231,Iceland Frozen Foods Plc,5,0,5,0,2012-02-02,53.250608,-0.516454
63232,Ignite Elim Church,4,5,5,10,2013-08-14,53.211244,-0.568115
63233,Ignite Elim Church,5,0,0,5,2013-10-26,53.206973,-0.568722
63234,IMPart/St Botolph's Church Hall,Exempt,nan,nan,nan,2011-10-04,53.217644,-0.545781
63235,Imperial Teas of Lincoln,5,0,0,0,2012-02-08,53.233937,-0.538696
63236,Indian Spice Stall,4,5,5,10,2013-04-29,,
63237,Indoor Bowling Club Limited,5,0,0,5,2014-02-13,53.211572,-0.55581
63238,Inside Out of Lincoln,5,5,0,5,2014-05-12,53.239395,-0.545433
63239,Intenz Art,5,0,0,0,2012-02-17,53.21917,-0.545564
63240,International Foods,4,5,5,10,2014-03-18,53.224018,-0.541386
63241,International Mini Market,4,5,5,10,2013-01-21,53.223306,-0.543387
63242,Ironhouse Nutritions,4,5,0,10,2013-04-23,53.230526,-0.540625
63243,J H Starbuck,5,5,5,5,2012-12-14,53.239051,-0.544501
63244,J Ruddock Limited,Exempt,nan,nan,nan,2012-03-01,53.230125,-0.539425
63245,J W Thornton Plc,5,0,5,0,2013-08-27,53.227647,-0.539629
63246,Jackson Building Centres Limited (Food),5,0,0,0,2012-11-17,53.22291,-0.533844
63247,Jailhouse Rock,5,5,5,5,2012-02-28,53.230623,-0.538944
63248,Jamie B's,4,0,10,10,2014-08-11,53.226518,-0.524628
63249,Jay Dees Restaurant,5,0,0,0,2014-02-05,53.228346,-0.54019
63250,Jazzed Up Jacks,5,0,0,5,2012-02-27,53.220692,-0.54063
63251,Jazzed Up Jacks,5,0,0,5,2012-03-02,53.230248,-0.54429
63252,Jenny's,3,5,10,10,2013-10-15,53.22897,-0.539809
63253,Jennys Jams Ltd,5,5,0,5,2013-08-12,,
63254,Jesters,5,5,0,5,2012-06-13,53.219671,-0.545368
63255,Joanne Taylor,Exempt,nan,nan,nan,2013-05-21,,
63256,Johnny Dough's Proper Wood-Fired Pizza,5,0,0,5,2014-11-12,,
63257,Joiners Arms,3,10,5,10,2013-09-03,53.232426,-0.543782
63258,Jolly Brewer,1,5,5,20,2014-02-19,53.230345,-0.536107
63259,JTF Food Stop,4,5,10,5,2013-11-01,53.234847,-0.506271
63260,JTF Mega Discount Warehouse,Exempt,nan,nan,nan,2014-02-19,53.234847,-0.506271
63261,Juliet Preston,5,0,0,5,2012-11-15,53.204621,-0.576526
63262,Just Like Your Grannies,5,0,0,5,2014-06-23,53.248174,-0.548792
63263,Kay & Petes Preserves,5,0,0,5,2012-08-08,,
63264,Kays Cake Creations,5,0,0,5,2014-11-10,,
63265,KBW Cakes,4,5,0,10,2014-10-29,,
63266,Keddington Stores,4,10,0,10,2013-01-24,53.250788,-0.539096
63267,Kentucky Fried Chicken,5,5,5,5,2014-02-03,53.237933,-0.531038
63268,Kentucky Fried Chicken,3,10,5,10,2013-10-03,53.219455,-0.544641
63269,Kerry Foods Ltd,5,0,0,0,2013-03-22,53.203967,-0.610541
63270,Kidz Kitchen,5,0,0,0,2013-01-29,53.2259,-0.543134
63271,Kind,4,5,10,5,2013-01-31,53.231075,-0.539887
63272,King Kebab,4,10,5,5,2013-11-06,53.2305,-0.537764
63273,Kites of Lincoln,4,5,5,10,2014-02-24,53.231677,-0.552422
63274,Klogz,Exempt,nan,nan,nan,2012-11-15,53.237675,-0.538539
63275,Kong Sing House,4,5,5,10,2014-07-02,53.210557,-0.561759
63276,Krystals,5,0,0,0,2012-03-06,53.230391,-0.540555
63277,La Bottega Delitalia,5,5,5,5,2013-08-15,53.230806,-0.541439
63278,La Trattoria Da Vincenzo,4,5,5,10,2014-08-04,53.231175,-0.541502
63279,La Vida Vintage,4,10,0,5,2012-01-17,53.230871,-0.521871
63280,Lajkonik,3,10,10,10,2013-08-13,53.222465,-0.54373
63281,Lakeside Fish Bar,5,5,5,5,2013-09-17,53.213972,-0.578957
63282,Lazeez,4,5,5,10,2014-08-26,53.231075,-0.539887
63283,LCH Ward Kitchens,5,0,0,5,2013-12-02,53.233585,-0.519665
63284,Le Mareski Team Ltd,5,5,5,5,2012-10-31,53.233659,-0.502582
63285,Legal Food,3,10,10,10,2014-02-05,53.21917,-0.545564
63286,Lenton Green,5,5,5,5,2013-11-11,53.248087,-0.521997
63287,Liberal Club,5,0,0,5,2013-11-01,53.228657,-0.537003
63288,Lidl UK,5,0,5,5,2014-02-17,53.22525,-0.547995
63289,Lidl UK GmbH,5,0,0,0,2014-05-09,,
63290,Lidl UK GMBH,5,5,0,0,2013-02-15,53.2415,-0.507703
63291,Linbrew,5,5,5,5,2011-12-15,53.222043,-0.544538
63292,Linc Events,5,5,0,0,2013-04-29,,
63293,Lincoln Baptist Church,5,5,0,5,2013-08-21,53.229087,-0.53176
63294,Lincoln Boat Trips,5,5,5,5,2013-02-12,53.228905,-0.544021
63295,Lincoln Bowl,5,5,5,5,2013-08-05,53.220615,-0.516952
63296,Lincoln Cake Company,5,0,0,0,2012-04-30,,
63297,Lincoln Carlton Academy,5,0,0,5,2014-06-06,53.241425,-0.504634
63298,Lincoln Castle Academy,5,5,5,5,2013-11-13,53.248698,-0.538733
63299,Lincoln Castle Catering Cart,5,5,5,5,2014-01-23,53.23459,-0.539153
63300,Lincoln Cathedral Centre,5,0,0,0,2014-01-16,53.234088,-0.537837
63301,Lincoln Central Childrens Centre,5,5,0,5,2013-11-05,53.219437,-0.537257
63302,Lincoln Central Childrens Centre,5,0,0,5,2013-11-05,53.219437,-0.537257
63303,Lincoln Central Library,5,5,5,5,2012-03-01,53.22957,-0.537422
63304,Lincoln Charcoal Grill,5,5,5,5,2014-07-01,53.230623,-0.538944
63305,Lincoln Christ's Hospital School,5,5,0,5,2013-05-09,53.239525,-0.521633
63306,Lincoln City Football Club,5,5,5,5,2013-09-13,53.218186,-0.540071
63307,Lincoln City Football Club,5,0,0,5,2014-09-09,53.218186,-0.540071
63308,Lincoln City Sheltered Housing,5,5,5,5,2012-02-28,53.217595,-0.605601
63309,Lincoln Civic Trust,5,5,5,5,2012-02-09,53.222465,-0.54373
63310,Lincoln College,5,0,0,0,2013-02-27,53.230944,-0.532131
63311,Lincoln College Blackfriars Restaurant,5,0,0,0,2013-03-11,53.230944,-0.532131
63312,Lincoln Community Larder,Exempt,nan,nan,nan,2013-11-29,53.228905,-0.533759
63313,Lincoln Co-operative Chemists Ltd,Exempt,nan,nan,nan,2012-03-01,53.229533,-0.544674
63314,Lincoln Co-operative Chemists Ltd,Exempt,nan,nan,nan,2013-01-10,53.216076,-0.546163
63315,Lincoln Co-operative Society,5,0,5,5,2015-01-07,53.218142,-0.608534
63316,Lincoln Co-operative Society,5,5,0,5,2013-01-24,53.251598,-0.545064
63317,Lincoln Co-operative Society,5,5,0,0,2012-02-01,53.251423,-0.53146
63318,Lincoln Co-operative Society Limited,5,5,5,5,2014-09-11,53.240329,-0.509662
63319,Lincoln Co-operative Society Limited,5,5,5,5,2013-04-29,53.210412,-0.56392
63320,Lincoln Co-operative Society Limited,4,10,0,5,2012-10-31,53.239051,-0.544501
63321,Lincoln Co-operative Society Limited,5,5,5,0,2013-05-01,53.233433,-0.556363
63322,Lincoln Co-operative Society Limited,5,5,0,5,2013-01-16,53.213972,-0.578957
63323,Lincoln Co-operative Society Limited,5,5,0,0,2011-12-16,53.215935,-0.547142
63324,Lincoln Co-operative Society Limited,4,10,5,5,2013-09-16,53.227742,-0.537858
63325,Lincoln Co-operative Society Limited,5,5,0,5,2014-04-08,53.246725,-0.537661
63326,Lincoln Co-operative Society Ltd,4,10,5,5,2013-04-04,53.191377,-0.556923
63327,"Lincoln Co-operative Society, Pharmacy",Exempt,nan,nan,nan,2012-11-16,53.288454,-0.648974
63328,Lincoln Evangelical Church,5,0,0,5,2012-03-15,53.211914,-0.574457
63329,Lincoln Food and Wine,2,15,10,10,2013-09-18,53.210557,-0.561759
63330,Lincoln Hospital Sports & Social Club,4,10,0,10,2014-07-29,53.234501,-0.523904
63331,Lincoln Hotel,5,5,0,5,2014-01-16,53.235719,-0.535249
63332,Lincoln Kickboxing Academy,5,5,0,0,2011-11-02,53.224177,-0.524348
63333,Lincoln Labour Club & Institute Limited,4,10,5,5,2014-04-08,53.229725,-0.543484
63334,Lincoln Masonic Centre,5,5,5,5,2013-09-26,53.241971,-0.528247
63335,Lincoln Minster School,5,0,0,0,2014-03-27,53.235314,-0.536611
63336,Lincoln Minster School,5,5,0,0,2014-01-28,53.233145,-0.530588
63337,Lincoln Moorlands & Railway Sports & Social Club Ltd,5,5,0,5,2014-03-25,53.201649,-0.562566
63338,Lincoln North Childrens Centre,5,0,0,0,2014-01-16,53.250273,-0.530825
63339,Lincoln RNA Club Ltd,4,0,0,10,2014-06-10,53.221079,-0.551701
63340,Lincoln School of Engineering,5,0,5,5,2012-05-11,53.228843,-0.549251
63341,Lincoln Scout H Q,4,10,0,5,2014-03-05,53.214723,-0.547546
63342,Lincoln Sea Cadet Corps,5,5,0,0,2012-11-17,53.229801,-0.546732
63343,Lincoln Snooker Club,4,5,10,5,2012-02-20,53.229723,-0.539619
63344,Lincoln St Christophers School,5,0,5,5,2014-04-23,53.217804,-0.538257
63345,Lincoln Tapas at L A City Cafe,4,10,0,5,2013-01-28,53.224927,-0.52612
63346,Lincoln Theatre Royal,5,0,0,5,2014-01-16,53.230623,-0.538944
63347,Lincoln YMCA Limited,5,0,5,5,2012-04-25,53.228905,-0.533759
63348,Lincolnshire Co-operative Limited,5,5,0,0,2012-12-10,53.208657,-0.561523
63349,Lincolnshire Co-operative Society Limited,5,5,0,0,2014-04-24,53.241694,-0.507442
63350,Lincolnshire Partnership NHS Foundation Trust,5,5,5,5,2014-07-03,53.24402,-0.556921
63351,Lincolnshire Red,4,0,5,10,2014-10-09,53.229557,-0.542216
63352,Lincolnshire Road Safety Partnership,5,5,5,5,2012-11-23,53.222648,-0.535171
63353,Lindum Park House,5,0,0,0,2014-01-16,53.231423,-0.536774
63354,Lindum Sports Association Limited,4,5,5,10,2014-02-24,53.288454,-0.648974
63355,Links Chinese Takeaway,4,5,5,10,2014-02-26,53.209087,-0.549514
63356,Lion & Snake,5,5,5,5,2013-08-27,53.235801,-0.538198
63357,Lion Food Centre,2,5,15,10,2013-06-27,53.222832,-0.544332
63358,Lisa's Cafe,4,10,5,5,2014-06-17,53.231989,-0.504183
63359,L'Italiano Limited,5,5,0,5,2014-06-16,53.230095,-0.538452
63360,Little Cherubs,5,0,0,5,2014-07-02,53.229907,-0.51735
63361,Little Espresso Co,5,0,5,5,2013-07-23,53.230442,-0.537407
63362,Little Owls Children's Nursery,5,0,5,5,2015-01-30,53.217083,-0.601768
63363,Lloyds Pharmacy,Exempt,nan,nan,nan,2014-02-12,53.229453,-0.545441
63364,Lloyds Pharmacy,Exempt,nan,nan,nan,2012-08-15,53.232398,-0.518163
63365,Lola Lo,4,10,0,5,2014-02-05,53.230918,-0.539578
63366,Londis Store & Pavilion Lounge,5,5,5,5,2013-07-01,53.173882,-0.650164
63367,Lotus House Chinese Takeaway,4,5,5,10,2014-09-24,53.203889,-0.552295
63368,Louis,5,5,0,0,2013-02-14,53.224579,-0.54974
63369,Lucky Takeaway,1,15,15,20,2013-07-18,53.240003,-0.545892
63370,Lush Cookies & Cakes,5,0,5,5,2014-03-25,,
63371,Luxshan Stores,5,5,5,5,2013-02-27,53.220539,-0.536201
63372,Maggies Plaice,5,0,0,5,2014-02-17,53.205408,-0.550822
63373,Magic Wok,5,5,5,5,2013-06-03,53.223875,-0.543622
63374,Magical Moments Day Care,5,0,0,0,2013-12-17,53.245196,-0.521572
63375,Magna Carta,4,10,5,5,2013-07-02,53.234284,-0.538385
63376,Mamma Mia Pizza,5,5,5,5,2014-07-28,53.218113,-0.545121
63377,Man & Van,4,0,5,10,2013-06-06,,
63378,Man and Van II,4,0,0,10,2014-04-10,,
63379,Man-Ho,5,5,5,5,2014-09-29,53.222832,-0.544332
63380,Manor Leas Infants School,5,5,5,5,2014-04-29,53.195252,-0.568843
63381,Manor Leas Junior Academy,5,0,0,5,2014-06-30,53.195252,-0.568843
63382,Maple Street Stores,5,5,5,5,2014-01-29,53.20298,-0.550035
63383,Marks & Spencer Cafe,5,5,0,0,2013-06-11,53.228525,-0.540888
63384,Marks & Spencer Plc,5,0,0,0,2013-06-11,53.228525,-0.540888
63385,Martins,4,10,0,5,2012-05-17,53.221256,-0.600419
63386,Martins,4,10,5,5,2012-12-17,53.227437,-0.538663
63387,Martins,5,0,0,0,2015-01-05,53.218142,-0.608534
63388,Martins,4,10,5,5,2012-03-26,53.228776,-0.539396
63389,Martins The Kiosk,5,5,5,5,2014-04-02,53.227526,-0.536398
63390,Mary Knox Centre,5,0,0,0,2012-07-19,53.219031,-0.543772
63391,Mayfield Guest House,5,5,0,0,2012-02-01,53.239499,-0.548052
63392,McColls,2,15,10,10,2015-01-05,53.239395,-0.545433
63393,McColls,5,5,0,5,2013-08-01,53.206889,-0.57145
63394,McColls,5,5,0,5,2013-01-14,53.191377,-0.556923
63395,McDonalds Restaurant Limited,5,5,0,0,2012-10-12,53.227647,-0.539629
63396,McDonalds Restaurant Limited,5,5,0,0,2013-01-31,53.242322,-0.509458
63397,McDonalds Restaurants Limited,4,10,5,5,2014-02-10,53.173882,-0.650164
63398,McDonalds Restaurants Limited,5,5,5,0,2013-04-05,53.22638,-0.54556
63399,Meadows Junior School,5,0,0,5,2014-06-16,53.192829,-0.560302
63400,Melville Coffee Shop,5,5,5,5,2014-01-13,53.227742,-0.537858
63401,Methodist Church Club,5,0,0,5,2012-03-20,53.235801,-0.538198
63402,MHA,5,5,0,0,2014-02-24,53.220797,-0.591193
63403,Mia's Kitchen,5,5,0,5,2013-05-22,53.218508,-0.550979
63404,Millers Arms,3,10,5,10,2014-05-16,53.2208,-0.54509
63405,Mings Garden,5,0,5,5,2013-10-21,53.234958,-0.553884
63406,Mini Market,4,5,5,10,2013-07-16,53.230664,-0.523361
63407,Minster Coffee Shop,5,5,0,5,2013-03-07,53.234284,-0.538385
63408,Minster Lodge,5,0,5,5,2013-05-08,53.237456,-0.536853
63409,Miss H S Smith,5,5,5,5,2012-03-16,53.248068,-0.504582
63410,Modern Classics Cafe,5,5,5,5,2014-07-18,53.231902,-0.53917
63411,"Moka, Shack & Pulse (Club)",5,0,0,5,2014-04-01,53.229451,-0.539448
63412,Monks Food City Limited,4,0,5,10,2014-06-03,53.230188,-0.516861
63413,Monks Road Chippy,3,10,5,10,2014-03-05,53.230664,-0.523361
63414,Monks Road Snaks Bar,3,10,10,10,2014-11-30,53.230704,-0.534581
63415,Monks Road Stores,4,10,0,10,2014-03-11,53.231164,-0.507883
63416,Monks Road Working Mens Club,5,0,5,5,2013-07-15,53.230566,-0.521252
63417,Monks Vineyard,3,10,5,10,2013-01-24,53.229922,-0.525814
63418,Monson Arms,4,10,0,10,2012-07-24,53.21368,-0.577079
63419,Monson Retirement Home,5,5,0,5,2013-07-02,53.222596,-0.541973
63420,Moonlight Shopper,4,5,10,5,2014-11-03,53.230548,-0.516848
63421,Moonraker Floating Tearooms,4,10,5,0,2013-03-13,,
63422,Moorland Cafe,5,0,0,5,2013-03-27,53.206889,-0.57145
63423,Moorland Community Centre,5,5,5,5,2013-06-11,53.205337,-0.576278
63424,Moorland Fish Shop,5,5,5,5,2013-08-08,53.206889,-0.57145
63425,Moorland Park Methodist Church,5,0,0,0,2012-11-09,53.210821,-0.564266
63426,Morning Sun Supermarket,4,5,5,10,2013-06-03,53.225912,-0.541875
63427,Mothers Union,5,0,0,5,2014-08-12,53.228012,-0.541564
63428,Mouchel Catering,5,0,5,5,2013-08-01,53.229954,-0.547506
63429,Mouchel Catering,5,0,0,5,2014-09-23,53.23459,-0.539153
63430,Mount Street Academy,5,0,5,5,2013-03-27,53.241162,-0.544339
63431,Mowgli Indian Takeaway,4,5,0,10,2014-04-14,53.222832,-0.544332
63432,Mr Chippy,3,5,10,10,2013-12-17,53.225198,-0.542334
63433,Mrs Christine Robinson,5,0,5,5,2014-06-25,53.251414,-0.552055
63434,Mrs Martin,5,0,0,0,2013-05-23,,
63435,MSR News Group Ltd,Exempt,nan,nan,nan,2014-01-29,53.226083,-0.542589
63436,Munch Box,3,10,5,10,2014-05-12,53.203577,-0.609934
63437,Museum of Lincolnshire Life,5,5,5,5,2013-03-13,53.237963,-0.544478
63438,Myle Cross Centre,5,0,0,0,2012-02-15,53.245157,-0.519835
63439,Nandos,5,5,5,5,2013-05-09,53.228905,-0.544021
63440,New Capital Takeaway,5,0,5,5,2014-05-27,53.215272,-0.605317
63441,New Fortune Inn,3,10,10,10,2014-05-07,53.219455,-0.544641
63442,New Look,Exempt,nan,nan,nan,2013-10-11,53.224764,-0.543592
63443,New Look,Exempt,nan,nan,nan,2014-04-28,53.228776,-0.539396
63444,New Sunflower Chinese Takeaway,5,5,0,0,2013-10-21,53.237101,-0.543098
63445,New Taste,5,5,5,5,2014-01-22,53.216076,-0.546163
63446,Newport Arch Restaurant,5,5,5,5,2014-05-27,53.236363,-0.538598
63447,Newport Fish Bar,5,0,0,0,2014-11-06,53.238764,-0.537977
63448,Newport Guest House,5,5,0,5,2012-07-11,53.239463,-0.538538
63449,Newport News Food & Wine,4,10,5,5,2014-04-02,53.288454,-0.648974
63450,Next Retail Limited,Exempt,nan,nan,nan,2014-10-29,53.228776,-0.539396
63451,Nibbles Pizza,1,15,15,20,2014-09-29,53.230933,-0.548926
63452,NMB-Minebea UK Limited,5,0,0,0,2014-07-17,53.204249,-0.605929
63453,No 6 Deli,3,10,10,10,2014-12-16,53.230395,-0.53946
63454,No 82 Cake Studio,5,5,5,5,2014-08-12,53.232546,-0.521409
63455,Nomad Trust Cafe,5,0,5,5,2014-10-23,53.230704,-0.534581
63456,North Lincoln Horticultural Society (NLHS),5,0,0,5,2013-04-26,,
63457,Nosey Parker,4,10,5,0,2014-02-17,53.220233,-0.559038
63458,Noypi Asian Goods,4,0,0,10,2012-10-11,53.229222,-0.522287
63459,Nutwood Cottage Day Nursery,5,5,0,5,2013-08-08,53.200382,-0.568582
63460,Oakwood Stores,5,5,0,0,2014-02-10,53.217488,-0.602564
63461,Oasis,1,5,5,20,2013-01-31,53.210104,-0.548896
63462,Oasis Stores,5,5,5,5,2014-10-24,53.221987,-0.539223
63463,Occasions,5,0,0,0,2013-05-03,53.215618,-0.60562
63464,Odeon Cinemas Limited,5,5,5,5,2012-02-14,53.231541,-0.545639
63465,Okie Coco Chocolate Alchemy,5,5,0,5,2013-11-15,,
63466,Okie Coco Limited,5,0,0,5,2012-10-18,,
63467,Old Rectory Guest House,4,5,5,10,2013-07-30,53.23818,-0.538686
63468,Ole-Ole Tapas,5,5,5,5,2015-02-04,53.236363,-0.538598
63469,Olivers Coffee Shop & Bistro,5,5,5,5,2014-01-29,53.231902,-0.53917
63470,Olsen Court Nursing Home,5,0,0,0,2013-06-27,53.241892,-0.504558
63471,One Castle Hill,5,5,5,5,2014-02-21,53.23459,-0.539153
63472,One Stop,5,5,5,5,2012-05-01,53.221616,-0.544927
63473,One Stop,5,5,5,5,2012-02-22,53.213972,-0.578957
63474,OnTarget@Lincoln City Learning Centre,5,5,0,5,2012-10-17,53.218186,-0.540071
63475,Orient Takeaway,5,5,5,0,2013-09-30,53.21895,-0.6
63476,Our Lady of Lincoln Catholic Primary School,5,0,0,0,2014-05-08,53.248054,-0.526585
63477,Our Lady of Lincoln R C Church,5,5,0,0,2014-06-14,53.248054,-0.526585
63478,Oval Post Office & News,5,5,0,5,2013-10-08,53.250608,-0.516454
63479,Oxfam GB,Exempt,nan,nan,nan,2012-02-01,53.227647,-0.539629
63480,Pacific Health Club Limited,5,5,5,5,2012-06-21,53.223049,-0.554076
63481,Palmer & Harvey Direct Van Sales,5,0,0,5,2012-07-10,53.203578,-0.612329
63482,Pang City Chinese Take-Away,5,5,5,5,2014-06-23,53.230827,-0.530712
63483,Papa Johns,3,10,10,10,2013-08-20,53.219455,-0.544641
63484,Papas Pizza,2,15,5,10,2014-08-11,53.251951,-0.545967
63485,Papermoon Day Nursery,5,5,0,0,2014-02-17,53.215936,-0.555379
63486,Papermoon Day Nursery,5,5,0,5,2014-03-05,53.215618,-0.60562
63487,Park Street Activity Day Centre,5,5,5,5,2014-08-20,53.230649,-0.541804
63488,Passion2Dance Ltd,Exempt,nan,nan,nan,2013-03-27,53.202594,-0.610415
63489,Patisserie Valerie,5,0,0,5,2014-04-23,53.248532,-0.52375
63490,Peacock Inn,3,10,10,5,2013-09-06,53.234668,-0.530206
63491,Pelican Trust Ltd,5,5,0,0,2012-02-09,53.231989,-0.504183
63492,Performance Food,5,0,0,0,2014-04-07,53.219562,-0.544577
63493,Peter Hodgkinson Centre,5,0,0,5,2014-01-15,53.233585,-0.519665
63494,Phoenix Restaurant Ltd,5,5,0,5,2013-10-21,53.216452,-0.546016
63495,Pie Store,4,10,5,5,2014-05-07,53.227437,-0.538663
63496,Pim Polish Market,4,5,5,10,2013-07-31,53.230581,-0.518121
63497,Pimento Tearooms,4,5,5,10,2013-08-14,53.233937,-0.538696
63498,Pines Guest House,5,0,5,5,2012-02-01,53.236211,-0.548987
63499,Pizza Express Restaurants Limited,5,5,0,0,2013-02-13,53.230918,-0.539578
63500,Pizza Hut,5,5,0,5,2013-05-30,53.22525,-0.547995
63501,Pizza Hut,5,5,0,5,2013-05-31,53.286595,-0.487887
63502,Pizza Hut Delivery,5,5,5,5,2014-03-06,53.208159,-0.55013
63503,Pizza King,5,5,5,5,2013-11-18,53.250608,-0.516454
63504,Pizza Palace,3,10,10,10,2014-02-18,53.230657,-0.53298
63505,Pizza Panz,3,5,10,10,2013-06-19,53.191377,-0.556923
63506,Pizza Parlour,4,5,5,10,2014-05-07,53.209191,-0.5648
63507,Pizza Roma,3,10,10,10,2013-11-11,53.245157,-0.519835
63508,Pizza Uno,5,5,5,5,2014-03-31,53.203889,-0.552295
63509,Playzone (Lincoln) Ltd,5,5,0,0,2014-05-12,53.218186,-0.540071
63510,Pomodoro e Basilico,5,5,0,0,2014-03-24,53.229179,-0.54145
63511,Pop Top Kitchen,5,5,0,0,2013-10-28,,
63512,Poppin,5,5,5,5,2014-04-29,53.230526,-0.540625
63513,Portland Kindergarten,5,0,5,5,2013-08-05,53.225064,-0.540901
63514,Positive Health (Lincolnshire),5,0,0,5,2012-06-25,53.230248,-0.54429
63515,Post Office Sports & Social Club,4,5,5,10,2014-09-16,53.245452,-0.546771
63516,Poundland,5,5,5,5,2015-02-04,53.226083,-0.542589
63517,Poundland Limited,4,10,0,0,2012-02-13,53.230073,-0.540341
63518,Poundstretcher,Exempt,nan,nan,nan,2014-02-03,53.2415,-0.507703
63519,Poundstretcher Limited,Exempt,nan,nan,nan,2014-10-13,53.215272,-0.605317
63520,Premier,4,0,5,10,2013-07-05,53.228657,-0.537003
63521,Premier Inn,5,0,0,5,2013-06-07,,
63522,Premier Linko,1,10,15,20,2015-01-16,53.244348,-0.519863
63523,Premier Roman Pavement,4,5,5,10,2013-08-22,53.232855,-0.512319
63524,Prezzo,5,5,5,5,2013-06-13,53.228905,-0.544021
63525,Prince of Wales Inn,5,5,5,5,2014-01-22,53.235801,-0.538198
63526,Priory City of Lincoln Academy - Sports Centre,5,5,0,5,2013-03-01,53.213135,-0.573563
63527,Pronto Pizza,5,5,5,5,2014-07-21,53.215618,-0.60562
63528,Proper Pasty Company Ltd,5,5,5,5,2014-08-05,53.228776,-0.539396
63529,Pyewipe Inn,5,5,0,5,2014-03-17,53.24586,-0.580613
63530,Queenies Cookies,5,5,0,0,2012-08-03,,
63531,Quo Vadis,1,15,15,20,2014-02-13,53.2923,-0.744138
63532,R Foster & Son Limited,5,5,5,5,2014-03-25,53.230564,-0.529073
63533,R V Howe Limited,3,10,5,10,2014-01-30,53.225064,-0.540901
63534,R W Stokes & Sons Limited,5,5,5,5,2013-02-22,53.228525,-0.540888
63535,R W Stokes & Sons Ltd,Exempt,nan,nan,nan,2013-08-08,53.229846,-0.541607
63536,Rams,4,5,0,10,2013-06-07,53.244348,-0.519863
63537,Range Coffee House,4,10,0,5,2013-12-16,53.222508,-0.55691
63538,RAOB Club,5,5,5,5,2011-10-24,53.217678,-0.53531
63539,Rasen House,5,0,0,0,2014-01-16,53.238291,-0.540391
63540,Ravendale Cafe,4,5,5,10,2013-03-25,53.246059,-0.531029
63541,Red Lantern,5,5,5,0,2012-11-05,53.230664,-0.523361
63542,Redcote Residential Care Ltd,5,0,5,0,2013-08-16,53.200899,-0.582548
63543,Regal Fish & Chips,5,5,0,0,2013-10-09,53.222832,-0.544332
63544,Regency Club,3,10,10,10,2014-07-28,53.225064,-0.540901
63545,Regent Fish Bar,4,5,10,5,2013-08-21,53.221256,-0.600419
63546,Revival Craft Cafe,5,5,0,0,2010-08-25,53.231542,-0.542044
63547,Revolution Lincoln,5,5,0,0,2013-09-03,53.288454,-0.648974
63548,Rhythm & Booze,4,5,10,5,2013-06-03,53.202829,-0.558365
63549,Ribs 'N' Bibs,5,5,5,5,2013-06-20,53.231902,-0.53917
63550,Ridgeway House,5,0,0,0,2014-02-12,53.231987,-0.546898
63551,Rileys,3,10,10,5,2014-02-05,53.230095,-0.538452
63552,Ripon Street Stores,4,10,5,5,2014-03-24,53.222175,-0.535487
63553,Risby Green Sheltered Housing,5,5,5,5,2012-02-28,53.211177,-0.580547
63554,Ritz,5,5,0,0,2013-03-26,53.223875,-0.543622
63555,Ritz Cinema,1,15,10,20,2013-05-22,53.223875,-0.543622
63556,River Island Clothing Co,Exempt,nan,nan,nan,2013-01-10,53.227865,-0.541285
63557,Riverside Cafe,5,5,5,5,2013-08-22,53.228055,-0.537728
63558,Riyaz Indian Takeaway,1,20,10,10,2013-11-18,53.218113,-0.545121
63559,Robins Burger Bar,4,5,10,5,2014-01-28,53.227323,-0.540359
63560,Rock Haven,4,5,0,10,2014-02-26,53.230395,-0.539461
63561,Rock Paper Scissors,4,10,5,5,2013-02-22,53.229356,-0.541219
63562,Rock Paper Scissors,Exempt,nan,nan,nan,2013-02-21,,
63563,Roly's Fudge Pantry,5,5,5,0,2013-11-08,53.233937,-0.538696
63564,Roman Wharf Nursing Home,4,0,5,10,2014-09-10,53.231602,-0.555825
63565,Romans Place,4,0,10,10,2013-08-16,53.233872,-0.540781
63566,Romeos Pizza,4,5,5,10,2014-04-14,53.23076,-0.537651
63567,Rose Orchard Restaurant,5,0,5,5,2014-01-22,53.230395,-0.539461
63568,Royal Mail,5,5,0,0,2013-06-07,53.224074,-0.545248
63569,Royal Tandoori Restaurant,5,5,5,5,2013-03-20,53.222832,-0.544332
63570,Royal William IV,1,10,15,20,2014-12-11,53.228905,-0.544021
63571,Ruckland Court,5,0,0,5,2014-12-29,53.24945,-0.542844
63572,Ruston Sports & Social Club,5,0,5,5,2014-04-09,53.201649,-0.562566
63573,Safe Hands Industries,5,5,5,5,2013-01-16,53.196136,-0.567601
63574,Saffron,2,15,10,10,2014-10-01,53.23506,-0.537909
63575,Sainsburys,5,0,0,0,2013-02-12,53.230903,-0.550126
63576,Sainsburys Supermarkets Ltd (Supermarket),5,0,5,0,2014-04-08,53.204852,-0.580786
63577,Salon 2,5,5,5,5,2014-12-02,53.236973,-0.543687
63578,Salvation Army Community Centre,4,10,5,0,2012-03-19,53.222043,-0.544538
63579,Salvation Army Market Rasen,Exempt,nan,nan,nan,2013-04-15,,
63580,Sammy's Kitchen,5,5,5,5,2014-06-23,53.251423,-0.53146
63581,Sanctuary in the Bail,4,5,5,10,2013-10-01,53.235801,-0.538198
63582,Sarga Premier,5,5,0,5,2014-07-21,53.239395,-0.545433
63583,Savers Health & Beauty,5,5,5,5,2013-01-21,53.227437,-0.538663
63584,Savill Guest House,5,5,0,0,2012-02-01,53.239499,-0.548052
63585,Scout HQ,5,5,5,5,2013-03-05,53.218595,-0.609666
63586,Sea Queen,5,5,5,5,2014-08-11,53.202829,-0.558365
63587,Select and Save,5,0,0,5,2013-12-17,53.228742,-0.530034
63588,Shake That!,5,5,5,5,2014-04-29,53.205828,-0.550598
63589,Sharpes Sweets Limited,5,0,0,5,2012-02-13,53.227647,-0.539629
63590,Shear Delight Cakes,5,5,0,5,2013-04-26,,
63591,Shell UK Limited,5,0,0,0,2012-12-13,53.241714,-0.546179
63592,Siemens Industrial Turbomachinery Limited,5,0,0,0,2014-01-15,53.234104,-0.527408
63593,Siemens Industrial Turbomachinery Limited,5,0,0,0,2014-01-13,53.226311,-0.534791
63594,Sign Of The Fish,5,0,5,0,2013-08-02,53.227437,-0.538663
63595,Simons Construction Limited,Exempt,nan,nan,nan,2014-07-21,53.206519,-0.612474
63596,Sir Francis Hill Primary School,4,5,5,10,2014-01-14,53.216955,-0.556393
63597,Sir Joseph Banks Conservatory (Inc Come to Life),4,5,0,10,2013-10-04,53.235331,-0.543878
63598,Slug & Lettuce,3,10,10,10,2014-09-16,53.230918,-0.539578
63599,Small Beer Ltd,5,0,5,5,2012-11-20,53.219265,-0.534987
63600,Smiths Central Takeaway,5,0,5,0,2013-08-15,53.241147,-0.514039
63601,SNH Cakes & Crafts,5,0,0,0,2012-05-09,,
63602,Sobraon Barracks,5,0,0,0,2013-03-25,53.245921,-0.549813
63603,Something Different,5,0,5,5,2014-02-18,,
63604,South Park Guest House,5,5,0,5,2012-11-01,53.215236,-0.544409
63605,South Park News,5,0,0,0,2011-12-08,53.216076,-0.546163
63606,Spanish Trading Co,5,5,5,5,2014-06-06,53.221203,-0.544237
63607,Spar,5,5,5,0,2013-01-07,53.194408,-0.571221
63608,Spar,5,5,5,5,2013-05-28,53.230756,-0.537351
63609,Spar Filling Station,5,5,0,0,2013-08-20,53.173882,-0.650164
63610,Spice House,3,10,10,10,2014-04-22,53.218113,-0.545121
63611,Spice Merchant Food Store,5,0,0,0,2014-06-09,53.233283,-0.551409
63612,Sports Direct Fitness,1,10,10,20,2012-08-01,53.226383,-0.525336
63613,St Barnabas Hospice,5,5,0,0,2013-08-19,53.238294,-0.531895
63614,St Botolphs Church,5,5,5,5,2012-03-12,,
63615,St Catherines Pharmacy,Exempt,nan,nan,nan,2014-02-17,53.210104,-0.548896
63616,St Christophers School,3,10,10,10,2015-01-06,53.196136,-0.567601
63617,St Claires Nursing Home,5,5,5,5,2014-07-15,53.21502,-0.601461
63618,St Clement's Lodge,5,0,0,5,2012-11-14,53.235868,-0.531243
63619,St Columbas Church Centre,5,5,5,5,2014-08-13,53.193933,-0.554891
63620,St Faith & St Martin C E Junior School,5,5,0,5,2015-02-04,53.234881,-0.549751
63621,St Faith's C of E Infant School,5,5,0,0,2014-05-19,53.233038,-0.54905
63622,St Francis School,5,0,5,5,2014-03-27,53.248784,-0.540558
63623,St George's Church & Community Hall,5,0,0,0,2014-10-03,53.200361,-0.575125
63624,St Georges Hospital,5,5,0,0,2014-01-15,53.24085507,-0.55681464
63625,St Giles Children's Centre,5,5,5,5,2014-02-03,53.245196,-0.521572
63626,St Giles Community Centre,5,0,5,0,2012-02-02,53.245663,-0.516446
63627,St Giles Fisheries,4,5,0,10,2015-01-05,53.244348,-0.519863
63628,St Giles Nursery School,5,0,0,5,2012-10-11,53.243106,-0.517598
63629,St Hugh's Catholic Primary School,5,0,5,5,2013-12-16,53.213263,-0.611088
63630,St Hugh's R C Church,4,0,5,10,2012-02-21,53.230642,-0.535407
63631,St John The Baptist Church Hall,5,5,0,5,2014-07-03,53.247657,-0.532309
63632,St Lukes Church Kitchen,5,0,5,0,2013-01-16,53.21665,-0.607039
63633,St Mary Le Wigford Church,4,10,10,0,2013-11-15,53.226903,-0.539834
63634,St Mary's Preparatory School,5,0,0,0,2013-03-05,53.233643,-0.533043
63635,St Peter & St Pauls Catholic Voluntary Academy,5,0,5,5,2014-03-26,53.211318,-0.56374
63636,St Peter and St Paul Parish Centre,5,5,5,5,2013-01-28,53.210821,-0.564266
63637,St Peter at Gowts Church of England Primary School,5,0,0,0,2013-05-09,53.220243,-0.542862
63638,St Peter In Eastgate Church,5,5,5,5,2014-08-18,53.23506,-0.537909
63639,St Peter in Eastgate Infant School,5,0,5,0,2012-09-14,53.235207,-0.530876
63640,Stags Head,3,10,10,10,2014-07-22,53.241221,-0.537474
63641,Staples,Exempt,nan,nan,nan,2012-02-17,53.22312,-0.552486
63642,Starbucks,5,0,0,0,2014-03-28,53.229801,-0.546732
63643,Starbucks Coffee,5,0,0,0,2014-03-10,53.227991,-0.540621
63644,Starbucks Coffee Company (UK) Ltd,5,5,0,0,2015-01-07,53.22312,-0.552486
63645,Steep Hill Wines,5,0,0,5,2014-01-17,53.233937,-0.538696
63646,Stems From Lincoln,5,5,5,5,2013-01-10,53.207274,-0.550504
63647,Steve Fruit and Veg,4,5,5,10,2013-02-13,,
63648,Stokes At The Collection,5,0,5,5,2014-05-19,53.232154,-0.537768
63649,Strugglers Inn,5,5,5,5,2014-06-09,53.236011,-0.541442
63650,Strut House,5,0,0,5,2014-05-07,53.213329,-0.547215
63651,Subway,5,5,5,0,2013-08-14,53.242588,-0.559636
63652,Subway,4,10,0,5,2013-03-08,53.225912,-0.541875
63653,Subway,5,5,0,0,2013-08-06,53.229179,-0.54145
63654,Sudbrooke Drive Community Centre,Exempt,nan,nan,nan,2010-07-13,53.247657,-0.532309
63655,Sue's Kitchen,5,5,0,5,2014-03-19,53.173882,-0.650164
63656,Sugar Cubes,5,5,5,5,2014-10-31,53.230806,-0.541439
63657,Sugarart,5,0,0,5,2014-02-24,53.218113,-0.545121
63658,Suma Store,1,15,15,20,2014-04-23,53.223152,-0.536697
63659,Sunny's Plaice,4,5,5,10,2014-08-11,53.191377,-0.556923
63660,Supasave,5,0,5,5,2012-11-02,53.23075,-0.540513
63661,Superbowl Lincoln,5,5,0,5,2013-09-10,53.222508,-0.55691
63662,Superdrug Stores plc,5,5,5,5,2012-02-23,53.226083,-0.542589
63663,Superdrug Stores Plc,5,0,5,5,2012-07-26,53.228776,-0.539396
63664,Sure Start Childrens Centre,5,0,5,5,2014-08-07,53.217083,-0.601768
63665,Swallowbeck Methodist Church,5,5,0,0,2014-03-14,53.199098,-0.569463
63666,Swanholme Tavern,5,5,0,0,2013-09-17,53.203029,-0.597719
63667,Swedish Markets,5,5,5,5,2012-12-05,,
63668,Sweets From Viktorija's Kitchen,4,0,0,10,2014-10-08,,
63669,T & R Polish Butcher Ltd,3,5,10,10,2014-05-13,53.218113,-0.545121
63670,T K Maxx,Exempt,nan,nan,nan,2014-04-28,53.222508,-0.55691
63671,Tamar House,5,5,5,5,2014-07-21,53.246725,-0.537661
63672,Tap And Spile,5,5,5,5,2012-08-14,53.231254,-0.540555
63673,Tashady,5,5,5,5,2013-01-23,53.212845,-0.606025
63674,Tastes of Lincolnshire,5,5,5,5,2012-06-21,53.226494,-0.524164
63675,Tasty Vintage,5,5,5,5,2014-12-03,53.232992,-0.538608
63676,Tates Spar,5,5,5,5,2014-04-28,53.2259,-0.543134
63677,Taverna Espanola,4,5,5,10,2014-06-04,53.23459,-0.539153
63678,Taxi Central Cafe,4,5,5,10,2014-05-07,53.224759,-0.5271
63679,Tennyson Court Partnership,5,5,5,5,2012-03-06,53.23565,-0.553097
63680,Tequillas,4,5,5,10,2014-02-18,53.235801,-0.538198
63681,Tesco,5,5,5,0,2013-06-24,53.231075,-0.539887
63682,Tesco,4,10,0,5,2013-05-01,53.226083,-0.542589
63683,Tesco Stores Limited (Supermarket),5,5,0,0,2014-03-19,53.222828,-0.532304
63684,Tesco Stores Limited (Supermarket),5,0,0,5,2014-10-01,53.23989,-0.515611
63685,Tesco Stores Ltd,5,5,0,5,2013-08-15,53.204229,-0.55143
63686,Thai Moon Restaurant,4,5,5,10,2013-11-20,53.234964,-0.538886
63687,Thailand No 1,4,5,5,10,2014-09-03,53.235801,-0.538198
63688,Thaxter's Cake Creations,5,5,0,5,2013-06-04,,
63689,The Abbeyfield Society,5,5,5,5,2014-01-28,53.242503,-0.540862
63690,The Aga Shop,5,0,0,5,2013-10-11,53.237101,-0.507512
63691,The Allotment House,5,0,0,5,2013-03-15,,
63692,The Angel Coffee House,5,5,5,5,2014-03-17,53.232038,-0.530491
63693,The Apple Tree,3,10,10,10,2013-07-17,53.22747,-0.541403
63694,The Armoury Cafe Bar,4,5,5,10,2013-09-10,53.2298,-0.537114
63695,The Bar Food Restaurant,5,0,0,5,2014-02-14,53.288454,-0.648974
63696,The Barge On The Brayford,5,0,5,5,2014-09-10,53.229801,-0.546732
63697,The Beauty Loft,Exempt,nan,nan,nan,2014-09-09,53.229356,-0.541219
63698,The Black Swan,1,15,15,20,2014-02-12,53.215272,-0.605317
63699,The Bowl Full Tapas Bar,5,0,0,5,2014-04-10,53.234958,-0.553884
63700,The Bridge Community Venue,5,0,0,5,2012-01-13,53.209187,-0.548927
63701,The Bronze Pig,5,0,5,5,2013-03-28,53.231175,-0.541502
63702,The Burton Arms,4,10,0,10,2013-08-05,53.232018,-0.543481
63703,The Cafe at Hartsholme Park Ltd,5,5,0,0,2014-03-17,53.214799,-0.583452
63704,The Cake Cupboard,5,0,0,5,2012-09-03,53.23346,-0.558594
63705,The Castle Hotel,4,5,10,5,2014-11-11,53.2359161377,-0.538913309574
63706,The Catering Saint,5,0,5,5,2013-09-26,53.241971,-0.528247
63707,The Cheese Society,5,5,5,5,2013-06-26,53.231902,-0.53917
63708,The Cheese Society,5,5,5,5,2012-12-19,53.231573,-0.540185
63709,The Cloud Bar,5,0,5,0,2013-02-19,53.234964,-0.538886
63710,The Collection,5,5,5,5,2012-11-15,53.232154,-0.537768
63711,The Courtyard,4,5,5,10,2014-07-17,53.230796,-0.52893
63712,The Crown & Arrows,5,5,5,0,2014-06-04,53.205337,-0.576278
63713,The Crown Inn,5,5,5,5,2013-02-28,53.229881,-0.530505
63714,The Crows Nest,3,10,10,10,2014-07-14,53.191377,-0.556923
63715,The Cupcake Company,5,0,0,0,2014-11-21,,
63716,The Dog & Bone,5,5,5,0,2014-10-10,53.229858,-0.529397
63717,The Duke William Hotel,4,10,5,5,2014-11-07,53.236363,-0.538598
63718,The Engine Shed,5,0,0,5,2013-03-05,53.228843,-0.549251
63719,The Gatehouse Inn,5,5,5,5,2014-08-06,53.204387,-0.551125
63720,The George & Dragon,4,5,5,10,2013-05-01,53.221616,-0.544927
63721,The Golden Cross,5,0,0,5,2012-02-27,53.218113,-0.545121
63722,The Green Dragon,1,5,15,20,2015-01-08,53.228424,-0.537041
63723,The Handmade Burger Co,5,0,5,5,2014-03-21,53.228905,-0.544021
63724,The Horse & Groom,5,5,0,0,2014-02-12,53.23047,-0.547803
63725,The Ice Cream Parlour,5,5,5,5,2013-06-07,53.234909,-0.538798
63726,The Ivy Tavern,4,10,5,5,2014-10-30,53.239463,-0.538538
63727,The Jews House,5,0,0,5,2014-01-17,53.231902,-0.53917
63728,The Lancaster School,5,0,5,5,2014-04-25,53.215618,-0.60562
63729,The Laughing Buddha,2,10,15,10,2014-12-15,53.230442,-0.537407
63730,The Laurels,5,0,0,5,2014-08-19,53.248481,-0.51386
63731,The Lincoln Imp,5,5,5,5,2012-02-01,53.249857,-0.537179
63732,The Lincolnshire Poacher,4,10,5,5,2013-08-14,53.245698,-0.501982
63733,The Little Baking Company,5,0,0,0,2013-08-07,,
63734,The Little Cupcake House,5,5,5,5,2014-01-24,,
63735,The Market Kitchen,5,0,0,5,2014-07-14,53.227437,-0.538663
63736,The Modern Indian Cuisine,5,0,5,5,2014-05-13,53.223306,-0.543387
63737,The Morning Star,5,0,0,5,2014-08-19,53.235207,-0.530876
63738,The Old Bakery Ltd,5,0,5,5,2013-01-17,53.236973,-0.543687
63739,The Old Palace,5,5,0,5,2014-04-23,53.233379,-0.537217
63740,The Old Station Nursery,5,5,5,5,2013-11-19,53.230704,-0.534581
63741,The Old Station Nursery Ltd,5,5,0,5,2013-11-19,53.229281,-0.549057
63742,The Orders of St Johns Care Trust,5,0,0,0,2014-02-10,53.212242,-0.582383
63743,The Pelham Bridge,5,5,0,5,2013-01-11,53.227526,-0.536398
63744,The Plough,5,5,5,0,2013-02-20,53.202359,-0.557407
63745,The Plough Boy,4,0,0,10,2012-02-13,53.236973,-0.543687
63746,The Pop Up Pizza Company,4,10,0,5,2014-08-18,,
63747,The Priory Academy LSST,5,5,0,5,2014-04-23,53.208222,-0.546429
63748,The Priory Cafe,Exempt,nan,nan,nan,2013-05-01,53.213965,-0.547822
63749,The Priory City of Lincoln Academy,5,0,0,5,2014-05-12,53.213135,-0.573563
63750,The Priory Federation of Academies,5,0,0,5,2014-09-04,53.208222,-0.546429
63751,The Priory LSST,5,5,5,5,2014-04-23,53.208222,-0.546429
63752,The Priory Witham Academy,3,5,10,10,2010-03-11,53.202429,-0.569128
63753,The Priory Witham Academy,4,10,0,5,2014-11-07,53.204413,-0.571921
63754,The Queen In The West,5,5,5,5,2014-07-14,53.233804,-0.553623
63755,The Raj,5,5,5,5,2012-11-05,53.215618,-0.60562
63756,The Range Home & Leisure,Exempt,nan,nan,nan,2014-11-07,53.222508,-0.55691
63757,The Rest At St Michaels,5,0,5,5,2013-12-20,53.232992,-0.538608
63758,The Scene,5,5,5,5,2014-02-18,53.230248,-0.54429
63759,The Scrummylicious Cake Company,5,5,0,0,2014-10-01,53.252375,-0.53504
63760,The Shakespeare,3,10,5,10,2013-02-11,53.217644,-0.545781
63761,The Showroom,5,5,0,5,2014-01-28,53.209258,-0.57489
63762,The Sincil School,5,0,0,0,2014-01-13,53.217804,-0.538257
63763,The Sizzling Griddle,5,0,5,5,2013-05-01,53.237529,-0.544283
63764,The Square Sail,5,5,0,0,2014-01-27,53.228905,-0.544021
63765,The Still,3,10,10,10,2014-07-28,53.22897,-0.539809
63766,The Strait and Narrow,5,5,5,5,2013-02-08,53.23305,-0.54412
63767,The Straw Collection,5,0,0,0,2014-11-10,,
63768,The Swan,5,0,0,5,2015-01-06,53.22928,-0.549056
63769,The Sweet Stall,5,5,5,5,2014-09-08,,
63770,The Tennyson Guest House,5,0,0,5,2013-04-02,53.215236,-0.544409
63771,The Think Tank,5,0,0,0,2014-09-04,53.228526,-0.55497
63772,The Traditional Meat Co (1),1,10,10,20,2014-04-25,53.216389,-0.568333
63773,The Traditional Meat Co (2),5,5,5,5,2014-02-27,53.222915,-0.587903
63774,The Treaty of Commerce,2,10,15,10,2013-07-03,53.226083,-0.542589
63775,The Varsity,5,5,0,5,2013-10-15,53.229356,-0.541219
63776,The Victoria,4,10,5,5,2014-01-28,53.23504,-0.542884
63777,The Vietnamese Coffee Company Ltd,5,0,0,0,2012-07-20,,
63778,The West End Tap,5,5,5,5,2014-02-28,53.232108,-0.55016
63779,The Whisky Shop,5,5,0,5,2014-03-05,53.235801,-0.538198
63780,The William Foster,5,5,0,0,2013-01-24,53.229179,-0.54145
63781,The Witch & The Wardrobe,5,5,0,0,2013-01-15,53.228512,-0.537667
63782,Thomas 2,5,0,5,5,2014-04-07,53.228657,-0.537003
63783,Thomas's,5,5,5,5,2013-12-09,53.23506,-0.537909
63784,Thom-P-Afro Caribbean Foods,3,10,10,10,2013-07-09,53.224018,-0.541386
63785,Thorntons Plc,5,5,5,5,2013-01-10,53.288454,-0.648974
63786,Time Out - Main Reception,5,0,5,5,2014-04-07,53.233585,-0.519665
63787,Time Out - Maternity Wing,5,0,0,0,2014-01-16,53.233585,-0.519665
63788,Time Out - Oncology,5,0,0,0,2011-11-07,53.233585,-0.519665
63789,Time Out Food Bar,5,0,0,0,2014-04-07,53.233585,-0.519665
63790,Toby Carvery,5,5,5,5,2013-04-09,53.2259,-0.543134
63791,Todays Catch,5,5,0,0,2014-11-24,53.230933,-0.548926
63792,Top Nosh,5,5,5,5,2013-08-20,53.230248,-0.54429
63793,Topkapi,3,10,10,10,2014-05-14,53.223875,-0.543622
63794,Tower Action Group,Exempt,nan,nan,nan,2013-09-27,53.232982,-0.512374
63795,Tower Hotel Ltd,4,10,5,5,2013-08-06,53.236151,-0.540419
63796,Toys R Us,Exempt,nan,nan,nan,2012-11-16,53.22525,-0.547995
63797,TPS Chilled Foods,5,5,0,0,2014-04-10,53.202556,-0.610236
63798,Tracys Treats,5,5,0,0,2013-05-30,,
63799,Traditional Meat Co,5,5,5,5,2014-06-12,53.222915,-0.587903
63800,Travis Perkins,Exempt,nan,nan,nan,2014-08-22,53.240341,-0.555246
63801,Truly Homemade,5,0,0,5,2012-02-27,53.233082,-0.548179
63802,Uni Shop,5,0,0,5,2012-02-14,53.228843,-0.549251
63803,Unison Club,5,5,5,5,2013-05-29,53.232369,-0.542076
63804,United Lincolnshire Hospitals NHS Trust,5,5,5,5,2014-07-25,53.233585,-0.519665
63805,University of Lincoln,5,5,0,0,2013-02-21,53.228843,-0.549251
63806,USA Fried Chicken,4,5,5,10,2013-09-05,53.230526,-0.540625
63807,Veggie Village,5,0,5,5,2013-12-06,,
63808,Vision Care @ No 8,Exempt,nan,nan,nan,2014-02-17,53.235261,-0.538951
63809,W Boyes & Co Limited,Exempt,nan,nan,nan,2013-01-15,53.227437,-0.538663
63810,W H Smith,5,5,5,5,2013-10-30,53.233585,-0.519665
63811,W H Smith Limited,Exempt,nan,nan,nan,2007-02-05,53.227647,-0.539629
63812,Wagamama,5,0,5,0,2012-11-14,53.228905,-0.544021
63813,Waitrose (Supermarket),5,5,0,0,2014-11-19,53.251391,-0.520939
63814,Walkabout Inn,4,10,5,5,2013-12-12,53.230073,-0.540341
63815,Wallis General Store,5,5,5,0,2013-05-01,53.217681,-0.553942
63816,Waterstones,Exempt,nan,nan,nan,2014-04-28,53.228851,-0.540352
63817,Waterstones,Exempt,nan,nan,nan,2014-04-28,53.227323,-0.540359
63818,Welbourn Gardens Day Nursery,4,10,0,5,2014-01-08,53.250273,-0.530825
63819,West Dean Residential Home,5,5,0,5,2014-02-12,53.233884,-0.546174
63820,West End Chip Shop,5,5,5,5,2014-08-06,53.232367,-0.554421
63821,West End Foodstore,3,10,5,10,2015-01-12,53.234958,-0.553884
63822,Westgate Academy,5,5,0,0,2014-05-19,53.2365112305,-0.542504251003
63823,Westgate Stores,4,5,5,10,2013-01-18,53.237101,-0.543098
63824,Westlyn Guest House,5,5,5,5,2012-07-20,53.232117,-0.552407
63825,White Hart Hotel,5,0,5,5,2013-11-01,53.235801,-0.538198
63826,Wicked & Delicious,5,0,5,5,2014-10-31,,
63827,Wickes Building Supplies,Exempt,nan,nan,nan,2014-10-08,53.237101,-0.507512
63828,Widow Cullens Well,5,5,5,5,2014-07-29,53.233937,-0.538696
63829,Wig & Mitre,5,5,5,5,2013-01-15,53.224074,-0.545248
63830,Wilkinson Hardware Stores Limited,5,0,5,0,2013-10-08,53.228346,-0.54019
63831,Wing Wah,5,5,5,5,2014-01-15,53.250608,-0.516454
63832,Wm Morrison Supermarkets plc,5,0,0,0,2012-03-14,53.224352,-0.555485
63833,Wm Morrison Supermarkets plc (Supermarket),4,5,10,5,2014-11-21,53.224352,-0.555485
63834,Woodlands Infant & Nursery School,5,0,0,5,2014-05-12,53.221294,-0.602111
63835,Woodys Cafe,4,10,5,5,2014-02-19,53.220472,-0.602572
63836,Wordsworth House,4,0,10,5,2014-07-22,53.239499,-0.548052
63837,Wragby Road Newsagents,5,5,0,5,2012-04-26,53.241147,-0.514039
63838,Wren Guest House,4,5,5,10,2013-02-01,53.211281,-0.547329
63839,Yarborough Leisure Centre,3,5,10,10,2013-10-15,53.248698,-0.538733
63840,Ye Olde Crowne,5,5,5,5,2014-09-12,53.230395,-0.539461
63841,Yellowbellys,5,0,0,0,2014-02-14,53.235261,-0.538951
63842,Yo Yo In Beijing,2,10,15,10,2014-11-11,53.2259,-0.543134
63843,Young Tots Nursery,5,0,0,0,2014-10-16,53.234821,-0.511382
63844,Your Pop & Floss,5,0,5,5,2012-01-12,53.227437,-0.538663
63845,Yvonne Radley,5,0,0,5,2013-05-30,,
63846,Zabka,2,10,15,10,2014-01-30,53.223152,-0.536697
63847,Zesty Limes,5,5,0,0,2014-11-26,,
63848,Zing Cafe Bar,3,10,5,10,2013-11-07,53.228843,-0.549251
63849,Zizzi,5,5,0,0,2013-08-30,53.228905,-0.544021
