,addressline1,addressline2,addressline3,addressline4,businessname,businesstype,businesstypeid,confidenceinmanagement,extractdate,fhrsid,hygiene,itemcount,latitude,localauthoritybusinessid,localauthoritycode,localauthorityemailaddress,localauthorityname,localauthoritywebsite,longitude,postcode,ratingdate,ratingkey,ratingvalue,returncode,schemetype,structural
62873,,,,,2 Little Cupcakes,Restaurant/Cafe/Canteen,1,5,,680757,0,,,46374,221,ehcnet@lincoln.gov.uk,Lincoln City,http://www.lincoln.gov.uk,,,2014-05-20,fhrs_5_en-GB,5,,FHRS,0
62874,,,,,A Sweet Message,Other catering premises,7841,5,,578558,5,,,46234,221,ehcnet@lincoln.gov.uk,Lincoln City,http://www.lincoln.gov.uk,,,2013-07-22,fhrs_5_en-GB,5,,FHRS,5
62875,Factory Canteen,Long Leys Road,Lincoln,,A W Curtis & Sons Ltd,Restaurant/Cafe/Canteen,1,5,,330659,5,,53.24033300000000,966,221,ehcnet@lincoln.gov.uk,Lincoln City,http://www.lincoln.gov.uk,-0.55680500000000,LN1 1DX,2014-02-03,fhrs_5_en-GB,5,,FHRS,5
62876,R425 EJV Mobile Van,Long Leys Road,Lincoln,,A W Curtis Bakers & Butchers,Mobile caterer,7846,10,,329769,5,,53.24033300000000,1132,221,ehcnet@lincoln.gov.uk,Lincoln City,http://www.lincoln.gov.uk,-0.55680500000000,LN1 1DX,2014-02-12,fhrs_4_en-GB,4,,FHRS,5
62877,S487 GKS Mobile Van,Long Leys Road,Lincoln,,A W Curtis Bakers & Butchers,Mobile caterer,7846,10,,647385,5,,53.24033300000000,46337,221,ehcnet@lincoln.gov.uk,Lincoln City,http://www.lincoln.gov.uk,-0.55680500000000,LN1 1DX,2014-02-12,fhrs_4_en-GB,4,,FHRS,5
62878,Y806 0FE Mobile Van,Long Leys Road,Lincoln,,A W Curtis Bakers & Butchers,Mobile caterer,7846,0,,330055,0,,53.24033300000000,40429,221,ehcnet@lincoln.gov.uk,Lincoln City,http://www.lincoln.gov.uk,-0.55680500000000,LN1 1DX,2014-02-12,fhrs_5_en-GB,5,,FHRS,0
62879,Lincoln Baptist Church,Croft Street,Lincoln,,Abbey Pre School,Hospitals/Childcare/Caring Premises,5,5,,330432,0,,53.22908700000000,43808,221,ehcnet@lincoln.gov.uk,Lincoln City,http://www.lincoln.gov.uk,-0.53176000000000,LN2 5AX,2015-01-06,fhrs_4_en-GB,4,,FHRS,10
62880,,Unit 4 Tentercroft Street,Lincoln,,Acts Trust,Distributors/Transporters,7,5,,330485,5,,53.22506400000000,44282,221,ehcnet@lincoln.gov.uk,Lincoln City,http://www.lincoln.gov.uk,-0.54090100000000,LN5 7DB,2013-08-09,fhrs_5_en-GB,5,,FHRS,5
62881,,25 Lindum Road,Lincoln,,Adam & Eve,Pub/bar/nightclub,7843,5,,330655,0,,53.23323900000000,96,221,ehcnet@lincoln.gov.uk,Lincoln City,http://www.lincoln.gov.uk,-0.53236700000000,LN2 1NT,2014-05-07,fhrs_5_en-GB,5,,FHRS,5
62882,,18 Nelson Street,Lincoln,,Admiral Guest House,Hotel/bed & breakfast/guest house,7842,0,,330306,5,,53.23208900000000,420,221,ehcnet@lincoln.gov.uk,Lincoln City,http://www.lincoln.gov.uk,-0.55079000000000,LN1 1PJ,2012-11-09,fhrs_5_en-GB,5,,FHRS,0
62883,,303 Wolsey Way,Lincoln,,Agra,Takeaway/sandwich shop,7844,10,,330323,5,,53.25060800000000,42180,221,ehcnet@lincoln.gov.uk,Lincoln City,http://www.lincoln.gov.uk,-0.51645400000000,LN2 4SX,2014-02-18,fhrs_4_en-GB,4,,FHRS,5
62884,,260-266 Wragby Road,Lincoln,,Aldi,Retailers - supermarkets/hypermarkets,7840,0,,330403,0,,53.24114700000000,43468,221,ehcnet@lincoln.gov.uk,Lincoln City,http://www.lincoln.gov.uk,-0.51403900000000,LN2 4PX,2012-01-17,fhrs_5_en-GB,5,,FHRS,0
62885,,,,,Aldi,Retailers - supermarkets/hypermarkets,7840,0,,712364,0,,,46416,221,ehcnet@lincoln.gov.uk,Lincoln City,http://www.lincoln.gov.uk,,,2014-10-31,fhrs_5_en-GB,5,,FHRS,0
62886,,9 Alexander Walk,Lincoln,,Alexanders,Restaurant/Cafe/Canteen,1,5,,330221,0,,53.24806000000000,41213,221,ehcnet@lincoln.gov.uk,Lincoln City,http://www.lincoln.gov.uk,-0.50606600000000,LN2 4SN,2013-07-02,fhrs_5_en-GB,5,,FHRS,0
62887,,Exchange Road,Lincoln,,Allied Bakeries,Distributors/Transporters,7,,,329814,,,53.20073800000000,121,221,ehcnet@lincoln.gov.uk,Lincoln City,http://www.lincoln.gov.uk,-0.59244900000000,LN6 3JZ,2012-10-08,fhrs_exempt_en-GB,Exempt,,FHRS,
62888,,Altham Terrace,Lincoln,,Altham Court Nursing Home,Hospitals/Childcare/Caring Premises,5,0,,329973,0,,53.21350500000000,325,221,ehcnet@lincoln.gov.uk,Lincoln City,http://www.lincoln.gov.uk,-0.55135700000000,LN6 7SP,2013-12-16,fhrs_5_en-GB,5,,FHRS,0
62889,,376 High Street,Lincoln,,American Fried Chicken,Takeaway/sandwich shop,7844,5,,330279,5,,53.22298300000000,41686,221,ehcnet@lincoln.gov.uk,Lincoln City,http://www.lincoln.gov.uk,-0.54345800000000,LN5 7RY,2014-08-11,fhrs_5_en-GB,5,,FHRS,5
62890,,Boundary Street,Lincoln,,Ancaster Day Centre,Restaurant/Cafe/Canteen,1,0,,329967,0,,53.20971800000000,319,221,ehcnet@lincoln.gov.uk,Lincoln City,http://www.lincoln.gov.uk,-0.55187400000000,LN5 8PF,2013-08-29,fhrs_5_en-GB,5,,FHRS,0
62891,"Enterprise House, Witham Park",Waterside South,Lincoln,,Anglian Water Services Limited,Restaurant/Cafe/Canteen,1,0,,330599,0,,53.22577400000000,848,221,ehcnet@lincoln.gov.uk,Lincoln City,http://www.lincoln.gov.uk,-0.52770900000000,LN5 7JE,2014-03-19,fhrs_5_en-GB,5,,FHRS,0
62892,,297 High Street,Lincoln,,Ann Summers,Retailers - other,4613,,,330537,,,53.22885100000000,582,221,ehcnet@lincoln.gov.uk,Lincoln City,http://www.lincoln.gov.uk,-0.54035200000000,LN2 1AF,2013-04-29,fhrs_exempt_en-GB,Exempt,,FHRS,
62893,,74 Monks Road,Lincoln,,Arboretum Corner,Retailers - other,4613,0,,330038,0,,53.23081700000000,401,221,ehcnet@lincoln.gov.uk,Lincoln City,http://www.lincoln.gov.uk,-0.52988800000000,LN2 5HX,2015-01-05,fhrs_5_en-GB,5,,FHRS,0
62894,Unit 11 The Carlton Centre,Carlton Boulevard,Lincoln,,Argos,Retailers - other,4613,,,330460,,,53.24243700000000,44141,221,ehcnet@lincoln.gov.uk,Lincoln City,http://www.lincoln.gov.uk,-0.50071700000000,LN2 4WJ,2014-09-08,fhrs_exempt_en-GB,Exempt,,FHRS,
62895,,151 High Street,Lincoln,,Argos Limited,Retailers - other,4613,,,330553,,,53.22504700000000,685,221,ehcnet@lincoln.gov.uk,Lincoln City,http://www.lincoln.gov.uk,-0.54316300000000,LN5 7AA,2013-01-10,fhrs_exempt_en-GB,Exempt,,FHRS,
62896,Unit 9 Valentine Retail Park,Valentine Road,Lincoln,,Asda Living,Retailers - other,4613,,,710530,,,53.22250800000000,41980,221,ehcnet@lincoln.gov.uk,Lincoln City,http://www.lincoln.gov.uk,-0.55691000000000,LN6 7BH,2014-10-29,fhrs_exempt_en-GB,Exempt,,FHRS,
62897,,295 Wolsey Way,Lincoln,,Asda Supermarket,Retailers - supermarkets/hypermarkets,7840,0,,330637,5,,53.25060800000000,919,221,ehcnet@lincoln.gov.uk,Lincoln City,http://www.lincoln.gov.uk,-0.51645400000000,LN2 4SX,2013-06-12,fhrs_5_en-GB,5,,FHRS,5
62898,1 Ashley Court,Boundary Street,Lincoln,Lincolnshire,Ashley Court Care Home,Hospitals/Childcare/Caring Premises,5,0,,329954,5,,53.20939800000000,306,221,ehcnet@lincoln.gov.uk,Lincoln City,http://www.lincoln.gov.uk,-0.55290300000000,LN5 8PQ,2013-08-13,fhrs_5_en-GB,5,,FHRS,5
62899,,268 Wragby Road,Lincoln,,Asia Garden,Takeaway/sandwich shop,7844,10,,330638,10,,53.24114700000000,92,221,ehcnet@lincoln.gov.uk,Lincoln City,http://www.lincoln.gov.uk,-0.51403900000000,LN2 4PX,2014-02-13,fhrs_3_en-GB,3,,FHRS,10
62900,,Unit 1 Brayford Wharf North,Lincoln,,Ask Restaurant,Restaurant/Cafe/Canteen,1,0,,330174,5,,53.22980100000000,40966,221,ehcnet@lincoln.gov.uk,Lincoln City,http://www.lincoln.gov.uk,-0.54673200000000,LN1 1YW,2014-02-05,fhrs_4_en-GB,4,,FHRS,10
62901,B & Q,Beevor Street,Lincoln,,Autograph the Food People,Restaurant/Cafe/Canteen,1,5,,330274,5,,53.22737200000000,41614,221,ehcnet@lincoln.gov.uk,Lincoln City,http://www.lincoln.gov.uk,-0.55921800000000,LN6 7DJ,2014-04-14,fhrs_5_en-GB,5,,FHRS,5
62902,,Matilda Road,Lincoln,,B & M Homestore,Retailers - other,4613,,,330273,,,53.20925800000000,41612,221,ehcnet@lincoln.gov.uk,Lincoln City,http://www.lincoln.gov.uk,-0.57489000000000,LN6 7QY,2012-03-21,fhrs_exempt_en-GB,Exempt,,FHRS,
62903,,17 Scorer Street,Lincoln,,Back of the Net,Takeaway/sandwich shop,7844,5,,330516,0,,53.22026700000000,465,221,ehcnet@lincoln.gov.uk,Lincoln City,http://www.lincoln.gov.uk,-0.53971600000000,LN5 7XE,2013-09-12,fhrs_5_en-GB,5,,FHRS,0
62904,,56 Baggholme Road,Lincoln,,Baggholme Fish & Chip Shop,Takeaway/sandwich shop,7844,10,,330535,10,,53.22874200000000,57,221,ehcnet@lincoln.gov.uk,Lincoln City,http://www.lincoln.gov.uk,-0.53003400000000,LN2 5BP,2014-03-28,fhrs_3_en-GB,3,,FHRS,10
62905,,90 Bailgate,Lincoln,,Bailgate Post Office,Retailers - other,4613,,,330534,,,53.23490900000000,567,221,ehcnet@lincoln.gov.uk,Lincoln City,http://www.lincoln.gov.uk,-0.53879800000000,LN1 3AE,2014-02-14,fhrs_exempt_en-GB,Exempt,,FHRS,
62906,,,,,Bake Your Day,Other catering premises,7841,0,,623083,0,,,46280,221,ehcnet@lincoln.gov.uk,Lincoln City,http://www.lincoln.gov.uk,,,2013-12-03,fhrs_5_en-GB,5,,FHRS,0
62907,,5 St John's Road,Lincoln,,Baked By Eileen,Retailers - other,4613,5,,330486,0,,53.24159500000000,44283,221,ehcnet@lincoln.gov.uk,Lincoln City,http://www.lincoln.gov.uk,-0.53645700000000,LN1 3DR,2012-01-26,fhrs_5_en-GB,5,,FHRS,0
62908,Central Market,Sincil Street,Lincoln,,Baked Potato Stall,Takeaway/sandwich shop,7844,20,,330615,10,,53.22743700000000,875,221,ehcnet@lincoln.gov.uk,Lincoln City,http://www.lincoln.gov.uk,-0.53866300000000,LN5 7ET,2013-09-16,fhrs_1_en-GB,1,,FHRS,5
62909,,441-442 High Street,Lincoln,,Baltic Food,Retailers - other,4613,10,,330227,10,,53.21811300000000,41312,221,ehcnet@lincoln.gov.uk,Lincoln City,http://www.lincoln.gov.uk,-0.54512100000000,LN5 8HZ,2013-04-10,fhrs_3_en-GB,3,,FHRS,10
62910,,39 Sincil Bank,Lincoln,,Banks Takeaway,Takeaway/sandwich shop,7844,10,,330513,10,,53.22743700000000,461,221,ehcnet@lincoln.gov.uk,Lincoln City,http://www.lincoln.gov.uk,-0.53866300000000,LN5 7ET,2014-07-07,fhrs_3_en-GB,3,,FHRS,10
62911,,3 St Benedict's Square,Lincoln,,Bar Unico,Restaurant/Cafe/Canteen,1,5,,647374,5,,53.22801200000000,46263,221,ehcnet@lincoln.gov.uk,Lincoln City,http://www.lincoln.gov.uk,-0.54156400000000,LN5 7AR,2014-02-19,fhrs_5_en-GB,5,,FHRS,0
62912,,8 Larchwood Crescent,Lincoln,,Bargain Booze,Retailers - other,4613,10,,330190,0,,53.21977700000000,41090,221,ehcnet@lincoln.gov.uk,Lincoln City,http://www.lincoln.gov.uk,-0.59997300000000,LN6 0NA,2013-01-29,fhrs_4_en-GB,4,,FHRS,5
62913,,44-46 Monks Road,Lincoln,,Bargain Food & Wine,Retailers - other,4613,10,,330083,0,,53.23082700000000,40528,221,ehcnet@lincoln.gov.uk,Lincoln City,http://www.lincoln.gov.uk,-0.53071200000000,LN2 5HY,2013-01-14,fhrs_4_en-GB,4,,FHRS,10
62914,,211-213 Newark Road,Lincoln,,Bargain Food & Wine,Retailers - other,4613,10,,330039,5,,53.20727400000000,402,221,ehcnet@lincoln.gov.uk,Lincoln City,http://www.lincoln.gov.uk,-0.55050400000000,LN5 8NP,2014-05-28,fhrs_4_en-GB,4,,FHRS,5
62915,Hestia House,Unit 2 Edge West Road,Lincoln,,Baxter Storey (Homelet),Other catering premises,7841,0,,330376,0,,53.22952500000000,43084,221,ehcnet@lincoln.gov.uk,Lincoln City,http://www.lincoln.gov.uk,-0.55802200000000,LN6 7EL,2014-04-15,fhrs_5_en-GB,5,,FHRS,5
62916,,399 High Street,Lincoln,,Beauty Secrets,Retailers - other,4613,,,330292,,,53.22120300000000,41886,221,ehcnet@lincoln.gov.uk,Lincoln City,http://www.lincoln.gov.uk,-0.54423700000000,LN5 7SS,2007-07-04,fhrs_exempt_en-GB,Exempt,,FHRS,
62917,,43 Shearwater Road,Lincoln,,Bella Paella,Takeaway/sandwich shop,7844,5,,330339,0,,53.21686900000000,42487,221,ehcnet@lincoln.gov.uk,Lincoln City,http://www.lincoln.gov.uk,-0.59052800000000,LN6 0UZ,2013-02-06,fhrs_5_en-GB,5,,FHRS,0
62918,7 Lambeth House,Woodhall Drive,Lincoln,,Bellamys Butchers Ltd,Retailers - other,4613,5,,330034,5,,53.25142300000000,399,221,ehcnet@lincoln.gov.uk,Lincoln City,http://www.lincoln.gov.uk,-0.53146000000000,LN2 2AD,2013-10-22,fhrs_5_en-GB,5,,FHRS,5
62919,,39 Steep Hill,Lincoln,,Bells Tea & Coffee House,Restaurant/Cafe/Canteen,1,5,,330153,0,,53.23393700000000,40751,221,ehcnet@lincoln.gov.uk,Lincoln City,http://www.lincoln.gov.uk,-0.53869600000000,LN2 1LU,2014-02-24,fhrs_5_en-GB,5,,FHRS,5
62920,Lancaster House,36 Orchard Street,Lincoln,,Benefit Agency,Restaurant/Cafe/Canteen,1,5,,329903,5,,53.23187800000000,246,221,ehcnet@lincoln.gov.uk,Lincoln City,http://www.lincoln.gov.uk,-0.54457900000000,LN1 1YZ,2013-04-12,fhrs_5_en-GB,5,,FHRS,0
62921,,313 Wolsey Way,Lincoln,Lincolnshire,Bentleys,Takeaway/sandwich shop,7844,5,,330502,5,,53.25060800000000,448,221,ehcnet@lincoln.gov.uk,Lincoln City,http://www.lincoln.gov.uk,-0.51645400000000,LN2 4SX,2013-08-15,fhrs_5_en-GB,5,,FHRS,5
62922,,South Park,Lincoln,,Bernadette House,Hospitals/Childcare/Caring Premises,5,5,,329992,0,,53.21423500000000,350,221,ehcnet@lincoln.gov.uk,Lincoln City,http://www.lincoln.gov.uk,-0.54408400000000,LN5 8EW,2014-02-10,fhrs_5_en-GB,5,,FHRS,5
62923,,129-130 High Street,Lincoln,,Best Kebab House,Takeaway/sandwich shop,7844,10,,330093,5,,53.22387500000000,40569,221,ehcnet@lincoln.gov.uk,Lincoln City,http://www.lincoln.gov.uk,-0.54362200000000,LN5 7PJ,2013-11-26,fhrs_4_en-GB,4,,FHRS,5
62924,,196-199 High Street,Lincoln,,BHS,Restaurant/Cafe/Canteen,1,0,,329821,10,,53.22786500000000,128,221,ehcnet@lincoln.gov.uk,Lincoln City,http://www.lincoln.gov.uk,-0.54128500000000,LN5 7AL,2014-04-02,fhrs_4_en-GB,4,,FHRS,5
62925,,8 The Sidings,Lincoln,,BHS,Restaurant/Cafe/Canteen,1,,,330646,,,53.22525000000000,937,221,ehcnet@lincoln.gov.uk,Lincoln City,http://www.lincoln.gov.uk,-0.54799500000000,LN6 7TP,2012-11-09,fhrs_exempt_en-GB,Exempt,,FHRS,
62926,,48 Bailgate,Lincoln,,Bigger of Bailgate Ltd,Retailers - other,4613,,,330524,,,53.23636300000000,476,221,ehcnet@lincoln.gov.uk,Lincoln City,http://www.lincoln.gov.uk,-0.53859800000000,LN1 3AP,2012-06-21,fhrs_exempt_en-GB,Exempt,,FHRS,
62927,,62 Malham Drive,Lincoln,,Birchwood Colts Junior Football Club,Other catering premises,7841,5,,680752,5,,53.22435600000000,46339,221,ehcnet@lincoln.gov.uk,Lincoln City,http://www.lincoln.gov.uk,-0.60259500000000,LN6 0XD,2014-03-16,fhrs_5_en-GB,5,,FHRS,5
62928,,Unit 7 Jasmin Road,Lincoln,,Birchwood Fish Bar,Takeaway/sandwich shop,7844,5,,330135,5,,53.21527200000000,40677,221,ehcnet@lincoln.gov.uk,Lincoln City,http://www.lincoln.gov.uk,-0.60531700000000,LN6 0QB,2014-02-12,fhrs_5_en-GB,5,,FHRS,5
62929,,Larchwood Crescent,Lincoln,,Birchwood Junior School,School/college/university,7845,0,,330130,0,,53.21703000000000,40666,221,ehcnet@lincoln.gov.uk,Lincoln City,http://www.lincoln.gov.uk,-0.60421100000000,LN6 0NL,2013-12-16,fhrs_5_en-GB,5,,FHRS,0
62930,,Birchwood Avenue,Lincoln,,Birchwood Leisure Centre,Pub/bar/nightclub,7843,,,329951,,,53.21708300000000,301,221,ehcnet@lincoln.gov.uk,Lincoln City,http://www.lincoln.gov.uk,-0.60176800000000,LN6 0JE,2014-08-07,fhrs_exempt_en-GB,Exempt,,FHRS,
62931,,Birchwood Avenue,Lincoln,,Birchwood Methodist Church Hall,Other catering premises,7841,0,,329982,0,,53.21708300000000,334,221,ehcnet@lincoln.gov.uk,Lincoln City,http://www.lincoln.gov.uk,-0.60176800000000,LN6 0JE,2012-10-16,fhrs_5_en-GB,5,,FHRS,0
62932,,Birchwood Avenue,Lincoln,,Birchwood Social Club,Pub/bar/nightclub,7843,5,,330462,10,,53.21708300000000,44146,221,ehcnet@lincoln.gov.uk,Lincoln City,http://www.lincoln.gov.uk,-0.60176800000000,LN6 0JE,2013-03-19,fhrs_3_en-GB,3,,FHRS,10
62933,,Larchwood Crescent,Lincoln,,Birchwood Youth Centre,Pub/bar/nightclub,7843,5,,330131,0,,53.21977700000000,40669,221,ehcnet@lincoln.gov.uk,Lincoln City,http://www.lincoln.gov.uk,-0.59997300000000,LN6 0NA,2013-03-28,fhrs_5_en-GB,5,,FHRS,0
62934,,Longdales Road,Lincoln,,Bishop Grosseteste University,Pub/bar/nightclub,7843,0,,329931,5,,53.24402300000000,279,221,ehcnet@lincoln.gov.uk,Lincoln City,http://www.lincoln.gov.uk,-0.53573000000000,LN1 3DY,2013-02-22,fhrs_5_en-GB,5,,FHRS,0
62935,,Kingsway,Lincoln,,Bishop King School,School/college/university,7845,5,,330128,5,,53.21926500000000,40657,221,ehcnet@lincoln.gov.uk,Lincoln City,http://www.lincoln.gov.uk,-0.53498700000000,LN5 8EU,2013-01-14,fhrs_5_en-GB,5,,FHRS,5
62936,10 Deacon Business Park,Deacon Road,Lincoln,,Black Peppermint Food Company,Other catering premises,7841,5,,330475,5,,53.23896000000000,44247,221,ehcnet@lincoln.gov.uk,Lincoln City,http://www.lincoln.gov.uk,-0.51384500000000,LN2 4JB,2013-07-01,fhrs_5_en-GB,5,,FHRS,0
62937,Unit 1A,233-235 High Street,Lincoln,,Blacks,Retailers - other,4613,,,330624,,,53.23007300000000,891,221,ehcnet@lincoln.gov.uk,Lincoln City,http://www.lincoln.gov.uk,-0.54034100000000,LN2 1AT,2013-10-11,fhrs_exempt_en-GB,Exempt,,FHRS,
62938,,Nettleham Road,Lincoln,,BMI Lincoln,Hospitals/Childcare/Caring Premises,5,0,,329929,0,,53.23794400000000,276,221,ehcnet@lincoln.gov.uk,Lincoln City,http://www.lincoln.gov.uk,-0.53337500000000,LN2 1QU,2014-09-25,fhrs_5_en-GB,5,,FHRS,5
62939,,6 The Strait,Lincoln,,Bombay Restaurant,Restaurant/Cafe/Canteen,1,10,,330218,5,,53.23190200000000,41189,221,ehcnet@lincoln.gov.uk,Lincoln City,http://www.lincoln.gov.uk,-0.53917000000000,LN2 1JD,2013-10-10,fhrs_4_en-GB,4,,FHRS,5
62940,,12 Steep Hill,Lincoln,,Bonbonbouche,Restaurant/Cafe/Canteen,1,10,,594530,10,,53.23299200000000,46237,221,ehcnet@lincoln.gov.uk,Lincoln City,http://www.lincoln.gov.uk,-0.53860800000000,LN2 1LT,2013-09-02,fhrs_3_en-GB,3,,FHRS,5
62941,,"Faculty of Business & Law, Brayford Wharf East",Lincoln,,Book & Latte Cafe,Restaurant/Cafe/Canteen,1,5,,509906,5,,53.22657400000000,46068,221,ehcnet@lincoln.gov.uk,Lincoln City,http://www.lincoln.gov.uk,-0.54381500000000,LN5 7AT,2013-01-15,fhrs_5_en-GB,5,,FHRS,0
62942,,164 Sadler Road,Lincoln,,Booker Cash & Carry,Retailers - supermarkets/hypermarkets,7840,0,,330343,0,,53.20357700000000,42593,221,ehcnet@lincoln.gov.uk,Lincoln City,http://www.lincoln.gov.uk,-0.60993400000000,LN6 3RS,2014-03-27,fhrs_5_en-GB,5,,FHRS,5
62943,Birchwood Medical Practice,Jasmin Road,Lincoln,,Boots Pharmacy,Retailers - other,4613,5,,329855,5,,53.21561800000000,166,221,ehcnet@lincoln.gov.uk,Lincoln City,http://www.lincoln.gov.uk,-0.60562000000000,LN6 0QQ,2013-01-10,fhrs_5_en-GB,5,,FHRS,5
62944,2 The Carlton Centre,Carlton Boulevard,Lincoln,,Boots the Chemist,Retailers - other,4613,,,329746,,,53.24150000000000,1085,221,ehcnet@lincoln.gov.uk,Lincoln City,http://www.lincoln.gov.uk,-0.50770300000000,LN2 4WA,2012-11-15,fhrs_exempt_en-GB,Exempt,,FHRS,
62945,,311-312 High Street,Lincoln,,Boots The Chemists,Retailers - other,4613,0,,329868,0,,53.22788100000000,181,221,ehcnet@lincoln.gov.uk,Lincoln City,http://www.lincoln.gov.uk,-0.54043000000000,LN5 7DZ,2013-01-04,fhrs_5_en-GB,5,,FHRS,0
62946,,26 Station Street,Lincoln,,Boots The Chemists Limited,Retailers - other,4613,5,,330602,5,,53.22476400000000,853,221,ehcnet@lincoln.gov.uk,Lincoln City,http://www.lincoln.gov.uk,-0.54359200000000,LN5 7EY,2012-11-16,fhrs_5_en-GB,5,,FHRS,5
62947,,Rookery Lane,Lincoln,,Boultham Park House,Hospitals/Childcare/Caring Premises,5,5,,329970,0,,53.20865700000000,321,221,ehcnet@lincoln.gov.uk,Lincoln City,http://www.lincoln.gov.uk,-0.56152300000000,LN6 7PH,2013-08-20,fhrs_5_en-GB,5,,FHRS,5
62948,,106 Boultham Park Road,Lincoln,,Boultham Park Takeaway,Takeaway/sandwich shop,7844,5,,330068,5,,53.21532000000000,40471,221,ehcnet@lincoln.gov.uk,Lincoln City,http://www.lincoln.gov.uk,-0.55569900000000,LN6 7TQ,2013-07-09,fhrs_5_en-GB,5,,FHRS,0
62949,,146 Newark Road,Lincoln,,Bracebridge Cafe,Restaurant/Cafe/Canteen,1,5,,330645,5,,53.20540800000000,931,221,ehcnet@lincoln.gov.uk,Lincoln City,http://www.lincoln.gov.uk,-0.55082200000000,LN5 8QF,2014-01-07,fhrs_5_en-GB,5,,FHRS,5
62950,,Maple Street,Lincoln,,Bracebridge Community Centre,Other catering premises,7841,,,329984,,,53.20298000000000,340,221,ehcnet@lincoln.gov.uk,Lincoln City,http://www.lincoln.gov.uk,-0.55003500000000,LN5 8QT,2013-06-07,fhrs_exempt_en-GB,Exempt,,FHRS,
62951,,Francis Street,Lincoln,,Bracebridge Infant School,School/college/university,7845,5,,330157,0,,53.20565800000000,40761,221,ehcnet@lincoln.gov.uk,Lincoln City,http://www.lincoln.gov.uk,-0.54997500000000,LN5 8QE,2014-04-28,fhrs_5_en-GB,5,,FHRS,0
62952,,152 Newark Road,Lincoln,,Bracebridge Mini Market,Retailers - other,4613,10,,330155,0,,53.20422900000000,40756,221,ehcnet@lincoln.gov.uk,Lincoln City,http://www.lincoln.gov.uk,-0.55143000000000,LN5 8QJ,2012-06-25,fhrs_4_en-GB,4,,FHRS,0
62953,,Brant Road,Lincoln,,Brantley Manor Residential Care Home,Hospitals/Childcare/Caring Premises,5,0,,330134,0,,53.19845600000000,40676,221,ehcnet@lincoln.gov.uk,Lincoln City,http://www.lincoln.gov.uk,-0.55205900000000,LN5 8RX,2014-06-08,fhrs_5_en-GB,5,,FHRS,5
62954,,79 Carholme Road,Lincoln,,Brayford Guest House,Hotel/bed & breakfast/guest house,7842,5,,330322,0,,53.23211700000000,42149,221,ehcnet@lincoln.gov.uk,Lincoln City,http://www.lincoln.gov.uk,-0.55240700000000,LN1 1RT,2014-03-17,fhrs_5_en-GB,5,,FHRS,0
62955,,107-115 Newark Road,Lincoln,,Bridge Church Lincoln,Other catering premises,7841,5,,330664,0,,53.20908700000000,990,221,ehcnet@lincoln.gov.uk,Lincoln City,http://www.lincoln.gov.uk,-0.54951400000000,LN5 8NQ,2013-10-22,fhrs_5_en-GB,5,,FHRS,5
62956,,33 Steep Hill,Lincoln,,Browns Pie Shop,Restaurant/Cafe/Canteen,1,5,,330525,5,,53.23393700000000,49,221,ehcnet@lincoln.gov.uk,Lincoln City,http://www.lincoln.gov.uk,-0.53869600000000,LN2 1LU,2014-08-19,fhrs_5_en-GB,5,,FHRS,5
62957,Eurest Limited,4 Ruston Road,Lincoln,,BT Call Centre,Restaurant/Cafe/Canteen,1,5,,329731,5,,53.28845400000000,1055,221,ehcnet@lincoln.gov.uk,Lincoln City,http://www.lincoln.gov.uk,-0.64897400000000,LN1 7TS,2013-05-13,fhrs_5_en-GB,5,,FHRS,0
62958,Sir Francis Hill School,Bristol Drive,Lincoln,,Bubbles,Hospitals/Childcare/Caring Premises,5,5,,330287,5,,53.21695500000000,41750,221,ehcnet@lincoln.gov.uk,Lincoln City,http://www.lincoln.gov.uk,-0.55639300000000,LN6 7UE,2014-05-09,fhrs_5_en-GB,5,,FHRS,5
62959,Manor Leas Academy School,Hykeham Road,Lincoln,,Bubbles Breakfast Club,Hospitals/Childcare/Caring Premises,5,5,,687711,5,,53.19525200000000,46378,221,ehcnet@lincoln.gov.uk,Lincoln City,http://www.lincoln.gov.uk,-0.56884300000000,LN6 8BE,2014-06-30,fhrs_5_en-GB,5,,FHRS,5
62960,,98-100 Grange Crescent,Lincoln,,Bubbles Day Nursery,Hospitals/Childcare/Caring Premises,5,5,,329760,5,,53.19173900000000,1115,221,ehcnet@lincoln.gov.uk,Lincoln City,http://www.lincoln.gov.uk,-0.57205800000000,LN6 8DA,2014-06-30,fhrs_5_en-GB,5,,FHRS,5
62961,,1 Ross Close,Lincoln,,Bunkers Hill Care Home,Hospitals/Childcare/Caring Premises,5,5,,330097,5,,53.24331900000000,40574,221,ehcnet@lincoln.gov.uk,Lincoln City,http://www.lincoln.gov.uk,-0.50585600000000,LN2 4WQ,2014-08-12,fhrs_5_en-GB,5,,FHRS,5
62962,,18 Steep Hill,Lincoln,,Bunty's Tea Room,Restaurant/Cafe/Canteen,1,5,,330024,5,,53.23299200000000,389,221,ehcnet@lincoln.gov.uk,Lincoln City,http://www.lincoln.gov.uk,-0.53860800000000,LN2 1LT,2013-09-12,fhrs_5_en-GB,5,,FHRS,0
62963,,16 The Sidings,Lincoln,,Burger King,Restaurant/Cafe/Canteen,1,0,,330590,0,,53.22506200000000,839,221,ehcnet@lincoln.gov.uk,Lincoln City,http://www.lincoln.gov.uk,-0.54881000000000,LN6 7TP,2014-04-07,fhrs_5_en-GB,5,,FHRS,0
62964,Unit 31-32 Waterside Centre,High Street,Lincoln,,Burger King,Restaurant/Cafe/Canteen,1,5,,647381,0,,53.22877600000000,46322,221,ehcnet@lincoln.gov.uk,Lincoln City,http://www.lincoln.gov.uk,-0.53939600000000,LN2 1AP,2014-02-07,fhrs_5_en-GB,5,,FHRS,5
62965,,127 Burton Road,Lincoln,Lincolnshire,Burton Pizza House,Takeaway/sandwich shop,7844,10,,509867,5,,53.23939500000000,1196,221,ehcnet@lincoln.gov.uk,Lincoln City,http://www.lincoln.gov.uk,-0.54543300000000,LN1 3LN,2014-04-14,fhrs_4_en-GB,4,,FHRS,0
62966,,169 Burton Road,Lincoln,,Burton Road Fish & Chips Restaurant & Takeaway,Other catering premises,7841,0,,329910,0,,53.24000300000000,256,221,ehcnet@lincoln.gov.uk,Lincoln City,http://www.lincoln.gov.uk,-0.54589200000000,LN1 3LW,2013-01-17,fhrs_5_en-GB,5,,FHRS,0
62967,,113 Burton Road,Lincoln,Lincolnshire,Burton Spice,Takeaway/sandwich shop,7844,5,,330071,5,,53.23905100000000,40479,221,ehcnet@lincoln.gov.uk,Lincoln City,http://www.lincoln.gov.uk,-0.54450100000000,LN1 3LL,2014-05-20,fhrs_5_en-GB,5,,FHRS,0
62968,,21 Portland Street,Lincoln,,Busy Bees Nursery,Hospitals/Childcare/Caring Premises,5,5,,330622,0,,53.22369100000000,889,221,ehcnet@lincoln.gov.uk,Lincoln City,http://www.lincoln.gov.uk,-0.54108200000000,LN5 7JZ,2014-04-14,fhrs_5_en-GB,5,,FHRS,5
62969,,,,,Buttercup Cakes,Retailers - other,4613,5,,680747,0,,,14744,221,ehcnet@lincoln.gov.uk,Lincoln City,http://www.lincoln.gov.uk,,,2014-05-14,fhrs_5_en-GB,5,,FHRS,5
62970,,1 Newland,Lincoln,,Butty Boy,Other catering premises,7841,0,,330126,0,,53.22955700000000,40648,221,ehcnet@lincoln.gov.uk,Lincoln City,http://www.lincoln.gov.uk,-0.54221600000000,LN1 1UX,2013-04-30,fhrs_5_en-GB,5,,FHRS,5
62971,"Unit 3, Lyndon Business Park",Farrier Road,Lincoln,Lincolnshire,C J Butchers,Distributors/Transporters,7,0,,330603,0,,53.20259400000000,856,221,ehcnet@lincoln.gov.uk,Lincoln City,http://www.lincoln.gov.uk,-0.61041500000000,LN6 3RU,2014-03-26,fhrs_5_en-GB,5,,FHRS,5
62972,,439 High Street,Lincoln,,Cactus,Takeaway/sandwich shop,7844,10,,330235,15,,53.21811300000000,41525,221,ehcnet@lincoln.gov.uk,Lincoln City,http://www.lincoln.gov.uk,-0.54512100000000,LN5 8HZ,2014-03-19,fhrs_2_en-GB,2,,FHRS,5
62973,,42 Monks Road,Lincoln,,Cafe 42,Restaurant/Cafe/Canteen,1,10,,330540,5,,53.23082700000000,594,221,ehcnet@lincoln.gov.uk,Lincoln City,http://www.lincoln.gov.uk,-0.53071200000000,LN2 5HY,2014-07-11,fhrs_4_en-GB,4,,FHRS,5
62974,,44 Sincil Street,Lincoln,,Cafe 44,Restaurant/Cafe/Canteen,1,5,,330088,0,,53.22743700000000,40546,221,ehcnet@lincoln.gov.uk,Lincoln City,http://www.lincoln.gov.uk,-0.53866300000000,LN5 7ET,2013-05-03,fhrs_5_en-GB,5,,FHRS,5
62975,"ACM Building, University of Lincoln",Brayford Pool,Lincoln,,Cafe Bistro,Restaurant/Cafe/Canteen,1,5,,330063,5,,53.22884300000000,40457,221,ehcnet@lincoln.gov.uk,Lincoln City,http://www.lincoln.gov.uk,-0.54925100000000,LN6 7TS,2014-06-16,fhrs_5_en-GB,5,,FHRS,0
62976,,364 High Street,Lincoln,,Cafe Delight /Delight Kebab,Takeaway/sandwich shop,7844,10,,330290,10,,53.15866500000000,41779,221,ehcnet@lincoln.gov.uk,Lincoln City,http://www.lincoln.gov.uk,-0.58012700000000,LN5 7RP,2014-03-06,fhrs_3_en-GB,3,,FHRS,5
62977,Lincoln Central Station,St Mary's Street,Lincoln,,Cafe Express,Restaurant/Cafe/Canteen,1,0,,329880,0,,53.22609700000000,197,221,ehcnet@lincoln.gov.uk,Lincoln City,http://www.lincoln.gov.uk,-0.53939700000000,LN5 7EW,2014-01-13,fhrs_5_en-GB,5,,FHRS,0
62978,,153 High Street,Lincoln,Lincolnshire,Cafe M,Restaurant/Cafe/Canteen,1,10,,330072,10,,53.22504700000000,40481,221,ehcnet@lincoln.gov.uk,Lincoln City,http://www.lincoln.gov.uk,-0.54316300000000,LN5 7AA,2014-03-21,fhrs_4_en-GB,4,,FHRS,0
62979,The Terrace,Grantham Street,Lincoln,,Cafe Portico,Restaurant/Cafe/Canteen,1,5,,330335,0,,53.23136000000000,42385,221,ehcnet@lincoln.gov.uk,Lincoln City,http://www.lincoln.gov.uk,-0.53820000000000,LN2 1BD,2012-11-06,fhrs_5_en-GB,5,,FHRS,5
62980,Unit 9 Valentine Retail Park,Valentine Road,Lincoln,,Cafe Ritazza,Restaurant/Cafe/Canteen,1,0,,330300,0,,53.22250800000000,41954,221,ehcnet@lincoln.gov.uk,Lincoln City,http://www.lincoln.gov.uk,-0.55691000000000,LN6 7BH,2014-11-06,fhrs_5_en-GB,5,,FHRS,0
62981,Binns,226-231 High Street,Lincoln,,Cafe Zest in House of Fraser,Restaurant/Cafe/Canteen,1,5,,330309,5,,53.22982200000000,42036,221,ehcnet@lincoln.gov.uk,Lincoln City,http://www.lincoln.gov.uk,-0.54037900000000,LN2 1AY,2013-11-20,fhrs_4_en-GB,4,,FHRS,10
62982,,5 Bailgate,Lincoln,,Cafe Zoot,Restaurant/Cafe/Canteen,1,5,,329842,0,,53.23490900000000,15,221,ehcnet@lincoln.gov.uk,Lincoln City,http://www.lincoln.gov.uk,-0.53879800000000,LN1 3AE,2014-02-14,fhrs_5_en-GB,5,,FHRS,5
62983,Unit 31-32 Waterside Centre,High Street,Lincoln,,Caffe Italiano,Restaurant/Cafe/Canteen,1,10,,647380,10,,53.22877600000000,46321,221,ehcnet@lincoln.gov.uk,Lincoln City,http://www.lincoln.gov.uk,-0.53939600000000,LN2 1AP,2014-02-07,fhrs_4_en-GB,4,,FHRS,0
62984,,292-293 High Street,Lincoln,,Caffe Nero,Restaurant/Cafe/Canteen,1,0,,330320,0,,53.23005000000000,42147,221,ehcnet@lincoln.gov.uk,Lincoln City,http://www.lincoln.gov.uk,-0.53987700000000,LN2 1AL,2014-04-02,fhrs_4_en-GB,4,,FHRS,10
62985,2-6 Exchange Arcade,Cornhill,Lincoln,,Caffe Nero,Restaurant/Cafe/Canteen,1,5,,330191,0,,53.22764700000000,41093,221,ehcnet@lincoln.gov.uk,Lincoln City,http://www.lincoln.gov.uk,-0.53962900000000,LN5 7HE,2013-01-29,fhrs_4_en-GB,4,,FHRS,10
62986,The Carlton Centre,Carlton Boulevard,Lincoln,,Caffe Pausa (Dunelm Mill),Restaurant/Cafe/Canteen,1,0,,578527,0,,53.24209400000000,46108,221,ehcnet@lincoln.gov.uk,Lincoln City,http://www.lincoln.gov.uk,-0.50059400000000,LN2 4WJ,2013-03-08,fhrs_5_en-GB,5,,FHRS,0
62987,,,,,Cake It Or Leave It,Other catering premises,7841,5,,578550,0,,,46210,221,ehcnet@lincoln.gov.uk,Lincoln City,http://www.lincoln.gov.uk,,,2013-06-18,fhrs_5_en-GB,5,,FHRS,0
62988,Central Market,Sincil Street,Lincoln,,Cake Stall,Retailers - other,4613,0,,330086,0,,,40534,221,ehcnet@lincoln.gov.uk,Lincoln City,http://www.lincoln.gov.uk,,,2012-07-26,fhrs_5_en-GB,5,,FHRS,5
62989,,,,,Cakes By Zoe Lincoln,Other catering premises,7841,0,,680755,0,,,46353,221,ehcnet@lincoln.gov.uk,Lincoln City,http://www.lincoln.gov.uk,,,2014-04-30,fhrs_5_en-GB,5,,FHRS,0
62990,,74 Woodfield Avenue,Lincoln,,Caldo Pizza,Takeaway/sandwich shop,7844,5,,330598,5,,53.22047200000000,847,221,ehcnet@lincoln.gov.uk,Lincoln City,http://www.lincoln.gov.uk,-0.60257200000000,LN6 0LP,2014-04-02,fhrs_5_en-GB,5,,FHRS,5
62991,,20 St Marys Street,Lincoln,,Candy News,Retailers - other,4613,10,,460391,5,,53.22690300000000,43704,221,ehcnet@lincoln.gov.uk,Lincoln City,http://www.lincoln.gov.uk,-0.53983400000000,LN5 7EQ,2014-08-06,fhrs_4_en-GB,4,,FHRS,5
62992,,78 South Park,Lincoln,Lincolnshire,Canwick Court Care Home,Hospitals/Childcare/Caring Premises,5,0,,329865,0,,53.21767800000000,179,221,ehcnet@lincoln.gov.uk,Lincoln City,http://www.lincoln.gov.uk,-0.53531000000000,LN5 8ES,2014-09-10,fhrs_5_en-GB,5,,FHRS,0
62993,,8 Park Street,Lincoln,,Capri Pizza House,Takeaway/sandwich shop,7844,5,,330089,5,,53.23039100000000,40548,221,ehcnet@lincoln.gov.uk,Lincoln City,http://www.lincoln.gov.uk,-0.54055500000000,LN1 1UF,2013-11-06,fhrs_5_en-GB,5,,FHRS,5
62994,,171 High Street,Lincoln,,Card Factory,Retailers - other,4613,5,,434116,5,,53.22608300000000,40547,221,ehcnet@lincoln.gov.uk,Lincoln City,http://www.lincoln.gov.uk,-0.54258900000000,LN5 7AF,2012-05-09,fhrs_5_en-GB,5,,FHRS,5
62995,,2 Cornhill Pavement,Lincoln,,Card Factory,Retailers - other,4613,5,,434138,5,,53.22764700000000,993,221,ehcnet@lincoln.gov.uk,Lincoln City,http://www.lincoln.gov.uk,-0.53962900000000,LN5 7HE,2012-05-09,fhrs_5_en-GB,5,,FHRS,5
62996,,122 Scorer Street,Lincoln,,Care Home,Hospitals/Childcare/Caring Premises,5,5,,330056,0,,53.22074100000000,40434,221,ehcnet@lincoln.gov.uk,Lincoln City,http://www.lincoln.gov.uk,-0.54241100000000,LN5 7SX,2014-07-18,fhrs_5_en-GB,5,,FHRS,0
62997,,Blenheim Road,Lincoln,,Carholme Childrens Centre,Hospitals/Childcare/Caring Premises,5,0,,330348,0,,53.23432300000000,42763,221,ehcnet@lincoln.gov.uk,Lincoln City,http://www.lincoln.gov.uk,-0.55414500000000,LN1 1PU,2012-02-28,fhrs_5_en-GB,5,,FHRS,0
62998,,66 Carholme Road,Lincoln,,Carholme Food & Wine,Retailers - other,4613,10,,509868,5,,53.23167700000000,387,221,ehcnet@lincoln.gov.uk,Lincoln City,http://www.lincoln.gov.uk,-0.55242200000000,LN1 1ST,2014-10-30,fhrs_4_en-GB,4,,FHRS,5
62999,Clubhouse,Carholme Road,Lincoln.,,Carholme Golf Club,Pub/bar/nightclub,7843,5,,330331,5,,53.23393700000000,423,221,ehcnet@lincoln.gov.uk,Lincoln City,http://www.lincoln.gov.uk,-0.56016600000000,LN1 1SE,2014-09-09,fhrs_5_en-GB,5,,FHRS,5
63000,,175 Carholme Road,Lincoln,,Carholme Guest House,Hotel/bed & breakfast/guest house,7842,5,,330336,0,,53.23343300000000,424,221,ehcnet@lincoln.gov.uk,Lincoln City,http://www.lincoln.gov.uk,-0.55636300000000,LN1 1RU,2013-06-06,fhrs_5_en-GB,5,,FHRS,0
63001,,45 Carholme Road,Lincoln,,Carholme News,Retailers - other,4613,5,,330032,5,,53.23093300000000,396,221,ehcnet@lincoln.gov.uk,Lincoln City,http://www.lincoln.gov.uk,-0.54892600000000,LN1 1RN,2014-07-01,fhrs_5_en-GB,5,,FHRS,5
63002,,3 Carline Road,Lincoln,,Carline Guest House,Hotel/bed & breakfast/guest house,7842,0,,330341,0,,53.23613800000000,425,221,ehcnet@lincoln.gov.uk,Lincoln City,http://www.lincoln.gov.uk,-0.54738700000000,LN1 1HL,2012-02-13,fhrs_5_en-GB,5,,FHRS,5
63003,,Outer Circle Road,Lincoln,,Carlton Day Nursery,Hospitals/Childcare/Caring Premises,5,5,,330073,10,,53.24150000000000,40486,221,ehcnet@lincoln.gov.uk,Lincoln City,http://www.lincoln.gov.uk,-0.50770300000000,LN2 4WA,2013-12-17,fhrs_4_en-GB,4,,FHRS,5
63004,,238-244 High Street,Lincoln,,Carluccio's,Restaurant/Cafe/Canteen,1,0,,536451,0,,53.23007300000000,46065,221,ehcnet@lincoln.gov.uk,Lincoln City,http://www.lincoln.gov.uk,-0.54034100000000,LN2 1AT,2013-04-03,fhrs_5_en-GB,5,,FHRS,5
63005,,,,,Caroline Mitchell Cakes,Other catering premises,7841,0,,680750,0,,,46324,221,ehcnet@lincoln.gov.uk,Lincoln City,http://www.lincoln.gov.uk,,,2014-04-02,fhrs_5_en-GB,5,,FHRS,0
63006,,24 Steep Hill,Lincoln,,Carousel,Retailers - other,4613,5,,329906,0,,53.23393700000000,251,221,ehcnet@lincoln.gov.uk,Lincoln City,http://www.lincoln.gov.uk,-0.53869600000000,LN2 1LU,2014-01-17,fhrs_5_en-GB,5,,FHRS,0
63007,,4 Castle Hill,Lincoln,Lincolnshire,Castle Hill Club,Pub/bar/nightclub,7843,5,,329898,5,,53.23459000000000,240,221,ehcnet@lincoln.gov.uk,Lincoln City,http://www.lincoln.gov.uk,-0.53915300000000,LN1 3AA,2014-08-20,fhrs_4_en-GB,4,,FHRS,10
63008,,Kingsley Street,Lincoln,,Castle Ward WMC,Pub/bar/nightclub,7843,5,,330352,0,,53.23959800000000,428,221,ehcnet@lincoln.gov.uk,Lincoln City,http://www.lincoln.gov.uk,-0.54368800000000,LN1 3JN,2013-10-23,fhrs_5_en-GB,5,,FHRS,5
63009,,445-446 High Street,Lincoln,Lincolnshire,Castlegate,Restaurant/Cafe/Canteen,1,20,,330145,20,,53.21811300000000,40723,221,ehcnet@lincoln.gov.uk,Lincoln City,http://www.lincoln.gov.uk,-0.54512100000000,LN5 8HZ,2014-12-08,fhrs_0_en-GB,0,,FHRS,15
63010,,23 Nettleham Road,Lincoln,,Cathedral Nursing Home,Hospitals/Childcare/Caring Premises,5,0,,329938,5,,53.28659500000000,287,221,ehcnet@lincoln.gov.uk,Lincoln City,http://www.lincoln.gov.uk,-0.48788700000000,LN2 1EQ,2014-04-09,fhrs_5_en-GB,5,,FHRS,5
63011,,6 Eastgate,Lincoln,,Cathedral View Guest House,Hotel/bed & breakfast/guest house,7842,5,,330580,0,,53.23506000000000,821,221,ehcnet@lincoln.gov.uk,Lincoln City,http://www.lincoln.gov.uk,-0.53790900000000,LN2 1QA,2014-09-01,fhrs_5_en-GB,5,,FHRS,0
63012,Central Market,Sincil Street,Lincoln,,Central Cafe,Restaurant/Cafe/Canteen,1,10,,330129,5,,53.22743700000000,40662,221,ehcnet@lincoln.gov.uk,Lincoln City,http://www.lincoln.gov.uk,-0.53866300000000,LN5 7ET,2014-02-19,fhrs_3_en-GB,3,,FHRS,10
63013,,123 High Street,Lincoln,,Central Methodist Church,Other catering premises,7841,5,,329722,5,,53.22283200000000,1021,221,ehcnet@lincoln.gov.uk,Lincoln City,http://www.lincoln.gov.uk,-0.54433200000000,LN5 7PR,2012-09-10,fhrs_5_en-GB,5,,FHRS,0
63014,Lincoln County Hospital,Greetwell Road,Lincoln,,Central Production Unit,Other catering premises,7841,5,,330004,5,,53.23358500000000,365,221,ehcnet@lincoln.gov.uk,Lincoln City,http://www.lincoln.gov.uk,-0.51966500000000,LN2 5QY,2015-01-12,fhrs_5_en-GB,5,,FHRS,5
63015,,Addison Drive,Lincoln,,Chad Varah School,School/college/university,7845,0,,434122,0,,53.24310600000000,44275,221,ehcnet@lincoln.gov.uk,Lincoln City,http://www.lincoln.gov.uk,-0.51759800000000,LN2 4LQ,2013-12-17,fhrs_5_en-GB,5,,FHRS,0
63016,The Lawns,Union Road,Lincoln,,Charlotte House Hotel,Hotel/bed & breakfast/guest house,7842,0,,330314,0,,53.23504000000000,42069,221,ehcnet@lincoln.gov.uk,Lincoln City,http://www.lincoln.gov.uk,-0.54288400000000,LN1 3BJ,2014-02-03,fhrs_5_en-GB,5,,FHRS,5
63017,Chad Varah House,Wordsworth Street,Lincoln,,Chartwells,Other catering premises,7841,5,,707004,0,,53.23361000000000,46402,221,ehcnet@lincoln.gov.uk,Lincoln City,http://www.lincoln.gov.uk,-0.53920200000000,LN1 3BP,2014-09-15,fhrs_5_en-GB,5,,FHRS,5
63018,,Monks Road,Lincoln,,Chartwells (Deans Sports and Leisure),Restaurant/Cafe/Canteen,1,0,,578540,0,,53.23094400000000,46187,221,ehcnet@lincoln.gov.uk,Lincoln City,http://www.lincoln.gov.uk,-0.53213100000000,LN2 5HQ,2013-03-20,fhrs_5_en-GB,5,,FHRS,0
63019,,,,,Chaz Cake Treats,Other catering premises,7841,5,,680751,5,,,46331,221,ehcnet@lincoln.gov.uk,Lincoln City,http://www.lincoln.gov.uk,,,2014-04-07,fhrs_5_en-GB,5,,FHRS,5
63020,,11 Corporation Street,Lincoln,,Chef Phong,Takeaway/sandwich shop,7844,10,,330644,15,,53.23052600000000,930,221,ehcnet@lincoln.gov.uk,Lincoln City,http://www.lincoln.gov.uk,-0.54062500000000,LN2 1HL,2014-02-05,fhrs_2_en-GB,2,,FHRS,15
63021,,14 Chivenor Close,Lincoln,,Cherry Bug Bakery,Other catering premises,7841,5,,330495,5,,53.21936300000000,44370,221,ehcnet@lincoln.gov.uk,Lincoln City,http://www.lincoln.gov.uk,-0.60916800000000,LN6 0YP,2013-06-03,fhrs_5_en-GB,5,,FHRS,0
63022,,133 Macaulay Drive,Lincoln,,Cherry Tree House,Hospitals/Childcare/Caring Premises,5,10,,329943,5,,53.24793700000000,292,221,ehcnet@lincoln.gov.uk,Lincoln City,http://www.lincoln.gov.uk,-0.51354900000000,LN2 4ET,2014-08-11,fhrs_4_en-GB,4,,FHRS,5
63023,,5 Dixon Way,Lincoln,,Cherry Tree Nursery,Hospitals/Childcare/Caring Premises,5,5,,693403,5,,53.21850800000000,46284,221,ehcnet@lincoln.gov.uk,Lincoln City,http://www.lincoln.gov.uk,-0.55097900000000,LN6 7XN,2014-08-15,fhrs_5_en-GB,5,,FHRS,0
63024,,145 Wragby Road,Lincoln,Lincolnshire,Children 1st,Hospitals/Childcare/Caring Premises,5,10,,330619,0,,53.23854200000000,880,221,ehcnet@lincoln.gov.uk,Lincoln City,http://www.lincoln.gov.uk,-0.52357000000000,LN2 4PL,2015-01-20,fhrs_2_en-GB,2,,FHRS,15
63025,,1a Brayford Quays,Lincoln,Lincolnshire,Chimichanga,Restaurant/Cafe/Canteen,1,5,,330208,5,,53.22945300000000,41144,221,ehcnet@lincoln.gov.uk,Lincoln City,http://www.lincoln.gov.uk,-0.54544100000000,LN1 1SW,2013-02-25,fhrs_5_en-GB,5,,FHRS,5
63026,8 The Carlton Centre,Carlton Boulevard,Lincoln,,Choices,Retailers - other,4613,,,329786,,,53.24150000000000,1155,221,ehcnet@lincoln.gov.uk,Lincoln City,http://www.lincoln.gov.uk,-0.50770300000000,LN2 4WA,2013-01-10,fhrs_exempt_en-GB,Exempt,,FHRS,
63027,,7 Wainer Close,Lincoln,,Chuck Wagon,Other catering premises,7841,5,,329835,5,,53.20386300000000,140,221,ehcnet@lincoln.gov.uk,Lincoln City,http://www.lincoln.gov.uk,-0.60284300000000,LN6 3RY,2013-09-11,fhrs_4_en-GB,4,,FHRS,10
63028,,284 High Street,Lincoln,,Churchill's (Lincoln),Restaurant/Cafe/Canteen,1,5,,550658,5,,53.23008600000000,45345,221,ehcnet@lincoln.gov.uk,Lincoln City,http://www.lincoln.gov.uk,-0.53987600000000,LN2 1AL,2014-11-05,fhrs_5_en-GB,5,,FHRS,5
63029,"Boultham Park Bowls Club, Pavilion Boultham Park",Boutham Park Road,Lincoln,,City of Lincoln Council,Retailers - other,4613,5,,330449,5,,53.21110100000000,44027,221,ehcnet@lincoln.gov.uk,Lincoln City,http://www.lincoln.gov.uk,-0.56064800000000,LN6 7SS,2014-07-14,fhrs_5_en-GB,5,,FHRS,5
63030,Stonebow & Guildhall,Saltergate,Lincoln,,City of Lincoln Council,Other catering premises,7841,5,,680748,5,,53.22897000000000,43618,221,ehcnet@lincoln.gov.uk,Lincoln City,http://www.lincoln.gov.uk,-0.53980900000000,LN2 1DH,2014-05-13,fhrs_5_en-GB,5,,FHRS,5
63031,,105 High Street,Lincoln,Lincolnshire,City Vaults,Pub/bar/nightclub,7843,10,,330151,10,,53.22161600000000,40745,221,ehcnet@lincoln.gov.uk,Lincoln City,http://www.lincoln.gov.uk,-0.54492700000000,LN5 7QB,2014-11-07,fhrs_4_en-GB,4,,FHRS,0
63032,,369 High Street,Lincoln,,Civil Defence Club,Pub/bar/nightclub,7843,5,,330518,5,,,468,221,ehcnet@lincoln.gov.uk,Lincoln City,http://www.lincoln.gov.uk,,LN5 5RU,2011-10-24,fhrs_5_en-GB,5,,FHRS,5
63033,Unit 19A Waterside Centre,High Street,Lincoln,,Claires Accessories,Retailers - other,4613,,,330608,,,53.22877600000000,864,221,ehcnet@lincoln.gov.uk,Lincoln City,http://www.lincoln.gov.uk,-0.53939600000000,LN2 1AP,2014-08-27,fhrs_exempt_en-GB,Exempt,,FHRS,
63034,,,,,Claires Cakes,Other catering premises,7841,5,,509888,0,,,45400,221,ehcnet@lincoln.gov.uk,Lincoln City,http://www.lincoln.gov.uk,,,2012-10-05,fhrs_5_en-GB,5,,FHRS,0
63035,,Lee Road,Lincoln,,Clayton Sports Association,Pub/bar/nightclub,7843,10,,329947,10,,53.23908800000000,298,221,ehcnet@lincoln.gov.uk,Lincoln City,http://www.lincoln.gov.uk,-0.52627800000000,LN2 4BH,2013-08-05,fhrs_3_en-GB,3,,FHRS,10
63036,,,,,Clifford's Cakes,Retailers - other,4613,5,,680758,5,,,46375,221,ehcnet@lincoln.gov.uk,Lincoln City,http://www.lincoln.gov.uk,,,2014-06-20,fhrs_5_en-GB,5,,FHRS,5
63037,,307 High Street,Lincoln,,Clinton Cards,Retailers - other,4613,,,330563,,,53.22799100000000,757,221,ehcnet@lincoln.gov.uk,Lincoln City,http://www.lincoln.gov.uk,-0.54062100000000,LN5 7DR,2014-08-27,fhrs_exempt_en-GB,Exempt,,FHRS,
63038,,Kings Arms Yard,Lincoln,,Cloud 9,Pub/bar/nightclub,7843,5,,329946,5,,53.23078100000000,297,221,ehcnet@lincoln.gov.uk,Lincoln City,http://www.lincoln.gov.uk,-0.53941800000000,LN2 1JL,2012-03-27,fhrs_5_en-GB,5,,FHRS,5
63039,,24 Guildhall Street,Lincoln,,Coffee Aroma (Lincoln) Ltd,Restaurant/Cafe/Canteen,1,10,,330639,0,,53.22935600000000,920,221,ehcnet@lincoln.gov.uk,Lincoln City,http://www.lincoln.gov.uk,-0.54121900000000,LN1 1TR,2013-04-30,fhrs_4_en-GB,4,,FHRS,5
63040,"Discovery House, St Georges",Long Leys Road,Lincoln,,Coffee Beanz,Restaurant/Cafe/Canteen,1,10,,330491,5,,53.24402000000000,44363,221,ehcnet@lincoln.gov.uk,Lincoln City,http://www.lincoln.gov.uk,-0.55692100000000,LN1 1FS,2013-07-11,fhrs_4_en-GB,4,,FHRS,5
63041,,22 Newland,Lincoln,,Coffee In The Courtyard,Restaurant/Cafe/Canteen,1,5,,330297,5,,53.22928300000000,41930,221,ehcnet@lincoln.gov.uk,Lincoln City,http://www.lincoln.gov.uk,-0.54263000000000,LN1 1XD,2014-05-30,fhrs_5_en-GB,5,,FHRS,0
63042,Moorland Community Centre,Moorland Avenue,Lincoln,,Come Dine With Us,Other catering premises,7841,5,,578531,0,,53.20533700000000,46126,221,ehcnet@lincoln.gov.uk,Lincoln City,http://www.lincoln.gov.uk,-0.57627800000000,LN6 7JJ,2013-02-27,fhrs_5_en-GB,5,,FHRS,0
63043,St Clements Court,Chapel Lane,Lincoln,,Common Room,Restaurant/Cafe/Canteen,1,0,,329914,0,,53.23658300000000,261,221,ehcnet@lincoln.gov.uk,Lincoln City,http://www.lincoln.gov.uk,-0.53968500000000,LN1 3AD,2012-02-07,fhrs_5_en-GB,5,,FHRS,0
63044,St Giles Community Centre,Swift Gardens,Lincoln,,Community Breakfast & Tuesday Bingo Club,Restaurant/Cafe/Canteen,1,10,,578528,5,,53.24566300000000,46120,221,ehcnet@lincoln.gov.uk,Lincoln City,http://www.lincoln.gov.uk,-0.51644600000000,LN2 4ND,2013-06-28,fhrs_4_en-GB,4,,FHRS,0
63045,,186 Wragby Road,Lincoln,,Compass Group (staff canteen),Restaurant/Cafe/Canteen,1,5,,330241,0,,53.23989000000000,41566,221,ehcnet@lincoln.gov.uk,Lincoln City,http://www.lincoln.gov.uk,-0.51561100000000,LN2 4QQ,2014-10-14,fhrs_5_en-GB,5,,FHRS,0
63046,,34 Steep Hill,Lincoln,,Compton's Steep Hill Tea Rooms,Restaurant/Cafe/Canteen,1,0,,330177,5,,53.23393700000000,40986,221,ehcnet@lincoln.gov.uk,Lincoln City,http://www.lincoln.gov.uk,-0.53869600000000,LN2 1LU,2014-04-28,fhrs_5_en-GB,5,,FHRS,5
63047,,448 High Street,Lincoln,,Convenio,Retailers - other,4613,5,,330054,10,,53.21811300000000,40425,221,ehcnet@lincoln.gov.uk,Lincoln City,http://www.lincoln.gov.uk,-0.54512100000000,LN5 8HZ,2013-08-28,fhrs_4_en-GB,4,,FHRS,5
63048,Wickes Car Park,Outer Circle Road,Lincoln,,Cooks Kitchen,Restaurant/Cafe/Canteen,1,5,,329804,0,,,1185,221,ehcnet@lincoln.gov.uk,Lincoln City,http://www.lincoln.gov.uk,,,2014-03-24,fhrs_5_en-GB,5,,FHRS,0
63049,,189 Monks Road,Lincoln,,Co-op Food Store,Retailers - other,4613,0,,330075,0,,53.23066400000000,40490,221,ehcnet@lincoln.gov.uk,Lincoln City,http://www.lincoln.gov.uk,-0.52336100000000,LN2 5JP,2012-02-28,fhrs_5_en-GB,5,,FHRS,5
63050,,Skellingthorpe Road,Lincoln,,Co-op Pharmacy,Retailers - other,4613,,,329854,,,53.21041200000000,165,221,ehcnet@lincoln.gov.uk,Lincoln City,http://www.lincoln.gov.uk,-0.56392000000000,LN6 7QW,2014-06-06,fhrs_exempt_en-GB,Exempt,,FHRS,
63051,Unit 3,88A Bailgate,Lincoln,,Cooplands,Restaurant/Cafe/Canteen,1,5,,509884,0,,53.23580100000000,45393,221,ehcnet@lincoln.gov.uk,Lincoln City,http://www.lincoln.gov.uk,-0.53819800000000,LN1 3AR,2014-05-28,fhrs_5_en-GB,5,,FHRS,5
63052,,5 Alexander Walk,Lincoln,,Cooplands (Doncaster) Ltd,Retailers - other,4613,5,,330164,5,,53.24150000000000,40866,221,ehcnet@lincoln.gov.uk,Lincoln City,http://www.lincoln.gov.uk,-0.50770300000000,LN2 4WA,2013-06-10,fhrs_5_en-GB,5,,FHRS,5
63053,,33 Sincil Street,Lincoln,,Cooplands (Doncaster) Ltd,Retailers - other,4613,5,,330163,0,,53.22743700000000,40865,221,ehcnet@lincoln.gov.uk,Lincoln City,http://www.lincoln.gov.uk,-0.53866300000000,LN5 7ET,2014-03-10,fhrs_5_en-GB,5,,FHRS,5
63054,,327 High Street,Lincoln,,Cooplands (Doncaster) Ltd,Retailers - other,4613,5,,330052,5,,53.22591200000000,40423,221,ehcnet@lincoln.gov.uk,Lincoln City,http://www.lincoln.gov.uk,-0.54187500000000,LN5 7DQ,2014-03-10,fhrs_5_en-GB,5,,FHRS,5
63055,,89 Sincil Bank,Lincoln,,Corner Store,Retailers - other,4613,10,,330234,5,,53.22069200000000,415,221,ehcnet@lincoln.gov.uk,Lincoln City,http://www.lincoln.gov.uk,-0.54063000000000,LN5 7TQ,2014-01-13,fhrs_4_en-GB,4,,FHRS,0
63056,,1 Cornhill Pavement,Lincoln,,Cornhill Discounts,Retailers - other,4613,0,,623079,5,,53.22764700000000,41962,221,ehcnet@lincoln.gov.uk,Lincoln City,http://www.lincoln.gov.uk,-0.53962900000000,LN5 7HE,2013-11-12,fhrs_5_en-GB,5,,FHRS,0
63057,Kiosk No 1,Cornhill,Lincoln,,Cornhill Ice Cream,Retailers - other,4613,5,,330172,0,,53.22764700000000,40941,221,ehcnet@lincoln.gov.uk,Lincoln City,http://www.lincoln.gov.uk,-0.53962900000000,LN5 7HE,2013-07-30,fhrs_5_en-GB,5,,FHRS,5
63058,,321-322 High Street,Lincoln,,Costa,Restaurant/Cafe/Canteen,1,0,,504319,0,,53.22227500000000,41678,221,ehcnet@lincoln.gov.uk,Lincoln City,http://www.lincoln.gov.uk,-0.55769700000000,LN6 7BH,2013-05-13,fhrs_5_en-GB,5,,FHRS,0
63059,Unit 2B Valentine Retail Park,Valentine Road,Lincoln,,Costa,Restaurant/Cafe/Canteen,1,5,,594528,5,,53.22227500000000,46206,221,ehcnet@lincoln.gov.uk,Lincoln City,http://www.lincoln.gov.uk,-0.55769700000000,LN6 7BH,2013-09-20,fhrs_5_en-GB,5,,FHRS,0
63060,,24A Station Street,Lincoln,,Costa Coffee,Restaurant/Cafe/Canteen,1,5,,330310,5,,53.22476400000000,42037,221,ehcnet@lincoln.gov.uk,Lincoln City,http://www.lincoln.gov.uk,-0.54359200000000,LN5 7EY,2014-01-10,fhrs_5_en-GB,5,,FHRS,0
63061,,297A High Street,Lincoln,,Costa Coffee,Restaurant/Cafe/Canteen,1,0,,330656,0,,53.22885100000000,960,221,ehcnet@lincoln.gov.uk,Lincoln City,http://www.lincoln.gov.uk,-0.54035200000000,LN2 1AF,2012-12-21,fhrs_5_en-GB,5,,FHRS,5
63062,18 The Carlton Centre,Carlton Boulevard,Lincoln,,Costa Coffee,Restaurant/Cafe/Canteen,1,0,,568349,5,,53.24209400000000,43619,221,ehcnet@lincoln.gov.uk,Lincoln City,http://www.lincoln.gov.uk,-0.50059400000000,LN2 4WJ,2013-06-25,fhrs_5_en-GB,5,,FHRS,0
63063,,107-109 Burton Road,Lincoln,,Countdown Drug Stores,Retailers - other,4613,,,330042,,,53.23905100000000,40394,221,ehcnet@lincoln.gov.uk,Lincoln City,http://www.lincoln.gov.uk,-0.54450100000000,LN1 3LL,2012-06-21,fhrs_exempt_en-GB,Exempt,,FHRS,
63064,,76 Bailgate,Lincoln,,County Assembly Rooms,Other catering premises,7841,10,,329712,0,,53.23580100000000,100,221,ehcnet@lincoln.gov.uk,Lincoln City,http://www.lincoln.gov.uk,-0.53819800000000,LN1 3AR,2013-11-15,fhrs_4_en-GB,4,,FHRS,10
63065,,Sewell Road,Lincoln,,County Hospital Day Nursery,Restaurant/Cafe/Canteen,1,5,,329928,5,,53.23358500000000,275,221,ehcnet@lincoln.gov.uk,Lincoln City,http://www.lincoln.gov.uk,-0.51966500000000,LN2 5QY,2013-10-31,fhrs_5_en-GB,5,,FHRS,5
63066,,Newland,Lincoln,,County Restaurant,Restaurant/Cafe/Canteen,1,0,,329995,0,,53.23154100000000,356,221,ehcnet@lincoln.gov.uk,Lincoln City,http://www.lincoln.gov.uk,-0.54563900000000,LN1 1YQ,2014-04-07,fhrs_5_en-GB,5,,FHRS,5
63067,,,,,Cousins Cakes To Go,Farmers/growers,7838,5,,623086,0,,,46287,221,ehcnet@lincoln.gov.uk,Lincoln City,http://www.lincoln.gov.uk,,,2013-11-22,fhrs_5_en-GB,5,,FHRS,0
63068,,272-273 High Street,Lincoln,,Craft,Farmers/growers,7838,5,,330041,5,,53.23091800000000,40393,221,ehcnet@lincoln.gov.uk,Lincoln City,http://www.lincoln.gov.uk,-0.53957800000000,LN2 1JG,2013-11-06,fhrs_4_en-GB,4,,FHRS,10
63069,Butchers Passage,Sincil Street,Lincoln,,Crawshaw Butchers,Retailers - other,4613,5,,330282,5,,53.22743700000000,417,221,ehcnet@lincoln.gov.uk,Lincoln City,http://www.lincoln.gov.uk,-0.53866300000000,LN5 7ET,2014-08-28,fhrs_5_en-GB,5,,FHRS,5
63070,,27 St Catherines,Lincoln,,Creston Villa Guest House,Hotel/bed & breakfast/guest house,7842,5,,329887,0,,53.21332900000000,20244,221,ehcnet@lincoln.gov.uk,Lincoln City,http://www.lincoln.gov.uk,-0.54721500000000,LN5 8LW,2012-02-15,fhrs_5_en-GB,5,,FHRS,0
63071,,252 High Street,Lincoln,,Crust Restaurant,Restaurant/Cafe/Canteen,1,10,,330178,5,,53.23107500000000,41,221,ehcnet@lincoln.gov.uk,Lincoln City,http://www.lincoln.gov.uk,-0.53988700000000,LN2 1HW,2014-10-01,fhrs_4_en-GB,4,,FHRS,5
63072,,Unit 9 Jasmin Road,Lincoln,,Curtis of Lincoln Ltd,Retailers - other,4613,0,,329829,0,,53.21814200000000,135,221,ehcnet@lincoln.gov.uk,Lincoln City,http://www.lincoln.gov.uk,-0.60853400000000,LN6 0PY,2014-08-27,fhrs_5_en-GB,5,,FHRS,0
63073,,36-37 Sincil Street,Lincoln,,Curtis of Lincoln Ltd,Retailers - other,4613,5,,329876,0,,53.22743700000000,191,221,ehcnet@lincoln.gov.uk,Lincoln City,http://www.lincoln.gov.uk,-0.53866300000000,LN5 7ET,2014-04-02,fhrs_5_en-GB,5,,FHRS,5
63074,,228-232 Rookery Lane,Lincoln,,Curtis of Lincoln Ltd,Retailers - other,4613,5,,329839,5,,53.20865700000000,147,221,ehcnet@lincoln.gov.uk,Lincoln City,http://www.lincoln.gov.uk,-0.56152300000000,LN6 7PH,2014-02-14,fhrs_4_en-GB,4,,FHRS,10
63075,,164 High Street,Lincoln,,Curtis of Lincoln Ltd,Retailers - other,4613,0,,329825,5,,53.22608300000000,131,221,ehcnet@lincoln.gov.uk,Lincoln City,http://www.lincoln.gov.uk,-0.54258900000000,LN5 7AF,2014-05-07,fhrs_5_en-GB,5,,FHRS,5
63076,,20 Bailgate,Lincoln,,Curtis of Lincoln Ltd,Retailers - other,4613,5,,329812,5,,53.23535900000000,12,221,ehcnet@lincoln.gov.uk,Lincoln City,http://www.lincoln.gov.uk,-0.53882700000000,LN1 3AN,2013-01-09,fhrs_5_en-GB,5,,FHRS,5
63077,,90 High Street,Lincoln,,Curtis of Lincoln Ltd,Retailers - other,4613,0,,329819,0,,53.22080000000000,126,221,ehcnet@lincoln.gov.uk,Lincoln City,http://www.lincoln.gov.uk,-0.54509000000000,LN5 7QW,2014-06-16,fhrs_5_en-GB,5,,FHRS,5
63078,,2 Silver Street,Lincoln,,Curtis of Lincoln Ltd,Retailers - other,4613,10,,330605,0,,53.22945100000000,86,221,ehcnet@lincoln.gov.uk,Lincoln City,http://www.lincoln.gov.uk,-0.53944800000000,LN2 1DY,2014-03-24,fhrs_4_en-GB,4,,FHRS,5
63079,,254 Wragby Road,Lincoln,,Curtis of Lincoln Ltd,Retailers - other,4613,0,,330634,5,,53.24114700000000,91,221,ehcnet@lincoln.gov.uk,Lincoln City,http://www.lincoln.gov.uk,-0.51403900000000,LN2 4PX,2013-03-06,fhrs_5_en-GB,5,,FHRS,5
63080,,93 Burton Road,Lincoln,,Curtis of Lincoln Ltd,Mobile caterer,7846,0,,509896,5,,53.23829100000000,45998,221,ehcnet@lincoln.gov.uk,Lincoln City,http://www.lincoln.gov.uk,-0.54406200000000,LN1 3JZ,2012-11-19,fhrs_5_en-GB,5,,FHRS,0
63081,Unit 5 Lowfields Centre,Brant Road,Lincoln,,Curtis of Lincoln Ltd,Retailers - other,4613,5,,329864,0,,53.19137700000000,178,221,ehcnet@lincoln.gov.uk,Lincoln City,http://www.lincoln.gov.uk,-0.55692300000000,LN5 9TR,2013-08-21,fhrs_4_en-GB,4,,FHRS,10
63082,,,,,Custom Cakes Lincoln,Other catering premises,7841,0,,647383,0,,,46330,221,ehcnet@lincoln.gov.uk,Lincoln City,http://www.lincoln.gov.uk,,,2014-03-19,fhrs_5_en-GB,5,,FHRS,0
63083,,,,,D & M Catering,Mobile caterer,7846,5,,509901,5,,,46049,221,ehcnet@lincoln.gov.uk,Lincoln City,http://www.lincoln.gov.uk,,,2012-11-13,fhrs_5_en-GB,5,,FHRS,5
63084,,Unit 25 Jasmin Road,Lincoln,,D Holmes Butchers Ltd,Retailers - other,4613,5,,330161,0,,53.21527200000000,408,221,ehcnet@lincoln.gov.uk,Lincoln City,http://www.lincoln.gov.uk,-0.60531700000000,LN6 0QB,2014-02-10,fhrs_5_en-GB,5,,FHRS,5
63085,,Tritton Road,Lincoln,,D W Sports Fitness,Restaurant/Cafe/Canteen,1,,,647386,,,53.20925800000000,46338,221,ehcnet@lincoln.gov.uk,Lincoln City,http://www.lincoln.gov.uk,-0.57489000000000,LN6 7QY,2014-03-05,fhrs_exempt_en-GB,Exempt,,FHRS,
63086,,18-20 Sincil Street,Lincoln,,Dainava,Restaurant/Cafe/Canteen,1,5,,691554,10,,53.22743700000000,46373,221,ehcnet@lincoln.gov.uk,Lincoln City,http://www.lincoln.gov.uk,-0.53866300000000,LN5 7ET,2014-08-06,fhrs_4_en-GB,4,,FHRS,5
63087,,999 Doddington Road,Lincoln,,Damons Restaurant,Restaurant/Cafe/Canteen,1,5,,329853,5,,53.20720500000000,164,221,ehcnet@lincoln.gov.uk,Lincoln City,http://www.lincoln.gov.uk,-0.61505700000000,LN6 3SE,2014-07-01,fhrs_5_en-GB,5,,FHRS,5
63088,,55 Newport,Lincoln,,Daniels,Restaurant/Cafe/Canteen,1,10,,329755,5,,53.23946300000000,1105,221,ehcnet@lincoln.gov.uk,Lincoln City,http://www.lincoln.gov.uk,-0.53853800000000,LN1 3DN,2013-11-12,fhrs_4_en-GB,4,,FHRS,5
63089,,Bowden Drive,Lincoln,,De Wint Court,Hospitals/Childcare/Caring Premises,5,0,,329976,0,,53.20167900000000,328,221,ehcnet@lincoln.gov.uk,Lincoln City,http://www.lincoln.gov.uk,-0.57407800000000,LN6 7LG,2013-12-16,fhrs_5_en-GB,5,,FHRS,0
63090,,40 De Wint Avenue,Lincoln,,De Wint Resource Centre,Restaurant/Cafe/Canteen,1,5,,329962,0,,53.20351300000000,314,221,ehcnet@lincoln.gov.uk,Lincoln City,http://www.lincoln.gov.uk,-0.57410700000000,LN6 7JA,2010-08-06,fhrs_5_en-GB,5,,FHRS,0
63091,,1 St Mark Street,Lincoln,,Debenhams Plc,Restaurant/Cafe/Canteen,1,0,,330592,0,,53.22545100000000,840,221,ehcnet@lincoln.gov.uk,Lincoln City,http://www.lincoln.gov.uk,-0.54388300000000,LN5 7TP,2012-10-16,fhrs_5_en-GB,5,,FHRS,5
63092,Tesco Store,186 Wragby Road,Lincoln,,Decks Lincoln,Restaurant/Cafe/Canteen,1,5,,329787,5,,53.23989000000000,1157,221,ehcnet@lincoln.gov.uk,Lincoln City,http://www.lincoln.gov.uk,-0.51561100000000,LN2 4QQ,2014-06-18,fhrs_5_en-GB,5,,FHRS,0
63093,,48 High Street,Lincoln,,Deli-Licious,Takeaway/sandwich shop,7844,5,,330330,5,,53.21803000000000,42298,221,ehcnet@lincoln.gov.uk,Lincoln City,http://www.lincoln.gov.uk,-0.54567800000000,LN5 8AN,2014-06-12,fhrs_5_en-GB,5,,FHRS,5
63094,,Newland Street West,Lincoln,,Derek Miller Court,Hospitals/Childcare/Caring Premises,5,0,,329915,0,,53.23105400000000,263,221,ehcnet@lincoln.gov.uk,Lincoln City,http://www.lincoln.gov.uk,-0.54778300000000,LN1 1RB,2012-02-28,fhrs_5_en-GB,5,,FHRS,0
63095,,49 Richmond Road,Lincoln,,Dhindsa Stores,Retailers - other,4613,10,,329956,10,,53.23434600000000,31,221,ehcnet@lincoln.gov.uk,Lincoln City,http://www.lincoln.gov.uk,-0.54936500000000,LN1 1LQ,2014-05-01,fhrs_3_en-GB,3,,FHRS,5
63096,,,,,Diamonds Cupcakes And Dreams,Other catering premises,7841,0,,578555,0,,,46228,221,ehcnet@lincoln.gov.uk,Lincoln City,http://www.lincoln.gov.uk,,,2013-07-26,fhrs_5_en-GB,5,,FHRS,0
63097,Walkers Snack Foods Ltd Factory Canteen,255 Newark Road,Lincoln,,Dine Contract Catering Limited,Restaurant/Cafe/Canteen,1,5,,329772,5,,53.20601200000000,1135,221,ehcnet@lincoln.gov.uk,Lincoln City,http://www.lincoln.gov.uk,-0.55172900000000,LN5 8XN,2013-02-14,fhrs_5_en-GB,5,,FHRS,5
63098,,278 Wragby Road,Lincoln,,Dinos,Takeaway/sandwich shop,7844,5,,330079,10,,53.24114700000000,40514,221,ehcnet@lincoln.gov.uk,Lincoln City,http://www.lincoln.gov.uk,-0.51403900000000,LN2 4PX,2014-09-15,fhrs_3_en-GB,3,,FHRS,10
63099,Discovery House,Long Leys Road,Lincoln,,Discovery Cafe CIC,Restaurant/Cafe/Canteen,1,5,,330493,5,,53.24430700000000,44365,221,ehcnet@lincoln.gov.uk,Lincoln City,http://www.lincoln.gov.uk,-0.55829000000000,LN1 1FS,2014-05-23,fhrs_5_en-GB,5,,FHRS,0
63100,,409 High Street,Lincoln,,Domino Pizza,Takeaway/sandwich shop,7844,5,,329879,0,,53.21945500000000,196,221,ehcnet@lincoln.gov.uk,Lincoln City,http://www.lincoln.gov.uk,-0.54464100000000,LN5 8HX,2013-01-14,fhrs_5_en-GB,5,,FHRS,5
63101,,Outer Circle Road,Lincoln,,Dominos Pizza,Takeaway/sandwich shop,7844,0,,330106,0,,53.24165700000000,40595,221,ehcnet@lincoln.gov.uk,Lincoln City,http://www.lincoln.gov.uk,-0.51166900000000,LN2 4QD,2014-05-19,fhrs_5_en-GB,5,,FHRS,0
63102,Unit 1B Lindis Retail Park,Tritton Road,Lincoln,,Dominos Pizza Limited,Takeaway/sandwich shop,7844,0,,330642,0,,53.20925800000000,928,221,ehcnet@lincoln.gov.uk,Lincoln City,http://www.lincoln.gov.uk,-0.57489000000000,LN6 7QY,2013-03-06,fhrs_5_en-GB,5,,FHRS,5
63103,,Sincil Bank,Lincoln,,Double M (Fish & Chip Trailer),Mobile caterer,7846,0,,330380,0,,53.21818600000000,43107,221,ehcnet@lincoln.gov.uk,Lincoln City,http://www.lincoln.gov.uk,-0.54007100000000,LN5 8LD,2014-04-30,fhrs_5_en-GB,5,,FHRS,0
63104,LCFC,Sincil Bank,Lincoln,,Double M (General Purpose Trailer No 1),Mobile caterer,7846,0,,330381,0,,53.21818600000000,43108,221,ehcnet@lincoln.gov.uk,Lincoln City,http://www.lincoln.gov.uk,-0.54007100000000,LN5 8LD,2014-04-30,fhrs_5_en-GB,5,,FHRS,0
63105,LCFC,Sincil Bank,Lincoln,,Double M (General Purpose Trailer No 2),Mobile caterer,7846,0,,330382,0,,53.21818600000000,43109,221,ehcnet@lincoln.gov.uk,Lincoln City,http://www.lincoln.gov.uk,-0.54007100000000,LN5 8LD,2014-04-30,fhrs_5_en-GB,5,,FHRS,0
63106,LCFC,Sincil Bank,Lincoln,,Double M (Red Beef Trailer),Mobile caterer,7846,0,,330379,0,,53.21818600000000,43106,221,ehcnet@lincoln.gov.uk,Lincoln City,http://www.lincoln.gov.uk,-0.54007100000000,LN5 8LD,2014-04-30,fhrs_5_en-GB,5,,FHRS,0
63107,LCFC,Sincil Bank,Lincoln,,Double M (Scampi Trailer),Mobile caterer,7846,0,,330383,0,,53.21818600000000,43110,221,ehcnet@lincoln.gov.uk,Lincoln City,http://www.lincoln.gov.uk,-0.54007100000000,LN5 8LD,2014-04-30,fhrs_5_en-GB,5,,FHRS,0
63108,"Red Imp Bar, Lincoln City Football Club",Sincil Bank,Lincoln,,Double M Catering Ltd,Takeaway/sandwich shop,7844,5,,330200,10,,53.21818600000000,41131,221,ehcnet@lincoln.gov.uk,Lincoln City,http://www.lincoln.gov.uk,-0.54007100000000,LN5 8LD,2014-09-09,fhrs_4_en-GB,4,,FHRS,5
63109,"Simons Stand (Left), Lincoln City Football Club",Sincil Bank,Lincoln,,Double M Catering Ltd,Takeaway/sandwich shop,7844,5,,330203,10,,53.21818600000000,41134,221,ehcnet@lincoln.gov.uk,Lincoln City,http://www.lincoln.gov.uk,-0.54007100000000,LN5 8LD,2014-09-09,fhrs_4_en-GB,4,,FHRS,5
63110,"Simons Stand (Right), Lincoln City Football Club",Sincil Bank,Lincoln,,Double M Catering Ltd,Takeaway/sandwich shop,7844,5,,330202,10,,53.21818600000000,41133,221,ehcnet@lincoln.gov.uk,Lincoln City,http://www.lincoln.gov.uk,-0.54007100000000,LN5 8LD,2014-09-09,fhrs_4_en-GB,4,,FHRS,5
63111,"The Straddle, Lincoln City Football Club",Sincil Bank,Lincoln,,Double M Catering Ltd,Takeaway/sandwich shop,7844,5,,330201,10,,53.21818600000000,41132,221,ehcnet@lincoln.gov.uk,Lincoln City,http://www.lincoln.gov.uk,-0.54007100000000,LN5 8LD,2014-09-09,fhrs_4_en-GB,4,,FHRS,5
63112,Unit 1 City Square,Sincil Street,Lincoln,,Double M Sandwich Bar,Takeaway/sandwich shop,7844,5,,329988,10,,53.15866500000000,346,221,ehcnet@lincoln.gov.uk,Lincoln City,http://www.lincoln.gov.uk,-0.58012700000000,LN5 7EH,2014-01-29,fhrs_4_en-GB,4,,FHRS,5
63113,,Brayford Wharf North,Lincoln,,Double Tree by Hilton Hotel,Hotel/bed & breakfast/guest house,7842,5,,330321,5,,53.22980100000000,42148,221,ehcnet@lincoln.gov.uk,Lincoln City,http://www.lincoln.gov.uk,-0.54673200000000,LN1 1YW,2013-11-14,fhrs_5_en-GB,5,,FHRS,0
63114,,Unit 5 Wavell Drive,Lincoln,,Doughty Cakes Ltd,Distributors/Transporters,7,0,,330471,0,,53.23046300000000,44216,221,ehcnet@lincoln.gov.uk,Lincoln City,http://www.lincoln.gov.uk,-0.50219900000000,LN3 4PL,2013-10-15,fhrs_5_en-GB,5,,FHRS,5
63115,Moorland Centre,3 Moorland Way,Lincoln,,Downtown Store,Restaurant/Cafe/Canteen,1,5,,330244,5,,53.20307600000000,41570,221,ehcnet@lincoln.gov.uk,Lincoln City,http://www.lincoln.gov.uk,-0.58190700000000,LN6 7TN,2014-04-07,fhrs_5_en-GB,5,,FHRS,0
63116,Sessions House,Monks Road,Lincoln,,Dungeon Delights,Restaurant/Cafe/Canteen,1,5,,330332,5,,53.23094400000000,42301,221,ehcnet@lincoln.gov.uk,Lincoln City,http://www.lincoln.gov.uk,-0.53213100000000,LN2 5HQ,2011-06-20,fhrs_5_en-GB,5,,FHRS,5
63117,,Doddington Road,Lincoln,,Dynex (Host Catering),Restaurant/Cafe/Canteen,1,10,,330011,10,,53.20596500000000,373,221,ehcnet@lincoln.gov.uk,Lincoln City,http://www.lincoln.gov.uk,-0.61121900000000,LN6 3LF,2013-10-21,fhrs_4_en-GB,4,,FHRS,0
63118,Bishops Court Training Centre,4 Proctors Road,Lincoln,,East Midlands Ambulance Service,Restaurant/Cafe/Canteen,1,0,,329734,0,,53.23910000000000,1061,221,ehcnet@lincoln.gov.uk,Lincoln City,http://www.lincoln.gov.uk,-0.51061900000000,LN2 4LA,2012-07-25,fhrs_5_en-GB,5,,FHRS,0
63119,,Langworthgate,Lincoln,,Eastgate Club,Pub/bar/nightclub,7843,5,,329766,5,,53.23586800000000,1127,221,ehcnet@lincoln.gov.uk,Lincoln City,http://www.lincoln.gov.uk,-0.53124300000000,LN2 4AD,2013-01-10,fhrs_5_en-GB,5,,FHRS,5
63120,,74-75 South Park,Lincoln,,Eastholme Nursing Home,Hospitals/Childcare/Caring Premises,5,5,,330162,5,,53.21767800000000,40864,221,ehcnet@lincoln.gov.uk,Lincoln City,http://www.lincoln.gov.uk,-0.53531000000000,LN5 8ES,2014-06-16,fhrs_4_en-GB,4,,FHRS,10
63121,,Ashby Avenue,Lincoln,,Eccleshare Court,Hospitals/Childcare/Caring Premises,5,0,,434123,5,,53.21224200000000,44290,221,ehcnet@lincoln.gov.uk,Lincoln City,http://www.lincoln.gov.uk,-0.58238300000000,LN6 0ED,2013-06-06,fhrs_5_en-GB,5,,FHRS,5
63122,,,,,Eccleshare Outreach Centre Lincoln,Retailers - other,4613,5,,578551,5,,,46212,221,ehcnet@lincoln.gov.uk,Lincoln City,http://www.lincoln.gov.uk,,,2013-07-03,fhrs_5_en-GB,5,,FHRS,5
63123,,70 Yarborough Crescent,Lincoln,,Eden House,Hotel/bed & breakfast/guest house,7842,0,,330425,0,,53.24290000000000,43700,221,ehcnet@lincoln.gov.uk,Lincoln City,http://www.lincoln.gov.uk,-0.54465500000000,LN1 3LU,2014-10-10,fhrs_5_en-GB,5,,FHRS,0
63124,3 St Peter At Arches,Silver Street,Lincoln,,Edinburgh Wool Shop,Retailers - other,4613,,,330544,,,53.22972700000000,615,221,ehcnet@lincoln.gov.uk,Lincoln City,http://www.lincoln.gov.uk,-0.53996300000000,LN2 1AJ,2013-01-10,fhrs_exempt_en-GB,Exempt,,FHRS,
63125,,2 Saltergate,Lincoln,,EFES Kebab,Takeaway/sandwich shop,7844,5,,330101,0,,53.22897000000000,40580,221,ehcnet@lincoln.gov.uk,Lincoln City,http://www.lincoln.gov.uk,-0.53980900000000,LN2 1DH,2014-01-24,fhrs_5_en-GB,5,,FHRS,5
63126,,333a High Street,Lincoln,,Eggstramile,Restaurant/Cafe/Canteen,1,0,,330276,0,,53.22591200000000,41662,221,ehcnet@lincoln.gov.uk,Lincoln City,http://www.lincoln.gov.uk,-0.54187500000000,LN5 7DQ,2013-01-08,fhrs_5_en-GB,5,,FHRS,0
63127,,63 West Parade,Lincoln,,Elena's Kitchen,Restaurant/Cafe/Canteen,1,0,,329750,0,,53.23303800000000,1094,221,ehcnet@lincoln.gov.uk,Lincoln City,http://www.lincoln.gov.uk,-0.54905000000000,LN1 1QL,2013-07-30,fhrs_5_en-GB,5,,FHRS,5
63128,Sainsburys Supermarkets Ltd,Tritton Road,Lincoln,,Elior UK,Restaurant/Cafe/Canteen,1,5,,330249,5,,53.20485200000000,41575,221,ehcnet@lincoln.gov.uk,Lincoln City,http://www.lincoln.gov.uk,-0.58078600000000,LN6 7QN,2014-10-29,fhrs_5_en-GB,5,,FHRS,5
63129,Moorland Centre,Moorland Close,Lincoln,,Elite Fish & Chip Restaurant,Restaurant/Cafe/Canteen,1,0,,330575,0,,53.20363400000000,812,221,ehcnet@lincoln.gov.uk,Lincoln City,http://www.lincoln.gov.uk,-0.58274200000000,LN6 7JW,2014-04-07,fhrs_5_en-GB,5,,FHRS,0
63130,,89 Bailgate,Lincoln,,Elite Meats,Retailers - other,4613,10,,330648,10,,53.23580100000000,94,221,ehcnet@lincoln.gov.uk,Lincoln City,http://www.lincoln.gov.uk,-0.53819800000000,LN1 3AR,2014-06-11,fhrs_3_en-GB,3,,FHRS,5
63131,,Ropewalk,Lincoln,,Enterprise @ Lincoln,Restaurant/Cafe/Canteen,1,5,,330367,5,,53.22638000000000,42980,221,ehcnet@lincoln.gov.uk,Lincoln City,http://www.lincoln.gov.uk,-0.54556000000000,LN6 7DQ,2014-04-15,fhrs_5_en-GB,5,,FHRS,0
63132,,80 Riseholme Road,Lincoln,,Enterprise House Cafe,Restaurant/Cafe/Canteen,1,5,,330365,5,,53.24869800000000,42972,221,ehcnet@lincoln.gov.uk,Lincoln City,http://www.lincoln.gov.uk,-0.53873300000000,LN1 3SP,2013-05-03,fhrs_5_en-GB,5,,FHRS,0
63133,Waterside House,Waterside North,Lincoln,,Environment Agency,Restaurant/Cafe/Canteen,1,0,,330546,5,,53.22847000000000,63,221,ehcnet@lincoln.gov.uk,Lincoln City,http://www.lincoln.gov.uk,-0.53203600000000,LN2 5HA,2013-08-19,fhrs_5_en-GB,5,,FHRS,0
63134,,Laughton Way,Lincoln,,Ermine House,Hospitals/Childcare/Caring Premises,5,0,,329935,0,,53.24688100000000,284,221,ehcnet@lincoln.gov.uk,Lincoln City,http://www.lincoln.gov.uk,-0.53205000000000,LN2 2EZ,2014-02-19,fhrs_5_en-GB,5,,FHRS,0
63135,,Redbourne Drive,Lincoln,,Ermine Primary Academy,School/college/university,7845,5,,330188,0,,53.24938000000000,41067,221,ehcnet@lincoln.gov.uk,Lincoln City,http://www.lincoln.gov.uk,-0.52622400000000,LN2 2HG,2014-05-19,fhrs_5_en-GB,5,,FHRS,0
63136,,2 St Mark Street,Lincoln,,Eskimoo Milkshakes,Restaurant/Cafe/Canteen,1,5,,578536,5,,53.22590000000000,46182,221,ehcnet@lincoln.gov.uk,Lincoln City,http://www.lincoln.gov.uk,-0.54313400000000,LN5 7BA,2013-04-11,fhrs_5_en-GB,5,,FHRS,5
63137,,6 Guildhall Street,Lincoln,,Eskimoo Milkshakes,Takeaway/sandwich shop,7844,5,,330663,5,,53.22917900000000,987,221,ehcnet@lincoln.gov.uk,Lincoln City,http://www.lincoln.gov.uk,-0.54145000000000,LN1 1TT,2013-04-10,fhrs_5_en-GB,5,,FHRS,5
63138,,246 Newark Road,Lincoln,,Esso Lindum Service Station,Retailers - other,4613,0,,330283,0,,53.20193200000000,41706,221,ehcnet@lincoln.gov.uk,Lincoln City,http://www.lincoln.gov.uk,-0.55700200000000,LN6 8RP,2014-03-25,fhrs_5_en-GB,5,,FHRS,5
63139,,93 High Street,Lincoln,Lincolnshire,European Foods,Importers/Exporters,14,10,,330307,5,,53.22080000000000,42028,221,ehcnet@lincoln.gov.uk,Lincoln City,http://www.lincoln.gov.uk,-0.54509000000000,LN5 7QW,2013-04-30,fhrs_4_en-GB,4,,FHRS,5
63140,,412 High Street,Lincoln,,Everest Xpress,Takeaway/sandwich shop,7844,10,,434115,10,,53.21945500000000,1081,221,ehcnet@lincoln.gov.uk,Lincoln City,http://www.lincoln.gov.uk,-0.54464100000000,LN5 8HX,2014-04-29,fhrs_3_en-GB,3,,FHRS,10
63141,,32 Waterside South,Lincoln,,EYS,Other catering premises,7841,,,509905,,,53.22805500000000,46064,221,ehcnet@lincoln.gov.uk,Lincoln City,http://www.lincoln.gov.uk,-0.53772800000000,LN5 7EU,2013-01-15,fhrs_exempt_en-GB,Exempt,,FHRS,
63142,,5 Proctors Road,Lincoln,,F Maltby & Sons Limited,Distributors/Transporters,7,,,330284,,,53.23910000000000,41740,221,ehcnet@lincoln.gov.uk,Lincoln City,http://www.lincoln.gov.uk,-0.51061900000000,LN2 4LA,2013-04-05,fhrs_exempt_en-GB,Exempt,,FHRS,
63143,,24 Sincil Street,Lincoln,,F Pepperdine & Son,Retailers - other,4613,5,,329878,5,,53.22743700000000,193,221,ehcnet@lincoln.gov.uk,Lincoln City,http://www.lincoln.gov.uk,-0.53866300000000,LN5 7ET,2014-04-22,fhrs_4_en-GB,4,,FHRS,10
63144,,,,,Fab Disco's,Mobile caterer,7846,5,,550657,5,,,36029,221,ehcnet@lincoln.gov.uk,Lincoln City,http://www.lincoln.gov.uk,,,2013-04-12,fhrs_5_en-GB,5,,FHRS,5
63145,,5 Saltergate,Lincoln,,Falcon Inn,Restaurant/Cafe/Canteen,1,5,,330601,0,,53.22897000000000,85,221,ehcnet@lincoln.gov.uk,Lincoln City,http://www.lincoln.gov.uk,-0.53980900000000,LN2 1DH,2012-08-16,fhrs_4_en-GB,4,,FHRS,10
63146,Pelham Bridge,Kesteven Street,Lincoln,,Famous Bacon Roll,Mobile caterer,7846,10,,330614,5,,53.22258500000000,874,221,ehcnet@lincoln.gov.uk,Lincoln City,http://www.lincoln.gov.uk,-0.53523300000000,LN5 8HE,2014-02-05,fhrs_3_en-GB,3,,FHRS,10
63147,,Valentine Road,Lincoln,,Farm Foods,Retailers - other,4613,5,,329749,5,,53.22250800000000,1093,221,ehcnet@lincoln.gov.uk,Lincoln City,http://www.lincoln.gov.uk,-0.55691000000000,LN6 7BH,2012-11-15,fhrs_5_en-GB,5,,FHRS,5
63148,,,,,Feed The Homeless,Other catering premises,7841,5,,434126,5,,,44411,221,ehcnet@lincoln.gov.uk,Lincoln City,http://www.lincoln.gov.uk,,,2012-05-04,fhrs_5_en-GB,5,,FHRS,5
63149,,,,,Felicity Kelsall,Other catering premises,7841,0,,578552,0,,,46219,221,ehcnet@lincoln.gov.uk,Lincoln City,http://www.lincoln.gov.uk,,,2013-07-25,fhrs_5_en-GB,5,,FHRS,0
63150,,3 Cambridge Avenue,Lincoln,Lincolnshire,Fine Food 2U Ltd,Other catering premises,7841,0,,329810,0,,53.23644500000000,11933,221,ehcnet@lincoln.gov.uk,Lincoln City,http://www.lincoln.gov.uk,-0.55118200000000,LN1 1LS,2012-10-09,fhrs_5_en-GB,5,,FHRS,5
63151,8 Lambeth House,Woodhall Drive,Lincoln,,Fish King,Takeaway/sandwich shop,7844,5,,330497,0,,53.25142300000000,444,221,ehcnet@lincoln.gov.uk,Lincoln City,http://www.lincoln.gov.uk,-0.53146000000000,LN2 2AD,2013-08-08,fhrs_5_en-GB,5,,FHRS,0
63152,,Matilda Road,Lincoln,,Fitspace,Restaurant/Cafe/Canteen,1,0,,329779,0,,53.21983200000000,1145,221,ehcnet@lincoln.gov.uk,Lincoln City,http://www.lincoln.gov.uk,-0.55562200000000,LN6 7BN,2013-02-22,fhrs_5_en-GB,5,,FHRS,0
63153,,27 Newland,Lincoln,,Fodders,Takeaway/sandwich shop,7844,0,,330578,5,,53.23024800000000,819,221,ehcnet@lincoln.gov.uk,Lincoln City,http://www.lincoln.gov.uk,-0.54429000000000,LN1 1XP,2014-01-13,fhrs_5_en-GB,5,,FHRS,5
63154,,8 Swanpool Court,Lincoln,,Food First,Takeaway/sandwich shop,7844,10,,329836,10,,53.22753700000000,141,221,ehcnet@lincoln.gov.uk,Lincoln City,http://www.lincoln.gov.uk,-0.54173000000000,LN5 7AN,2014-03-25,fhrs_3_en-GB,3,,FHRS,10
63155,,Kingsdown Road,Lincoln,,Fortuna Primary School,Restaurant/Cafe/Canteen,1,5,,330043,5,,53.21163200000000,40397,221,ehcnet@lincoln.gov.uk,Lincoln City,http://www.lincoln.gov.uk,-0.61070600000000,LN6 0FB,2013-02-07,fhrs_5_en-GB,5,,FHRS,0
63156,,13-14 Silver Street,Lincoln,,Forum,Pub/bar/nightclub,7843,0,,329754,0,,53.22945100000000,1104,221,ehcnet@lincoln.gov.uk,Lincoln City,http://www.lincoln.gov.uk,-0.53944800000000,LN2 1DY,2014-03-24,fhrs_5_en-GB,5,,FHRS,5
63157,,Hykeham Road,Lincoln,,Fosse House,Hospitals/Childcare/Caring Premises,5,0,,329969,0,,53.20129100000000,320,221,ehcnet@lincoln.gov.uk,Lincoln City,http://www.lincoln.gov.uk,-0.55828100000000,LN6 8AA,2014-12-10,fhrs_5_en-GB,5,,FHRS,5
63158,,Greetwell Road,Lincoln,,Francis Willis Unit,Hospitals/Childcare/Caring Premises,5,0,,509874,0,,53.23239800000000,42560,221,ehcnet@lincoln.gov.uk,Lincoln City,http://www.lincoln.gov.uk,-0.51816300000000,LN2 5QY,2014-01-15,fhrs_5_en-GB,5,,FHRS,0
63159,,447 High Street,Lincoln,,Frango Grilled Chicken,Takeaway/sandwich shop,7844,5,,578532,10,,53.21811300000000,46128,221,ehcnet@lincoln.gov.uk,Lincoln City,http://www.lincoln.gov.uk,-0.54512100000000,LN5 8HZ,2014-03-06,fhrs_4_en-GB,4,,FHRS,5
63160,,38 Newport,Lincoln,,Fratelli,Restaurant/Cafe/Canteen,1,5,,330143,5,,53.23876400000000,40714,221,ehcnet@lincoln.gov.uk,Lincoln City,http://www.lincoln.gov.uk,-0.53797700000000,LN1 3DF,2014-10-31,fhrs_4_en-GB,4,,FHRS,10
63161,Stall BP9 Central Market,Sincil Street,Lincoln,,Fred's Fish,Retailers - other,4613,5,,330291,5,,53.22743700000000,418,221,ehcnet@lincoln.gov.uk,Lincoln City,http://www.lincoln.gov.uk,-0.53866300000000,LN5 7ET,2012-10-10,fhrs_5_en-GB,5,,FHRS,5
63162,,20 Bailgate,Lincoln,,Fresh From The Fields,Retailers - other,4613,5,,329800,0,,53.23535900000000,1178,221,ehcnet@lincoln.gov.uk,Lincoln City,http://www.lincoln.gov.uk,-0.53882700000000,LN1 3AN,2014-03-05,fhrs_4_en-GB,4,,FHRS,10
63163,,228 Rookery Lane,Lincoln,,Fresh From The Fields,Retailers - other,4613,5,,330510,5,,53.20865700000000,458,221,ehcnet@lincoln.gov.uk,Lincoln City,http://www.lincoln.gov.uk,-0.56152300000000,LN6 7PH,2012-07-05,fhrs_5_en-GB,5,,FHRS,5
63164,5 Lambeth House,Woodhall Drive,Lincoln,,Fresh From The Fields Ltd,Retailers - other,4613,10,,330567,10,,53.25142300000000,78,221,ehcnet@lincoln.gov.uk,Lincoln City,http://www.lincoln.gov.uk,-0.53146000000000,LN2 2AD,2013-01-29,fhrs_3_en-GB,3,,FHRS,10
63165,Queens Park Growing Futures Community Hub,South Park,Lincoln,,Futures Cafe,Restaurant/Cafe/Canteen,1,10,,647382,5,,53.21423500000000,46323,221,ehcnet@lincoln.gov.uk,Lincoln City,http://www.lincoln.gov.uk,-0.54408400000000,LN5 8EW,2014-02-10,fhrs_4_en-GB,4,,FHRS,5
63166,,277 Monks Road,Lincoln,,G F & M A Sellars,Takeaway/sandwich shop,7844,5,,330499,5,,53.23032300000000,445,221,ehcnet@lincoln.gov.uk,Lincoln City,http://www.lincoln.gov.uk,-0.51829400000000,LN2 5JY,2013-09-18,fhrs_4_en-GB,4,,FHRS,10
63167,,311 Wolsey Way,Lincoln,,G Simpson Butchers Limited,Retailers - other,4613,5,,647371,0,,53.25060800000000,42555,221,ehcnet@lincoln.gov.uk,Lincoln City,http://www.lincoln.gov.uk,-0.51645400000000,LN2 4SX,2014-04-02,fhrs_5_en-GB,5,,FHRS,0
63168,,376A High Street,Lincoln,,Gabby's Greek Restaurant,Restaurant/Cafe/Canteen,1,0,,330044,0,,53.22298300000000,40398,221,ehcnet@lincoln.gov.uk,Lincoln City,http://www.lincoln.gov.uk,-0.54345800000000,LN5 7RY,2014-01-28,fhrs_5_en-GB,5,,FHRS,5
63169,Unit 17-18 Central Market,Sincil Street,Lincoln,,Gaia Wholefoods,Retailers - other,4613,0,,330116,0,,53.22743700000000,40622,221,ehcnet@lincoln.gov.uk,Lincoln City,http://www.lincoln.gov.uk,-0.53866300000000,LN5 7ET,2013-02-06,fhrs_5_en-GB,5,,FHRS,5
63170,Waterside Centre,10 Saltergate,Lincoln,,Gala Clubs,Pub/bar/nightclub,7843,0,,329738,5,,53.22897000000000,107,221,ehcnet@lincoln.gov.uk,Lincoln City,http://www.lincoln.gov.uk,-0.53980900000000,LN2 1DH,2013-08-12,fhrs_5_en-GB,5,,FHRS,5
63171,,9-12 Cornhill,Lincoln,,Game,Retailers - other,4613,,,578534,,,53.22764700000000,46153,221,ehcnet@lincoln.gov.uk,Lincoln City,http://www.lincoln.gov.uk,-0.53962900000000,LN5 7HE,2013-04-08,fhrs_exempt_en-GB,Exempt,,FHRS,
63172,Unit 2A Valentine Retail Park,Valentine Road,Lincoln,,Game,Retailers - other,4613,,,330489,,,53.22250800000000,44292,221,ehcnet@lincoln.gov.uk,Lincoln City,http://www.lincoln.gov.uk,-0.55691000000000,LN6 7BH,2012-02-01,fhrs_exempt_en-GB,Exempt,,FHRS,
63173,Museum of Lincolnshire Life,Burton Road,Lincoln,,Gatehouse Tea Room,Restaurant/Cafe/Canteen,1,5,,330147,0,,53.23796300000000,40735,221,ehcnet@lincoln.gov.uk,Lincoln City,http://www.lincoln.gov.uk,-0.54447800000000,LN1 3LY,2013-01-10,fhrs_5_en-GB,5,,FHRS,0
63174,Cornhill Market,Cornhill,Lincoln,,Gillings Fruit and Veg,Retailers - other,4613,10,,509909,5,,,46104,221,ehcnet@lincoln.gov.uk,Lincoln City,http://www.lincoln.gov.uk,,,2013-02-13,fhrs_4_en-GB,4,,FHRS,5
63175,,7 Gordon Road,Lincoln,,Ginos,Restaurant/Cafe/Canteen,1,5,,330651,5,,53.23526100000000,949,221,ehcnet@lincoln.gov.uk,Lincoln City,http://www.lincoln.gov.uk,-0.53895100000000,LN1 3AJ,2014-01-14,fhrs_5_en-GB,5,,FHRS,5
63176,,14 Bailgate,Lincoln,,Gino's L'espressa,Other catering premises,7841,5,,578533,5,,53.23490900000000,46147,221,ehcnet@lincoln.gov.uk,Lincoln City,http://www.lincoln.gov.uk,-0.53879800000000,LN1 3AE,2013-05-02,fhrs_5_en-GB,5,,FHRS,5
63177,,397 High Street,Lincoln,,Golden Bowl Chinese Takeaway,Takeaway/sandwich shop,7844,0,,329791,0,,53.22120300000000,1162,221,ehcnet@lincoln.gov.uk,Lincoln City,http://www.lincoln.gov.uk,-0.54423700000000,LN5 7SS,2013-03-20,fhrs_5_en-GB,5,,FHRS,5
63178,,21 High Street,Lincoln,,Golden Eagle,Pub/bar/nightclub,7843,5,,329950,5,,53.21645200000000,300,221,ehcnet@lincoln.gov.uk,Lincoln City,http://www.lincoln.gov.uk,-0.54601600000000,LN5 8BD,2014-08-06,fhrs_5_en-GB,5,,FHRS,5
63179,,7 High Street,Lincoln,,Golden Fryer,Takeaway/sandwich shop,7844,5,,329843,5,,53.21558600000000,150,221,ehcnet@lincoln.gov.uk,Lincoln City,http://www.lincoln.gov.uk,-0.54655400000000,LN5 8BG,2014-11-24,fhrs_4_en-GB,4,,FHRS,10
63180,Unit 15 Lowfields Centre,Brant Road,Lincoln,,Golden Hall,Takeaway/sandwich shop,7844,5,,330511,5,,53.19137700000000,459,221,ehcnet@lincoln.gov.uk,Lincoln City,http://www.lincoln.gov.uk,-0.55692300000000,LN5 9TR,2013-03-28,fhrs_5_en-GB,5,,FHRS,5
63181,,5 The Strait,Lincoln,,Goodies of Lincoln,Retailers - other,4613,5,,330620,5,,53.23190200000000,881,221,ehcnet@lincoln.gov.uk,Lincoln City,http://www.lincoln.gov.uk,-0.53917000000000,LN2 1JD,2013-06-07,fhrs_5_en-GB,5,,FHRS,5
63182,,155 Burton Road,Lincoln,,Grapevine,Retailers - other,4613,0,,330026,0,,53.24000300000000,390,221,ehcnet@lincoln.gov.uk,Lincoln City,http://www.lincoln.gov.uk,-0.54589200000000,LN1 3LW,2012-02-02,fhrs_5_en-GB,5,,FHRS,5
63183,,6 Gordon Road,Lincoln,,Grayz In The Bail,Restaurant/Cafe/Canteen,1,5,,329996,5,,53.23526100000000,357,221,ehcnet@lincoln.gov.uk,Lincoln City,http://www.lincoln.gov.uk,-0.53895100000000,LN1 3AJ,2014-07-16,fhrs_5_en-GB,5,,FHRS,5
63184,,38 Lamb Gardens,Lincoln,,Great Wall,Takeaway/sandwich shop,7844,10,,329751,15,,53.24434800000000,1099,221,ehcnet@lincoln.gov.uk,Lincoln City,http://www.lincoln.gov.uk,-0.51986300000000,LN2 4EQ,2014-04-08,fhrs_2_en-GB,2,,FHRS,10
63185,,58A Woodfield Avenue,Lincoln,,Green Barrel,Pub/bar/nightclub,7843,5,,330094,0,,53.22125600000000,40570,221,ehcnet@lincoln.gov.uk,Lincoln City,http://www.lincoln.gov.uk,-0.60041900000000,LN6 0LW,2012-02-16,fhrs_5_en-GB,5,,FHRS,0
63186,,51 Burton Road,Lincoln,,Greenhouse Coffee Shop Ltd,Restaurant/Cafe/Canteen,1,0,,330132,0,,53.23710100000000,40671,221,ehcnet@lincoln.gov.uk,Lincoln City,http://www.lincoln.gov.uk,-0.54309800000000,LN1 3JY,2014-03-05,fhrs_5_en-GB,5,,FHRS,5
63187,,2 St Marys Street,Lincoln,Lincolnshire,Green's Health,Retailers - other,4613,10,,691551,10,,53.22690300000000,1106,221,ehcnet@lincoln.gov.uk,Lincoln City,http://www.lincoln.gov.uk,-0.53983400000000,LN5 7EQ,2014-08-06,fhrs_4_en-GB,4,,FHRS,0
63188,,Carlton Boulevard,Lincoln,,Greetwell Hollow Day Nursery,Other catering premises,7841,0,,509885,0,,53.24142500000000,45394,221,ehcnet@lincoln.gov.uk,Lincoln City,http://www.lincoln.gov.uk,-0.50463400000000,LN2 4AG,2014-04-28,fhrs_5_en-GB,5,,FHRS,5
63189,,68-70 Greetwell Close,Lincoln,,Greetwell Nursing Home,Hospitals/Childcare/Caring Premises,5,5,,329941,5,,53.23645700000000,290,221,ehcnet@lincoln.gov.uk,Lincoln City,http://www.lincoln.gov.uk,-0.52146900000000,LN2 4BA,2014-06-24,fhrs_5_en-GB,5,,FHRS,5
63190,,2 Lime Kiln Way,Lincoln,,Greetwell Place Managed Workspace,Other catering premises,7841,,,372398,,,53.23482100000000,41492,221,ehcnet@lincoln.gov.uk,Lincoln City,http://www.lincoln.gov.uk,-0.51138200000000,LN2 4US,2012-08-09,fhrs_exempt_en-GB,Exempt,,FHRS,
63191,Unit 4 Lowfields Centre,Brant Road,Lincoln,,Greggs,Takeaway/sandwich shop,7844,0,,509886,0,,53.19137700000000,45397,221,ehcnet@lincoln.gov.uk,Lincoln City,http://www.lincoln.gov.uk,-0.55692300000000,LN5 9TR,2014-09-10,fhrs_5_en-GB,5,,FHRS,0
63192,,188 High Street,Lincoln,,Greggs plc,Takeaway/sandwich shop,7844,0,,329824,0,,53.22786500000000,130,221,ehcnet@lincoln.gov.uk,Lincoln City,http://www.lincoln.gov.uk,-0.54128500000000,LN5 7AL,2014-09-24,fhrs_5_en-GB,5,,FHRS,0
63193,,23 Bailgate,Lincoln,,Greggs plc,Retailers - other,4613,0,,329834,0,,53.23636300000000,14,221,ehcnet@lincoln.gov.uk,Lincoln City,http://www.lincoln.gov.uk,-0.53859800000000,LN1 3AP,2014-04-02,fhrs_5_en-GB,5,,FHRS,0
63194,,Newark Road,Lincoln,,Grosvenor Hall Nursing Home,Hospitals/Childcare/Caring Premises,5,5,,330110,0,,53.20298000000000,40601,221,ehcnet@lincoln.gov.uk,Lincoln City,http://www.lincoln.gov.uk,-0.55003500000000,LN5 8QT,2014-08-08,fhrs_5_en-GB,5,,FHRS,5
63195,,6 Shakespeare Street,Lincoln,,Gwynnes Social Club,Pub/bar/nightclub,7843,5,,329987,0,,53.21740300000000,345,221,ehcnet@lincoln.gov.uk,Lincoln City,http://www.lincoln.gov.uk,-0.54444100000000,LN5 8JX,2014-03-31,fhrs_4_en-GB,4,,FHRS,10
63196,,Crofton Road,Lincoln,,H J's Mobile Catering,Mobile caterer,7846,5,,330285,0,,53.23198900000000,41746,221,ehcnet@lincoln.gov.uk,Lincoln City,http://www.lincoln.gov.uk,-0.50418300000000,LN3 4NL,2014-01-15,fhrs_5_en-GB,5,,FHRS,0
63197,,Greetwell Road,Lincoln,,H M Prison,Restaurant/Cafe/Canteen,1,10,,329920,5,,53.23540800000000,268,221,ehcnet@lincoln.gov.uk,Lincoln City,http://www.lincoln.gov.uk,-0.51808900000000,LN2 4BD,2014-08-20,fhrs_3_en-GB,3,,FHRS,10
63198,2 Tritton Retail Park,Tritton Road,Lincoln,,Halfords,Retailers - other,4613,,,647387,,,53.22312000000000,715,221,ehcnet@lincoln.gov.uk,Lincoln City,http://www.lincoln.gov.uk,-0.55248600000000,LN6 7AN,2014-02-25,fhrs_exempt_en-GB,Exempt,,FHRS,
63199,,Outer Circle Road,Lincoln,,Halfords Limited,Other catering premises,7841,,,631537,,,53.24232200000000,40549,221,ehcnet@lincoln.gov.uk,Lincoln City,http://www.lincoln.gov.uk,-0.50945800000000,LN2 4UX,2014-01-05,fhrs_exempt_en-GB,Exempt,,FHRS,
63200,,2 Hamilton Road,Lincoln,,Hamiltons Hotel,Hotel/bed & breakfast/guest house,7842,5,,329952,5,,53.21232000000000,302,221,ehcnet@lincoln.gov.uk,Lincoln City,http://www.lincoln.gov.uk,-0.54855200000000,LN5 8ED,2012-10-09,fhrs_5_en-GB,5,,FHRS,5
63201,,6 Dorrigan Close,Lincoln,Lincolnshire,Hamper Van,Mobile caterer,7846,10,,693405,5,,53.24552400000000,46406,221,ehcnet@lincoln.gov.uk,Lincoln City,http://www.lincoln.gov.uk,-0.55932800000000,LN1 1AT,2014-07-23,fhrs_4_en-GB,4,,FHRS,0
63202,,72 Hemswell Avenue,Lincoln,,Hartsholme Community Contact Centre,Restaurant/Cafe/Canteen,1,5,,329717,5,,53.20955100000000,1012,221,ehcnet@lincoln.gov.uk,Lincoln City,http://www.lincoln.gov.uk,-0.57986700000000,LN6 0AZ,2013-01-10,fhrs_5_en-GB,5,,FHRS,5
63203,,5 Morton Drive,Lincoln,,Hartsholme Park,Takeaway/sandwich shop,7844,5,,434119,0,,53.21034800000000,41366,221,ehcnet@lincoln.gov.uk,Lincoln City,http://www.lincoln.gov.uk,-0.58111300000000,LN6 0DL,2014-08-26,fhrs_5_en-GB,5,,FHRS,5
63204,Hartsholme Primary School,Carrington Drive,Lincoln,Lincolnshire,Hartsholme Primary School,School/college/university,7845,5,,330127,0,,53.21270600000000,40652,221,ehcnet@lincoln.gov.uk,Lincoln City,http://www.lincoln.gov.uk,-0.58058600000000,LN6 0DE,2014-05-12,fhrs_5_en-GB,5,,FHRS,0
63205,Sports Pavillion,Ashby Avenue,Lincoln,,Hartsholme/Lincoln United Sports Association,Pub/bar/nightclub,7843,10,,329966,0,,53.21061500000000,318,221,ehcnet@lincoln.gov.uk,Lincoln City,http://www.lincoln.gov.uk,-0.58314100000000,LN6 0DY,2014-06-11,fhrs_4_en-GB,4,,FHRS,0
63206,,Ashby Avenue,Lincoln,,Hartsholme/Lincoln Utd Sports Association,Pub/bar/nightclub,7843,10,,329720,5,,53.21061500000000,1016,221,ehcnet@lincoln.gov.uk,Lincoln City,http://www.lincoln.gov.uk,-0.58314100000000,LN6 0DY,2014-04-28,fhrs_3_en-GB,3,,FHRS,10
63207,,126 Carholme Road,Lincoln,,Harvest House Nursing Home,Hospitals/Childcare/Caring Premises,5,5,,707000,5,,53.23236700000000,253,221,ehcnet@lincoln.gov.uk,Lincoln City,http://www.lincoln.gov.uk,-0.55442100000000,LN1 1SP,2010-10-05,fhrs_5_en-GB,5,,FHRS,5
63208,,Brayford Wharf North,Lincoln,,Harvester,Pub/bar/nightclub,7843,0,,329793,0,,53.22980100000000,1168,221,ehcnet@lincoln.gov.uk,Lincoln City,http://www.lincoln.gov.uk,-0.54673200000000,LN1 1YW,2014-03-19,fhrs_5_en-GB,5,,FHRS,5
63209,,21 Corporation Street,Lincoln,,Healthy Appetites,Takeaway/sandwich shop,7844,10,,330632,10,,53.23052600000000,906,221,ehcnet@lincoln.gov.uk,Lincoln City,http://www.lincoln.gov.uk,-0.54062500000000,LN2 1HL,2014-12-16,fhrs_3_en-GB,3,,FHRS,5
63210,,19 Bradbury Avenue,Lincoln,,Heather's House,Other catering premises,7841,0,,460392,0,,53.19023800000000,44066,221,ehcnet@lincoln.gov.uk,Lincoln City,http://www.lincoln.gov.uk,-0.55935600000000,LN5 9AP,2012-10-25,fhrs_5_en-GB,5,,FHRS,5
63211,,287 High Street,Lincoln,,Henry's Tea Rooms (Ruddocks),Restaurant/Cafe/Canteen,1,5,,578535,5,,53.23012500000000,46181,221,ehcnet@lincoln.gov.uk,Lincoln City,http://www.lincoln.gov.uk,-0.53942500000000,LN2 1AW,2013-04-22,fhrs_5_en-GB,5,,FHRS,5
63212,,31 Sincil Street,Lincoln,,Heron Foods Ltd,Retailers - other,4613,10,,330657,15,,53.22743700000000,962,221,ehcnet@lincoln.gov.uk,Lincoln City,http://www.lincoln.gov.uk,-0.53866300000000,LN5 7ET,2013-03-11,fhrs_2_en-GB,2,,FHRS,10
63213,,76 Woodfield Avenue,Lincoln,,Hicksons Fresh Foods,Retailers - other,4613,10,,329849,10,,53.22047200000000,160,221,ehcnet@lincoln.gov.uk,Lincoln City,http://www.lincoln.gov.uk,-0.60257200000000,LN6 0LP,2013-03-04,fhrs_3_en-GB,3,,FHRS,5
63214,,380 High Street,Lincoln,,High Street Food Bar,Retailers - other,4613,5,,330232,5,,53.22246500000000,414,221,ehcnet@lincoln.gov.uk,Lincoln City,http://www.lincoln.gov.uk,-0.54373000000000,LN5 7SF,2013-08-14,fhrs_5_en-GB,5,,FHRS,5
63215,,15 Lindum Terrace,Lincoln,,Hillcrest Hotel,Hotel/bed & breakfast/guest house,7842,5,,329927,5,,53.23241800000000,274,221,ehcnet@lincoln.gov.uk,Lincoln City,http://www.lincoln.gov.uk,-0.52704700000000,LN2 5RT,2014-02-06,fhrs_4_en-GB,4,,FHRS,10
63216,,323 High Street,Lincoln,,HMV UK Limited,Retailers - other,4613,,,329867,,,53.22719600000000,180,221,ehcnet@lincoln.gov.uk,Lincoln City,http://www.lincoln.gov.uk,-0.54105300000000,LN5 7DW,2013-10-08,fhrs_exempt_en-GB,Exempt,,FHRS,
63217,,Brayford Wharf North,Lincoln,,Holiday Inn,Hotel/bed & breakfast/guest house,7842,0,,329848,0,,53.22980100000000,16,221,ehcnet@lincoln.gov.uk,Lincoln City,http://www.lincoln.gov.uk,-0.54673200000000,LN1 1YW,2014-03-19,fhrs_5_en-GB,5,,FHRS,5
63218,,Ruston Way,Lincoln,Lincolnshire,Holiday Inn Express,Hotel/bed & breakfast/guest house,7842,5,,330327,5,,53.22593400000000,42252,221,ehcnet@lincoln.gov.uk,Lincoln City,http://www.lincoln.gov.uk,-0.55110200000000,LN6 7DB,2015-01-12,fhrs_5_en-GB,5,,FHRS,0
63219,,319 High Street,Lincoln,,Holland & Barrett,Retailers - other,4613,0,,330607,0,,53.22719600000000,863,221,ehcnet@lincoln.gov.uk,Lincoln City,http://www.lincoln.gov.uk,-0.54105300000000,LN5 7DW,2014-01-13,fhrs_5_en-GB,5,,FHRS,0
63220,,65 Carholme Road,Lincoln,,Hollies Hotel,Hotel/bed & breakfast/guest house,7842,5,,329894,5,,53.23211700000000,237,221,ehcnet@lincoln.gov.uk,Lincoln City,http://www.lincoln.gov.uk,-0.55240700000000,LN1 1RT,2013-11-12,fhrs_5_en-GB,5,,FHRS,5
63221,,Skellingthorpe Road,Lincoln,,Holy Cross Church Hall,Other catering premises,7841,,,330046,,,53.21082100000000,404,221,ehcnet@lincoln.gov.uk,Lincoln City,http://www.lincoln.gov.uk,-0.56426600000000,LN6 7RB,2012-07-23,fhrs_exempt_en-GB,Exempt,,FHRS,
63222,,Park Street,Lincoln,,Home,Takeaway/sandwich shop,7844,5,,330483,5,,53.23039100000000,44276,221,ehcnet@lincoln.gov.uk,Lincoln City,http://www.lincoln.gov.uk,-0.54055500000000,LN1 1UF,2013-06-18,fhrs_5_en-GB,5,,FHRS,5
63223,,23-26 Monson Street,Lincoln,,Homer Lodge Nursing Home,Hospitals/Childcare/Caring Premises,5,5,,329990,5,,53.22259600000000,348,221,ehcnet@lincoln.gov.uk,Lincoln City,http://www.lincoln.gov.uk,-0.54197300000000,LN5 7RZ,2014-08-12,fhrs_5_en-GB,5,,FHRS,5
63224,Tritton Retail Park,Tritton Road,Lincoln,,Homesense,Retailers - other,4613,,,723544,,,53.22312000000000,46448,221,ehcnet@lincoln.gov.uk,Lincoln City,http://www.lincoln.gov.uk,-0.55248600000000,LN6 7AN,2014-12-02,fhrs_exempt_en-GB,Exempt,,FHRS,
63225,,,,,Hot - Pot SW,Mobile caterer,7846,10,,680756,5,,,46366,221,ehcnet@lincoln.gov.uk,Lincoln City,http://www.lincoln.gov.uk,,,2014-06-10,fhrs_4_en-GB,4,,FHRS,5
63226,Stewarts Yard,Sincil Street,Lincoln,,Hot Plate Cafe,Restaurant/Cafe/Canteen,1,5,,330515,10,,53.22743700000000,463,221,ehcnet@lincoln.gov.uk,Lincoln City,http://www.lincoln.gov.uk,-0.53866300000000,LN5 7ET,2014-07-15,fhrs_4_en-GB,4,,FHRS,5
63227,Pod A,Waterside Shopping Centre,High Street,Lincoln,Hotjacks Limited,Takeaway/sandwich shop,7844,10,,330458,10,,53.22877600000000,44138,221,ehcnet@lincoln.gov.uk,Lincoln City,http://www.lincoln.gov.uk,-0.53939600000000,LN2 1AP,2014-01-17,fhrs_4_en-GB,4,,FHRS,0
63228,,42 Hykeham Road,Lincoln,,Hykeham Road Post Office,Retailers - other,4613,10,,329831,5,,53.20000000000000,137,221,ehcnet@lincoln.gov.uk,Lincoln City,http://www.lincoln.gov.uk,-0.56154400000000,LN6 8AB,2014-02-24,fhrs_4_en-GB,4,,FHRS,5
63229,,39 Claremont Street,Lincoln,,Ians,Retailers - other,4613,10,,330552,0,,53.22985600000000,68,221,ehcnet@lincoln.gov.uk,Lincoln City,http://www.lincoln.gov.uk,-0.52706000000000,LN2 5BN,2013-02-27,fhrs_4_en-GB,4,,FHRS,5
63230,,334-337 High Street,Lincoln,,Iceland Frozen Foods Ltd,Retailers - other,4613,0,,329870,0,,53.22591200000000,183,221,ehcnet@lincoln.gov.uk,Lincoln City,http://www.lincoln.gov.uk,-0.54187500000000,LN5 7DQ,2013-02-05,fhrs_5_en-GB,5,,FHRS,0
63231,,323 Wolsey Way,Lincoln,,Iceland Frozen Foods Plc,Retailers - other,4613,0,,330533,5,,53.25060800000000,54,221,ehcnet@lincoln.gov.uk,Lincoln City,http://www.lincoln.gov.uk,-0.51645400000000,LN2 4SX,2012-02-02,fhrs_5_en-GB,5,,FHRS,0
63232,,61 Skellingthorpe Road,Lincoln,Lincolnshire,Ignite Elim Church,Mobile caterer,7846,10,,594525,5,,53.21124400000000,30471,221,ehcnet@lincoln.gov.uk,Lincoln City,http://www.lincoln.gov.uk,-0.56811500000000,LN6 7QT,2013-08-14,fhrs_4_en-GB,4,,FHRS,5
63233,,Moorland Community Centre,Moorland Avenue,Lincoln,Ignite Elim Church,Other catering premises,7841,5,,594527,0,,53.20697300000000,46050,221,ehcnet@lincoln.gov.uk,Lincoln City,http://www.lincoln.gov.uk,-0.56872200000000,LN6 7NH,2013-10-26,fhrs_5_en-GB,5,,FHRS,0
63234,,39b High Street,Lincoln,,IMPart/St Botolph's Church Hall,Other catering premises,7841,,,372400,,,53.21764400000000,42706,221,ehcnet@lincoln.gov.uk,Lincoln City,http://www.lincoln.gov.uk,-0.54578100000000,LN5 8AS,2011-10-04,fhrs_exempt_en-GB,Exempt,,FHRS,
63235,The Norman House,47 Steep Hill,Lincoln,,Imperial Teas of Lincoln,Retailers - other,4613,0,,329737,0,,53.23393700000000,1068,221,ehcnet@lincoln.gov.uk,Lincoln City,http://www.lincoln.gov.uk,-0.53869600000000,LN2 1LU,2012-02-08,fhrs_5_en-GB,5,,FHRS,0
63236,Stall 43-44 Central Market,Sincil Street,Lincoln,,Indian Spice Stall,Retailers - other,4613,10,,536456,5,,,46106,221,ehcnet@lincoln.gov.uk,Lincoln City,http://www.lincoln.gov.uk,,,2013-04-29,fhrs_4_en-GB,4,,FHRS,5
63237,,Hall Drive,Lincoln,,Indoor Bowling Club Limited,Pub/bar/nightclub,7843,5,,329953,0,,53.21157200000000,303,221,ehcnet@lincoln.gov.uk,Lincoln City,http://www.lincoln.gov.uk,-0.55581000000000,LN6 7SW,2014-02-13,fhrs_5_en-GB,5,,FHRS,0
63238,,100 Burton Road,Lincoln,,Inside Out of Lincoln,Restaurant/Cafe/Canteen,1,5,,657268,0,,53.23939500000000,41928,221,ehcnet@lincoln.gov.uk,Lincoln City,http://www.lincoln.gov.uk,-0.54543300000000,LN1 3LN,2014-05-12,fhrs_5_en-GB,5,,FHRS,5
63239,,73 High Street,Lincoln,,Intenz Art,Retailers - other,4613,0,,330338,0,,53.21917000000000,42485,221,ehcnet@lincoln.gov.uk,Lincoln City,http://www.lincoln.gov.uk,-0.54556400000000,LN5 8AD,2012-02-17,fhrs_5_en-GB,5,,FHRS,0
63240,,18 Portland Street,Lincoln,,International Foods,Retailers - other,4613,10,,330303,5,,53.22401800000000,41977,221,ehcnet@lincoln.gov.uk,Lincoln City,http://www.lincoln.gov.uk,-0.54138600000000,LN5 7JX,2014-03-18,fhrs_4_en-GB,4,,FHRS,5
63241,,373-374 High Street,Lincoln,,International Mini Market,Retailers - other,4613,10,,330370,5,,53.22330600000000,43001,221,ehcnet@lincoln.gov.uk,Lincoln City,http://www.lincoln.gov.uk,-0.54338700000000,LN5 7RU,2013-01-21,fhrs_4_en-GB,4,,FHRS,5
63242,,29-31 Corporation Street,Lincoln,,Ironhouse Nutritions,Retailers - other,4613,10,,550660,0,,53.23052600000000,46154,221,ehcnet@lincoln.gov.uk,Lincoln City,http://www.lincoln.gov.uk,-0.54062500000000,LN2 1HL,2013-04-23,fhrs_4_en-GB,4,,FHRS,5
63243,,103 Burton Road,Lincoln,,J H Starbuck,Retailers - other,4613,5,,330584,5,,53.23905100000000,831,221,ehcnet@lincoln.gov.uk,Lincoln City,http://www.lincoln.gov.uk,-0.54450100000000,LN1 3LL,2012-12-14,fhrs_5_en-GB,5,,FHRS,5
63244,,287 High Street,Lincoln,,J Ruddock Limited,Retailers - other,4613,,,330538,,,53.23012500000000,585,221,ehcnet@lincoln.gov.uk,Lincoln City,http://www.lincoln.gov.uk,-0.53942500000000,LN2 1AW,2012-03-01,fhrs_exempt_en-GB,Exempt,,FHRS,
63245,,8 Cornhill,Lincoln,,J W Thornton Plc,Retailers - other,4613,0,,329888,5,,53.22764700000000,204,221,ehcnet@lincoln.gov.uk,Lincoln City,http://www.lincoln.gov.uk,-0.53962900000000,LN5 7HE,2013-08-27,fhrs_5_en-GB,5,,FHRS,0
63246,Pelham House,Canwick Road,Lincoln,,Jackson Building Centres Limited (Food),Mobile caterer,7846,0,,509903,0,,53.22291000000000,46052,221,ehcnet@lincoln.gov.uk,Lincoln City,http://www.lincoln.gov.uk,-0.53384400000000,LN5 8HG,2012-11-17,fhrs_5_en-GB,5,,FHRS,0
63247,,Butchery Court,Lincoln,,Jailhouse Rock,Pub/bar/nightclub,7843,5,,330084,5,,53.23062300000000,40530,221,ehcnet@lincoln.gov.uk,Lincoln City,http://www.lincoln.gov.uk,-0.53894400000000,LN2 1JJ,2012-02-28,fhrs_5_en-GB,5,,FHRS,5
63248,Oak House,Waterside South,Lincoln,,Jamie B's,Restaurant/Cafe/Canteen,1,10,,691552,10,,53.22651800000000,46369,221,ehcnet@lincoln.gov.uk,Lincoln City,http://www.lincoln.gov.uk,-0.52462800000000,LN5 7FB,2014-08-11,fhrs_4_en-GB,4,,FHRS,0
63249,,2 Waterside South,Lincoln,,Jay Dees Restaurant,Restaurant/Cafe/Canteen,1,0,,329884,0,,53.22834600000000,200,221,ehcnet@lincoln.gov.uk,Lincoln City,http://www.lincoln.gov.uk,-0.54019000000000,LN5 7DU,2014-02-05,fhrs_5_en-GB,5,,FHRS,0
63250,,77 Sincil Bank,Lincoln,,Jazzed Up Jacks,Mobile caterer,7846,5,,330375,0,,53.22069200000000,43067,221,ehcnet@lincoln.gov.uk,Lincoln City,http://www.lincoln.gov.uk,-0.54063000000000,LN5 7TQ,2012-02-27,fhrs_5_en-GB,5,,FHRS,0
63251,,31 Newland,Lincoln,,Jazzed Up Jacks,Other catering premises,7841,5,,330384,0,,53.23024800000000,43136,221,ehcnet@lincoln.gov.uk,Lincoln City,http://www.lincoln.gov.uk,-0.54429000000000,LN1 1XP,2012-03-02,fhrs_5_en-GB,5,,FHRS,0
63252,,3 Saltergate,Lincoln,,Jenny's,Restaurant/Cafe/Canteen,1,10,,329803,10,,53.22897000000000,1184,221,ehcnet@lincoln.gov.uk,Lincoln City,http://www.lincoln.gov.uk,-0.53980900000000,LN2 1DH,2013-10-15,fhrs_3_en-GB,3,,FHRS,5
63253,,,,,Jennys Jams Ltd,Manufacturers/packers,7839,5,,578557,0,,,46233,221,ehcnet@lincoln.gov.uk,Lincoln City,http://www.lincoln.gov.uk,,,2013-08-12,fhrs_5_en-GB,5,,FHRS,5
63254,,78 High Street,Lincoln,,Jesters,Retailers - other,4613,5,,329977,0,,53.21967100000000,329,221,ehcnet@lincoln.gov.uk,Lincoln City,http://www.lincoln.gov.uk,-0.54536800000000,LN5 8AA,2012-06-13,fhrs_5_en-GB,5,,FHRS,5
63255,,,,,Joanne Taylor,Hospitals/Childcare/Caring Premises,5,,,550655,,,,26084,221,ehcnet@lincoln.gov.uk,Lincoln City,http://www.lincoln.gov.uk,,,2013-05-21,fhrs_exempt_en-GB,Exempt,,FHRS,
63256,,,,,Johnny Dough's Proper Wood-Fired Pizza,Takeaway/sandwich shop,7844,5,,719121,0,,,46439,221,ehcnet@lincoln.gov.uk,Lincoln City,http://www.lincoln.gov.uk,,,2014-11-12,fhrs_5_en-GB,5,,FHRS,0
63257,,4-6 Victoria Street,West Parade,Lincoln,Joiners Arms,Pub/bar/nightclub,7843,10,,329907,5,,53.23242600000000,252,221,ehcnet@lincoln.gov.uk,Lincoln City,http://www.lincoln.gov.uk,-0.54378200000000,LN1 1HU,2013-09-03,fhrs_3_en-GB,3,,FHRS,10
63258,,27 Broadgate,Lincoln,,Jolly Brewer,Pub/bar/nightclub,7843,20,,330099,5,,53.23034500000000,40577,221,ehcnet@lincoln.gov.uk,Lincoln City,http://www.lincoln.gov.uk,-0.53610700000000,LN2 5AQ,2014-02-19,fhrs_1_en-GB,1,,FHRS,5
63259,,Greetwell Road,Lincoln,,JTF Food Stop,Other catering premises,7841,5,,330426,10,,53.23484700000000,43711,221,ehcnet@lincoln.gov.uk,Lincoln City,http://www.lincoln.gov.uk,-0.50627100000000,LN3 4NH,2013-11-01,fhrs_4_en-GB,4,,FHRS,5
63260,,Greetwell Road,Lincoln,,JTF Mega Discount Warehouse,Distributors/Transporters,7,,,329765,,,53.23484700000000,1126,221,ehcnet@lincoln.gov.uk,Lincoln City,http://www.lincoln.gov.uk,-0.50627100000000,LN3 4NH,2014-02-19,fhrs_exempt_en-GB,Exempt,,FHRS,
63261,,233 Moorland Avenue,Lincoln,,Juliet Preston,Other catering premises,7841,5,,330351,0,,53.20462100000000,42790,221,ehcnet@lincoln.gov.uk,Lincoln City,http://www.lincoln.gov.uk,-0.57652600000000,LN6 7JT,2012-11-15,fhrs_5_en-GB,5,,FHRS,0
63262,,3 Honington Approach,Lincoln,,Just Like Your Grannies,Retailers - other,4613,5,,330446,0,,53.24817400000000,44007,221,ehcnet@lincoln.gov.uk,Lincoln City,http://www.lincoln.gov.uk,-0.54879200000000,LN1 3UZ,2014-06-23,fhrs_5_en-GB,5,,FHRS,0
63263,,,,,Kay & Petes Preserves,Other catering premises,7841,5,,434132,0,,,44728,221,ehcnet@lincoln.gov.uk,Lincoln City,http://www.lincoln.gov.uk,,,2012-08-08,fhrs_5_en-GB,5,,FHRS,0
63264,,,,,Kays Cake Creations,Other catering premises,7841,5,,719122,0,,,46440,221,ehcnet@lincoln.gov.uk,Lincoln City,http://www.lincoln.gov.uk,,,2014-11-10,fhrs_5_en-GB,5,,FHRS,0
63265,,,,,KBW Cakes,Other catering premises,7841,10,,710533,0,,,46419,221,ehcnet@lincoln.gov.uk,Lincoln City,http://www.lincoln.gov.uk,,,2014-10-29,fhrs_4_en-GB,4,,FHRS,5
63266,,40 Keddington Avenue,Lincoln,Lincolnshire,Keddington Stores,Retailers - other,4613,10,,330029,0,,53.25078800000000,393,221,ehcnet@lincoln.gov.uk,Lincoln City,http://www.lincoln.gov.uk,-0.53909600000000,LN1 3SS,2013-01-24,fhrs_4_en-GB,4,,FHRS,10
63267,,Nettleham Road,Lincoln,,Kentucky Fried Chicken,Takeaway/sandwich shop,7844,5,,330195,5,,53.23793300000000,41104,221,ehcnet@lincoln.gov.uk,Lincoln City,http://www.lincoln.gov.uk,-0.53103800000000,LN2 1RG,2014-02-03,fhrs_5_en-GB,5,,FHRS,5
63268,,413 High Street,Lincoln,,Kentucky Fried Chicken,Takeaway/sandwich shop,7844,10,,329871,5,,53.21945500000000,185,221,ehcnet@lincoln.gov.uk,Lincoln City,http://www.lincoln.gov.uk,-0.54464100000000,LN5 8HX,2013-10-03,fhrs_3_en-GB,3,,FHRS,10
63269,,Sadler Road,Lincoln,,Kerry Foods Ltd,Distributors/Transporters,7,0,,330114,0,,53.20396700000000,40610,221,ehcnet@lincoln.gov.uk,Lincoln City,http://www.lincoln.gov.uk,-0.61054100000000,,2013-03-22,fhrs_5_en-GB,5,,FHRS,0
63270,,St Mark Street,Lincoln,,Kidz Kitchen,Other catering premises,7841,0,,330278,0,,53.22590000000000,41682,221,ehcnet@lincoln.gov.uk,Lincoln City,http://www.lincoln.gov.uk,-0.54313400000000,LN5 7BA,2013-01-29,fhrs_5_en-GB,5,,FHRS,0
63271,,266 High Street,Lincoln,,Kind,Pub/bar/nightclub,7843,5,,330123,10,,53.23107500000000,40643,221,ehcnet@lincoln.gov.uk,Lincoln City,http://www.lincoln.gov.uk,-0.53988700000000,LN2 1HW,2013-01-31,fhrs_4_en-GB,4,,FHRS,5
63272,,40 Clasketgate,Lincoln,,King Kebab,Takeaway/sandwich shop,7844,5,,330160,5,,53.23050000000000,40790,221,ehcnet@lincoln.gov.uk,Lincoln City,http://www.lincoln.gov.uk,-0.53776400000000,LN2 1JZ,2013-11-06,fhrs_4_en-GB,4,,FHRS,10
63273,,84 Carholme Road,Lincoln,,Kites of Lincoln,Takeaway/sandwich shop,7844,10,,330392,5,,53.23167700000000,43245,221,ehcnet@lincoln.gov.uk,Lincoln City,http://www.lincoln.gov.uk,-0.55242200000000,LN1 1ST,2014-02-24,fhrs_4_en-GB,4,,FHRS,5
63274,,11 Newport,Lincoln,,Klogz,Other catering premises,7841,,,372399,,,53.23767500000000,42486,221,ehcnet@lincoln.gov.uk,Lincoln City,http://www.lincoln.gov.uk,-0.53853900000000,LN1 3DE,2012-11-15,fhrs_exempt_en-GB,Exempt,,FHRS,
63275,,283 Boultham Park Road,Lincoln,,Kong Sing House,Takeaway/sandwich shop,7844,10,,330503,5,,53.21055700000000,449,221,ehcnet@lincoln.gov.uk,Lincoln City,http://www.lincoln.gov.uk,-0.56175900000000,LN6 7ST,2014-07-02,fhrs_4_en-GB,4,,FHRS,5
63276,,8A Park Street,Lincoln,,Krystals,Pub/bar/nightclub,7843,0,,330049,0,,53.23039100000000,40406,221,ehcnet@lincoln.gov.uk,Lincoln City,http://www.lincoln.gov.uk,-0.54055500000000,LN1 1UF,2012-03-06,fhrs_5_en-GB,5,,FHRS,0
63277,,9 West Parade,Lincoln,,La Bottega Delitalia,Restaurant/Cafe/Canteen,1,5,,330018,5,,53.23080600000000,38074,221,ehcnet@lincoln.gov.uk,Lincoln City,http://www.lincoln.gov.uk,-0.54143900000000,LN1 1NL,2013-08-15,fhrs_5_en-GB,5,,FHRS,5
63278,,14 West Parade,Lincoln,,La Trattoria Da Vincenzo,Restaurant/Cafe/Canteen,1,10,,330444,5,,53.23117500000000,44003,221,ehcnet@lincoln.gov.uk,Lincoln City,http://www.lincoln.gov.uk,-0.54150200000000,LN1 1JT,2014-08-04,fhrs_4_en-GB,4,,FHRS,5
63279,,108 Monks Road,Lincoln,,La Vida Vintage,Restaurant/Cafe/Canteen,1,5,,330474,0,,53.23087100000000,44243,221,ehcnet@lincoln.gov.uk,Lincoln City,http://www.lincoln.gov.uk,-0.52187100000000,LN2 5PG,2012-01-17,fhrs_4_en-GB,4,,FHRS,10
63280,Rear of,382 High Street,Lincoln,,Lajkonik,Retailers - other,4613,10,,330635,10,,53.22246500000000,910,221,ehcnet@lincoln.gov.uk,Lincoln City,http://www.lincoln.gov.uk,-0.54373000000000,LN5 7SF,2013-08-13,fhrs_3_en-GB,3,,FHRS,10
63281,,239 Skellingthorpe Road,Lincoln,,Lakeside Fish Bar,Takeaway/sandwich shop,7844,5,,329980,5,,53.21397200000000,331,221,ehcnet@lincoln.gov.uk,Lincoln City,http://www.lincoln.gov.uk,-0.57895700000000,LN6 0ET,2013-09-17,fhrs_5_en-GB,5,,FHRS,5
63282,,259 High Street,Lincoln,,Lazeez,Takeaway/sandwich shop,7844,10,,329916,5,,53.23107500000000,264,221,ehcnet@lincoln.gov.uk,Lincoln City,http://www.lincoln.gov.uk,-0.53988700000000,LN2 1HW,2014-08-26,fhrs_4_en-GB,4,,FHRS,5
63283,,Lincoln County Hospital,Greetwell Road,Lincoln,LCH Ward Kitchens,Restaurant/Cafe/Canteen,1,5,,330654,0,,53.23358500000000,958,221,ehcnet@lincoln.gov.uk,Lincoln City,http://www.lincoln.gov.uk,-0.51966500000000,LN2 5QY,2013-12-02,fhrs_5_en-GB,5,,FHRS,0
63284,Unit 7 Greetwell Hollow,Crofton Drive,Lincoln,,Le Mareski Team Ltd,Retailers - other,4613,5,,509894,5,,53.23365900000000,45994,221,ehcnet@lincoln.gov.uk,Lincoln City,http://www.lincoln.gov.uk,-0.50258200000000,LN3 4NR,2012-10-31,fhrs_5_en-GB,5,,FHRS,5
63285,,67 High Street,Lincoln,,Legal Food,Takeaway/sandwich shop,7844,10,,330505,10,,53.21917000000000,451,221,ehcnet@lincoln.gov.uk,Lincoln City,http://www.lincoln.gov.uk,-0.54556400000000,LN5 8AD,2014-02-05,fhrs_3_en-GB,3,,FHRS,10
63286,,Lenton Green,Lincoln,,Lenton Green,Other catering premises,7841,5,,329945,5,,53.24808700000000,294,221,ehcnet@lincoln.gov.uk,Lincoln City,http://www.lincoln.gov.uk,-0.52199700000000,LN2 2HR,2013-11-11,fhrs_5_en-GB,5,,FHRS,5
