,businessname,ratingvalue,structural,hygiene,confidenceinmanagement,ratingdate,latitude,longitude
26126,23 Morris Street,5,0,0,0,2013-07-10,52.944561,1.21015
26127,A & M Frary Shellfish Stall,5,0,0,5,2013-08-08,,
26128,A J Randell Crabs,4,10,5,5,2014-11-05,52.951695,1.019062
26129,A T Thrower & Son Ltd,5,5,5,5,2014-03-20,52.711235,1.536261
26130,Abbott Farm B&B,5,5,5,5,2010-04-09,52.911491,0.933259
26131,Abbottswood Lodge,5,nan,nan,nan,2014-05-30,52.785251,1.35801
26132,About With Friends,5,5,0,5,2014-06-04,52.820669,1.389603
26133,About With Friends,5,0,0,5,2014-06-26,52.904481,1.089742
26134,About With Friends,5,0,0,5,2015-01-21,,
26135,About With Friends,4,5,0,10,2014-04-03,52.73603,1.466019
26136,About With Friends Community Cafe,5,0,5,5,2014-06-10,52.931611,1.30196
26137,Acorn Cottage (Home Baking),AwaitingInspection,nan,nan,nan,,,
26138,Action For Children,AwaitingInspection,nan,nan,nan,,52.818566,0.941035
26139,Adnams Cellar & Kitchen Store,5,0,0,5,2012-01-25,52.90648,1.091029
26140,Adnams Wine Cellar & Kitchen Store,AwaitingInspection,nan,nan,nan,,52.958395,0.815488
26141,Adrian Hill Fine Art,5,nan,nan,nan,2013-12-16,52.906907,1.088784
26142,Age UK North Norfolk,5,0,5,5,2014-03-14,52.942806,1.213519
26143,Aitken House,3,10,10,5,2014-01-17,52.816669,1.388564
26144,Albatros,4,10,5,5,2013-04-29,52.95837,0.850465
26145,Alberts Fish Bar,5,nan,nan,nan,2013-09-20,52.906998,1.087719
26146,Albion Hotel,5,0,5,0,2015-01-27,52.930569,1.302223
26147,Albury House,AwaitingInspection,nan,nan,nan,,52.932147,1.293026
26148,Alby Horse Shoes Inn,5,5,0,0,2013-01-03,52.844243,1.276576
26149,Alby Tea Rooms,3,10,10,10,2014-06-24,52.844243,1.276576
26150,Aldborough Cp School,5,0,0,5,2012-12-13,52.861399,1.254139
26151,Aldborough Parochial Church Council,AwaitingInspection,nan,nan,nan,,52.861644,1.243875
26152,Alderman Peel High School,5,0,5,5,2014-11-21,52.949378,0.851586
26153,Alexandra Howell Deli,5,5,5,5,2013-10-21,52.955111,0.852469
26154,Alfresco Mobile Bars,AwaitingInspection,nan,nan,nan,,,
26155,Alfresco Tea Rooms,5,5,5,5,2014-09-08,52.710182,1.534191
26156,Al-Haqqs Kitchen,3,10,10,10,2014-01-13,52.822521,1.385204
26157,All Things Sweet,AwaitingInspection,nan,nan,nan,,,
26158,Allards Butchers,5,nan,nan,nan,2013-02-19,52.90648,1.089661
26159,Alpacas Of Norfolk,AwaitingInspection,nan,nan,nan,,52.840512,1.059309
26160,Amazona Zoo,4,5,5,10,2013-06-12,52.926844,1.293233
26161,American Pizza,5,5,5,5,2015-02-03,52.821098,1.387187
26162,AMG Amusements,3,10,10,5,2014-09-10,52.957092,0.851647
26163,Amy's Sweet Shop,AwaitingInspection,nan,nan,nan,,52.931087,1.298154
26164,Andrea's Homemade,5,5,5,0,2014-03-20,,
26165,Andrew Gilling,4,0,10,0,2012-01-27,52.906327,1.337446
26166,Anglia Fine Liqueurs,5,0,0,0,2014-01-06,52.902454,1.091635
26167,Anna's Traditional Hand Made Fudge,AwaitingInspection,nan,nan,nan,,,
26168,Ann's Pantry,AwaitingInspection,nan,nan,nan,,,
26169,Antingham & Southrepps Primary School,5,5,0,5,2014-03-31,52.865474,1.354221
26170,Appletree Cottage Preserves,5,0,0,5,2014-05-13,,
26171,April Powell,AwaitingInspection,nan,nan,nan,,,
26172,Arch House B&B,5,5,0,0,2012-06-29,52.954951,0.845297
26173,Argyll House Residential Home,5,0,0,0,2009-05-19,52.921248,1.277065
26174,Art Cafe,4,10,5,5,2013-09-26,52.931919,1.037449
26175,Arthur Howell,4,5,5,10,2014-03-27,52.956407,0.85245
26176,Arthur Howell Bakery,4,10,5,5,2015-01-15,52.95612,0.852044
26177,Arthur Howell Butchers,3,10,10,10,2013-10-10,52.917221,0.948047
26178,Arthur Howell Butchers,5,5,0,5,2011-08-23,52.95612,0.852044
26179,Arthurs,AwaitingInspection,nan,nan,nan,,52.936796,1.244362
26180,Ashmanhaugh & Beeston Preston Rooms,AwaitingInspection,nan,nan,nan,,52.735722,1.425306
26181,Ashmanhaugh and Barton Wanderers CC,AwaitingInspection,nan,nan,nan,,52.737858,1.473958
26182,Astley Acorns,AwaitingInspection,nan,nan,nan,,52.855304,1.047841
26183,Astley Primary School,5,5,0,5,2014-06-11,52.855304,1.047841
26184,At-Knollside B&B,AwaitingInspection,nan,nan,nan,,52.943828,1.216289
26185,Augusta House B&B,AwaitingInspection,nan,nan,nan,,52.94359,1.207146
26186,Authentics (Home Produce),4,0,10,5,2009-11-06,,
26187,Aylmerton Field Study Centre,5,0,0,5,2014-01-20,52.896945,1.251658
26188,B A Benbow & Son,5,5,5,5,2010-04-16,,
26189,B L Foods International Ltd,4,0,0,10,2011-05-27,52.833917,0.866078
26190,Back To The Garden Farm Shop,3,10,10,10,2014-03-06,52.903471,1.041823
26191,Back To Your Place Caterers,3,10,5,10,2014-01-17,,
26192,Bacton First School,4,5,0,10,2010-05-18,52.847945,1.483403
26193,Bacton Fish Shop,5,5,5,5,2014-01-16,52.851213,1.476548
26194,Bacton Superstore,5,0,0,5,2012-05-21,52.851213,1.476548
26195,Baked Sunshine,5,0,5,0,2014-02-11,,
26196,Bakers & Larners Of Holt,4,0,10,5,2013-09-10,52.905613,1.089807
26197,Balthazar Wine Bar,AwaitingInspection,nan,nan,nan,,52.906479,1.08966
26198,Balthazar Wine Bar,2,15,15,10,2013-11-28,52.906907,1.088784
26199,Bangers And Beverages,3,10,10,10,2014-06-18,52.710282,1.580552
26200,Bann Thai Restaurant,1,15,10,20,2014-06-20,52.929824,1.302821
26201,Banningham & Colby Village Hall,AwaitingInspection,nan,nan,nan,,52.818367,1.288998
26202,Barbara Carr,5,0,0,0,2009-03-19,,
26203,Barbara Fisher,AwaitingInspection,nan,nan,nan,,,
26204,Barbara's Charity Stall,5,5,5,5,2010-08-02,,
26205,Barchams Farm Shop,AwaitingInspection,nan,nan,nan,,52.836244,1.428465
26206,Barge Farm Produce,Exempt,nan,nan,nan,2012-03-28,52.840453,1.359954
26207,Barge Farm Produce (Mobile),5,5,5,5,2012-03-28,,
26208,Barker Organics - The Walled Garden,AwaitingInspection,nan,nan,nan,,,
26209,Barn And Beach,AwaitingInspection,nan,nan,nan,,52.838132,1.489226
26210,Barney Road Bakery,AwaitingInspection,nan,nan,nan,,,
26211,Barneys News,AwaitingInspection,nan,nan,nan,,52.943163,1.210627
26212,Bartender Management,AwaitingInspection,nan,nan,nan,,52.823976,0.853592
26213,Barton Turf Adventure Centre,5,0,0,5,2012-05-30,52.748185,1.488891
26214,Bay Tree Cottage B&B,AwaitingInspection,nan,nan,nan,,52.834919,0.841614
26215,Bayfield Catering,5,0,5,5,2014-06-04,,
26216,Bayleaf Guest House,AwaitingInspection,nan,nan,nan,,52.942262,1.2087
26217,Beach Cafe,5,5,0,0,2013-07-31,52.876692,1.439833
26218,Beach Cafe,5,5,5,5,2014-10-07,52.968765,0.849347
26219,Beach Rock Cafe,5,5,0,5,2014-06-04,52.787906,1.600636
26220,Beachcomber Guest House,AwaitingInspection,nan,nan,nan,,52.93223,1.292288
26221,Bean 2 The Coast,5,0,0,5,2014-03-27,52.955111,0.852469
26222,Beaumaris Hotel,5,5,5,5,2013-03-13,52.942854,1.206421
26223,Beaumont B&B,AwaitingInspection,nan,nan,nan,,52.943828,1.216289
26224,Bed & Breakfast,AwaitingInspection,nan,nan,nan,,52.858554,1.033672
26225,Beechwood Hotel,5,5,5,5,2014-01-10,52.822921,1.382236
26226,Beefys,3,10,10,10,2014-01-28,,
26227,Beeston Hall School,5,0,5,5,2014-05-13,52.937315,1.233906
26228,Beeston Hills Putting Green,AwaitingInspection,nan,nan,nan,,52.943828,1.216289
26229,Beeston Mini Market,AwaitingInspection,nan,nan,nan,,52.937098,1.229008
26230,Before School Breakfast Club,5,0,5,5,2014-09-29,52.916748,1.334662
26231,Belgrade B&B,AwaitingInspection,nan,nan,nan,,52.938268,1.199413
26232,Bella Vista,5,5,0,5,2014-04-23,52.932608,1.299401
26233,Benbow & Sons,4,10,0,5,2012-11-16,52.905551,1.087676
26234,Benbow & Sons,AwaitingInspection,nan,nan,nan,,52.830094,0.849361
26235,Berendsen UK Ltd,5,5,0,0,2014-02-13,52.833354,0.855498
26236,Bernies Members Club,AwaitingInspection,nan,nan,nan,,52.936103,1.272889
26237,Bewilderwood,5,5,5,5,2014-04-28,52.708232,1.448694
26238,Bijou Bottles Ltd,5,5,5,5,2014-10-01,52.71513,1.409873
26239,Birch House,AwaitingInspection,nan,nan,nan,,52.931332,1.296149
26240,Black Apollo Coffee House,5,0,5,5,2014-08-07,52.90569,1.087195
26241,Black Lion Hotel,4,5,10,5,2014-12-03,52.892955,0.873036
26242,Black Swan Public House,5,5,5,5,2014-01-07,52.820612,1.387491
26243,Blakeney C Of E Va Primary School,5,nan,nan,nan,2013-10-11,52.950961,1.022823
26244,Blakeney Delicatessen,5,5,5,5,2014-11-27,52.954802,1.018192
26245,Blakeney Garage,AwaitingInspection,nan,nan,nan,,52.953807,1.010618
26246,Blakeney Harbour Mussel Association,Exempt,nan,nan,nan,,52.944165,1.05434
26247,Blakeney Hotel,4,10,5,5,2014-06-18,52.955754,1.016799
26248,Blakeney House Guest House,AwaitingInspection,nan,nan,nan,,52.953386,1.017646
26249,Blakeney Manor Hotel,5,5,5,5,2013-11-18,52.955914,1.017942
26250,Blakeney Village Hall,AwaitingInspection,nan,nan,nan,,52.952658,1.014082
26251,Blenheim Park Cp School,5,5,0,5,2014-01-28,52.854781,0.735745
26252,Blissful Cakes,4,0,10,5,2014-04-25,,
26253,Blue Sky Cafe,5,5,5,0,2014-06-17,52.933095,1.290285
26254,Blue Sky Leisure,AwaitingInspection,nan,nan,nan,,52.937603,1.26742
26255,Blue Willow Tea Rooms,5,5,5,5,2014-09-09,52.931297,1.298364
26256,Bluebell Inn,5,0,5,0,2014-09-12,52.930971,0.987601
26257,Bluebell Public House,5,5,5,5,2014-11-11,52.828517,1.402272
26258,Bocadillo,3,10,10,10,2014-12-02,52.821343,1.387087
26259,Bodham & Beckham Village Hall,AwaitingInspection,nan,nan,nan,,52.91562,1.162631
26260,Bon Vista Guest House,AwaitingInspection,nan,nan,nan,,52.932147,1.293026
26261,Bond Street Bakery,1,15,10,20,2014-08-13,52.930363,1.30124
26262,Booker Cash & Carry,AwaitingInspection,nan,nan,nan,,52.901369,1.100823
26263,Booking The Cooks,5,0,0,0,2009-12-16,,
26264,Bootifull Coffee,5,5,5,5,2012-07-10,,
26265,Bootifull Coffee (West Raynham),5,5,5,5,2014-11-11,,
26266,Boots The Chemists Ltd,AwaitingInspection,nan,nan,nan,,52.829671,0.847462
26267,Bowling Green P H,4,10,5,5,2013-08-22,52.950848,0.854749
26268,Boxwood Guesthouse,AwaitingInspection,nan,nan,nan,,52.95515,0.855375
26269,Bracken & Forge Restaurants,5,0,0,0,2012-07-24,52.929018,1.150825
26270,Brackendale House,5,5,5,0,2014-01-13,52.942262,1.2087
26271,Bradfield Cricket Club,AwaitingInspection,nan,nan,nan,,52.855314,1.370909
26272,Brambles Farm,5,5,5,5,2014-10-24,,
26273,Branthill Farms Ltd,AwaitingInspection,nan,nan,nan,,52.929323,0.827216
26274,Break,AwaitingInspection,nan,nan,nan,,52.943233,1.206047
26275,Break Charity,4,0,0,10,2009-01-12,52.882951,1.425566
26276,Breakers Cafe,5,5,5,5,2014-12-16,52.931817,1.299415
26277,Breck Farm,Exempt,nan,nan,nan,2010-05-25,52.924668,1.150047
26278,Bridge Tea Rooms,5,5,5,5,2014-11-06,52.712032,1.408758
26279,Bright Stars,AwaitingInspection,nan,nan,nan,,52.9344,1.202447
26280,Brightside,Exempt,nan,nan,nan,,52.872252,1.422953
26281,Brightside B&B,AwaitingInspection,nan,nan,nan,,52.93223,1.292288
26282,Brightstart Montessori Nursery,AwaitingInspection,nan,nan,nan,,52.815723,1.394592
26283,Brightstart Scottow,AwaitingInspection,nan,nan,nan,,52.761484,1.375646
26284,Briston Community Nursery School,AwaitingInspection,nan,nan,nan,,52.849264,1.062019
26285,Briston Day Care Centre,5,5,5,5,2014-10-16,52.853707,1.057118
26286,Brit Stop Coffee Shop,AwaitingInspection,nan,nan,nan,,52.916719,1.308399
26287,Britannia Enterprises,5,0,5,5,2015-01-16,52.760576,1.347719
26288,Broadacres Residential Home,5,5,0,5,2014-02-25,52.737858,1.473958
26289,Broadland Fish & Chips,5,5,5,5,2013-07-11,52.772879,1.511214
26290,Broadland High School,5,5,5,5,2014-10-13,52.717497,1.41265
26291,Broadland House,5,5,5,5,2014-01-06,52.713838,1.575393
26292,Broads Haven Tavern,4,5,0,10,2013-12-04,52.710282,1.580552
26293,Broadside Caterers,5,5,5,5,2013-06-25,52.768124,1.521122
26294,Broadside Chalet Park,AwaitingInspection,nan,nan,nan,,52.768124,1.521122
26295,Brook House B&B,AwaitingInspection,nan,nan,nan,,52.937642,1.218911
26296,Brook Lodge Care Home,AwaitingInspection,nan,nan,nan,,52.847304,1.486233
26297,Broomfield B&B,5,0,5,0,2014-06-10,52.88935,1.298135
26298,Brownes On Bond Street,5,5,5,5,2014-06-30,52.930363,1.30124
26299,Bryan Buckenham,AwaitingInspection,nan,nan,nan,,,
26300,Budgens,4,10,5,5,2014-10-20,52.833262,0.846212
26301,Budgens of Holt,5,5,5,5,2014-11-28,52.904481,1.089742
26302,Building Lego Only Club for Kids,AwaitingInspection,nan,nan,nan,,52.847051,1.47678
26303,Bumbles Pre-School,AwaitingInspection,nan,nan,nan,,52.86098,1.399924
26304,Bunnies,4,10,5,5,2014-09-16,52.831268,0.84574
26305,Buns Of Fun,5,0,5,5,2015-01-21,,
26306,Bunteas,5,5,0,0,2012-08-10,52.943567,1.140017
26307,Bure River Cottage Restaurant,5,5,0,5,2014-10-14,52.704799,1.463097
26308,Bure Valley Railway Ltd,AwaitingInspection,nan,nan,nan,,52.71804,1.405968
26309,Burlington Hotel,5,5,0,0,2012-06-21,52.945084,1.207777
26310,Butchers Arms,3,10,10,10,2015-01-14,52.800059,1.4792
26311,Buttercups Tearooms,5,5,5,5,2014-06-16,52.931891,1.300627
26312,Byfords Restaurant,5,5,5,5,2013-11-12,52.906235,1.088349
26313,C A Seafoods,5,5,0,5,2014-09-09,52.940219,1.143868
26314,C D Page Confectioner & Tobacconist,AwaitingInspection,nan,nan,nan,,52.821343,1.387087
26315,Cabin Crew,5,5,0,0,2013-10-15,,
26316,Cafe 24,AwaitingInspection,nan,nan,nan,,52.957637,0.848749
26317,Cafe Bacton,5,5,5,5,2014-03-25,52.847304,1.486233
26318,Cafe Kitale,3,10,5,10,2015-01-26,52.82202,1.38668
26319,Cafe Main,5,5,0,0,2014-11-26,52.931039,1.300205
26320,Cafe Scrumptious,5,0,0,5,2014-12-02,52.830444,0.852368
26321,Cafe TMC,5,5,5,5,2013-09-11,52.953715,1.019545
26322,Caffe Capri,5,5,0,0,2013-09-24,,
26323,Caffe Roma,AwaitingInspection,nan,nan,nan,,,
26324,Caffenito,AwaitingInspection,nan,nan,nan,,,
26325,Cake Me Smile,AwaitingInspection,nan,nan,nan,,,
26326,Cakes by the Coast,AwaitingInspection,nan,nan,nan,,,
26327,Camberley House B&B,AwaitingInspection,nan,nan,nan,,52.943875,1.216218
26328,Cambridge House B&B,AwaitingInspection,nan,nan,nan,,,
26329,Campbell House B&B,AwaitingInspection,nan,nan,nan,,52.943632,1.213908
26330,Camphill Communities,Exempt,nan,nan,nan,2014-04-23,52.885123,1.044358
26331,Camping & Caravan Club,AwaitingInspection,nan,nan,nan,,52.929728,1.254861
26332,Canaan Christian Centre,5,0,0,5,2011-01-06,52.938268,1.199413
26333,Captains Table,5,5,5,5,2013-11-08,52.957431,0.848721
26334,Caring In Care Ltd,4,5,10,5,2013-12-17,52.822969,1.017103
26335,Carobies,AwaitingInspection,nan,nan,nan,,,
26336,Carols Cakes,5,0,0,5,2013-03-19,,
26337,Carousel Candys,5,5,5,5,2012-09-05,52.944694,1.211887
26338,Carriage: Kitchen Car,5,0,0,5,2013-05-01,52.941866,1.209385
26339,Carriage: RBR,5,0,0,5,2012-07-30,52.941866,1.209385
26340,Castaways Holiday Park,5,5,5,5,2012-11-13,52.853853,1.434999
26341,Catesby's,5,0,0,5,2013-07-22,52.957092,0.851647
26342,Catfield C Of E Primary School,AwaitingInspection,nan,nan,nan,,52.73584,1.527022
26343,Catfield Stores & Post Office,5,5,5,5,2013-08-19,52.740436,1.534566
26344,Catfield Village Hall,AwaitingInspection,nan,nan,nan,,52.740436,1.534566
26345,Catherine Baker (Rampant Horse Inn),4,0,5,10,2010-03-18,,
26346,Catmic Cakes,AwaitingInspection,nan,nan,nan,,,
26347,Causeway Butchers,5,5,5,5,2014-10-29,52.783371,1.562301
26348,Cawdrons Butchers,5,5,5,5,2013-11-13,52.772014,1.514614
26349,Celebrations Catering,AwaitingInspection,nan,nan,nan,,,
26350,Cellar By The Quay,AwaitingInspection,nan,nan,nan,,,
26351,Chai-Yo Thai Restaurant,3,10,10,10,2014-03-19,52.943971,1.211015
26352,Charcoal Grill,3,10,10,10,2014-12-01,52.822521,1.385204
26353,Charlie Ward Traditional Boats Ltd,Exempt,nan,nan,nan,,52.954891,0.986541
26354,Cherry Blossom Cafe,4,5,5,10,2013-07-17,52.772014,1.514614
26355,Chimneys Bed & Breakfast,5,0,0,5,2015-01-05,52.824508,1.374832
26356,China City,5,5,5,5,2014-11-28,52.920272,1.309325
26357,Chips And ?,4,5,5,10,2012-08-24,,
26358,Choco Melt,AwaitingInspection,nan,nan,nan,,,
26359,Chubby Chutney Company,AwaitingInspection,nan,nan,nan,,,
26360,Chubby Panda,3,10,10,5,2014-03-13,52.821837,1.38524
26361,Church Cafe,3,5,10,10,2013-11-22,52.939617,1.214711
26362,Church Cottage B&B,AwaitingInspection,nan,nan,nan,,52.948532,0.935393
26363,Church Farm Barn B&B,AwaitingInspection,nan,nan,nan,,52.843388,1.446675
26364,Church Farm Barns,5,nan,nan,nan,2013-04-10,,
26365,Church Meeting Room,4,5,0,10,2014-06-04,52.784075,1.600602
26366,Cinnamon,3,10,10,10,2015-01-20,52.772014,1.514614
26367,Claridges Catering,4,5,5,10,2013-11-12,,
26368,Cleat House,AwaitingInspection,nan,nan,nan,,52.942604,1.204705
26369,Clementines,5,0,5,0,2012-07-25,52.937661,1.24529
26370,Cley Smokehouse,5,5,5,5,2012-08-02,52.952263,1.043312
26371,Cley Social Club,AwaitingInspection,nan,nan,nan,,52.952207,1.04447
26372,Cley Windmill,5,5,5,5,2014-08-08,52.954353,1.042819
26373,Cliff Cottage B&B,AwaitingInspection,nan,nan,nan,,52.916725,1.342829
26374,Cliff Top Cafe Ltd,5,5,0,5,2014-09-29,52.918494,1.343248
26375,Cliftonville Hotel,5,5,0,0,2014-09-11,52.932937,1.292431
26376,Clover Childcare Services Ltd,AwaitingInspection,nan,nan,nan,,52.802535,1.524468
26377,Clover Childcare Services Ltd,5,0,0,0,2011-10-13,52.791435,1.508154
26378,Co Operative Pharmacy,AwaitingInspection,nan,nan,nan,,52.836119,0.862778
26379,Coast Kebab,5,0,5,0,2014-07-25,52.932608,1.299401
26380,Coffee Cube,AwaitingInspection,nan,nan,nan,,,
26381,Coffee Morning,5,5,5,5,2013-11-28,52.8280164447,0.848837183088
26382,Coffee Tea Toast,5,5,5,5,2014-04-04,52.950149,0.860272
26383,Colby Cp School,5,0,0,0,2009-02-24,52.819508,1.300366
26384,Common Rooms (Sheltered Housing),Exempt,nan,nan,nan,,52.71234,1.534514
26385,Communal Centre,Exempt,nan,nan,nan,,,
26386,Community Centre,Exempt,nan,nan,nan,,52.860621,1.396122
26387,Community Centre,4,5,5,10,2009-01-20,52.704211,1.466915
26388,Community Centre,AwaitingInspection,nan,nan,nan,,52.861644,1.243875
26389,Constantia Cottage Restaurant,5,0,5,0,2014-07-23,52.935906,1.271222
26390,Cookes Of Cley,5,0,0,5,2012-03-09,52.954319,1.044157
26391,Cookies Crab Shop,5,0,0,5,2013-11-08,52.951963,1.087677
26392,Cooks of Ingham,Exempt,nan,nan,nan,,52.782469,1.573739
26393,Co-Op Foodstore,AwaitingInspection,nan,nan,nan,,52.853979,1.058801
26394,Co-Op Foodstore,5,5,0,5,2009-07-22,52.856733,1.037705
26395,Co-Operative Food Store,5,5,0,5,2012-01-12,52.942796,1.208903
26396,Co-Operative Foodstore,AwaitingInspection,nan,nan,nan,,52.951465,0.857515
26397,Corner Cottage B&B,AwaitingInspection,nan,nan,nan,,52.938857,1.244635
26398,Corner House Bed & Breakfast,AwaitingInspection,nan,nan,nan,,52.937,1.244481
26399,"Cornerstone Cafe, Cromer Parish Hall",5,0,5,5,2015-01-15,52.931039,1.300205
26400,Corpusty & Holt Children's Centre,5,0,0,5,2012-05-28,52.901007,1.097793
26401,Corpusty Primary School,5,5,0,5,2014-09-19,52.827657,1.135255
26402,Corpusty Stores Ltd,4,5,5,10,2014-12-05,52.826475,1.136417
26403,Cosy Cafe,3,10,10,10,2015-01-23,52.822012,1.385729
26404,Country Garden,AwaitingInspection,nan,nan,nan,,52.955286,0.85196
26405,Country Market,AwaitingInspection,nan,nan,nan,,52.944561,1.21015
26406,Country Market,AwaitingInspection,nan,nan,nan,,,
26407,Country Pickings,AwaitingInspection,nan,nan,nan,,52.876325,1.433576
26408,Country Treats,4,5,5,10,2014-03-25,52.704799,1.463097
26409,Countryside Filling Station,AwaitingInspection,nan,nan,nan,,52.881491,0.979499
26410,Craft Bakery,4,10,5,5,2013-06-24,52.943971,1.211015
26411,Cranleigh Residential Home,5,5,5,0,2014-04-10,52.928272,1.301065
26412,Cranmer House,5,5,0,5,2014-03-24,52.831697,0.861952
26413,Crawfish Public House,5,0,5,5,2013-06-28,52.864987,0.961279
26414,Creative Cakes,5,0,5,0,2014-06-26,,
26415,Crisp Maltings Social Club,AwaitingInspection,nan,nan,nan,,52.808609,0.899538
26416,Croc's,5,5,5,5,2013-07-10,,
26417,Crofters Restaurant,5,5,5,5,2014-05-07,52.943971,1.211015
26418,Cromer & District Hospital,5,5,5,5,2014-03-12,52.923578,1.309145
26419,Cromer Academy,5,5,5,0,2014-11-12,52.924033,1.303466
26420,Cromer Country Club,5,5,5,5,2014-09-02,52.924393,1.311514
26421,Cromer Farm & Health Shop,5,5,5,5,2010-07-06,52.931611,1.30196
26422,Cromer House B&B,AwaitingInspection,nan,nan,nan,,52.932147,1.293026
26423,Cromer Ices,5,5,5,5,2012-05-08,52.931817,1.299415
26424,Cromer Junior School,5,0,0,5,2014-10-15,52.924033,1.303466
26425,Cromer Kebab,4,nan,nan,nan,2013-07-12,52.931297,1.298363
26426,Cromer Lawn Tennis & Squash Assoc,4,10,5,0,2009-10-13,52.924033,1.303466
26427,Cromer Museum,Exempt,nan,nan,nan,,52.931403,1.301989
26428,Cromer Pizza House,5,5,0,5,2014-07-24,52.931817,1.299415
26429,Cromer Road Stores,5,5,5,0,2010-01-12,52.939645,1.217676
26430,Cromer Rock & Candy Shop,5,5,5,5,2012-04-20,52.931297,1.298364
26431,Cromer Social Club,5,5,5,0,2011-11-17,52.929801,1.298161
26432,Cromer Tandoori,5,0,0,5,2014-01-21,52.930569,1.302223
26433,Cromer Town Football Club,5,nan,nan,nan,2012-09-11,52.92446,1.307829
26434,Cross Keys Inn,3,10,10,10,2014-10-02,52.775176,1.45602
26435,Crossways,5,5,5,0,2014-08-18,52.94328,1.208299
26436,Crown Hotel,5,5,5,5,2014-09-09,52.952794,0.851617
26437,Crown Inn,4,5,10,5,2014-03-24,52.945055,1.213179
26438,Crown Inn,4,5,5,10,2013-06-13,52.740436,1.534566
26439,Crystal Cakes,AwaitingInspection,nan,nan,nan,,,
26440,Crystal Care,4,0,10,10,2010-05-24,52.930987,1.288487
26441,Cudmore-Empson,Exempt,nan,nan,nan,,52.885596,1.249366
26442,Cuttings Home Bakes,5,5,5,5,2013-02-12,,
26443,D K Jeary,5,0,0,0,2010-01-22,52.846961,1.071453
26444,D K Jeary (Market Stall),4,10,0,5,2014-07-26,,
26445,Dairy Barns,5,5,5,5,2014-12-02,52.773157,1.585448
26446,Dairyland,AwaitingInspection,nan,nan,nan,,,
26447,Dairyland (Brass Monkeys van),AwaitingInspection,nan,nan,nan,,,
26448,Dairyland Ice Cream,5,0,5,5,2012-05-21,,
26449,Daisychain Catering,AwaitingInspection,nan,nan,nan,,,
26450,Dalmeny House Residential Home,5,5,5,5,2014-10-13,52.94328,1.208299
26451,Dandelion Nursery,AwaitingInspection,nan,nan,nan,,52.838372,1.250975
26452,Daniel Denny,Exempt,nan,nan,nan,,52.89864,1.214545
26453,Danum House B&B,AwaitingInspection,nan,nan,nan,,52.917716,1.336046
26454,Dave Morris,AwaitingInspection,nan,nan,nan,,,
26455,Davenports Magic Kingdom,1,5,10,20,2013-06-25,52.827059,1.368304
26456,Daves Diner,5,5,0,0,2015-01-15,52.910265,1.103839
26457,Daves Fish Bar & Restaurant,4,5,10,5,2014-09-08,52.944097,1.212677
26458,David Jagger Ltd,AwaitingInspection,nan,nan,nan,,52.955286,0.85196
26459,Davies Fishmonger,5,0,5,5,2014-12-05,52.931817,1.299415
26460,Dawnfresh,AwaitingInspection,nan,nan,nan,,52.941787,1.210317
26461,Day Care Centre (Social Services),5,0,0,5,2013-10-03,52.924619,1.300817
26462,Day/Respite Service,4,0,0,10,2012-08-01,52.823701,1.479605
26463,Days Stores,AwaitingInspection,nan,nan,nan,,52.861644,1.243875
26464,Deborah Robson,4,0,0,10,2014-05-07,,
26465,Deborah Steward Specialist Catering,5,5,5,5,2013-06-25,,
26466,Deckside Cafe,4,5,5,10,2014-09-04,52.712062,1.408967
26467,Deer's Glade Caravan & Camping Park,AwaitingInspection,nan,nan,nan,,52.857878,1.287589
26468,Dee's Kitchen,4,5,5,10,2014-03-26,52.941751,1.210285
26469,Dee's Snacks,4,0,0,10,2009-08-13,,
26470,Del's,AwaitingInspection,nan,nan,nan,,52.875329,1.440008
26471,Denises's Kitchen,4,5,5,10,2014-10-30,,
26472,Didi' Diane Cornish Ice Cream,5,5,5,5,2012-08-29,,
26473,Digby's Fine Chocolates,5,0,0,5,2009-08-27,52.931817,1.299415
26474,Dilham Pre-School,AwaitingInspection,nan,nan,nan,,52.774885,1.455226
26475,Dilham Village Stores,5,0,0,5,2015-01-21,52.775176,1.45602
26476,D'Inacios Brasserie,5,5,5,5,2013-10-24,52.830291,0.849359
26477,DJ Mobile Refreshments,3,10,10,5,2015-01-15,,
26478,Donna's Finest Scones,AwaitingInspection,nan,nan,nan,,,
26479,Doreen Neave,AwaitingInspection,nan,nan,nan,,,
26480,Dormie Residential Home,1,5,15,20,2015-01-05,52.943828,1.216289
26481,Dormy House Hotel,5,5,5,5,2014-08-05,52.93717,1.25207
26482,Dorrington House,5,0,0,0,2014-01-10,52.955816,0.844103
26483,Douglas Bader School,5,0,5,5,2014-11-26,52.759669,1.342268
26484,Dozy Dormouse,5,5,5,5,2014-04-04,52.935906,1.271222
26485,Drifters,5,5,5,5,2014-12-19,52.831479,0.846333
26486,Dudley's Bakery,5,5,0,0,2014-03-31,52.931611,1.30196
26487,Duke Of Edinburgh,2,15,10,10,2013-10-03,52.848173,1.478712
26488,Dunsland Residential Home,AwaitingInspection,nan,nan,nan,,52.875329,1.440008
26489,E & J de Feyter,Exempt,nan,nan,nan,,52.813044,1.490272
26490,E J Perowne,Exempt,nan,nan,nan,2010-04-15,52.874324,0.892612
26491,East Coast Bars,4,10,0,5,2015-01-07,,
26492,East Coast Plastics Ltd,5,5,5,5,2014-03-31,52.829186,1.383614
26493,East Runton Butchers,4,10,5,5,2013-11-14,52.935906,1.271222
26494,East Runton Butchers (Market Stall),3,10,10,10,2014-03-15,,
26495,East Runton Newsagents/Tea Room,4,10,5,5,2014-09-03,52.93572,1.271788
26496,East Runton Stores,5,5,5,5,2009-07-07,52.93572,1.271788
26497,East Ruston Area First School,AwaitingInspection,nan,nan,nan,,52.803451,1.489563
26498,East Ruston Old Vicarage,AwaitingInspection,nan,nan,nan,,52.805669,1.508574
26499,Eastdene Guest House,AwaitingInspection,nan,nan,nan,,52.955323,0.856757
26500,Eastways Children's Home,AwaitingInspection,nan,nan,nan,,52.844975,1.494172
26501,Edfords Care Farm CIC,AwaitingInspection,nan,nan,nan,,52.903305,1.35945
26502,Edgefield Village Hall,AwaitingInspection,nan,nan,nan,,52.866117,1.114534
26503,Edward John Bean (Mussels),AwaitingInspection,nan,nan,nan,,52.954891,0.986541
26504,Edwards & Blake,3,10,10,5,2013-12-10,52.815723,1.394592
26505,Edwards & Blake Ltd,5,5,0,0,2012-05-21,52.83569,0.859691
26506,Elan Catering,AwaitingInspection,nan,nan,nan,,,
26507,Eleanores Country Fruit & Veg,3,10,10,10,2014-12-05,,
26508,Elephant Playbarn,5,0,5,0,2014-04-03,52.856197,1.423308
26509,Elizabeth Fitzroy Support,5,0,0,5,2009-05-06,52.776525,1.519294
26510,Elizabeth Fitzroy Support,AwaitingInspection,nan,nan,nan,,52.830039,0.863952
26511,Elizabeth Fitzroy Support,AwaitingInspection,nan,nan,nan,,52.955169,0.859054
26512,Ellies,4,10,0,10,2013-09-30,52.944694,1.211887
26513,Ellies,5,0,5,5,2013-07-05,52.944679,1.214104
26514,Elsenham House Nursing Home,5,5,0,5,2014-09-02,52.920272,1.309325
26515,Emcy Garden & Leisure Ltd,5,5,5,5,2014-01-16,52.927569,1.114393
26516,End Cottage,AwaitingInspection,nan,nan,nan,,,
26517,Erika's B&B,AwaitingInspection,nan,nan,nan,,52.831191,0.848972
26518,Erpingham & Calthorpe Village Hall,AwaitingInspection,nan,nan,nan,,52.842126,1.270832
26519,Erpingham C of E Primary School,5,0,5,5,2012-05-30,52.838373,1.250975
26520,Erpingham House Farm,Exempt,nan,nan,nan,2010-03-11,52.842126,1.270832
26521,Europe Express,5,0,0,5,2014-04-29,52.830424,0.852084
26522,European Health Care Group,5,5,5,5,2014-07-22,52.883764,1.42453
26523,Explorers Bar & Coffee House,4,5,5,10,2014-06-13,52.845852,1.062878
26524,Express News,AwaitingInspection,nan,nan,nan,,52.931039,1.300205
26525,Fair Maiden Shellfish,5,0,5,5,2014-10-02,52.824349,1.528269
26526,Fair River Tearoom,5,5,5,5,2014-07-21,52.829029,0.848385
26527,Fairview Garage,3,10,5,10,2014-07-23,52.76676,1.476854
26528,Fakenham & District Day Centre,5,5,5,5,2014-11-20,52.831479,0.846333
26529,Fakenham Academy,5,5,0,5,2014-09-26,52.8407,0.844323
26530,Fakenham Cafe,5,5,5,5,2013-07-17,52.836544,0.859687
26531,Fakenham Childrens Daycare Centre,5,0,5,5,2013-10-08,52.840081,0.846495
26532,Fakenham College,4,5,0,10,2014-09-26,52.835359,0.845399
26533,Fakenham Community Centre,AwaitingInspection,nan,nan,nan,,52.831479,0.846333
26534,Fakenham Country Market,AwaitingInspection,nan,nan,nan,,,
26535,Fakenham Country Market,AwaitingInspection,nan,nan,nan,,,
26536,Fakenham Country Market,AwaitingInspection,nan,nan,nan,,,
26537,Fakenham Country Market (Thursday),5,0,0,0,2012-02-23,52.828691,0.849358
26538,Fakenham Country Markets,AwaitingInspection,nan,nan,nan,,,
26539,Fakenham County Infants School,5,5,0,5,2013-07-02,52.830951,0.858934
26540,Fakenham Driving Range,AwaitingInspection,nan,nan,nan,,52.843143,0.831265
26541,Fakenham Garden Centre,5,5,5,5,2015-01-07,52.827249,0.836347
26542,Fakenham Gateway Childrens Centre,AwaitingInspection,nan,nan,nan,,52.830951,0.858934
26543,Fakenham Junior School,5,5,0,5,2013-07-16,52.830901,0.850557
26544,Fakenham Rugby Union Football Club,5,0,5,5,2014-12-10,52.841917,0.842694
26545,Fakenham Sports Centre Association,4,10,5,5,2015-02-03,52.823976,0.853592
26546,Fakenham Super Bowl,4,5,10,5,2015-01-09,52.82814,0.849841
26547,Fakenham Tandoori,5,nan,nan,nan,2014-03-07,52.830836,0.852156
26548,Fakenham Town Football Club,4,0,0,10,2010-03-25,52.83971,0.870484
26549,Faldonside Lodge,5,0,0,0,2015-01-20,52.927873,1.303788
26550,Falgate Inn,3,10,10,10,2014-02-18,52.714958,1.573159
26551,Family Kebab House,5,5,5,5,2014-01-16,52.772014,1.514614
26552,Farm Fresh Meats,5,nan,nan,nan,2014-07-03,52.704799,1.463097
26553,Farmhouse Bakery,5,5,5,5,2014-12-22,52.830128,1.383391
26554,Feathers Hotel,5,5,5,5,2014-08-27,52.905613,1.089807
26555,Feeney's Newsagent,AwaitingInspection,nan,nan,nan,,52.90616,1.089504
26556,Felbrigg & Metton Village Hall,AwaitingInspection,nan,nan,nan,,52.908977,1.277536
26557,Felbrigg Lodge,5,5,0,0,2014-05-15,52.896945,1.251658
26558,Felmingham Old Rectory,5,5,5,5,2014-09-22,52.814721,1.334841
26559,Felmingham Stores,5,5,5,5,2011-07-28,52.816107,1.339579
26560,Felmingham Village Social Club,5,5,0,5,2014-11-03,52.814721,1.334841
26561,Fenella Purdy,5,0,0,5,2012-05-17,,
26562,Ferndale Norfolk Farmhouse Cheeses,5,5,5,5,2014-10-13,52.854559,1.175658
26563,Fernleigh Guest House,AwaitingInspection,nan,nan,nan,,52.932147,1.293026
26564,Ferry Inn,4,5,5,10,2013-11-26,52.696659,1.469883
26565,Ferry Marina Ltd,Exempt,nan,nan,nan,,52.693387,1.463321
26566,First Focus Fakenham,5,5,5,5,2015-01-22,52.82869,0.849357
26567,Fish 'n Fries,5,5,5,5,2014-11-06,52.876694,1.433248
26568,Fish Shop,5,5,5,0,2014-11-11,52.884039,1.298311
26569,Fishing Boat,5,5,5,0,2014-01-28,52.935906,1.271222
26570,Flipping Pancakes,5,0,0,5,2013-02-28,,
26571,Flour & Bean,5,5,5,5,2013-12-04,52.830027,0.848777
26572,Flour and Bean,5,5,0,5,2014-08-07,52.710282,1.580552
26573,Food Hall - Roys (Wroxham) Ltd,4,10,5,5,2014-10-01,52.71672,1.420557
26574,Foresters Club And Restaurant,5,5,0,0,2014-10-10,52.915161,1.320063
26575,Forrests,AwaitingInspection,nan,nan,nan,,52.772014,1.514614
26576,Fortune House,4,10,5,5,2014-01-17,52.955169,0.859054
26577,Fortune House Restaurant,3,5,10,10,2014-11-12,52.771854,1.513934
26578,Foundry Arms,4,5,5,10,2014-08-06,52.904279,1.338017
26579,French's Fish & Chip Shop,5,0,0,5,2013-11-08,52.957092,0.851647
26580,Fresh Up Ltd,5,0,5,5,2013-03-11,52.931891,1.300627
26581,Freshsubs Ltd,3,5,10,10,2013-11-05,52.927538,1.288315
26582,Friendship Lunch Club,5,0,0,5,2015-01-07,,
26583,Fruits Of The Sea,AwaitingInspection,nan,nan,nan,,52.823976,0.853592
26584,Fudgetastic,AwaitingInspection,nan,nan,nan,,52.943833,1.211779
26585,Furze Hill House Care Home,5,5,5,5,2014-12-12,52.815184,1.398038
26586,G B Eastell,AwaitingInspection,nan,nan,nan,,,
26587,Gallery Bistro,AwaitingInspection,nan,nan,nan,,52.830263,0.848303
26588,Garden Street Grill,5,5,0,0,2013-03-13,52.931817,1.299415
26589,Gardener's Retreat,5,5,5,0,2013-04-11,52.915278,1.340872
26590,Gavin Watling Mobile,5,0,0,5,2015-01-15,,
26591,Georgina Gurney Catering,5,5,5,0,2010-01-13,,
26592,Georgina Henderson,AwaitingInspection,nan,nan,nan,,,
26593,Gift Shop,AwaitingInspection,nan,nan,nan,,52.907584,1.260205
26594,Gimingham United Football Club,AwaitingInspection,nan,nan,nan,,52.857584,1.392868
26595,Glaven District Caring Committee,5,5,5,5,2013-11-12,52.951374,1.009764
26596,Glebe Farm,5,0,0,5,2009-09-11,52.721485,1.586921
26597,Glendale Guest House,AwaitingInspection,nan,nan,nan,,52.93223,1.292288
26598,Glendon House,5,5,0,0,2014-08-04,52.914946,1.344998
26599,Glenholme,5,0,5,0,2012-11-12,52.931332,1.296149
26600,Globe Inn,5,0,0,5,2012-02-09,52.953432,0.851986
26601,Golden City,5,5,0,0,2011-03-23,52.704799,1.463097
26602,Golden Fish Bar,4,5,10,5,2014-01-20,52.712032,1.408758
26603,Golden Fish N Chips,3,10,5,10,2014-06-03,52.829425,0.848753
26604,Goldings,AwaitingInspection,nan,nan,nan,,52.956407,0.85245
26605,Good Luck Star,3,5,10,10,2014-09-24,52.85632,1.039786
26606,Good Tastes,AwaitingInspection,nan,nan,nan,,,
26607,Got Lunch,AwaitingInspection,nan,nan,nan,,,
26608,Gracenotes Cafe,AwaitingInspection,nan,nan,nan,,52.847304,1.486233
26609,Granary Auction Warehouse Rear of,5,0,0,0,2012-06-14,52.941787,1.210317
26610,Grandma's Pantry,5,0,0,5,2012-04-05,52.812954,1.382931
26611,Grange Farmhouse Cookery School,AwaitingInspection,nan,nan,nan,,,
26612,Graves Butchers,AwaitingInspection,nan,nan,nan,,52.905613,1.089807
26613,Graves of Briston Hog Roasts,1,5,10,20,2013-11-19,,
26614,Great Snoring Social Club,AwaitingInspection,nan,nan,nan,,52.874652,0.889839
26615,Great Wall,3,10,10,10,2014-12-09,52.821063,1.386813
26616,Great Walsingham Barns Cafe,5,5,5,5,2013-08-23,52.900835,0.89072
26617,Greedy Goose,5,0,5,5,2014-06-05,52.843271,1.18076
26618,Green Farm House B&B,AwaitingInspection,nan,nan,nan,,52.870581,0.933364
26619,Green Farm Lamb,AwaitingInspection,nan,nan,nan,,,
26620,Green House,5,0,5,5,2014-06-12,52.87611,1.328449
26621,Green Lawn House,AwaitingInspection,nan,nan,nan,,52.916725,1.342829
26622,Green Man Inn,3,10,10,5,2014-12-01,52.851913,0.913997
26623,Green Park Rural Centre,4,5,5,10,2013-06-21,52.821992,0.833184
26624,Greggs,5,5,0,0,2014-09-29,52.829682,0.849274
26625,Gresham Preparatory School,5,0,5,0,2013-09-17,52.907292,1.09543
26626,Gresham Pre-Preparatory School,5,0,0,5,2013-09-17,52.910265,1.103839
26627,Gresham Senior School,5,0,0,5,2013-09-17,52.910265,1.103839
26628,Gresham Village Park Committee,4,10,5,5,2014-04-04,52.899283,1.216705
26629,Gresham Village Primary School,5,5,5,0,2014-01-08,52.899552,1.22666
26630,Grey Seal Coffee Roasters Stall,4,5,5,10,2014-05-29,,
26631,Greys Fish & Chips (Wroxham Leisure),5,0,0,5,2012-05-14,52.712032,1.408758
26632,Groveland Butcher,AwaitingInspection,nan,nan,nan,,52.894391,1.302801
26633,Groveland Butchers,AwaitingInspection,nan,nan,nan,,52.881056,1.311122
26634,Groveland Farm Restaurant,5,5,5,0,2014-03-12,52.881056,1.311122
26635,Groveland Farm Shop Ltd,5,0,0,5,2014-11-11,52.881056,1.311122
26636,Guild Retirement Housing Ltd,4,0,0,10,2012-01-19,52.81634782,1.38918829
26637,Gunthorpe Hall,AwaitingInspection,nan,nan,nan,,52.872534,0.982348
26638,Gunthorpe Village Institute,AwaitingInspection,nan,nan,nan,,52.870583,0.993078
26639,GV Icecream,5,0,0,5,2012-07-11,,
26640,H Graves (Briston) Ltd,2,5,15,10,2013-12-09,52.851637,1.060686
26641,H M P Bure,5,5,0,0,2013-10-24,52.760576,1.347719
26642,H V Graves,5,5,5,5,2014-03-20,,
26643,Haig Social Club,5,5,5,5,2013-04-03,52.879478,1.434628
26644,Hain Frozen Foods (Desserts),5,0,0,0,2013-06-04,52.83569,0.859691
26645,Halfords,AwaitingInspection,nan,nan,nan,,52.929577,1.290985
26646,Hall Farm Flour,AwaitingInspection,nan,nan,nan,,,
26647,Halvergate House,4,nan,nan,nan,2014-04-07,52.813493,1.390202
26648,Hamilton House Nursing Home,3,10,5,10,2014-11-24,52.743122,1.533153
26649,Hanworth Memorial Hall,AwaitingInspection,nan,nan,nan,,52.872657,1.259114
26650,Happisburgh Cricket Club,AwaitingInspection,nan,nan,nan,,52.825152,1.528809
26651,Happisburgh Road Stores,AwaitingInspection,nan,nan,nan,,52.819603,1.394493
26652,Happisburgh Tea Room,5,5,0,5,2010-05-19,52.822562,1.536943
26653,Happisburgh VC Primary School,AwaitingInspection,nan,nan,nan,,52.823514,1.531854
26654,Harry Heron,5,0,0,5,2014-04-22,52.696659,1.469883
26655,Hastings of Sheringham,AwaitingInspection,nan,nan,nan,,52.943833,1.211779
26656,Hatter Events Ltd,4,0,5,10,2014-07-25,,
26657,Hawthorn Cottage,AwaitingInspection,nan,nan,nan,,,
26658,Hayley Allard,5,0,5,5,2014-04-04,,
26659,Hazel's Tea Shop,4,5,5,10,2013-06-19,52.942486,1.210726
26660,Heidi-licious Cupcakes,5,0,0,5,2014-05-09,,
26661,Helhoughton Village Hall,AwaitingInspection,nan,nan,nan,,52.803691,0.768517
26662,Hempstead Hall B&B,AwaitingInspection,nan,nan,nan,,52.892046,1.118892
26663,Henry IV,4,5,10,5,2014-11-05,52.836873,0.856858
26664,Heritage House Caring Group Ltd,5,5,5,5,2015-01-29,52.954534,0.835278
26665,Hickling Barn,5,0,5,5,2013-06-26,52.714214325,0.993930518627
26666,Hickling House Residential Home,5,5,5,5,2014-02-11,52.76043,1.576543
26667,Hickling Hunnies Playgroup,AwaitingInspection,nan,nan,nan,,52.75869,1.571893
26668,Hickling Infants School,AwaitingInspection,nan,nan,nan,,52.75869,1.571893
26669,Hickling Lamb,AwaitingInspection,nan,nan,nan,,,
26670,Hickling Methodist Church,AwaitingInspection,nan,nan,nan,,52.752103,1.568108
26671,Hickling Methodist Church Lunch Club,5,5,5,5,2014-03-04,52.752103,1.568108
26672,Hickling Sailing Club,5,5,5,5,2014-10-19,52.746608,1.568711
26673,High Kelling Stores,5,5,0,5,2013-07-10,52.912755,1.115546
26674,High Kelling Village Hall,AwaitingInspection,nan,nan,nan,,52.916368,1.12863
26675,High Tide,5,5,5,5,2013-05-09,52.954988,1.015107
26676,Highfield Guest House,5,nan,nan,nan,2013-07-30,52.942604,1.204705
26677,Highfield Residential Care Home,5,0,0,5,2013-10-09,52.927496,1.300857
26678,Hillside Animal & Shire Horse Sanc,5,nan,nan,nan,2013-10-30,52.933666,1.245363
26679,Hilltop Outdoor Centre,5,0,5,5,2014-03-05,52.928705,1.216849
26680,Hindringham CE VC Primary School,5,5,5,5,2013-07-16,52.885099,0.940113
26681,Hindringham Hall Cafe,AwaitingInspection,nan,nan,nan,,52.890712,0.940047
26682,Holland and Barrett,AwaitingInspection,nan,nan,nan,,52.830366,0.848488
26683,Holland and Barrett,5,0,0,0,2014-06-23,52.941787,1.210317
26684,Holly Cottage B&B,AwaitingInspection,nan,nan,nan,,52.937997,1.215767
26685,Holly Lodge B&B,4,0,5,10,2009-08-18,52.870959,0.9388
26686,Hollywood Central Cinema,AwaitingInspection,nan,nan,nan,,52.830277,0.846952
26687,Holt Community Centre Association,AwaitingInspection,nan,nan,nan,,52.904481,1.089742
26688,Holt Community Primary School,5,0,5,5,2014-11-20,52.904467,1.086825
26689,Holt Country Market,AwaitingInspection,nan,nan,nan,,52.906231,1.091621
26690,Holt Field Study Centre,5,0,5,5,2014-02-11,52.916132,1.085736
26691,Holt Fish Bar,5,5,5,5,2013-12-05,52.906418,1.088585
26692,Holt Methodist Church & Hall,AwaitingInspection,nan,nan,nan,,52.901288,1.088819
26693,Holt Parish Hall,AwaitingInspection,nan,nan,nan,,52.906231,1.091621
26694,Holt Rugby Football Club,5,0,5,5,2012-09-26,52.917656,1.118963
26695,Holt Sports & Social Club,AwaitingInspection,nan,nan,nan,,52.910494,1.094022
26696,Holt Women's Institute,AwaitingInspection,nan,nan,nan,,52.904481,1.089742
26697,Homebase,Exempt,nan,nan,nan,,52.927538,1.288315
26698,Homefield Guest House,AwaitingInspection,nan,nan,nan,,52.937661,1.24529
26699,Honey's Caffe,4,5,5,10,2014-12-05,52.829682,0.849274
26700,Hong Kong,5,5,5,5,2013-06-19,52.772155,1.51289
26701,Honing & Crostwight New Hall,AwaitingInspection,nan,nan,nan,,52.796547,1.448249
26702,Honor Plate,4,0,0,10,2013-06-11,,
26703,Hooray Henries Boutique B&B,AwaitingInspection,nan,nan,nan,,52.939748,1.217534
26704,Horatio's,5,5,5,5,2013-08-12,52.90648,1.089661
26705,Horning Cp First School,4,0,0,10,2009-11-11,52.697231,1.474592
26706,Horning Fish Bar,5,5,0,5,2014-04-22,52.693387,1.463321
26707,Horning Post Office & Shop,AwaitingInspection,nan,nan,nan,,52.704799,1.463097
26708,Horning Sailing Club,AwaitingInspection,nan,nan,nan,,52.700727,1.466401
26709,Horsey Staithe Store Ltd,AwaitingInspection,nan,nan,nan,,52.744471,1.638372
26710,Hot & Cold Restaurant (Chinese),3,10,5,10,2012-12-11,52.830045,0.849135
26711,Hot Chilli Pepper Produce,5,5,0,0,2012-09-26,,
26712,Hotel De Paris,5,5,0,0,2012-05-31,52.931891,1.300627
26713,Hotel Wroxham,4,10,0,10,2013-03-25,52.711574,1.409077
26714,House Of Hobbies Coffee Shop,5,0,0,5,2014-10-07,52.821451,1.385522
26715,Hoveton Hall Estate Luxury B&B,5,0,0,5,2014-01-30,52.728164,1.428195
26716,Hoveton Hall Gardens,5,5,5,5,2013-05-09,52.728164,1.428195
26717,Hoveton St. Johns Cp School,5,5,5,5,2013-10-02,52.712293,1.415309
26718,Hoveton Village Hall,AwaitingInspection,nan,nan,nan,,52.71672,1.420557
26719,How Hill Trust,5,5,5,5,2014-10-30,52.717324,1.5127
26720,Howells Superstore,5,5,5,5,2009-06-24,52.917567,0.948963
26721,Hub Cafe,4,5,0,10,2014-05-09,52.901007,1.097793
26722,Huckleberries,5,5,0,0,2015-01-14,52.931039,1.300205
26723,Hunworth & Stody Village Hall,AwaitingInspection,nan,nan,nan,,,
26724,I B The Chippy,5,5,5,5,2014-09-10,,
26725,Ian Wright,5,5,5,5,2010-09-09,52.866235,1.23912
26726,Icarus Hines Butchers,5,5,5,5,2013-08-14,52.94321,1.210229
26727,Icarus Hines Quality Butchers,5,5,5,0,2014-11-10,52.931039,1.300205
26728,Ice Blue,5,5,5,5,2011-07-27,52.944694,1.211887
26729,Ice Cream Concession,AwaitingInspection,nan,nan,nan,,52.968765,0.849347
26730,Ice Cream Parlour,5,5,0,5,2013-04-17,52.712032,1.408758
26731,Icecream Kiosk,5,5,0,0,2009-09-11,52.932115,1.301284
26732,Iceland,5,0,5,0,2009-12-08,52.931039,1.300205
26733,Icing Nicely,AwaitingInspection,nan,nan,nan,,,
26734,Imperial Care Homes Ltd,4,5,10,5,2014-02-10,52.833511,0.841492
26735,In My Dreams,5,5,0,5,2014-04-17,,
26736,Incleborough House,4,0,0,10,2010-02-09,52.934543,1.269139
26737,Indian On The Cliff,5,5,5,5,2014-08-28,52.931209,1.302197
26738,Ingham Old Hall Nursing Home,3,5,10,10,2014-02-17,52.779939,1.548078
26739,Ingham Village Hall,AwaitingInspection,nan,nan,nan,,52.772837,1.543451
26740,Irene Finch,AwaitingInspection,nan,nan,nan,,,
26741,Itteringham Community Shop,1,15,15,20,2014-11-20,52.832863,1.185553
26742,J & A Nickerson,AwaitingInspection,nan,nan,nan,,,
26743,J & B S Powell,Exempt,nan,nan,nan,,52.904288,1.181483
26744,J & D Papworth Farms,5,5,5,5,2014-03-12,52.829682,0.849274
26745,J & D Papworth Farms,3,10,5,10,2015-01-22,52.941751,1.210285
26746,J & P Cromer Ltd,5,0,0,0,2014-07-28,52.931729,1.300614
26747,J H Lee's Crab Stall,5,5,5,5,2014-08-05,52.932608,1.299401
26748,J Harrold (Farm Gate Sales),Exempt,nan,nan,nan,,52.8287,1.133533
26749,J Sharpe Shellfish,AwaitingInspection,nan,nan,nan,,,
26750,J W H Jonas,5,5,5,0,2014-08-29,52.930896,1.298571
26751,J W H Jonas,5,5,5,5,2013-06-06,52.932608,1.299401
26752,Jade Garden,5,5,5,5,2014-08-14,52.819087,1.385798
26753,Janith Homes Ltd,5,0,0,5,2009-03-16,52.715762,1.574825
26754,Janith Homes Ltd,4,10,5,5,2014-03-27,52.833923,1.495037
26755,Jazzy Cakes,4,0,5,10,2012-10-03,,
26756,Jean Seppings Catering,5,0,0,5,2013-06-26,,
26757,Jean Seppings Catering (MarketStall),5,5,5,5,2013-08-08,,
26758,Jean Shea,AwaitingInspection,nan,nan,nan,,,
26759,Jeesal Residential Care Services Ltd,5,5,5,5,2014-12-02,52.831209,0.857956
26760,Jewson Ltd,AwaitingInspection,nan,nan,nan,,52.927538,1.288315
26761,JN Fruit / Veg,AwaitingInspection,nan,nan,nan,,,
26762,Joanna Burdett,AwaitingInspection,nan,nan,nan,,,
26763,Joanne Burton,5,5,5,5,2013-07-31,,
26764,Johnny Bhagee,5,0,5,5,2014-09-05,,
26765,John's Rockshop,5,0,5,5,2015-01-15,52.957092,0.851647
26766,Jolley Good Food,5,5,5,5,2014-09-17,52.944603,1.212253
26767,Jolly Farmers,3,10,10,5,2013-10-10,52.777243,1.35941
26768,Jolly Tar Restaurant,5,5,5,5,2014-11-12,52.941751,1.210285
26769,Jonas Seafood Ltd,5,0,0,0,2014-07-18,52.927538,1.288315
26770,Jones Smallholding,Exempt,nan,nan,nan,,52.859305,1.394013
26771,Jonet Restaurant,5,5,0,0,2014-04-11,52.878618,1.436686
26772,Joyful Wests Shellfish Bar,4,0,10,10,2014-09-03,52.944908,1.212603
26773,Jubberwacky & Apitherapy,5,5,0,0,2013-04-18,,
26774,Judy Farrow Cake Baking,AwaitingInspection,nan,nan,nan,,,
26775,Jules Country Kitchen,5,5,5,5,2014-11-24,52.844243,1.276576
26776,Julie's Coffee Shop,AwaitingInspection,nan,nan,nan,,52.942486,1.210726
26777,Julios,5,5,5,5,2014-11-12,52.931793,1.297032
26778,Kadina Bed & Breakfast,AwaitingInspection,nan,nan,nan,,52.917438,1.124884
26779,Kairos Crafts,AwaitingInspection,nan,nan,nan,,,
26780,Kanton Takeaway,5,5,5,5,2014-09-23,52.930569,1.302223
26781,Karen White-Robinson (Market Stall),AwaitingInspection,nan,nan,nan,,,
26782,Katering 4U,4,5,5,10,2013-06-18,,
26783,Kathryn Moore,5,0,5,5,2014-02-26,,
26784,Katy's Cakery,5,0,0,5,2014-05-27,,
26785,Katys Kitchen,AwaitingInspection,nan,nan,nan,,,
26786,Kebab Hut,3,5,10,10,2013-06-25,52.712032,1.408758
26787,Kelling Cp School,4,5,0,10,2012-01-27,52.943003,1.113999
26788,Kellys Plaice,5,5,5,5,2013-09-17,52.821343,1.387087
26789,Kens Traditional Fish & Chips,5,5,5,5,2013-05-14,52.712032,1.408758
26790,Ken's Veg,3,10,5,10,2014-09-30,,
26791,Kensington Lodge,5,0,5,5,2013-11-21,52.932147,1.295928
26792,Kenyon's Country Cakes,AwaitingInspection,nan,nan,nan,,,
26793,Keswick Hotel,3,10,10,10,2014-03-25,52.844975,1.494172
26794,Kettlestone Village Hall,AwaitingInspection,nan,nan,nan,,52.841368,0.909815
26795,Kevlin House,5,5,5,5,2014-02-18,52.813758,1.379966
26796,Kew's Pie & Mash Shop,5,0,5,5,2014-09-08,52.931817,1.299415
26797,Kidzone,AwaitingInspection,nan,nan,nan,,52.821846,1.39498
26798,Kilcoroon B&B,AwaitingInspection,nan,nan,nan,,52.953009,0.85239
26799,Kim's Norfolk Kitchen,5,5,5,5,2011-09-26,,
26800,Kingfisher Fish Bar Ltd,4,nan,nan,nan,2014-03-27,52.842287,1.499318
26801,Kingfisher Kids Club,AwaitingInspection,nan,nan,nan,,52.815448,1.374946
26802,Kingfisher Restaurant Cafe and Ice Cream Parlour,3,10,5,10,2013-10-03,52.842287,1.499318
26803,Kings Arms,5,5,5,5,2013-11-18,52.954348,1.014467
26804,Kings Arms Hotel,5,5,0,5,2015-01-19,52.820626,1.385428
26805,Kings Arms PH,5,5,5,5,2013-03-26,52.710381,1.535955
26806,Kings Head Hotel,2,15,10,5,2014-08-27,52.713811,1.409163
26807,Kings Head Public House,4,5,5,10,2014-03-13,52.90737,1.065047
26808,Kingsgate Residential Home,5,0,5,5,2013-10-18,52.943233,1.206047
26809,Kinsleys,5,5,0,0,2010-02-02,52.956407,0.85245
26810,Kipton Hub CIC,5,5,5,5,2014-06-20,52.792356,0.736572
26811,Knapton Village Hall,AwaitingInspection,nan,nan,nan,,52.854036,1.422142
26812,Korat Ltd,AwaitingInspection,nan,nan,nan,,52.808878,0.764736
26813,Krazy Kupcakes,5,5,5,5,2012-02-23,,
26814,Krissy's Kakes,4,10,0,10,2014-07-01,,
26815,Krusty Loaf,4,5,10,5,2014-11-26,52.830427,0.847823
26816,Krusty Loaf,4,0,10,10,2014-02-13,52.906595,1.088687
26817,K's Burger Bar,5,5,5,5,2014-08-05,52.957092,0.851647
26818,La Dispensa,5,0,5,5,2014-06-10,,
26819,La Dispensa (Market Stall),5,0,5,0,2014-02-10,,
26820,LA Fine Foods,5,0,0,0,2009-09-18,,
26821,Labone Indian Cuisine,5,5,0,0,2012-02-21,52.940756,1.207859
26822,Labone Indian Cuisine,4,nan,nan,nan,2014-03-03,52.822521,1.385204
26823,Laburnum Caravan Park,Exempt,nan,nan,nan,,52.938857,1.244635
26824,Ladybird Preschool Nursery,AwaitingInspection,nan,nan,nan,,52.939645,1.217676
26825,Ladybirds Preschool,5,5,5,5,2011-11-03,52.831479,0.846333
26826,Lam's Fish & Chips,5,5,5,5,2014-10-09,52.818806,1.378294
26827,Langham Village School,AwaitingInspection,nan,nan,nan,,52.933358,0.986024
26828,Lathams,1,5,15,20,2014-07-07,52.710757,1.580309
26829,Lavender Next The Sea,5,5,5,5,2012-10-24,,
26830,"Lawns Leisure, Boating Lake",AwaitingInspection,nan,nan,nan,,52.932697,1.295895
26831,Lazy Afternoon Tea And Cakes,5,nan,nan,nan,2014-10-22,,
26832,Lazy Afternoon Teas,5,0,0,5,2014-09-24,,
26833,Le Moon Chinese Restaurant,5,5,5,5,2014-04-11,52.932088,1.297739
26834,Leanne's Choc Art,4,5,5,10,2014-04-01,,
26835,Lee,4,0,0,10,2009-07-06,52.930363,1.30124
26836,Lees Catering,5,0,5,5,2012-11-09,,
26837,Leftleys Costcutter,1,10,10,20,2014-11-27,52.955286,0.85196
26838,Lennys Grill House,5,5,5,5,2015-01-05,,
26839,Lennys Grill House,5,0,0,5,2013-04-16,,
26840,Lessingham Village Hall,AwaitingInspection,nan,nan,nan,,52.798451,1.548904
26841,Letheringsett Residential Home,5,0,5,5,2014-06-11,52.90737,1.065047
26842,Let's Get Cooking Club,AwaitingInspection,nan,nan,nan,,52.904467,1.086825
26843,Lidl Foodstores,5,0,5,0,2014-01-13,52.927538,1.288315
26844,Lidl UK GmbH,AwaitingInspection,nan,nan,nan,,52.836119,0.862778
26845,Lighthouse Inn,3,10,10,5,2014-02-13,52.833639,1.501607
26846,Lilas House Residential Home,5,0,0,0,2015-01-28,52.931793,1.297032
26847,Lily's Tearoom,5,0,0,5,2014-12-03,52.804768,1.398724
26848,Linda Balls Catering,1,5,10,20,2014-03-24,,
26849,Linda H Matthews,AwaitingInspection,nan,nan,nan,,52.699627,1.509856
26850,Little Monkeys Preschool Nursery,AwaitingInspection,nan,nan,nan,,52.938268,1.199413
26851,Little Snoring Cp School,AwaitingInspection,nan,nan,nan,,52.853818,0.905271
26852,Little Snoring Post Office,AwaitingInspection,nan,nan,nan,,52.850771,0.911796
26853,Little Snoring Pre-School,AwaitingInspection,nan,nan,nan,,52.852638,0.909737
26854,Lizzie's Fruit and Veg Shop,4,5,5,10,2010-11-23,52.931087,1.298154
26855,Lloyd Court,5,0,0,0,2013-12-17,52.914487,1.116028
26856,Lloyds Pharmacy,AwaitingInspection,nan,nan,nan,,52.942486,1.210726
26857,Lloyds Pharmacy,AwaitingInspection,nan,nan,nan,,52.931039,1.300205
26858,Lodge Catering,AwaitingInspection,nan,nan,nan,,,
26859,Longshore,5,0,5,5,2014-12-17,,
26860,Lotus House,2,5,15,10,2013-10-11,52.941866,1.209385
26861,Love,5,5,5,5,2015-01-15,,
26862,Love 2 Bake,4,0,0,10,2009-08-07,,
26863,Love2Bounce,5,nan,nan,nan,2014-04-10,,
26864,Lowe's Bakery Cakery,5,5,5,5,2014-09-02,52.942032,1.202907
26865,Lowe's Bakery Cakery (Market Stall),5,5,5,5,2014-08-28,,
26866,Lucky Star,3,10,10,10,2014-06-12,52.94455,1.213216
26867,Lucy Bonner,5,0,0,0,2010-03-02,,
26868,Ludham Bridge Stores,5,0,0,5,2012-09-26,52.699627,1.509856
26869,Ludham Butchers,5,5,5,5,2014-10-07,52.70977,1.535046
26870,Ludham Cp School,5,0,5,5,2013-10-02,52.711891,1.533293
26871,Ludham Methodist Church,5,5,0,5,2012-11-09,,
26872,Ludham Village Hall,AwaitingInspection,nan,nan,nan,,52.710331,1.55775
26873,Lunch Box,3,5,10,10,2014-03-14,,
26874,Lunch Club,4,10,5,5,2013-09-17,52.8280164447,0.848837183088
26875,Luncheon Club,5,0,0,0,2014-02-10,52.926844,1.293233
26876,Luncheon Club,5,0,5,0,2014-03-20,52.904136,1.335433
26877,Lyles House Care Home,5,5,5,5,2014-09-30,52.823318,1.017543
26878,Lynda Johnson,5,0,0,0,2014-04-28,,
26879,M A D R A Club House,5,5,5,5,2015-01-28,52.854036,1.422142
26880,Mace,4,5,5,10,2014-11-27,52.851637,1.060686
26881,Mace Nicholsons Convenience Store,4,10,0,10,2013-02-25,52.766062,1.530593
26882,Mace Store,AwaitingInspection,nan,nan,nan,,52.884612,1.420672
26883,Machrimore B&B,AwaitingInspection,nan,nan,nan,,52.951283,0.852366
26884,Macs Plaice (Mobile),5,0,5,5,2014-05-20,,
26885,Made In Ingham,5,5,5,5,2014-06-16,,
26886,Madisons (N Walsham) Ltd,5,0,0,5,2013-12-10,,
26887,Mads Outside Catering,AwaitingInspection,nan,nan,nan,,,
26888,Magnolia Cottage B&B,5,0,0,5,2012-09-05,52.940413,1.202236
26889,Make Unique Gifts,AwaitingInspection,nan,nan,nan,,,
26890,Make Unique Gifts (Market Stall),AwaitingInspection,nan,nan,nan,,,
26891,Malcolm Weston,5,0,0,5,2012-06-18,,
26892,Maltings Hotel,3,10,10,5,2014-05-28,52.943258,1.137777
26893,Mandela House Residential Home,AwaitingInspection,nan,nan,nan,,52.928272,1.301065
26894,Manor Farm B&B,AwaitingInspection,nan,nan,nan,,52.849952,0.820627
26895,Manor House Residential Home,3,10,5,10,2014-03-11,52.811378,1.354192
26896,Manor Lodge B&B,AwaitingInspection,nan,nan,nan,,52.826178,1.464124
26897,Maria Randlesome (Home Produce),4,5,5,10,2012-09-17,,
26898,Mark Frosdick,Exempt,nan,nan,nan,2014-01-02,52.906046,1.087339
26899,Market Cross Delicatessen,3,10,10,10,2014-11-03,52.821343,1.387087
26900,Market Tavern,1,10,5,20,2013-10-01,52.821837,1.38524
26901,Market Tavern Bistro,AwaitingInspection,nan,nan,nan,,52.821837,1.38524
26902,Marmalades Bistro,5,0,0,0,2012-02-02,52.94321,1.210229
26903,Marmaris Grill,5,nan,nan,nan,2013-11-19,52.829425,0.848753
26904,Marston & Langinger,5,nan,nan,nan,2013-11-06,52.834215,0.868651
26905,Martin Service Station Ltd,3,10,5,10,2014-01-02,52.844243,1.276576
26906,Martins,AwaitingInspection,nan,nan,nan,,52.821571,1.388545
26907,Martins,AwaitingInspection,nan,nan,nan,,52.829425,0.848753
26908,Martins,AwaitingInspection,nan,nan,nan,,52.956407,0.85245
26909,Martins,AwaitingInspection,nan,nan,nan,,52.829682,0.849274
26910,Martins Farm,Exempt,nan,nan,nan,2014-12-11,52.825431,1.022841
26911,Mary Janes Fish Bar & Restaurant,5,0,0,5,2014-09-24,52.931817,1.299415
26912,Massingham Bros Butchers,5,5,5,5,2013-12-10,52.713811,1.409163
26913,May Sum,3,nan,nan,nan,2014-05-13,52.771854,1.513934
26914,McColls,5,0,0,5,2013-12-10,52.883904,1.29732
26915,Mcdonalds Restaurant,5,5,0,0,2013-07-02,52.71672,1.420557
26916,Meadow View Guest House,AwaitingInspection,nan,nan,nan,,52.919756,0.885494
26917,Mega Vend Ltd,AwaitingInspection,nan,nan,nan,,52.788832,0.726368
26918,Melbourne House Complex,4,10,0,10,2012-07-23,52.828517,1.402272
26919,Mellie Makes Cakes,AwaitingInspection,nan,nan,nan,,,
26920,Melody House Bed & Breakfast,5,5,5,5,2013-10-10,52.808305,0.908615
26921,Melton Constable Country Club,4,10,5,5,2011-03-24,52.856415,1.035736
26922,Melton Pizza & Kebab,2,10,15,10,2014-05-15,52.856733,1.037705
26923,Merchants Place,5,0,0,5,2010-01-25,52.930569,1.302223
26924,Mermaid's Purse,5,0,0,5,2013-11-06,52.955111,0.852469
26925,Messrs W Starling & Son,AwaitingInspection,nan,nan,nan,,52.906005,1.088229
26926,Methodist Church,AwaitingInspection,nan,nan,nan,,52.956137,0.850199
26927,Mill Cottage B&B,4,5,5,10,2010-01-19,52.923672,1.194377
26928,Mill Ford House B&B,AwaitingInspection,nan,nan,nan,,52.837274,0.80843
26929,Mill House Guest House,AwaitingInspection,nan,nan,nan,,52.95515,0.855375
26930,Mill House Nursing Home,5,5,5,5,2014-12-09,52.804883,0.910657
26931,Millfield Organics,Exempt,nan,nan,nan,,52.76845,1.425297
26932,Millfield Primary School,5,5,5,5,2015-01-13,52.815853,1.37713
26933,Millstream House B&B,5,0,0,5,2013-03-19,52.946801,1.139135
26934,Minnie's Country Kitchen,5,5,0,5,2014-03-04,,
26935,Minnie's Country Kitchen (Stall),5,5,0,5,2014-03-04,,
26936,Miripiri,3,10,10,10,2014-10-02,,
26937,Mississippi Catering,4,0,0,10,2014-01-28,,
26938,Mississippi River Boat,AwaitingInspection,nan,nan,nan,,52.704799,1.463097
26939,Mississippi River Boat (Home),5,0,0,5,2013-08-06,,
26940,Moat Farm (Market Stall),AwaitingInspection,nan,nan,nan,,,
26941,Mole Lodge Bed & Breakfast,AwaitingInspection,nan,nan,nan,,52.952018,0.922006
26942,Molly's Cupcakes,AwaitingInspection,nan,nan,nan,,,
26943,Monster Ice,AwaitingInspection,nan,nan,nan,,,
26944,Moovers & Shakers,3,10,10,5,2014-12-03,,
26945,Morrisons,5,0,5,0,2015-02-05,52.83971,0.870484
26946,Morrisons Supermarkets PLC,5,5,0,0,2014-07-22,52.930458,1.292004
26947,Morston Anchor,5,5,5,5,2015-01-16,52.954891,0.986541
26948,Morston Crab Stall,5,0,0,0,2012-06-25,,
26949,Morston Hall,5,5,0,5,2012-10-12,52.954891,0.986541
26950,Movieplex Cinema,AwaitingInspection,nan,nan,nan,,52.930461,1.300622
26951,Mr Chips,5,0,5,5,2014-10-03,52.829029,0.848385
26952,Mr Chips,4,10,5,5,2014-07-31,,
26953,Mr Kew's Pies,5,0,5,5,2013-09-13,52.828215,1.38391
26954,Mr Lowe's & Co,AwaitingInspection,nan,nan,nan,,52.94321,1.210229
26955,Mr M Rutland,5,5,5,5,2013-09-03,52.856664,1.035843
26956,Mr Whippy,5,5,5,5,2013-04-12,,
26957,Mr Whippy (G445 NWE),AwaitingInspection,nan,nan,nan,,,
26958,Mrs Temple's Cheese,Exempt,nan,nan,nan,2014-09-22,52.916857,0.890448
26959,Muckleburgh Cafe,5,5,5,5,2014-04-15,52.942694,1.144122
26960,Mulberry Cafe,5,5,5,5,2014-07-08,52.941751,1.210285
26961,Mum's Little Kitchen,5,0,0,5,2013-03-26,,
26962,Munch Box Too,AwaitingInspection,nan,nan,nan,,52.771158,1.517096
26963,Mundesley Bakery & Deli,5,5,0,0,2014-11-06,52.876325,1.433576
26964,Mundesley Butchers,5,0,5,5,2014-12-08,52.876021,1.432898
26965,Mundesley Coronation Hall,AwaitingInspection,nan,nan,nan,,52.879478,1.434628
26966,Mundesley Diner,5,5,0,0,2013-04-12,52.878618,1.436686
26967,Mundesley Golf Course,5,5,5,0,2014-01-07,52.876171,1.421493
26968,Mundesley Holiday Centre,5,5,0,0,2014-08-07,52.870847,1.445093
26969,Mundesley Infant School,AwaitingInspection,nan,nan,nan,,52.871002,1.429499
26970,Mundesley Junior School,5,0,0,5,2014-04-03,52.871002,1.429499
26971,Mundesley Road Stores,AwaitingInspection,nan,nan,nan,,52.829452,1.391297
26972,Munhaven Residential Home,5,0,0,5,2014-02-04,52.875886,1.431044
26973,Muriel Whiffen,5,0,5,5,2014-04-28,,
26974,Museum Of The Broads,AwaitingInspection,nan,nan,nan,,52.767934,1.515412
26975,Mustard Seed,AwaitingInspection,nan,nan,nan,,52.819689,1.387389
26976,My Specialities Ltd,5,0,0,0,2012-06-19,,
26977,Myrtle House B&B,AwaitingInspection,nan,nan,nan,,52.942813,1.221216
26978,N J Alexander,AwaitingInspection,nan,nan,nan,,52.849199,1.465141
26979,N Youngman (Farm Gate Sales),Exempt,nan,nan,nan,,,
26980,N.Walsham & Dist Bowls/Snooker,AwaitingInspection,nan,nan,nan,,52.820237,1.391811
26981,National Trust (Wood Farm Centre),5,5,5,5,2014-04-04,52.933937,1.178167
26982,National Trust Enterprises Ltd,5,5,5,0,2014-04-14,52.907584,1.260205
26983,National Youth Hostel Association,5,5,5,5,2014-04-01,52.938975,1.212207
26984,Natural Lemonade,AwaitingInspection,nan,nan,nan,,,
26985,Natural Lemonade (Storage),AwaitingInspection,nan,nan,nan,,,
26986,Natural Surroundings,5,5,5,5,2013-03-27,52.923389,1.047104
26987,Natures Haven,AwaitingInspection,nan,nan,nan,,52.90648,1.089661
26988,Neatishead CE Primary School,AwaitingInspection,nan,nan,nan,,52.72911,1.461869
26989,Nelson Fries 4 You,3,5,10,10,2014-07-08,52.90616,1.089504
26990,Nelson Head Inn,3,10,5,10,2013-02-06,52.747015,1.643964
26991,Nelsons Coffee Shop,5,5,5,5,2014-09-10,52.955286,0.85196
26992,New Inn,5,0,5,5,2013-04-02,52.700918,1.466328
26993,New Sage,1,nan,nan,nan,2014-08-22,52.879478,1.434628
26994,New Wine Church,AwaitingInspection,nan,nan,nan,,52.90648,1.089661
26995,New World Takeaway,5,5,5,5,2014-01-13,52.831479,0.846333
26996,Newlands Newsagents,5,5,5,5,2013-10-22,52.771561,1.515957
26997,News-Klip,AwaitingInspection,nan,nan,nan,,52.829425,0.848753
26998,No 1 New Street,5,5,0,0,2013-12-17,52.932608,1.299401
26999,No 10,5,5,5,5,2014-08-13,52.943579,1.209884
27000,No 4,AwaitingInspection,nan,nan,nan,,52.928272,1.301065
27001,Nobbys (Norfolk) Ltd,5,5,5,0,2014-10-23,52.955111,0.852469
27002,Nobbys Norfolk Ltd,AwaitingInspection,nan,nan,nan,,52.942796,1.208903
27003,Noreen Hawes,AwaitingInspection,nan,nan,nan,,,
27004,Norfolk Chocolates,5,0,0,5,2013-09-12,,
27005,Norfolk Cordial (Events Stall),3,5,10,10,2012-09-06,,
27006,Norfolk Food Heroes,5,5,0,0,2014-09-12,52.851503,0.818158
27007,"Norfolk Ice Cream, Salthouse",5,5,5,5,2010-05-26,,
27008,"Norfolk Ice Cream, Sheringham",5,5,5,5,2010-05-28,,
27009,Norfolk Kebab & Pizza House,5,5,5,5,2014-12-15,52.830291,0.849359
27010,Norfolk Sweet Cakery,5,0,5,5,2015-01-19,,
27011,Norfolk Sweets and Treats,AwaitingInspection,nan,nan,nan,,,
27012,Norfolk Thai Cuisine,5,5,0,5,2014-02-26,,
27013,Norfolk Thai Cuisine (Market Stall),4,5,5,10,2014-05-04,,
27014,Norfolk Wildlife Trust Cley Marshes,4,5,10,5,2014-05-08,52.954314,1.054848
27015,Norfolk's Pie Man,4,5,10,5,2013-08-21,,
27016,Normans,AwaitingInspection,nan,nan,nan,,52.955975,0.854715
27017,North Kebab House,5,0,0,5,2015-01-06,52.821837,1.38524
27018,North Lodge Park Tea Rooms,5,5,0,5,2013-06-14,52.929783,1.303979
27019,North Norfolk Fish Company Ltd,5,0,5,5,2013-08-20,52.905614,1.088037
27020,North Norfolk Fish Company Ltd,5,5,0,5,2015-01-22,,
27021,North Norfolk Leisure Community Assn,AwaitingInspection,nan,nan,nan,,52.942032,1.202907
27022,North Norfolk Railway,AwaitingInspection,nan,nan,nan,,52.933315,1.149202
27023,North Norfolk Railway Station Buffet,5,5,5,5,2014-11-17,52.941866,1.209385
27024,North Walsham Community Association,5,5,0,5,2009-09-07,52.820669,1.389603
27025,North Walsham Football Club,AwaitingInspection,nan,nan,nan,,52.824509,1.370987
27026,North Walsham Junior School,5,5,0,5,2014-11-12,52.821846,1.39498
27027,North Walsham Rugby Football Club,5,5,5,5,2013-12-02,52.768671,1.383172
27028,North Walsham Sports Centre,1,5,5,20,2014-04-30,52.815723,1.394592
27029,Northrepps Cottage Country Hotel,5,5,5,5,2014-02-11,52.912979,1.327648
27030,Northrepps Cp School,AwaitingInspection,nan,nan,nan,,52.903443,1.336064
27031,Northrepps Village Hall,AwaitingInspection,nan,nan,nan,,52.904136,1.335433
27032,Norwich Cricket Club,AwaitingInspection,nan,nan,nan,,52.779939,1.548078
27033,Number 14,5,5,0,5,2014-07-14,52.712032,1.408758
27034,Number 28,4,5,5,10,2015-01-06,52.90569,1.087195
27035,Number Ten,5,5,5,0,2013-10-31,52.905613,1.089807
27036,Nuts About Cake,4,0,0,10,2013-06-11,,
27037,Oasis Finest Indian Dining,5,nan,nan,nan,2013-11-19,52.770878,1.515605
27038,Oasis Smallholding (Farm Gate Sales),Exempt,nan,nan,nan,,52.809613,0.995549
27039,Occasions,5,0,5,5,2013-07-23,,
27040,Ogilvy House Ltd,AwaitingInspection,nan,nan,nan,,52.927496,1.300857
27041,Old Brick Kilns Caravan Park,5,nan,nan,nan,2014-08-08,52.856,0.968585
27042,Old Coach House B&B,AwaitingInspection,nan,nan,nan,,52.861535,0.948935
27043,Old Reading Room Gallery,5,5,5,0,2013-10-04,52.940479,1.11352
27044,Old Town Hall House,AwaitingInspection,nan,nan,nan,,52.952729,1.04269
27045,Olive Tree Breaks,AwaitingInspection,nan,nan,nan,,52.916104,1.126023
27046,Olivedale Guest House,AwaitingInspection,nan,nan,nan,,52.943579,1.209884
27047,Ollands Farm Foods,5,0,5,5,2013-01-25,,
27048,Ollands Farm Homemade Produce,5,0,5,5,2013-01-25,,
27049,Ollies,5,5,5,5,2014-11-12,52.954433,0.852648
27050,One Degree East,5,5,5,5,2014-02-14,52.944603,1.212253
27051,Orchard Cottage Cakes,5,0,0,0,2009-01-13,,
27052,Orchard Gardens,5,0,5,5,2013-11-21,52.825848,1.389962
27053,Ordnance Arms,4,5,5,10,2013-08-19,52.8033828735,0.948453366756
27054,Ormiston Families,5,nan,nan,nan,2014-11-25,52.760576,1.347719
27055,Ottys,5,5,5,5,2013-08-01,52.904481,1.089742
27056,Overcliff Lodge,AwaitingInspection,nan,nan,nan,,52.881222,1.429384
27057,Overstrand Conservative Club,5,5,5,5,2012-08-22,52.917926,1.342341
27058,Overstrand Court Hotel,AwaitingInspection,nan,nan,nan,,52.916725,1.342829
27059,Overstrand Primary School,5,0,0,5,2014-09-29,52.916748,1.334662
27060,Overstrand Sports Club,AwaitingInspection,nan,nan,nan,,52.916725,1.342828
27061,Overstrand Stores,5,5,5,5,2011-08-10,52.916725,1.342829
27062,Owl Playschool,AwaitingInspection,nan,nan,nan,,52.90368,1.086308
27063,P & J Scotter,5,5,5,5,2014-04-30,52.942486,1.210726
27064,P & S Butchers Ltd,5,nan,nan,nan,2014-06-11,52.90648,1.089661
27065,P & S Butchers Ltd,5,0,0,5,2012-05-28,52.902633,1.103709
27066,P O Almey & Sons,Exempt,nan,nan,nan,,52.844957,1.341883
27067,Palmer Pickles,AwaitingInspection,nan,nan,nan,,,
27068,Pantiles B&B,5,0,5,5,2012-05-10,52.929801,1.298161
27069,Papworth Farms,2,10,15,10,2014-11-04,52.821343,1.387087
27070,Park Chippy,5,5,0,0,2015-01-09,52.920272,1.309325
27071,Park View Cafe,5,5,5,5,2014-11-21,52.714214325,0.993930518627
27072,Parkside Garage,Exempt,nan,nan,nan,,52.861535,0.948935
27073,Pat Burvill Catering,4,5,10,5,2015-01-19,,
27074,Pat Pearce,AwaitingInspection,nan,nan,nan,,,
27075,Paula's Amazing,5,5,0,0,2012-08-31,,
27076,Pauline Johnson (Farm Gate Sales),Exempt,nan,nan,nan,,52.794286,1.475771
27077,Pauline Neale,AwaitingInspection,nan,nan,nan,,,
27078,Paul's Fish & Chip Van,5,nan,nan,nan,2014-03-13,,
27079,Pearl River,4,5,10,5,2014-12-18,52.833262,0.846212
27080,Pebbles,AwaitingInspection,nan,nan,nan,,52.932115,1.301284
27081,Pebbles Day Nursery Norfolk Ltd,5,0,5,5,2013-08-28,52.808084,0.907724
27082,Pebbles Pre-school & Day Care,5,5,0,0,2015-01-23,52.871002,1.429499
27083,Peckish,5,5,0,5,2014-04-22,,
27084,Peggottys,5,5,5,5,2015-01-19,52.931297,1.298364
27085,Pensthorpe Wildlife and Gardens,5,5,5,5,2014-01-20,52.827967,0.893018
27086,Pentland Lodge Guest House,AwaitingInspection,nan,nan,nan,,52.943302,1.217784
27087,Perfick Pork,4,10,0,10,2014-08-07,52.807538,0.910923
27088,Perfick Pork (Events Stall),5,0,0,5,2014-09-18,,
27089,Pete's Plaice,5,5,5,5,2014-12-12,52.821992,0.833184
27090,Pheasant Hotel,4,10,5,5,2014-12-04,52.941478,1.121035
27091,Picnic Fayre,4,10,5,5,2013-09-12,52.952208,1.042653
27092,Pilgrim Shelter,5,0,5,5,2014-06-25,52.898707,1.388631
27093,Pilgrims Rest,AwaitingInspection,nan,nan,nan,,52.893985,0.873566
27094,Pineheath Care Home,3,10,10,10,2014-11-25,52.914664,1.129474
27095,Pinewood Leisure Centre,5,0,0,0,2011-11-22,52.920775,1.172321
27096,Pinewoods Holiday Park,5,0,5,5,2013-04-25,52.968765,0.849347
27097,Pixie Hall,4,5,0,10,2011-11-22,,
27098,PJ's (Home Produce),5,5,0,0,2014-09-25,,
27099,PJ's Burger Van,5,5,5,5,2014-09-16,,
27100,Planet Chilli,4,5,5,10,2014-06-09,,
27101,Plattens Fish & Chips Ltd,5,5,0,0,2014-09-23,52.957092,0.851647
27102,Plaza Cafe,3,10,10,10,2014-10-07,52.941751,1.210285
27103,Pleasure Boat Inn,1,15,15,20,2013-07-05,52.746608,1.568711
27104,Poachers Pocket,2,10,15,10,2013-09-04,52.844975,1.494172
27105,Point Farm B&B,AwaitingInspection,nan,nan,nan,,52.749053,1.485358
27106,Pointen Bros,Exempt,nan,nan,nan,2015-01-22,52.875208,1.042801
27107,Polka Day Care,5,0,5,5,2013-10-11,52.951465,0.857515
27108,Poplar Farm Camping & Caravan Site,AwaitingInspection,nan,nan,nan,,52.766109,1.63346
27109,Poppies Nursery,5,5,5,5,2014-09-29,52.819765,1.38882
27110,Poppyfields,2,15,5,10,2014-05-14,52.944603,1.212253
27111,Poppyland Brewery,5,5,0,5,2012-11-12,52.930595,1.296762
27112,Poppyland SureStart,AwaitingInspection,nan,nan,nan,,52.871002,1.429499
27113,Poppyland Tea Rooms,4,10,0,10,2013-01-29,52.750738,1.645165
27114,Posh Nosh,5,0,5,5,2014-02-07,,
27115,Post Office Stores,AwaitingInspection,nan,nan,nan,,52.916725,1.342829
27116,Potter Heigham Village Hall,AwaitingInspection,nan,nan,nan,,52.719903,1.572631
27117,Premier Stores,0,15,20,30,2014-09-19,52.905613,1.089807
27118,Pretty Corner Tearooms,5,5,5,5,2014-06-18,52.92375,1.206511
27119,Pretty Little Yummies,5,0,0,5,2013-11-04,,
27120,Preva Produce Ltd,Exempt,nan,nan,nan,,52.854509,1.033583
27121,Prime Life Ltd,5,0,5,5,2014-01-06,52.942854,1.206421
27122,Primrose Club,AwaitingInspection,nan,nan,nan,,52.859305,1.394013
27123,Primrose Cottage B&B,AwaitingInspection,nan,nan,nan,,52.948939,1.045997
27124,Priory Maze Cafe,5,5,5,0,2014-03-28,52.938009,1.223627
27125,Providence Place,AwaitingInspection,nan,nan,nan,,52.94359,1.207146
27126,PS,4,10,0,10,2014-02-14,52.905601,1.088185
27127,Pungleperrys,5,5,5,5,2013-09-11,52.944694,1.211887
27128,Q's Coffee Shop & Bistro,5,5,5,5,2015-01-16,52.829874,0.846525
27129,Quay Cafe,4,5,10,5,2014-10-09,52.95598,0.985812
27130,Quay Shop,AwaitingInspection,nan,nan,nan,,52.957092,0.851647
27131,Queen Elizabeth Hall,AwaitingInspection,nan,nan,nan,,52.782483,1.410869
27132,R and I Rammbleshack,5,5,5,5,2014-07-15,52.893985,0.873566
27133,R J Brazier,Exempt,nan,nan,nan,2014-10-27,52.933192,1.214875
27134,Rabbit Patch,AwaitingInspection,nan,nan,nan,,,
27135,Rainbow Childrens Nursery Ltd,4,5,5,10,2014-11-10,52.782788,1.40275
27136,Rallentando,5,5,0,0,2012-04-17,52.943833,1.211779
27137,Ramblers Restaurant,5,0,0,5,2014-11-05,52.812954,1.382931
27138,Ramsgate House Bed & Breakfast,AwaitingInspection,nan,nan,nan,,52.857917,1.111034
27139,Rayners Newsagents,AwaitingInspection,nan,nan,nan,,52.932357,1.207505
27140,RC National Shrine,5,5,5,5,2013-10-09,52.893028,0.87264
27141,Red House Chalet & Caravan Park,AwaitingInspection,nan,nan,nan,,52.856157,1.471104
27142,Red Lion Hotel,5,5,0,0,2015-01-05,52.931373,1.302448
27143,Red Roof B&B,AwaitingInspection,nan,nan,nan,,52.713429,1.565096
27144,Reefs Bar,3,10,10,5,2015-01-05,52.787906,1.600636
27145,Regency Guest House,AwaitingInspection,nan,nan,nan,,52.714214325,0.993930518627
27146,Regency Kiosk,5,5,5,5,2012-10-29,52.932608,1.299401
27147,Rhiannon's,AwaitingInspection,nan,nan,nan,,,
27148,Richard Hoskin,5,5,0,0,2012-10-03,,
27149,RNLI Souvenir Shop,AwaitingInspection,nan,nan,nan,,52.943833,1.211779
27150,Roastmaster,5,0,0,5,2011-07-06,,
27151,Robin Hood Public House,5,nan,nan,nan,2014-06-09,52.943163,1.210627
27152,Rock n Rolls,2,10,15,10,2014-09-24,,
27153,Rocket House Cafe,5,5,5,0,2014-03-05,52.714214325,0.993930518627
27154,Roman Camp Inn,5,0,5,0,2014-11-19,52.918705,1.25018
27155,Roman Camp Service Station,AwaitingInspection,nan,nan,nan,,52.918705,1.25018
27156,Rose Meadow,4,10,10,0,2014-10-09,52.813493,1.390202
27157,Rosebank B&B,AwaitingInspection,nan,nan,nan,,52.712359,1.412723
27158,Rossis Leisure Ltd,5,5,5,5,2014-02-24,52.816566,1.365993
27159,Roughton St. Marys Endowed Va Primary School,5,0,5,5,2013-11-21,52.885373,1.29593
27160,Roughton Under 5's Playgroup,AwaitingInspection,nan,nan,nan,,52.885373,1.29593
27161,Roughton Village Hall,AwaitingInspection,nan,nan,nan,,52.896619,1.291222
27162,Roy Boys,5,5,5,5,2014-03-10,52.941751,1.210285
27163,Roy Hindle (Felmingham Village Hall),4,5,5,10,2011-03-30,,
27164,Royal,2,10,15,10,2012-10-23,52.712032,1.408758
27165,Royal Air Force,5,0,0,5,2013-05-14,52.713337,1.470986
27166,Royal British Legion,AwaitingInspection,nan,nan,nan,,52.828691,0.849358
27167,Royal Cromer Golf Club,5,5,5,0,2014-03-24,52.92277,1.317476
27168,Royal Hotel,4,5,5,10,2014-12-04,52.875329,1.440008
27169,Roys (Wroxham) Ltd,AwaitingInspection,nan,nan,nan,,52.820863,1.388163
27170,RSPCA,AwaitingInspection,nan,nan,nan,,52.772879,1.511214
27171,Ryburgh Community Enterprise,4,0,0,10,2009-04-20,52.808368,0.90347
27172,Sacred Heart Committee,Exempt,nan,nan,nan,,52.819087,1.385798
27173,Sainsburys,5,5,0,0,2013-11-26,52.825788,1.391442
27174,Sainsburys Petrol Station,5,0,0,0,2009-08-19,52.825788,1.391442
27175,Sainsburys Supermarket Ltd,5,0,0,5,2010-01-22,52.943971,1.211015
27176,Sala Seafoods,5,5,0,0,2013-07-30,,
27177,Sala Seafoods (Market Stall),4,10,0,5,2013-06-27,,
27178,Sally Ball (Brazenhall Lodge),5,0,5,0,2014-10-09,,
27179,Sally Ball (Piggyback Barns),5,0,5,0,2014-10-09,,
27180,Sally Church (Cookery School),5,0,0,5,2014-01-13,,
27181,Sally Stratford (Home Produce),AwaitingInspection,nan,nan,nan,,,
27182,Salvation Army Hall,3,5,10,10,2013-11-18,52.82181,1.389647
27183,Samundar Indian Kitchen,3,10,10,10,2014-06-18,52.931114,1.297829
27184,Sandcliffe Hotel,5,5,5,5,2014-06-30,52.932937,1.292431
27185,Sands Restaurant,5,5,5,5,2014-01-10,52.957092,0.851647
27186,Sandy Hills Snack Bar & Amusements,5,5,5,5,2013-07-08,52.787906,1.600636
27187,Sandy Lane Club,AwaitingInspection,nan,nan,nan,,52.827878,1.287192
27188,Saracens Head Inn,4,nan,nan,nan,2014-08-01,52.844352,1.222354
27189,Sat Club,5,0,0,0,2014-10-16,52.924033,1.303466
27190,Scaldbeck Cottage B&B,AwaitingInspection,nan,nan,nan,,52.956696,0.982004
27191,Scarborough Hill Country Inn,4,nan,nan,nan,2014-10-22,52.804768,1.398724
27192,Scarborough House Residential Home,5,5,0,5,2014-09-24,52.955482,0.851273
27193,Scenic Broads,AwaitingInspection,nan,nan,nan,,52.75017,1.578533
27194,Schyra Foods Ltd,AwaitingInspection,nan,nan,nan,,52.94468,1.213062
27195,Sculthorpe C Of E Primary School,5,5,0,5,2014-01-08,52.847834,0.821203
27196,Sculthorpe Mill Ltd,5,5,0,5,2015-01-09,52.837274,0.80843
27197,Sea Palling Fish,4,5,0,10,2011-03-03,52.786621,1.596732
27198,Sea Palling Post Office & Stores,5,5,0,5,2011-09-30,52.787906,1.600636
27199,Sea Star Chinese Restaurant,5,0,0,5,2012-01-06,52.852961,1.477045
27200,Sea View Cafe,5,0,5,0,2012-05-11,52.938857,1.244635
27201,Seacroft Caravan & Camping Park,5,0,0,5,2013-11-26,52.933348,1.2792
27202,Seafare Fish & Chips,5,5,0,0,2012-06-26,52.94321,1.210229
27203,Seamarge Hotel,5,5,0,5,2015-01-06,52.916725,1.342829
27204,Seaview Pre-School,AwaitingInspection,nan,nan,nan,,52.929783,1.303979
27205,SFM (Norfolk),AwaitingInspection,nan,nan,nan,,52.925147,1.0637
27206,Shape's Restaurant,5,5,5,5,2014-11-26,52.82912,0.852073
27207,Shell (Hillside) Fakenham,AwaitingInspection,nan,nan,nan,,52.839162,0.838297
27208,Shell (UK) Ltd,AwaitingInspection,nan,nan,nan,,52.857849,1.462458
27209,Shellfish Stall,5,0,0,0,2012-09-25,52.952802,1.020107
27210,Shellfish Stall,5,0,0,5,2013-06-18,52.954988,1.015107
27211,Sheltered Housing,Exempt,nan,nan,nan,,52.833773,0.853031
27212,Sheringham Country Market,AwaitingInspection,nan,nan,nan,,52.94455,1.213216
27213,Sheringham Cp School,5,5,5,5,2015-01-21,52.9344,1.202447
27214,Sheringham Fish Bar & Kebab Delight,2,10,15,10,2014-01-03,52.943833,1.211779
27215,Sheringham Golf Club,4,nan,nan,nan,2013-12-20,52.943575,1.199686
27216,Sheringham High School,4,5,5,10,2014-07-02,52.936278,1.19815
27217,Sheringham Lodge,AwaitingInspection,nan,nan,nan,,52.940379,1.210481
27218,Sheringham Masonic Association,5,5,0,0,2015-01-28,52.940756,1.207859
27219,Sheringham Service Station,AwaitingInspection,nan,nan,nan,,52.942032,1.202907
27220,Shipbourne House Residential Home,5,5,0,0,2014-10-30,52.928272,1.301065
27221,Shrublands B&B,AwaitingInspection,nan,nan,nan,,52.923496,0.8811
27222,Shrublands Farm B&B & Caravan Site,AwaitingInspection,nan,nan,nan,,52.904279,1.338017
27223,Shulas,AwaitingInspection,nan,nan,nan,,52.931793,1.297032
27224,Sidestrand Hall,AwaitingInspection,nan,nan,nan,,,
27225,Sidestrand Hall School,5,5,0,0,2013-06-14,52.908459,1.357841
27226,Simply Cakes,AwaitingInspection,nan,nan,nan,,,
27227,Simply Deelicious,5,5,5,5,2014-12-10,52.829425,0.848753
27228,Site Shop Woodlands Caravan Pk,AwaitingInspection,nan,nan,nan,,52.84885,1.260383
27229,Slipper Chapel Tea Rooms,4,10,5,5,2014-11-19,52.881008,0.85313
27230,Sloley Hall Bed & Breakfast,AwaitingInspection,nan,nan,nan,,52.764109,1.396785
27231,Smallsticks Barn Cafe,5,0,0,5,2013-05-02,52.813091,1.554996
27232,Smooch Yogurts,5,0,5,5,2014-10-01,,
27233,Sonya Smith (Home Produce),AwaitingInspection,nan,nan,nan,,,
27234,South Cottage Preserves,5,0,0,0,2011-01-26,,
27235,South Raynham Service Station,Exempt,nan,nan,nan,,52.778826,0.786617
27236,Southrepps Mini-Market,AwaitingInspection,nan,nan,nan,,52.879655,1.350128
27237,Southrepps Post Office/stores,AwaitingInspection,nan,nan,nan,,52.879655,1.350128
27238,Southrepps Social Club The Common,AwaitingInspection,nan,nan,nan,,52.866434,1.358085
27239,Soyokaze Japanese Restaurant,4,5,5,10,2015-01-06,52.821837,1.38524
27240,Spar,5,5,5,5,2009-10-19,52.954348,1.014467
27241,Spar Shop & Post Office,5,5,0,5,2013-12-16,52.937661,1.24529
27242,Spar Stores,5,5,5,0,2009-12-08,52.878117,1.434743
27243,Spice Inn,3,10,10,10,2014-07-02,52.830045,0.849135
27244,Spudnik,1,15,10,20,2014-04-29,,
27245,St Brannocks Residential Home,AwaitingInspection,nan,nan,nan,,52.879478,1.434628
27246,St Catherines Church Room,AwaitingInspection,nan,nan,nan,,,
27247,St Davids Guest House,AwaitingInspection,nan,nan,nan,,52.892955,0.873036
27248,St Edward The Confessor,1,5,5,20,2014-01-20,52.74815,1.300806
27249,St Gluvias Eggs,Exempt,nan,nan,nan,2010-09-09,52.854491,1.2653
27250,St Gregorys B&B,AwaitingInspection,nan,nan,nan,,52.712814,1.41224
27251,St Helens 4th Wednesday Club,AwaitingInspection,nan,nan,nan,,52.71513,1.409873
27252,St James Church,AwaitingInspection,nan,nan,nan,,,
27253,St John Ambulance Brigade,AwaitingInspection,nan,nan,nan,,52.930363,1.30124
27254,St Martins Church,Exempt,nan,nan,nan,,52.920158,1.307932
27255,St Marys Church Rooms,5,nan,nan,nan,2014-11-10,52.823514,1.531854
27256,St Nicholas & St Benets Church Hall,AwaitingInspection,nan,nan,nan,,52.822355,1.386928
27257,St Nicholas House School,5,5,5,5,2014-11-11,52.816669,1.388564
27258,St Nicholas Nursing Home,5,5,5,5,2014-06-16,52.944677,1.207181
27259,St Peters and St Pauls Church,5,0,5,0,2013-07-25,,
27260,St. Davids Nursing Home,4,5,5,10,2014-07-31,52.936624,1.216662
27261,Stables Cafe,5,5,5,5,2014-04-30,52.949862,0.803663
27262,Staff Restaurant,3,10,10,10,2013-07-01,52.775653,1.403483
27263,Staithe n Willow,4,10,0,10,2013-06-18,52.704799,1.463097
27264,Stalham Academy,5,0,0,0,2015-01-19,52.768866,1.525496
27265,Stalham Community Infant School,4,5,0,10,2011-11-15,52.772426,1.51831
27266,Stalham Community Pre-School,AwaitingInspection,nan,nan,nan,,52.772426,1.51831
27267,Stalham Football Club Rivers Park,AwaitingInspection,nan,nan,nan,,52.776213,1.511927
27268,Stalham High School,5,0,0,5,2014-07-21,52.772426,1.51831
27269,Stalham Shopper,2,10,15,10,2013-08-05,52.772014,1.514614
27270,Stanley Road Chip Shop,4,5,0,10,2015-01-09,52.825997,1.396373
27271,Star Cottage B&B,AwaitingInspection,nan,nan,nan,,52.956299,0.852801
27272,Star Of India Restaurant,4,10,5,5,2012-08-22,52.712032,1.408758
27273,Starlings of Sheringham Ltd,AwaitingInspection,nan,nan,nan,,52.943833,1.211779
27274,Starvin Marvins,5,0,5,5,2013-07-30,52.932115,1.301284
27275,Station Cafe,5,0,0,5,2014-04-24,52.95028,0.864166
27276,Station Road Stores,AwaitingInspection,nan,nan,nan,,52.818806,1.378294
27277,Stepping Stones Pre School,AwaitingInspection,nan,nan,nan,,52.861399,1.254139
27278,Stevensons Cafe & Fish Bar,3,10,5,10,2014-04-22,52.944694,1.211887
27279,Stibbard C Of E School,AwaitingInspection,nan,nan,nan,,52.818567,0.941036
27280,Stibbard Childrens Centre,5,nan,nan,nan,2015-01-20,52.818567,0.941036
27281,Sticky Earth Cafe,AwaitingInspection,nan,nan,nan,,52.930569,1.302223
27282,Stiffkey Red Lion,3,10,10,10,2013-10-15,52.95098,0.92874
27283,Stiffkey Stores and Post Office,5,0,0,5,2012-12-14,52.94951,0.930725
27284,Stow Mill Trading,5,0,0,0,2012-07-18,52.869834,1.440004
27285,Straits,3,10,10,10,2014-10-03,52.943971,1.211015
27286,Strawberry Field Residential Home,AwaitingInspection,nan,nan,nan,,52.833923,1.495037
27287,Subway,5,0,0,5,2013-11-27,52.833262,0.846212
27288,Subway,5,0,0,5,2014-09-22,52.829682,0.849274
27289,Sue Ryder,AwaitingInspection,nan,nan,nan,,52.943971,1.211015
27290,Sue Ryder,AwaitingInspection,nan,nan,nan,,52.711598,1.409153
27291,Sue Ryder,AwaitingInspection,nan,nan,nan,,52.772014,1.514614
27292,Sue Ryder,AwaitingInspection,nan,nan,nan,,52.836544,0.859687
27293,Sue Ryder,AwaitingInspection,nan,nan,nan,,52.955111,0.852469
27294,Sue Ryder Care,AwaitingInspection,nan,nan,nan,,52.931039,1.300205
27295,Sue Ryder Shop,AwaitingInspection,nan,nan,nan,,52.90648,1.091029
27296,Sue Ryder Shop,AwaitingInspection,nan,nan,nan,,52.821451,1.385522
27297,Suffield Park Bowls Club,AwaitingInspection,nan,nan,nan,,52.921743,1.312354
27298,Suffield Park Children's Centre,5,0,0,5,2014-01-21,52.922236,1.308567
27299,Suffield Park Post Office Stores,5,5,5,5,2012-07-31,52.922236,1.308567
27300,Suffield Park Store,4,10,5,5,2014-03-24,52.921656,1.310978
27301,Sugar & Spice Cafe,AwaitingInspection,nan,nan,nan,,52.848173,1.478712
27302,Summer Cottage B&B,AwaitingInspection,nan,nan,nan,,52.92497,1.030653
27303,Suncourt Nursing Home,5,0,5,5,2014-01-03,52.943492,1.208776
27304,Sunny Chinese Takeaway,4,0,10,10,2014-01-30,52.906793,1.090769
27305,Sunnyside Cafe,AwaitingInspection,nan,nan,nan,,52.877586,1.393197
27306,Sunrays Bed & Breakfast,AwaitingInspection,nan,nan,nan,,52.938268,1.199413
27307,Superdrug,AwaitingInspection,nan,nan,nan,,52.931039,1.300205
27308,Sutton Hall,AwaitingInspection,nan,nan,nan,,52.762448,1.547707
27309,Sutton Post Office,AwaitingInspection,nan,nan,nan,,52.758803,1.534824
27310,Sutton Pre-School,AwaitingInspection,nan,nan,nan,,52.757937,1.535539
27311,Sutton Staithe Hotel,3,10,10,10,2014-04-30,52.759019,1.528807
27312,Sutton VC First School,AwaitingInspection,nan,nan,nan,,52.760848,1.531105
27313,Swan Inn,2,15,5,10,2014-11-18,52.771561,1.515957
27314,Swanton Abbott C P School,4,0,0,10,2010-01-05,52.785813,1.355028
27315,Swanton Care Centre,5,5,5,5,2014-11-18,52.847533,1.004874
27316,Sweet and Savoury,5,5,5,5,2011-10-14,,
27317,Sweet Temptations,AwaitingInspection,nan,nan,nan,,,
27318,Sweets & Games Market Stall,AwaitingInspection,nan,nan,nan,,,
27319,Sweets N Things Ltd,AwaitingInspection,nan,nan,nan,,52.831479,0.846333
27320,Sydney House Residential Home,4,10,0,5,2014-11-06,52.776213,1.511927
27321,Taste Of India,4,10,5,5,2014-12-04,52.90648,1.089661
27322,Taste Of Thai,5,5,0,0,2013-12-13,52.830366,0.848488
27323,Tavern Tasty Meats,5,0,0,5,2014-03-10,52.83751,1.393841
27324,Tesco Stores Limited (06816),5,0,0,0,2013-11-01,52.940379,1.210481
27325,Tesco Stores Ltd,5,0,0,5,2013-03-07,52.882224,1.425509
27326,Tesco Stores Ltd,5,5,5,5,2012-10-12,52.831268,0.84574
27327,Tesco Supermarket,5,5,0,0,2014-04-22,52.770585,1.517598
27328,TFW Fine Wines,AwaitingInspection,nan,nan,nan,,52.894706,1.369968
27329,The Aga Shop,AwaitingInspection,nan,nan,nan,,52.905333,1.089148
27330,The All Natural Company,5,5,5,5,2009-12-02,52.944694,1.211887
27331,The Apple Shop,AwaitingInspection,nan,nan,nan,,52.734257,1.413723
27332,The Atrium,AwaitingInspection,nan,nan,nan,,52.815723,1.394592
27333,The Baguette Shop,5,5,5,0,2014-01-15,52.931039,1.300205
27334,The Bakehouse,5,nan,nan,nan,2014-02-12,52.942486,1.210726
27335,The Bakehouse,4,5,5,10,2014-12-08,52.829671,0.847462
27336,The Bakehouse Submarine,4,10,5,5,2014-07-23,52.944679,1.214104
27337,The Bank Sheringham,4,0,10,5,2013-10-30,52.94321,1.210229
27338,The Barn,4,5,5,10,2013-09-09,52.905355,1.087974
27339,The Barn Cafe,5,5,0,5,2013-07-02,52.775388,1.614449
27340,The Barn Restaurant,5,5,5,5,2013-07-02,52.903471,1.041823
27341,The Barns B&B,AwaitingInspection,nan,nan,nan,,52.874536,1.329414
27342,The Beach Hut,5,0,5,5,2014-05-07,52.944679,1.214104
27343,The Bee's Teas,5,0,0,5,2014-06-26,52.883904,1.29732
27344,The Bell Public House,AwaitingInspection,nan,nan,nan,,52.826052,0.841287
27345,The Black Boys Public House,4,5,10,5,2014-06-25,52.861644,1.243875
27346,The Blue Boar Inn,5,nan,nan,nan,2013-02-07,52.808305,0.908615
27347,The Bowl,AwaitingInspection,nan,nan,nan,,,
27348,The Bowls Club,AwaitingInspection,nan,nan,nan,,52.847834,0.821203
27349,The Brunch Bar,4,10,5,5,2014-12-03,52.826251,1.379288
27350,The Bull,5,5,5,5,2014-11-03,52.829425,0.848753
27351,The Bull Public House,3,10,10,10,2013-09-23,52.894195,0.874561
27352,The Butlers,5,5,5,0,2014-10-14,,
27353,The Cafe,4,5,5,10,2013-08-30,52.907097,1.088068
27354,The Cake Maker,AwaitingInspection,nan,nan,nan,,,
27355,The Caravan Club,AwaitingInspection,nan,nan,nan,,52.702096,1.514541
27356,The Caravan Club Incleborough Fields,5,0,5,5,2009-05-28,52.933666,1.245363
27357,The Carpenters Arms,5,5,5,5,2013-10-17,52.919756,0.885494
27358,The Chequers Inn,4,10,0,10,2014-05-02,52.917221,0.948047
27359,The Chocolate Box (Sheringham),AwaitingInspection,nan,nan,nan,,52.941787,1.210317
27360,The Chocolate Deli,AwaitingInspection,nan,nan,nan,,52.89579,0.874785
27361,The Chocolate Factory Shop,5,5,0,0,2014-12-10,52.829682,0.849274
27362,The Cobblers Guest House,AwaitingInspection,nan,nan,nan,,52.955062,0.854149
27363,The Cockerel,5,5,5,5,2014-01-15,52.822637,1.387143
27364,The Coffee House Cafe,5,5,5,5,2014-07-04,52.941866,1.209385
27365,The Coffee Shop,5,0,0,5,2014-06-09,52.931039,1.300205
27366,The Control Tower B&B,AwaitingInspection,nan,nan,nan,,52.908552,0.831693
27367,The Co-operative Foodstore,5,0,0,5,2014-01-22,52.927674,1.284694
27368,The Co-Operative Pharmacy,AwaitingInspection,nan,nan,nan,,52.821063,1.386813
27369,The Copeman Centre Briston Village Hall,5,0,5,0,2009-01-22,52.849264,1.062019
27370,The Corner House,5,0,5,0,2013-12-11,52.879478,1.434628
27371,The Cottage Public House,AwaitingInspection,nan,nan,nan,,52.92992,1.300015
27372,The Courtyard Restaurant,4,10,5,5,2014-09-11,52.932608,1.299401
27373,The Craft Cottage B&B,5,0,5,5,2013-02-13,52.942093,1.215282
27374,The Crepe Crusaders,5,nan,nan,nan,2014-10-14,,
27375,The Crown Inn,5,nan,nan,nan,2014-12-02,52.818367,1.288998
27376,The Crown Inn,4,nan,nan,nan,2014-12-16,52.768288,1.453828
27377,The Crown Inn,5,nan,nan,nan,2014-04-10,52.862181,1.396303
27378,The Dales,5,nan,nan,nan,2014-08-05,52.931956,1.186668
27379,The Diplomat,5,5,0,0,2012-01-19,52.764077,1.341257
27380,The Dog Inn,5,5,0,0,2012-05-10,52.702096,1.514541
27381,The Dozy Dormouse Takeaway,AwaitingInspection,nan,nan,nan,,52.935906,1.271222
27382,The Dukes Head,1,10,10,20,2014-05-29,52.827657,1.135255
27383,The Dun Cow,1,nan,nan,nan,2014-07-11,52.951231,1.085407
27384,The Dunstable Arms,4,10,5,5,2013-07-04,52.939645,1.217676
27385,The Durdans B&B,AwaitingInspection,nan,nan,nan,,52.872252,1.422953
27386,The Dutch Oven (Christophers),4,nan,nan,nan,2014-11-04,52.821571,1.388545
27387,The Eiders B&B,AwaitingInspection,nan,nan,nan,,52.921624,1.236158
27388,The Eight Acres B&B,AwaitingInspection,nan,nan,nan,,52.921624,1.236158
27389,The Erpingham Arms,1,10,15,20,2014-12-02,52.840001,1.25129
27390,The Factory Shop Group,AwaitingInspection,nan,nan,nan,,52.830427,0.847823
27391,The Fairways Club House,5,5,0,0,2014-10-01,52.933666,1.245363
27392,The Feathers Public House,AwaitingInspection,nan,nan,nan,,52.821837,1.38524
27393,The Ficarra's Spa,5,0,0,0,2013-02-01,52.836873,0.856858
27394,The Folly Tearoom,5,5,5,5,2014-10-16,52.927267,1.079711
27395,The Friday Club,5,5,0,5,2013-09-20,52.904481,1.089742
27396,The Frying Machine,5,0,0,5,2014-04-07,,
27397,The Fudge Bus,5,5,5,5,2014-09-06,,
27398,The Fudge Bus (Events),5,5,5,5,2014-09-06,,
27399,The Fudge Lady,5,0,0,5,2015-01-29,,
27400,The Funky Mackerel Cafe,5,5,5,5,2015-01-20,52.943828,1.216289
27401,The Galley,5,0,0,5,2013-10-29,,
27402,The Galley @ Horning,5,5,5,5,2014-06-09,52.704799,1.463097
27403,The Gangway Crab Shop,5,5,5,0,2014-06-10,52.930604,1.30291
27404,The George Hotel,3,10,5,10,2014-03-04,52.953303,1.04273
27405,The Goat Inn,5,nan,nan,nan,2014-09-12,52.769864,1.335057
27406,The Golden Fleece,4,10,5,5,2014-05-19,52.957092,0.851647
27407,The Granary Theatre,AwaitingInspection,nan,nan,nan,,52.95612,0.852044
27408,The Grapevine,5,5,5,5,2014-06-06,52.95612,0.852044
27409,The Grebe,AwaitingInspection,nan,nan,nan,,52.772014,1.514614
27410,The Greedy Goose (Home Produce),AwaitingInspection,nan,nan,nan,,,
27411,The Green Room Cafe,5,5,5,5,2014-01-13,52.820626,1.385428
27412,The Greyhound Inn,2,15,10,10,2014-03-06,52.754836,1.570258
27413,The Grocery Store,AwaitingInspection,nan,nan,nan,,,
27414,The Grocery Store,5,5,0,0,2014-09-12,52.834914,0.747919
27415,The Grove Guest House,5,5,5,5,2014-04-10,52.924393,1.311514
27416,The Gunton Arms,5,5,5,5,2014-01-22,52.858138,1.33208
27417,The Harnser,5,5,5,5,2014-04-24,52.766693,1.530229
27418,The Hill House Inn,3,10,10,10,2013-08-06,52.824881,1.532172
27419,The Hourglass,5,5,0,0,2015-01-16,52.841831,0.815734
27420,The Hucks Stop,5,5,5,5,2014-09-09,52.931817,1.299415
27421,The Hunny Bell Public House,5,nan,nan,nan,2015-01-29,52.87366,1.075659
27422,The Ice Cream Shop,AwaitingInspection,nan,nan,nan,,52.954988,1.015107
27423,The Ingham Swan,5,0,0,5,2013-11-19,52.779192,1.5433
27424,The Jetty Cafe,5,5,5,5,2014-11-04,52.931891,1.300627
27425,The Kings Head,4,5,10,5,2014-02-25,52.905614,1.088037
27426,The Kings Head,5,5,5,5,2014-11-05,52.931891,1.300627
27427,The Kingswood Centre,5,5,0,5,2014-11-03,52.93948,1.240588
27428,The Kingswood Group,5,5,5,5,2013-09-17,52.918351,1.327212
27429,The Kitchen & The Garden,5,5,5,5,2014-03-27,,
27430,The Kitchen & The Garden Mkt Stall,5,5,0,5,2014-06-14,,
27431,The Knoll Guest House,AwaitingInspection,nan,nan,nan,,52.932147,1.293026
27432,The Larder,5,5,5,5,2012-01-10,52.830045,0.849135
27433,The Lawns Hotel,4,10,5,5,2015-01-13,52.905144,1.091246
27434,The Lifeboat B&B,4,5,5,10,2015-01-26,52.954517,0.853621
27435,The Lifeboat Cafe,5,5,0,5,2014-09-04,52.932115,1.301284
27436,The Limes,5,0,5,0,2013-04-05,52.828201,0.84839
27437,The Limes B&B,4,5,0,10,2009-11-06,52.739108,1.536266
27438,The Links Hotel,5,5,5,0,2014-12-09,52.933666,1.245363
27439,The Little Banningham Bakery,5,0,0,0,2014-09-26,,
27440,The Little Chippy,3,10,10,10,2014-12-05,52.808305,0.908615
27441,The Little Fudge Stall,AwaitingInspection,nan,nan,nan,,,
27442,The Little Kitchen,AwaitingInspection,nan,nan,nan,,,
27443,The Little Lobster Pot,4,0,0,10,2009-08-13,,
27444,The Little Shop on Womack Staithe,AwaitingInspection,nan,nan,nan,,52.706319,1.540068
27445,The Little Theatre,5,0,0,0,2012-07-31,52.943163,1.210627
27446,The Lobster,4,10,0,10,2015-01-12,52.944603,1.212253
27447,The Lobster Pot,5,0,5,5,2011-08-17,52.876694,1.433248
27448,The Lodge Smallholding B&B,AwaitingInspection,nan,nan,nan,,52.83994,1.395041
27449,The Lunch Box,3,10,5,10,2014-08-04,52.943971,1.211015
27450,The Maltings Care Home,5,5,0,5,2014-12-16,52.831209,0.857956
27451,The Maltings Complex,AwaitingInspection,nan,nan,nan,,52.95612,0.852044
27452,The Maltings Day Care Centre,5,0,5,5,2014-06-10,52.829914,0.845592
27453,The Manor Hotel,5,5,5,5,2014-10-06,52.878618,1.436686
27454,The Marmalady,5,5,0,5,2015-01-23,,
27455,The Melrose,AwaitingInspection,nan,nan,nan,,52.940088,1.209283
27456,The Mermaids Slipper,5,0,0,5,2011-07-27,52.767672,1.516978
27457,The Moorhen B&B,AwaitingInspection,nan,nan,nan,,52.704799,1.463097
27458,The Moorings,5,5,5,5,2014-09-16,52.955093,1.018391
27459,The Morley Club,4,5,5,10,2010-01-12,52.940379,1.210481
27460,The Mundesley Haig Bowls Club,AwaitingInspection,nan,nan,nan,,52.874048,1.433009
27461,The New Inn,3,10,10,5,2014-04-02,52.883904,1.29732
27462,The New Victory Hall,AwaitingInspection,nan,nan,nan,,52.73603,1.466019
27463,The Nippy Chippy,5,0,0,5,2014-10-17,,
27464,The Norfolk Brewhouse,4,5,0,10,2014-12-05,52.882665,0.93815
27465,The Norfolk Dandelion,5,0,0,5,2013-11-22,,
27466,The Norfolk Riddle,5,5,5,5,2014-03-12,52.897103,0.875541
27467,The North Walsham & District War Memorial Hospital,4,5,5,10,2014-02-11,52.814255,1.387115
27468,The Norton Warnes Cricket Ground,AwaitingInspection,nan,nan,nan,,52.92277,1.317476
27469,The Old Bakery B&B,AwaitingInspection,nan,nan,nan,,52.822865,1.022247
27470,The Old Barn Guest House,AwaitingInspection,nan,nan,nan,,52.938079,1.241495
27471,The Old Chapel B&B,AwaitingInspection,nan,nan,nan,,52.753948,1.639355
27472,The Old Forge Seafood Restaurant,5,5,5,5,2013-11-05,52.861535,0.948935
27473,The Old Gatehouse Tea Room,5,nan,nan,nan,2012-07-30,52.860671,0.997417
27474,The Old Mill Restaurant & Cafe Bar,5,5,5,5,2014-01-13,52.712062,1.408967
27475,The Old Post Office Store,5,5,5,5,2014-08-19,52.951963,1.087677
27476,The Old Rectory B&B,AwaitingInspection,nan,nan,nan,,52.81623,1.482883
27477,The Old Rectory B&B,AwaitingInspection,nan,nan,nan,,52.73584,1.527022
27478,The Old Rock Shop Bistro,5,5,0,0,2014-09-24,52.931297,1.298364
27479,The Old School Hall,AwaitingInspection,nan,nan,nan,,52.839855,0.957563
27480,The Old Telephone Exchange,AwaitingInspection,nan,nan,nan,,52.907362,1.086511
27481,The Old Vicarage Care Home,5,nan,nan,nan,2014-12-01,52.710182,1.534191
27482,The Olive Branch,4,10,0,10,2013-12-11,52.745662,1.400551
27483,The Olive Tree,3,10,5,10,2014-03-28,52.828517,1.402272
27484,The Orangery,5,5,5,5,2014-11-21,52.82232,1.059663
27485,The Original Factory Shop,AwaitingInspection,nan,nan,nan,,52.834215,0.868651
27486,The Original Factory Shop Ltd,AwaitingInspection,nan,nan,nan,,52.772014,1.514614
27487,The Owl Tea Rooms,5,5,5,5,2014-01-13,52.906231,1.091621
27488,The Pepperpot Restaurant Limited,5,5,5,5,2013-08-15,52.938857,1.244635
27489,The Picnic Hut,5,0,5,5,2014-03-12,52.95612,0.852044
27490,The Pigs,4,5,5,10,2014-05-06,52.865916,1.115694
27491,The Pleasaunce,4,10,5,5,2013-09-17,52.91742,1.341483
27492,The Post Office Stores,AwaitingInspection,nan,nan,nan,,52.713838,1.575393
27493,The Pot Black Club Rear Of,AwaitingInspection,nan,nan,nan,,52.831268,0.84574
27494,The Rainbow Cafe,4,10,0,10,2014-04-14,52.772014,1.514614
27495,The Rampant Horse Inn,5,5,0,5,2011-11-01,52.830935,0.849891
27496,The Red Hart Inn,5,5,5,5,2015-01-27,52.91562,1.162631
27497,The Royal British Legion,5,5,0,0,2014-12-16,52.926201,1.30439
27498,The Royal British Legion,4,0,5,10,2010-01-29,52.952755,1.021235
27499,The Running Horse,4,10,5,5,2015-01-12,52.84922,0.856729
27500,The Salvation Army,5,0,0,5,2014-10-07,52.815184,1.398038
27501,The Salvation Army,AwaitingInspection,nan,nan,nan,,52.853078,1.05954
27502,The Sheringham Trawler,5,5,5,5,2014-06-16,52.943971,1.211015
27503,The Ship,4,10,5,5,2013-01-04,52.943078,1.140175
27504,The Ship Inn,5,nan,nan,nan,2014-04-25,52.876692,1.439833
27505,The Ship Public House,5,5,0,0,2009-10-19,52.852961,1.477045
27506,The Shires Residential Home,AwaitingInspection,nan,nan,nan,,52.828517,1.402272
27507,The Shrine Refectory And Norton Room,5,5,5,5,2014-02-28,52.895254,0.876133
27508,The Smokey Grill House,5,5,5,5,2013-10-24,52.812954,1.382931
27509,The Stables Lunch Club,4,5,5,10,2014-03-20,,
27510,The Star Inn,5,0,5,5,2014-08-27,52.799659,1.542502
27511,The Strawberry Patch,4,5,10,5,2014-08-12,52.896657,1.138764
27512,The Sugarplum Bakehouse,AwaitingInspection,nan,nan,nan,,,
27513,The Sundeck,AwaitingInspection,nan,nan,nan,,52.940088,1.209283
27514,The Swallows,4,5,10,5,2013-11-25,52.892846,0.873089
27515,The Swan Hotel,5,5,0,5,2013-08-07,52.704799,1.463097
27516,The Tea Shed,5,nan,nan,nan,2013-07-05,52.85409,1.477506
27517,The Thai Way,4,0,0,10,2013-03-11,,
27518,The Three Horseshoes,5,5,5,5,2015-01-15,52.855408,1.066493
27519,The Three Swallows,5,5,5,5,2015-01-07,52.94623,1.046432
27520,The Tudor Tearooms,3,10,10,10,2013-12-03,52.830045,0.849135
27521,The Two Lifeboats,3,10,10,10,2014-11-17,52.944694,1.211887
27522,The Vernon Arms,5,0,5,5,2014-07-29,52.880094,1.351797
27523,The Village Hall,AwaitingInspection,nan,nan,nan,,52.846738,0.995075
27524,"The Village Store, Weybourne",5,nan,nan,nan,2013-12-20,52.943567,1.140017
27525,The Walpole Arms,4,5,5,10,2014-01-28,52.829861,1.188867
27526,The Wellington Hotel (Cromer) Ltd,4,10,5,5,2014-09-11,52.931817,1.299415
27527,The Wheatsheaf P H,1,nan,nan,nan,2013-07-30,52.911469,1.183334
27528,The White Lady,4,5,10,5,2015-01-23,52.78237,1.412299
27529,The White Swan,5,5,5,5,2015-01-13,52.821571,1.388545
27530,The Wiveton Bell,3,10,10,5,2014-05-08,52.944143,1.038023
27531,thefreerangebaker,AwaitingInspection,nan,nan,nan,,,
27532,THF Countryside,4,5,5,10,2013-06-10,52.847702,0.816916
27533,Thorougoods Select Convenience,4,5,0,10,2010-09-02,52.74815,1.300806
27534,Three Cottages Fish Restaurant,5,0,0,5,2015-01-13,52.822775,1.389871
27535,Three Horseshoes Inn,3,10,10,5,2013-08-21,52.937245,0.898461
27536,Thurlow Nunn,AwaitingInspection,nan,nan,nan,,52.907224,1.091811
27537,Thursford Collection,5,0,5,5,2013-07-02,52.870959,0.9388
27538,Tidal Wave Cafe,AwaitingInspection,nan,nan,nan,,52.714214325,0.993930518627
27539,Tides Restaurant,4,5,10,5,2012-06-11,52.714214325,0.993930518627
27540,Tidings Newsagents,4,5,5,10,2014-03-25,52.704799,1.463097
27541,Tin Yau,3,5,10,10,2012-10-30,52.831479,0.846333
27542,Tom Hewitt Mobile,4,0,10,5,2013-07-30,,
27543,Tonibell,AwaitingInspection,nan,nan,nan,,,
27544,Town Tots Preschool and Creche,AwaitingInspection,nan,nan,nan,,52.820669,1.389603
27545,Travis Perkins,AwaitingInspection,nan,nan,nan,,52.927674,1.284694
27546,Treehaven,5,0,0,5,2015-01-26,52.932591,1.245565
27547,Tresal Catering,AwaitingInspection,nan,nan,nan,,,
27548,Trimingham House Caravan Site,AwaitingInspection,nan,nan,nan,,52.714214325,0.993930518627
27549,Triwise Trading Ltd,5,5,5,5,2014-04-11,52.920158,1.307932
27550,Truly Local,5,5,5,5,2014-12-11,52.771854,1.513934
27551,Trunch Corner Stores,5,0,5,0,2013-02-01,52.861508,1.392788
27552,Trunch Social Club,AwaitingInspection,nan,nan,nan,,52.862533,1.39529
27553,Trunch Village Hall,AwaitingInspection,nan,nan,nan,,52.86098,1.399924
27554,Tuesday Lunch Club,5,5,5,0,2014-05-13,52.7031936646,0.969655811787
27555,Tunstead Cp School,5,5,0,5,2011-12-13,52.745662,1.400551
27556,Tunstead International Farm Camp,5,5,0,0,2011-05-24,52.748306,1.424293
27557,TWD Outdoor Pursuits,Exempt,nan,nan,nan,,52.818367,1.288998
27558,Two Mills Touring Park,AwaitingInspection,nan,nan,nan,,52.804768,1.398724
27559,Tyneside Social Club,4,10,5,5,2014-03-26,52.941751,1.210285
27560,Unique Norfolk Venues,AwaitingInspection,nan,nan,nan,,,
27561,Upper Sheringham Village Hall,AwaitingInspection,nan,nan,nan,,52.930472,1.18833
27562,Upstairs At No 1,5,0,0,0,2014-10-16,52.932608,1.299401
27563,USA Chicken Ltd,3,10,10,10,2014-11-20,52.820626,1.385428
27564,USA Fried Chicken,1,10,10,20,2013-12-12,52.830264,0.846373
27565,Valley Farm Playgroup,AwaitingInspection,nan,nan,nan,,52.888121,1.01357
27566,VB of Wroxham Ltd,5,5,0,5,2014-03-05,52.711574,1.409077
27567,Verity Bakes Cakes,4,0,0,10,2013-12-10,,
27568,Vernon Nichols,Exempt,nan,nan,nan,2010-03-24,52.841069,1.254994
27569,Victoria Hotel,5,5,0,5,2013-10-22,52.958395,0.815488
27570,Victoria Jane bakes...,5,0,0,5,2014-06-17,,
27571,Victoria Plums,5,5,5,5,2011-07-20,,
27572,Victorian Tea Rooms,5,5,0,0,2014-12-01,52.930198,1.296836
27573,Victory Swim & Fitness,AwaitingInspection,nan,nan,nan,,52.818329,1.383023
27574,Village Hall,5,5,5,5,2014-04-28,52.823962,1.026495
27575,Village Hall,AwaitingInspection,nan,nan,nan,,52.814721,1.334841
27576,Village Hall,5,5,0,0,2014-01-08,52.878825,1.353394
27577,Village Hall,AwaitingInspection,nan,nan,nan,,52.83964,1.503056
27578,Village Hall,AwaitingInspection,nan,nan,nan,,52.848173,1.478712
27579,Village Hall,AwaitingInspection,nan,nan,nan,,52.868361,1.022899
27580,Village Hall,AwaitingInspection,nan,nan,nan,,52.790753,1.339311
27581,Village Hall,5,0,0,5,2014-02-11,52.84455,0.815227
27582,Village Hall,AwaitingInspection,nan,nan,nan,,52.887798,1.154761
27583,Village Hall Wenn Evans Centre,AwaitingInspection,nan,nan,nan,,52.825152,1.528809
27584,Village Inn,5,5,0,5,2014-02-07,52.938857,1.244635
27585,Village Store,AwaitingInspection,nan,nan,nan,,52.929018,1.150825
27586,Vine Park Cottage B&B,AwaitingInspection,nan,nan,nan,,52.874687,0.920756
27587,Virginia Court Hotel,5,5,5,0,2014-11-21,52.927873,1.303788
27588,W & R Millard,AwaitingInspection,nan,nan,nan,,52.953234,1.02185
27589,W J Weston (Fakenham Racecourse),5,0,0,5,2014-03-14,,
27590,W J Weston Fish Shop,5,5,0,0,2012-08-23,52.954348,1.014467
27591,Waitrose Ltd,5,5,5,0,2013-08-07,52.827059,1.368304
27592,Walcott Post Office,AwaitingInspection,nan,nan,nan,,52.842287,1.499318
27593,Walnut Barn B&B,AwaitingInspection,nan,nan,nan,,52.914336,1.168265
27594,Walsham Grange Care Home,4,10,5,5,2015-01-13,52.827192,1.394521
27595,Walsingham Cp School,AwaitingInspection,nan,nan,nan,,52.898004,0.876597
27596,Walsingham Farms Shop,5,5,5,5,2014-08-18,52.89579,0.874785
27597,Walsingham Parish Hall,AwaitingInspection,nan,nan,nan,,52.893373,0.873584
27598,Walsingham Recreation Trust,AwaitingInspection,nan,nan,nan,,52.898004,0.876597
27599,Walsingham Village Stores,1,10,5,20,2014-12-11,52.893373,0.873584
27600,War Memorial Institute,AwaitingInspection,nan,nan,nan,,52.956137,0.850199
27601,Ware Hall,AwaitingInspection,nan,nan,nan,,52.952264,0.85048
27602,Warlingham Wines Ltd,AwaitingInspection,nan,nan,nan,,52.768799,1.523549
27603,Warlingham Wines Ltd (Market Stall),AwaitingInspection,nan,nan,nan,,,
27604,Waterloo House,5,5,5,5,2015-01-27,52.821098,1.387187
27605,Watermark Wine Bar & Restaurant,4,5,10,5,2014-11-25,52.905355,1.087974
27606,Waverley Cake Shop,5,5,0,0,2015-01-06,52.931297,1.298364
27607,Waxham Sands Holiday Park,AwaitingInspection,nan,nan,nan,,52.762938,1.643872
27608,Wayfarers Restaurant,5,5,5,5,2014-08-11,52.699627,1.509856
27609,Wayford Bridge Inn,4,5,5,10,2014-10-13,52.770922,1.479707
27610,Wayford Nurseries,AwaitingInspection,nan,nan,nan,,52.77356,1.480822
27611,Wayside Stores,AwaitingInspection,nan,nan,nan,,52.823514,1.531854
27612,Welcome Treats,5,0,0,5,2013-02-14,,
27613,Wellington House B&B,5,5,5,5,2012-04-12,52.932608,1.299401
27614,Wells Crab House Cafe Ltd,5,0,5,5,2013-09-17,52.957638,0.848749
27615,Wells Deli,5,0,0,0,2012-08-03,52.957092,0.851647
27616,Wells Deli Holt Ltd,4,10,5,5,2014-08-12,52.90616,1.089504
27617,Wells Primary & Nursery School,4,10,5,5,2014-10-07,52.951465,0.857515
27618,Wells Sailing Club,AwaitingInspection,nan,nan,nan,,52.956697,0.857979
27619,Wells Town Football Club,AwaitingInspection,nan,nan,nan,,52.968765,0.849347
27620,Wensum Lodge Hotel,5,5,5,5,2014-12-09,52.827492,0.847587
27621,West Cottage Cafe,5,0,0,5,2013-11-18,52.952208,1.042653
27622,West End Stores,AwaitingInspection,nan,nan,nan,,52.855408,1.066493
27623,West Raynham V C Primary School,5,5,5,5,2014-12-08,52.790877,0.773132
27624,West Raynham Village Hall,AwaitingInspection,nan,nan,nan,,52.793217,0.776129
27625,West Runton Social Club,AwaitingInspection,nan,nan,nan,,52.938857,1.244635
27626,Westbrook House Residential Home,AwaitingInspection,nan,nan,nan,,52.932147,1.295928
27627,Western House Hotel,AwaitingInspection,nan,nan,nan,,52.932608,1.299401
27628,Westgate Lodge,AwaitingInspection,nan,nan,nan,,52.93223,1.292288
27629,Westons B&B,AwaitingInspection,nan,nan,nan,,52.95224,1.011417
27630,WH & PS Jones & Son,Exempt,nan,nan,nan,,52.843847,1.353146
27631,Whelk Coppers Tea Rooms,5,0,0,0,2012-06-20,52.945037,1.209501
27632,Whincliff B&B,AwaitingInspection,nan,nan,nan,,52.886608,1.415714
27633,Whistlestop,5,5,0,0,2012-01-12,52.941866,1.209385
27634,White Horse,5,5,5,5,2014-09-04,52.73603,1.466019
27635,White Horse Farm Ltd,5,5,5,5,2013-07-25,52.87456,0.994065
27636,White Horse Hotel,2,15,10,10,2014-05-12,52.954802,1.018192
27637,White Horse Inn,5,5,0,5,2014-04-22,52.930595,1.296762
27638,White Horse Inn,3,10,10,10,2012-12-14,52.868229,0.845678
27639,White Horse PH,3,10,10,10,2013-09-12,52.916725,1.342829
27640,White House Farm,AwaitingInspection,nan,nan,nan,,52.85563,1.417797
27641,White House Stores,5,5,5,5,2014-11-19,52.735495,1.46894
27642,Whitehaven Residential Home,5,5,0,5,2015-01-05,52.938792,1.21398
27643,Wilds Cottage B&B,AwaitingInspection,nan,nan,nan,,52.844957,1.341883
27644,Willow Farm Barn B&B,AwaitingInspection,nan,nan,nan,,52.78528,1.588448
27645,Wills Plaice East Runton Fish&Chips,5,5,0,5,2014-04-04,52.936103,1.272889
27646,Windham Arms,5,5,5,5,2014-01-13,52.94455,1.213216
27647,Windmill Canteen,5,5,0,0,2014-09-30,52.913855,1.301005
27648,Witton & Ridlington Village Hall,AwaitingInspection,nan,nan,nan,,52.829158,1.470464
