,addressline1,addressline2,addressline3,addressline4,businessname,businesstype,businesstypeid,confidenceinmanagement,extractdate,fhrsid,hygiene,itemcount,latitude,localauthoritybusinessid,localauthoritycode,localauthorityemailaddress,localauthorityname,localauthoritywebsite,longitude,postcode,ratingdate,ratingkey,ratingvalue,returncode,schemetype,structural
26126,Sheringham,Norfolk,,,23 Morris Street,Hotel/bed & breakfast/guest house,7842,0,,565249,0,,52.94456100000000,PI/000070877,231,commercial@north-norfolk.gov.uk,North Norfolk,http://www.northnorfolk.org,1.21015000000000,NR26 8JY,2013-07-10,fhrs_5_en-GB,5,,FHRS,0
26127,,,,,A & M Frary Shellfish Stall,Retailers - other,4613,5,,585721,0,,,PI/000071109,231,commercial@north-norfolk.gov.uk,North Norfolk,http://www.northnorfolk.org,,,2013-08-08,fhrs_5_en-GB,5,,FHRS,0
26128,63 New Road,Blakeney,Norfolk,,A J Randell Crabs,Manufacturers/packers,7839,5,,415354,5,,52.95169500000000,PI/000102097,231,commercial@north-norfolk.gov.uk,North Norfolk,http://www.northnorfolk.org,1.01906200000000,NR25 7PA,2014-11-05,fhrs_4_en-GB,4,,FHRS,10
26129,The Stores,High Street,Ludham,Norfolk,A T Thrower & Son Ltd,Retailers - other,4613,5,,281232,5,,52.71123500000000,PI/000024503,231,commercial@north-norfolk.gov.uk,North Norfolk,http://www.northnorfolk.org,1.53626100000000,NR29 5QJ,2014-03-20,fhrs_5_en-GB,5,,FHRS,5
26130,Abbott Farm,Walsingham Road,Binham,Norfolk,Abbott Farm B&B,Hotel/bed & breakfast/guest house,7842,5,,281884,5,,52.91149100000000,PI/000100065,231,commercial@north-norfolk.gov.uk,North Norfolk,http://www.northnorfolk.org,0.93325900000000,NR21 0AW,2010-04-09,fhrs_5_en-GB,5,,FHRS,5
26131,Church Lane,Swanton Abbott,Norfolk,,Abbottswood Lodge,Hospitals/Childcare/Caring Premises,5,,,281399,,,52.78525100000000,PI/000043856,231,commercial@north-norfolk.gov.uk,North Norfolk,http://www.northnorfolk.org,1.35801000000000,NR10 5DY,2014-05-30,fhrs_5_en-GB,5,,FHRS,
26132,Community Centre,New Road,North Walsham,Norfolk,About With Friends,Hospitals/Childcare/Caring Premises,5,5,,635404,0,,52.82066900000000,PI/000071635,231,commercial@north-norfolk.gov.uk,North Norfolk,http://www.northnorfolk.org,1.38960300000000,NR28 9DE,2014-06-04,fhrs_5_en-GB,5,,FHRS,5
26133,Holt Community Centre,Kerridge Way,Holt,Norfolk,About With Friends,Hospitals/Childcare/Caring Premises,5,5,,638046,0,,52.90448100000000,PI/000071637,231,commercial@north-norfolk.gov.uk,North Norfolk,http://www.northnorfolk.org,1.08974200000000,NR25 6DN,2014-06-26,fhrs_5_en-GB,5,,FHRS,0
26134,,,,,About With Friends,Other catering premises,7841,5,,281674,0,,,PI/000064935,231,commercial@north-norfolk.gov.uk,North Norfolk,http://www.northnorfolk.org,,,2015-01-21,fhrs_5_en-GB,5,,FHRS,0
26135,The New Victory Hall,The Street,Neatishead,Norfolk,About With Friends,Hospitals/Childcare/Caring Premises,5,10,,628257,0,,52.73603000000000,PI/000071591,231,commercial@north-norfolk.gov.uk,North Norfolk,http://www.northnorfolk.org,1.46601900000000,NR12 8AD,2014-04-03,fhrs_4_en-GB,4,,FHRS,5
26136,9 Tucker Street,Cromer,Norfolk,,About With Friends Community Cafe,Restaurant/Cafe/Canteen,1,5,,635399,5,,52.93161100000000,PI/000071214,231,commercial@north-norfolk.gov.uk,North Norfolk,http://www.northnorfolk.org,1.30196000000000,NR27 9HA,2014-06-10,fhrs_5_en-GB,5,,FHRS,0
26137,,,,,Acorn Cottage (Home Baking),Retailers - other,4613,,,689824,,,,PI/000068126,231,commercial@north-norfolk.gov.uk,North Norfolk,http://www.northnorfolk.org,,,,fhrs_awaitinginspection_en-GB,AwaitingInspection,,FHRS,
26138,Stibbard Childrens Centre,Fulmodeston Road,Stibbard,Norfolk,Action For Children,Hospitals/Childcare/Caring Premises,5,,,734144,,,52.81856600000000,PI/000072948,231,commercial@north-norfolk.gov.uk,North Norfolk,http://www.northnorfolk.org,0.94103500000000,NR21 0EL,,fhrs_awaitinginspection_en-GB,AwaitingInspection,,FHRS,
26139,8 White Lion Street,Holt,Norfolk,,Adnams Cellar & Kitchen Store,Retailers - other,4613,5,,689746,0,,52.90648000000000,PI/000057838,231,commercial@north-norfolk.gov.uk,North Norfolk,http://www.northnorfolk.org,1.09102900000000,NR25 6BA,2012-01-25,fhrs_5_en-GB,5,,FHRS,0
26140,Park Road,Holkham,Norfolk,,Adnams Wine Cellar & Kitchen Store,Retailers - other,4613,,,689772,,,52.95839500000000,PI/000064145,231,commercial@north-norfolk.gov.uk,North Norfolk,http://www.northnorfolk.org,0.81548800000000,NR23 1RG,,fhrs_awaitinginspection_en-GB,AwaitingInspection,,FHRS,
26141,Picturecraft,23C Lees Yard,Holt,Norfolk,Adrian Hill Fine Art,Takeaway/sandwich shop,7844,,,582784,,,52.90690700000000,PI/000068366,231,commercial@north-norfolk.gov.uk,North Norfolk,http://www.northnorfolk.org,1.08878400000000,NR25 6HS,2013-12-16,fhrs_5_en-GB,5,,FHRS,
26142,35B Cremer Street,Sheringham,Norfolk,,Age UK North Norfolk,Hospitals/Childcare/Caring Premises,5,5,,446412,5,,52.94280600000000,PI/000069628,231,commercial@north-norfolk.gov.uk,North Norfolk,http://www.northnorfolk.org,1.21351900000000,NR26 8DZ,2014-03-14,fhrs_5_en-GB,5,,FHRS,0
26143,28 Yarmouth Road,North Walsham,Norfolk,,Aitken House,Hospitals/Childcare/Caring Premises,5,5,,281279,10,,52.81666900000000,PI/000032630,231,commercial@north-norfolk.gov.uk,North Norfolk,http://www.northnorfolk.org,1.38856400000000,NR28 9AT,2014-01-17,fhrs_3_en-GB,3,,FHRS,10
26144,The Albatros,The Quay,Wells-next-the-Sea,Norfolk,Albatros,Restaurant/Cafe/Canteen,1,5,,281993,5,,52.95837000000000,PI/000103623,231,commercial@north-norfolk.gov.uk,North Norfolk,http://www.northnorfolk.org,0.85046500000000,NR23 1AT,2013-04-29,fhrs_4_en-GB,4,,FHRS,10
26145,22 Albert Street,Holt,Norfolk,,Alberts Fish Bar,Takeaway/sandwich shop,7844,,,281187,,,52.90699800000000,PI/000018871,231,commercial@north-norfolk.gov.uk,North Norfolk,http://www.northnorfolk.org,1.08771900000000,NR25 6HX,2013-09-20,fhrs_5_en-GB,5,,FHRS,
26146,The Albion,32 Church Street,Cromer,Norfolk,Albion Hotel,Pub/bar/nightclub,7843,0,,574173,5,,52.93056900000000,PI/000006466,231,commercial@north-norfolk.gov.uk,North Norfolk,http://www.northnorfolk.org,1.30222300000000,NR27 9ES,2015-01-27,fhrs_5_en-GB,5,,FHRS,0
26147,20 Alfred Road,Cromer,Norfolk,,Albury House,Hotel/bed & breakfast/guest house,7842,,,281937,,,52.93214700000000,PI/000102143,231,commercial@north-norfolk.gov.uk,North Norfolk,http://www.northnorfolk.org,1.29302600000000,NR27 9AN,,fhrs_awaitinginspection_en-GB,AwaitingInspection,,FHRS,
26148,Cromer Road,Erpingham,Norfolk,,Alby Horse Shoes Inn,Pub/bar/nightclub,7843,0,,281597,0,,52.84424300000000,PI/000059150,231,commercial@north-norfolk.gov.uk,North Norfolk,http://www.northnorfolk.org,1.27657600000000,NR11 7QE,2013-01-03,fhrs_5_en-GB,5,,FHRS,5
26149,Unit 5,Alby Craft Centre,Cromer Road,Erpingham,Alby Tea Rooms,Restaurant/Cafe/Canteen,1,10,,647507,10,,52.84424300000000,PI/000071847,231,commercial@north-norfolk.gov.uk,North Norfolk,http://www.northnorfolk.org,1.27657600000000,NR11 7QE,2014-06-24,fhrs_3_en-GB,3,,FHRS,10
26150,Alby Hill,Alby,Norfolk,,Aldborough Cp School,School/college/university,7845,5,,281026,0,,52.86139900000000,PI/000000043,231,commercial@north-norfolk.gov.uk,North Norfolk,http://www.northnorfolk.org,1.25413900000000,NR11 7PH,2012-12-13,fhrs_5_en-GB,5,,FHRS,0
26151,Church Rooms,The Green,Aldborough,Norfolk,Aldborough Parochial Church Council,Other catering premises,7841,,,689709,,,52.86164400000000,PI/000056923,231,commercial@north-norfolk.gov.uk,North Norfolk,http://www.northnorfolk.org,1.24387500000000,NR11 7AA,,fhrs_awaitinginspection_en-GB,AwaitingInspection,,FHRS,
26152,Market Lane,Wells-next-the-Sea,Norfolk,,Alderman Peel High School,School/college/university,7845,5,,281432,5,,52.94937800000000,PI/000047512,231,commercial@north-norfolk.gov.uk,North Norfolk,http://www.northnorfolk.org,0.85158600000000,NR23 1RB,2014-11-21,fhrs_5_en-GB,5,,FHRS,0
26153,22 Staithe Street,Wells-next-the-Sea,Norfolk,,Alexandra Howell Deli,Retailers - other,4613,5,,281805,5,,52.95511100000000,PI/000067691,231,commercial@north-norfolk.gov.uk,North Norfolk,http://www.northnorfolk.org,0.85246900000000,NR23 1AF,2013-10-21,fhrs_5_en-GB,5,,FHRS,5
26154,,,,,Alfresco Mobile Bars,Mobile caterer,7846,,,689895,,,,PI/500005535,231,commercial@north-norfolk.gov.uk,North Norfolk,http://www.northnorfolk.org,,,,fhrs_awaitinginspection_en-GB,AwaitingInspection,,FHRS,
26155,Norwich Road,Ludham,Norfolk,,Alfresco Tea Rooms,Restaurant/Cafe/Canteen,1,5,,281473,5,,52.71018200000000,PI/000053200,231,commercial@north-norfolk.gov.uk,North Norfolk,http://www.northnorfolk.org,1.53419100000000,NR29 5QA,2014-09-08,fhrs_5_en-GB,5,,FHRS,5
26156,Al Haqqs Kitchen,4 Mundesley Road,North Walsham,Norfolk,Al-Haqqs Kitchen,Takeaway/sandwich shop,7844,10,,281622,10,,52.82252100000000,PI/000059643,231,commercial@north-norfolk.gov.uk,North Norfolk,http://www.northnorfolk.org,1.38520400000000,NR28 0DA,2014-01-13,fhrs_3_en-GB,3,,FHRS,10
26157,,,,,All Things Sweet,Retailers - other,4613,,,689771,,,,PI/000063879,231,commercial@north-norfolk.gov.uk,North Norfolk,http://www.northnorfolk.org,,,,fhrs_awaitinginspection_en-GB,AwaitingInspection,,FHRS,
26158,45 Bull Street,Holt,Norfolk,,Allards Butchers,Restaurant/Cafe/Canteen,1,,,415352,,,52.90648000000000,PI/000069369,231,commercial@north-norfolk.gov.uk,North Norfolk,http://www.northnorfolk.org,1.08966100000000,NR25 6HP,2013-02-19,fhrs_5_en-GB,5,,FHRS,
26159,Casa-de-apedra,Craymere Road,Briston,Norfolk,Alpacas Of Norfolk,Restaurant/Cafe/Canteen,1,,,689641,,,52.84051200000000,PI/000003723,231,commercial@north-norfolk.gov.uk,North Norfolk,http://www.northnorfolk.org,1.05930900000000,NR24 2LS,,fhrs_awaitinginspection_en-GB,AwaitingInspection,,FHRS,
26160,Hall Road,Cromer,Norfolk,,Amazona Zoo,Restaurant/Cafe/Canteen,1,10,,281719,5,,52.92684400000000,PI/000065699,231,commercial@north-norfolk.gov.uk,North Norfolk,http://www.northnorfolk.org,1.29323300000000,NR27 9JG,2013-06-12,fhrs_4_en-GB,4,,FHRS,5
26161,8 Market Place,North Walsham,Norfolk,,American Pizza,Takeaway/sandwich shop,7844,5,,281950,5,,52.82109800000000,PI/000102501,231,commercial@north-norfolk.gov.uk,North Norfolk,http://www.northnorfolk.org,1.38718700000000,NR28 9BP,2015-02-03,fhrs_5_en-GB,5,,FHRS,5
26162,The Milko Bar,The Quay,Wells-next-the-Sea,Norfolk,AMG Amusements,Other catering premises,7841,5,,281824,10,,52.95709200000000,PI/000067998,231,commercial@north-norfolk.gov.uk,North Norfolk,http://www.northnorfolk.org,0.85164700000000,NR23 1AH,2014-09-10,fhrs_3_en-GB,3,,FHRS,10
26163,11B West Street,Cromer,Norfolk,,Amy's Sweet Shop,Retailers - other,4613,,,689649,,,52.93108700000000,PI/000009846,231,commercial@north-norfolk.gov.uk,North Norfolk,http://www.northnorfolk.org,1.29815400000000,NR27 9HZ,,fhrs_awaitinginspection_en-GB,AwaitingInspection,,FHRS,
26164,,,,,Andrea's Homemade,Retailers - other,4613,0,,620670,5,,,PI/000071508,231,commercial@north-norfolk.gov.uk,North Norfolk,http://www.northnorfolk.org,,,2014-03-20,fhrs_5_en-GB,5,,FHRS,5
26165,Woodbine Cottage,Bulls Row,Northrepps,Norfolk,Andrew Gilling,Hotel/bed & breakfast/guest house,7842,0,,281865,10,,52.90632700000000,PI/000068552,231,commercial@north-norfolk.gov.uk,North Norfolk,http://www.northnorfolk.org,1.33744600000000,NR27 0LF,2012-01-27,fhrs_4_en-GB,4,,FHRS,0
26166,6 Neil Avenue,Holt,Norfolk,,Anglia Fine Liqueurs,Retailers - other,4613,0,,617834,0,,52.90245400000000,PI/000071322,231,commercial@north-norfolk.gov.uk,North Norfolk,http://www.northnorfolk.org,1.09163500000000,NR25 6TG,2014-01-06,fhrs_5_en-GB,5,,FHRS,0
26167,,,,,Anna's Traditional Hand Made Fudge,Retailers - other,4613,,,689919,,,,PI/500006946,231,commercial@north-norfolk.gov.uk,North Norfolk,http://www.northnorfolk.org,,,,fhrs_awaitinginspection_en-GB,AwaitingInspection,,FHRS,
26168,,,,,Ann's Pantry,Retailers - other,4613,,,281987,,,,PI/000103370,231,commercial@north-norfolk.gov.uk,North Norfolk,http://www.northnorfolk.org,,,,fhrs_awaitinginspection_en-GB,AwaitingInspection,,FHRS,
26169,Lower Street,Southrepps,Norfolk,,Antingham & Southrepps Primary School,School/college/university,7845,5,,281376,0,,52.86547400000000,PI/000040871,231,commercial@north-norfolk.gov.uk,North Norfolk,http://www.northnorfolk.org,1.35422100000000,NR11 8UG,2014-03-31,fhrs_5_en-GB,5,,FHRS,5
26170,,,,,Appletree Cottage Preserves,Retailers - other,4613,5,,638054,0,,,PI/000071759,231,commercial@north-norfolk.gov.uk,North Norfolk,http://www.northnorfolk.org,,,2014-05-13,fhrs_5_en-GB,5,,FHRS,0
26171,,,,,April Powell,Retailers - other,4613,,,689773,,,,PI/000064385,231,commercial@north-norfolk.gov.uk,North Norfolk,http://www.northnorfolk.org,,,,fhrs_awaitinginspection_en-GB,AwaitingInspection,,FHRS,
26172,Arch House,50 Mill Road,Wells-next-the-Sea,Norfolk,Arch House B&B,Hotel/bed & breakfast/guest house,7842,0,,281479,0,,52.95495100000000,PI/000054979,231,commercial@north-norfolk.gov.uk,North Norfolk,http://www.northnorfolk.org,0.84529700000000,NR23 1DB,2012-06-29,fhrs_5_en-GB,5,,FHRS,5
26173,Argyll Residential Home,201 Holt Road,Cromer,Norfolk,Argyll House Residential Home,Hospitals/Childcare/Caring Premises,5,0,,281094,0,,52.92124800000000,PI/000007705,231,commercial@north-norfolk.gov.uk,North Norfolk,http://www.northnorfolk.org,1.27706500000000,NR27 9JN,2009-05-19,fhrs_5_en-GB,5,,FHRS,0
26174,Unit 3,Manor Farm Barns,Blakeney Road,Glandford,Art Cafe,Restaurant/Cafe/Canteen,1,5,,281617,5,,52.93191900000000,PI/000059479,231,commercial@north-norfolk.gov.uk,North Norfolk,http://www.northnorfolk.org,1.03744900000000,NR25 7JP,2013-09-26,fhrs_4_en-GB,4,,FHRS,10
26175,60 Staithe Street,Wells-next-the-Sea,Norfolk,,Arthur Howell,Retailers - other,4613,10,,404556,5,,52.95640700000000,PI/000057689,231,commercial@north-norfolk.gov.uk,North Norfolk,http://www.northnorfolk.org,0.85245000000000,NR23 1AQ,2014-03-27,fhrs_4_en-GB,4,,FHRS,5
26176,61-63 Staithe Street,Wells-next-the-Sea,Norfolk,,Arthur Howell Bakery,Retailers - other,4613,5,,281435,5,,52.95612000000000,PI/000048106,231,commercial@north-norfolk.gov.uk,North Norfolk,http://www.northnorfolk.org,0.85204400000000,NR23 1AN,2015-01-15,fhrs_4_en-GB,4,,FHRS,10
26177,32 Front Street,Binham,Norfolk,,Arthur Howell Butchers,Retailers - other,4613,10,,281932,10,,52.91722100000000,PI/000102073,231,commercial@north-norfolk.gov.uk,North Norfolk,http://www.northnorfolk.org,0.94804700000000,NR21 0AL,2013-10-10,fhrs_3_en-GB,3,,FHRS,10
26178,53 Staithe Street,Wells-next-the-Sea,Norfolk,,Arthur Howell Butchers,Retailers - other,4613,5,,689701,0,,52.95612000000000,PI/000048104,231,commercial@north-norfolk.gov.uk,North Norfolk,http://www.northnorfolk.org,0.85204400000000,NR23 1AN,2011-08-23,fhrs_5_en-GB,5,,FHRS,5
26179,Station Road,West Runton,Norfolk,,Arthurs,Retailers - other,4613,,,281453,,,52.93679600000000,PI/000049241,231,commercial@north-norfolk.gov.uk,North Norfolk,http://www.northnorfolk.org,1.24436200000000,NR27 9QD,,fhrs_awaitinginspection_en-GB,AwaitingInspection,,FHRS,
26180,Preston Room,School Road,Ashmanhaugh,Norfolk,Ashmanhaugh & Beeston Preston Rooms,Other catering premises,7841,,,689636,,,52.73572200000000,PI/000000434,231,commercial@north-norfolk.gov.uk,North Norfolk,http://www.northnorfolk.org,1.42530600000000,NR12 8YN,,fhrs_awaitinginspection_en-GB,AwaitingInspection,,FHRS,
26181,Cricket Club,Hall Road,Barton Turf,Norfolk,Ashmanhaugh and Barton Wanderers CC,Pub/bar/nightclub,7843,,,281501,,,52.73785800000000,PI/000057188,231,commercial@north-norfolk.gov.uk,North Norfolk,http://www.northnorfolk.org,1.47395800000000,NR12 8AR,,fhrs_awaitinginspection_en-GB,AwaitingInspection,,FHRS,
26182,Astley Primary School,Fakenham Road,Briston,Norfolk,Astley Acorns,Hospitals/Childcare/Caring Premises,5,,,281885,,,52.85530400000000,PI/000100086,231,commercial@north-norfolk.gov.uk,North Norfolk,http://www.northnorfolk.org,1.04784100000000,NR24 2HH,,fhrs_awaitinginspection_en-GB,AwaitingInspection,,FHRS,
26183,Fakenham Road,Briston,Norfolk,,Astley Primary School,School/college/university,7845,5,,281055,0,,52.85530400000000,PI/000003792,231,commercial@north-norfolk.gov.uk,North Norfolk,http://www.northnorfolk.org,1.04784100000000,NR24 2HH,2014-06-11,fhrs_5_en-GB,5,,FHRS,5
26184,Knollside Lodge,43 Cliff Road,Sheringham,Norfolk,At-Knollside B&B,Hotel/bed & breakfast/guest house,7842,,,281743,,,52.94382800000000,PI/000066442,231,commercial@north-norfolk.gov.uk,North Norfolk,http://www.northnorfolk.org,1.21628900000000,NR26 8BJ,,fhrs_awaitinginspection_en-GB,AwaitingInspection,,FHRS,
26185,Augusta House,8 The Boulevard,Sheringham,Norfolk,Augusta House B&B,Hotel/bed & breakfast/guest house,7842,,,281705,,,52.94359000000000,PI/000065493,231,commercial@north-norfolk.gov.uk,North Norfolk,http://www.northnorfolk.org,1.20714600000000,NR26 8LJ,,fhrs_awaitinginspection_en-GB,AwaitingInspection,,FHRS,
26186,,,,,Authentics (Home Produce),Retailers - other,4613,5,,281691,10,,,PI/000065244,231,commercial@north-norfolk.gov.uk,North Norfolk,http://www.northnorfolk.org,,,2009-11-06,fhrs_4_en-GB,4,,FHRS,0
26187,School Road,Aylmerton,Norfolk,,Aylmerton Field Study Centre,School/college/university,7845,5,,281493,0,,52.89694500000000,PI/000057056,231,commercial@north-norfolk.gov.uk,North Norfolk,http://www.northnorfolk.org,1.25165800000000,NR11 8RA,2014-01-20,fhrs_5_en-GB,5,,FHRS,0
26188,,,,,B A Benbow & Son,Mobile caterer,7846,5,,689896,5,,,PI/500005539,231,commercial@north-norfolk.gov.uk,North Norfolk,http://www.northnorfolk.org,,,2010-04-16,fhrs_5_en-GB,5,,FHRS,5
26189,7A-7B Millers Close,Fakenham,Norfolk,,B L Foods International Ltd,Retailers - other,4613,10,,281147,0,,52.83391700000000,PI/000013260,231,commercial@north-norfolk.gov.uk,North Norfolk,http://www.northnorfolk.org,0.86607800000000,NR21 8NW,2011-05-27,fhrs_4_en-GB,4,,FHRS,0
26190,Back To The Garden At,Breck Farm,Fakenham Road,Thornage,Back To The Garden Farm Shop,Retailers - other,4613,10,,281850,10,,52.90347100000000,PI/000068237,231,commercial@north-norfolk.gov.uk,North Norfolk,http://www.northnorfolk.org,1.04182300000000,NR25 7JJ,2014-03-06,fhrs_3_en-GB,3,,FHRS,10
26191,,,,,Back To Your Place Caterers,Other catering premises,7841,10,,617835,5,,,PI/000071323,231,commercial@north-norfolk.gov.uk,North Norfolk,http://www.northnorfolk.org,,,2014-01-17,fhrs_3_en-GB,3,,FHRS,10
26192,Walcott Road,Bacton,Norfolk,,Bacton First School,School/college/university,7845,10,,281034,0,,52.84794500000000,PI/000001265,231,commercial@north-norfolk.gov.uk,North Norfolk,http://www.northnorfolk.org,1.48340300000000,NR12 0EY,2010-05-18,fhrs_4_en-GB,4,,FHRS,5
26193,Christopher House,Coast Road,Bacton,Norfolk,Bacton Fish Shop,Takeaway/sandwich shop,7844,5,,281498,5,,52.85121300000000,PI/000057090,231,commercial@north-norfolk.gov.uk,North Norfolk,http://www.northnorfolk.org,1.47654800000000,NR12 0AA,2014-01-16,fhrs_5_en-GB,5,,FHRS,5
26194,Superstores,Coast Road,Bacton,Norfolk,Bacton Superstore,Retailers - other,4613,5,,281497,0,,52.85121300000000,PI/000057088,231,commercial@north-norfolk.gov.uk,North Norfolk,http://www.northnorfolk.org,1.47654800000000,NR12 0AA,2012-05-21,fhrs_5_en-GB,5,,FHRS,0
26195,,,,,Baked Sunshine,Retailers - other,4613,0,,610031,5,,,PI/000071210,231,commercial@north-norfolk.gov.uk,North Norfolk,http://www.northnorfolk.org,,,2014-02-11,fhrs_5_en-GB,5,,FHRS,0
26196,8 Market Place,Holt,Norfolk,,Bakers & Larners Of Holt,Retailers - other,4613,5,,281668,10,,52.90561300000000,PI/000064857,231,commercial@north-norfolk.gov.uk,North Norfolk,http://www.northnorfolk.org,1.08980700000000,NR25 6BW,2013-09-10,fhrs_4_en-GB,4,,FHRS,0
26197,37 Bull Street,Holt,Norfolk,,Balthazar Wine Bar,Restaurant/Cafe/Canteen,1,,,731267,,,52.90647900000000,PI/000071645,231,commercial@north-norfolk.gov.uk,North Norfolk,http://www.northnorfolk.org,1.08966000000000,NR25 6HP,,fhrs_awaitinginspection_en-GB,AwaitingInspection,,FHRS,
26198,Lees Yard,Holt,Norfolk,,Balthazar Wine Bar,Pub/bar/nightclub,7843,10,,281531,15,,52.90690700000000,PI/000057856,231,commercial@north-norfolk.gov.uk,North Norfolk,http://www.northnorfolk.org,1.08878400000000,NR25 6HS,2013-11-28,fhrs_2_en-GB,2,,FHRS,15
26199,Bridge Road,Potter Heigham,Norfolk,,Bangers And Beverages,Takeaway/sandwich shop,7844,10,,298618,10,,52.71028200000000,PI/000068903,231,commercial@north-norfolk.gov.uk,North Norfolk,http://www.northnorfolk.org,1.58055200000000,NR29 5JD,2014-06-18,fhrs_3_en-GB,3,,FHRS,10
26200,1A Church Street,Cromer,Norfolk,,Bann Thai Restaurant,Restaurant/Cafe/Canteen,1,20,,372004,10,,52.92982400000000,PI/000068974,231,commercial@north-norfolk.gov.uk,North Norfolk,http://www.northnorfolk.org,1.30282100000000,NR27 9ER,2014-06-20,fhrs_1_en-GB,1,,FHRS,15
26201,Banningham & Colby Jubilee Hall,Colby Road,Banningham,Norfolk,Banningham & Colby Village Hall,Other catering premises,7841,,,689892,,,52.81836700000000,PI/000108365,231,commercial@north-norfolk.gov.uk,North Norfolk,http://www.northnorfolk.org,1.28899800000000,NR11 7DY,,fhrs_awaitinginspection_en-GB,AwaitingInspection,,FHRS,
26202,,,,,Barbara Carr,Retailers - other,4613,0,,281977,0,,,PI/000103040,231,commercial@north-norfolk.gov.uk,North Norfolk,http://www.northnorfolk.org,,,2009-03-19,fhrs_5_en-GB,5,,FHRS,0
26203,,,,,Barbara Fisher,Retailers - other,4613,,,689790,,,,PI/000065306,231,commercial@north-norfolk.gov.uk,North Norfolk,http://www.northnorfolk.org,,,,fhrs_awaitinginspection_en-GB,AwaitingInspection,,FHRS,
26204,,,,,Barbara's Charity Stall,Retailers - other,4613,5,,689799,5,,,PI/000065973,231,commercial@north-norfolk.gov.uk,North Norfolk,http://www.northnorfolk.org,,,2010-08-02,fhrs_5_en-GB,5,,FHRS,5
26205,Barchams Farmhouse,The Green,Edingthorpe,Norfolk,Barchams Farm Shop,Retailers - other,4613,,,349007,,,52.83624400000000,PI/000068964,231,commercial@north-norfolk.gov.uk,North Norfolk,http://www.northnorfolk.org,1.42846500000000,NR28 9SR,,fhrs_awaitinginspection_en-GB,AwaitingInspection,,FHRS,
26206,Barge Farm,Bradfield Road,Antingham,Norfolk,Barge Farm Produce,Retailers - other,4613,,,687368,,,52.84045300000000,PI/000068768,231,commercial@north-norfolk.gov.uk,North Norfolk,http://www.northnorfolk.org,1.35995400000000,NR28 0NF,2012-03-28,fhrs_exempt_en-GB,Exempt,,FHRS,
26207,,,,,Barge Farm Produce (Mobile),Mobile caterer,7846,5,,282083,5,,,PI/500006688,231,commercial@north-norfolk.gov.uk,North Norfolk,http://www.northnorfolk.org,,,2012-03-28,fhrs_5_en-GB,5,,FHRS,5
26208,,,,,Barker Organics - The Walled Garden,Retailers - other,4613,,,689903,,,,PI/500005672,231,commercial@north-norfolk.gov.uk,North Norfolk,http://www.northnorfolk.org,,,,fhrs_awaitinginspection_en-GB,AwaitingInspection,,FHRS,
26209,Meadowside Barn,The Yards,Mill Common Road,Ridlington,Barn And Beach,Hotel/bed & breakfast/guest house,7842,,,281723,,,52.83813200000000,PI/000065759,231,commercial@north-norfolk.gov.uk,North Norfolk,http://www.northnorfolk.org,1.48922600000000,NR28 9TY,,fhrs_awaitinginspection_en-GB,AwaitingInspection,,FHRS,
26210,,,,,Barney Road Bakery,Retailers - other,4613,,,329022,,,,PI/000068963,231,commercial@north-norfolk.gov.uk,North Norfolk,http://www.northnorfolk.org,,,,fhrs_awaitinginspection_en-GB,AwaitingInspection,,FHRS,
26211,7 Station Road,Sheringham,Norfolk,,Barneys News,Retailers - other,4613,,,281358,,,52.94316300000000,PI/000039535,231,commercial@north-norfolk.gov.uk,North Norfolk,http://www.northnorfolk.org,1.21062700000000,NR26 8RE,,fhrs_awaitinginspection_en-GB,AwaitingInspection,,FHRS,
26212,Fakenham Racecourse,Dereham Road,Pudding Norton,Norfolk,Bartender Management,Restaurant/Cafe/Canteen,1,,,281980,,,52.82397600000000,PI/000103154,231,commercial@north-norfolk.gov.uk,North Norfolk,http://www.northnorfolk.org,0.85359200000000,NR21 7NY,,fhrs_awaitinginspection_en-GB,AwaitingInspection,,FHRS,
26213,Btac Services Ltd,Staithe Road,Barton Turf,Norfolk,Barton Turf Adventure Centre,Restaurant/Cafe/Canteen,1,5,,372003,0,,52.74818500000000,PI/000057189,231,commercial@north-norfolk.gov.uk,North Norfolk,http://www.northnorfolk.org,1.48889100000000,NR12 8AZ,2012-05-30,fhrs_5_en-GB,5,,FHRS,0
26214,17 Sculthorpe Road,Fakenham,Norfolk,,Bay Tree Cottage B&B,Hotel/bed & breakfast/guest house,7842,,,281659,,,52.83491900000000,PI/000064787,231,commercial@north-norfolk.gov.uk,North Norfolk,http://www.northnorfolk.org,0.84161400000000,NR21 9HA,,fhrs_awaitinginspection_en-GB,AwaitingInspection,,FHRS,
26215,,,,,Bayfield Catering,Other catering premises,7841,5,,585719,5,,,PI/000071066,231,commercial@north-norfolk.gov.uk,North Norfolk,http://www.northnorfolk.org,,,2014-06-04,fhrs_5_en-GB,5,,FHRS,0
26216,10 St Peters Road,Sheringham,Norfolk,,Bayleaf Guest House,Hotel/bed & breakfast/guest house,7842,,,281352,,,52.94226200000000,PI/000039476,231,commercial@north-norfolk.gov.uk,North Norfolk,http://www.northnorfolk.org,1.20870000000000,NR26 8QY,,fhrs_awaitinginspection_en-GB,AwaitingInspection,,FHRS,
26217,Beach Road,Mundesley,Norfolk,,Beach Cafe,Restaurant/Cafe/Canteen,1,0,,281594,0,,52.87669200000000,PI/000058695,231,commercial@north-norfolk.gov.uk,North Norfolk,http://www.northnorfolk.org,1.43983300000000,NR11 8BQ,2013-07-31,fhrs_5_en-GB,5,,FHRS,5
26218,Beach Road,Wells-next-the-Sea,Norfolk,,Beach Cafe,Restaurant/Cafe/Canteen,1,5,,281762,5,,52.96876500000000,PI/000067099,231,commercial@north-norfolk.gov.uk,North Norfolk,http://www.northnorfolk.org,0.84934700000000,NR23 1DR,2014-10-07,fhrs_5_en-GB,5,,FHRS,5
26219,Beach Road,Sea Palling,Norfolk,,Beach Rock Cafe,Restaurant/Cafe/Canteen,1,5,,281499,0,,52.78790600000000,PI/000057150,231,commercial@north-norfolk.gov.uk,North Norfolk,http://www.northnorfolk.org,1.60063600000000,NR12 0AL,2014-06-04,fhrs_5_en-GB,5,,FHRS,5
26220,17 Macdonald Road,Cromer,Norfolk,,Beachcomber Guest House,Hotel/bed & breakfast/guest house,7842,,,281991,,,52.93223000000000,PI/000103436,231,commercial@north-norfolk.gov.uk,North Norfolk,http://www.northnorfolk.org,1.29228800000000,NR27 9AP,,fhrs_awaitinginspection_en-GB,AwaitingInspection,,FHRS,
26221,Unit 4-5,20 Staithe Street,Wells-next-the-Sea,Norfolk,Bean 2 The Coast,Restaurant/Cafe/Canteen,1,5,,281600,0,,52.95511100000000,PI/000059175,231,commercial@north-norfolk.gov.uk,North Norfolk,http://www.northnorfolk.org,0.85246900000000,NR23 1AF,2014-03-27,fhrs_5_en-GB,5,,FHRS,0
26222,13 South Street,Sheringham,Norfolk,,Beaumaris Hotel,Hotel/bed & breakfast/guest house,7842,5,,281348,5,,52.94285400000000,PI/000039278,231,commercial@north-norfolk.gov.uk,North Norfolk,http://www.northnorfolk.org,1.20642100000000,NR26 8LL,2013-03-13,fhrs_5_en-GB,5,,FHRS,5
26223,Beaumont,9 Cliff Road,Sheringham,Norfolk,Beaumont B&B,Hotel/bed & breakfast/guest house,7842,,,281688,,,52.94382800000000,PI/000065173,231,commercial@north-norfolk.gov.uk,North Norfolk,http://www.northnorfolk.org,1.21628900000000,NR26 8BJ,,fhrs_awaitinginspection_en-GB,AwaitingInspection,,FHRS,
26224,Burgh Parva Hall,Holt Road,Melton Constable,Norfolk,Bed & Breakfast,Hotel/bed & breakfast/guest house,7842,,,281905,,,52.85855400000000,PI/000100718,231,commercial@north-norfolk.gov.uk,North Norfolk,http://www.northnorfolk.org,1.03367200000000,NR24 2PU,,fhrs_awaitinginspection_en-GB,AwaitingInspection,,FHRS,
26225,20 Cromer Road,North Walsham,Norfolk,,Beechwood Hotel,Hotel/bed & breakfast/guest house,7842,5,,281266,5,,52.82292100000000,PI/000028395,231,commercial@north-norfolk.gov.uk,North Norfolk,http://www.northnorfolk.org,1.38223600000000,NR28 0HD,2014-01-10,fhrs_5_en-GB,5,,FHRS,5
26226,,,,,Beefys,Mobile caterer,7846,10,,617838,10,,,PI/500008188,231,commercial@north-norfolk.gov.uk,North Norfolk,http://www.northnorfolk.org,,,2014-01-28,fhrs_3_en-GB,3,,FHRS,10
26227,Cromer Road,Beeston Regis,Norfolk,,Beeston Hall School,School/college/university,7845,5,,281039,5,,52.93731500000000,PI/000001818,231,commercial@north-norfolk.gov.uk,North Norfolk,http://www.northnorfolk.org,1.23390600000000,NR27 9NQ,2014-05-13,fhrs_5_en-GB,5,,FHRS,0
26228,North Norfolk DC,Cliff Road,Sheringham,Norfolk,Beeston Hills Putting Green,Retailers - other,4613,,,281546,,,52.94382800000000,PI/000058027,231,commercial@north-norfolk.gov.uk,North Norfolk,http://www.northnorfolk.org,1.21628900000000,NR26 8BJ,,fhrs_awaitinginspection_en-GB,AwaitingInspection,,FHRS,
26229,Cromer Road,Beeston Regis,Norfolk,,Beeston Mini Market,Retailers - other,4613,,,689638,,,52.93709800000000,PI/000002091,231,commercial@north-norfolk.gov.uk,North Norfolk,http://www.northnorfolk.org,1.22900800000000,NR26 8SQ,,fhrs_awaitinginspection_en-GB,AwaitingInspection,,FHRS,
26230,Overstrand Primary School,23 Cromer Road,Overstrand,Norfolk,Before School Breakfast Club,School/college/university,7845,5,,620669,5,,52.91674800000000,PI/000071507,231,commercial@north-norfolk.gov.uk,North Norfolk,http://www.northnorfolk.org,1.33466200000000,NR27 0NT,2014-09-29,fhrs_5_en-GB,5,,FHRS,0
26231,Belgrade,31 Holt Road,Sheringham,Norfolk,Belgrade B&B,Hotel/bed & breakfast/guest house,7842,,,281810,,,52.93826800000000,PI/000067728,231,commercial@north-norfolk.gov.uk,North Norfolk,http://www.northnorfolk.org,1.19941300000000,NR26 8NB,,fhrs_awaitinginspection_en-GB,AwaitingInspection,,FHRS,
26232,New Street,Cromer,Norfolk,,Bella Vista,Restaurant/Cafe/Canteen,1,5,,281864,0,,52.93260800000000,PI/000068551,231,commercial@north-norfolk.gov.uk,North Norfolk,http://www.northnorfolk.org,1.29940100000000,NR27 9HP,2014-04-23,fhrs_5_en-GB,5,,FHRS,5
26233,17 High Street,Holt,Norfolk,,Benbow & Sons,Retailers - other,4613,5,,689664,0,,52.90555100000000,PI/000019703,231,commercial@north-norfolk.gov.uk,North Norfolk,http://www.northnorfolk.org,1.08767600000000,NR25 6BN,2012-11-16,fhrs_4_en-GB,4,,FHRS,10
26234,2 Norwich Street,Fakenham,Norfolk,,Benbow & Sons,Retailers - other,4613,,,689655,,,52.83009400000000,PI/000013806,231,commercial@north-norfolk.gov.uk,North Norfolk,http://www.northnorfolk.org,0.84936100000000,NR21 9AE,,fhrs_awaitinginspection_en-GB,AwaitingInspection,,FHRS,
26235,54-56 Holt Road,Fakenham,Norfolk,,Berendsen UK Ltd,Manufacturers/packers,7839,0,,281599,0,,52.83335400000000,PI/000059173,231,commercial@north-norfolk.gov.uk,North Norfolk,http://www.northnorfolk.org,0.85549800000000,NR21 8DX,2014-02-13,fhrs_5_en-GB,5,,FHRS,5
26236,Bernies Social Club,Beach Road,East Runton,Norfolk,Bernies Members Club,Pub/bar/nightclub,7843,,,689835,,,52.93610300000000,PI/000070119,231,commercial@north-norfolk.gov.uk,North Norfolk,http://www.northnorfolk.org,1.27288900000000,NR27 9PA,,fhrs_awaitinginspection_en-GB,AwaitingInspection,,FHRS,
26237,Horning Road,Hoveton,Norfolk,,Bewilderwood,Restaurant/Cafe/Canteen,1,5,,281644,5,,52.70823200000000,PI/000064042,231,commercial@north-norfolk.gov.uk,North Norfolk,http://www.northnorfolk.org,1.44869400000000,NR12 8JW,2014-04-28,fhrs_5_en-GB,5,,FHRS,5
26238,Unit 4,Station Road Business Park,Horning Road West,Hoveton,Bijou Bottles Ltd,Retailers - other,4613,5,,404557,5,,52.71513000000000,PI/000066512,231,commercial@north-norfolk.gov.uk,North Norfolk,http://www.northnorfolk.org,1.40987300000000,NR12 8QJ,2014-10-01,fhrs_5_en-GB,5,,FHRS,5
26239,34 Cabbell Road,Cromer,Norfolk,,Birch House,Hotel/bed & breakfast/guest house,7842,,,281072,,,52.93133200000000,PI/000006261,231,commercial@north-norfolk.gov.uk,North Norfolk,http://www.northnorfolk.org,1.29614900000000,NR27 9HX,,fhrs_awaitinginspection_en-GB,AwaitingInspection,,FHRS,
26240,24 High Street,Holt,Norfolk,,Black Apollo Coffee House,Restaurant/Cafe/Canteen,1,5,,664639,5,,52.90569000000000,PI/000071545,231,commercial@north-norfolk.gov.uk,North Norfolk,http://www.northnorfolk.org,1.08719500000000,NR25 6BH,2014-08-07,fhrs_5_en-GB,5,,FHRS,0
26241,Friday Market Place,Walsingham,Norfolk,,Black Lion Hotel,Hotel/bed & breakfast/guest house,7842,5,,281418,10,,52.89295500000000,PI/000046363,231,commercial@north-norfolk.gov.uk,North Norfolk,http://www.northnorfolk.org,0.87303600000000,NR22 6DB,2014-12-03,fhrs_4_en-GB,4,,FHRS,5
26242,Black Swan Hotel,Black Swan Loke,North Walsham,Norfolk,Black Swan Public House,Pub/bar/nightclub,7843,5,,281262,5,,52.82061200000000,PI/000027729,231,commercial@north-norfolk.gov.uk,North Norfolk,http://www.northnorfolk.org,1.38749100000000,NR28 9BX,2014-01-07,fhrs_5_en-GB,5,,FHRS,5
26243,Wiveton Road,Blakeney,Norfolk,,Blakeney C Of E Va Primary School,School/college/university,7845,,,281050,,,52.95096100000000,PI/000003132,231,commercial@north-norfolk.gov.uk,North Norfolk,http://www.northnorfolk.org,1.02282300000000,NR25 7NJ,2013-10-11,fhrs_5_en-GB,5,,FHRS,
26244,30 High Street,Blakeney,Norfolk,,Blakeney Delicatessen,Retailers - other,4613,5,,281042,5,,52.95480200000000,PI/000002587,231,commercial@north-norfolk.gov.uk,North Norfolk,http://www.northnorfolk.org,1.01819200000000,NR25 7AL,2014-11-27,fhrs_5_en-GB,5,,FHRS,5
26245,Morston Road,Blakeney,Norfolk,,Blakeney Garage,Retailers - other,4613,,,689848,,,52.95380700000000,PI/000100070,231,commercial@north-norfolk.gov.uk,North Norfolk,http://www.northnorfolk.org,1.01061800000000,NR25 7BE,,fhrs_awaitinginspection_en-GB,AwaitingInspection,,FHRS,
26246,At The Shieling,Holt Road,Cley-next-the-Sea,Norfolk,Blakeney Harbour Mussel Association,Manufacturers/packers,7839,,,734140,,,52.94416500000000,PI/000072543,231,commercial@north-norfolk.gov.uk,North Norfolk,http://www.northnorfolk.org,1.05434000000000,NR25 7TX,,fhrs_exempt_en-GB,Exempt,,FHRS,
26247,The Quay,Blakeney,Norfolk,,Blakeney Hotel,Hotel/bed & breakfast/guest house,7842,5,,281045,5,,52.95575400000000,PI/000003044,231,commercial@north-norfolk.gov.uk,North Norfolk,http://www.northnorfolk.org,1.01679900000000,NR25 7NE,2014-06-18,fhrs_4_en-GB,4,,FHRS,10
26248,Blakeney House,High Street,Blakeney,Norfolk,Blakeney House Guest House,Hotel/bed & breakfast/guest house,7842,,,281693,,,52.95338600000000,PI/000065294,231,commercial@north-norfolk.gov.uk,North Norfolk,http://www.northnorfolk.org,1.01764600000000,NR25 7NH,,fhrs_awaitinginspection_en-GB,AwaitingInspection,,FHRS,
26249,Manor Hotel,The Quay,Blakeney,Norfolk,Blakeney Manor Hotel,Hotel/bed & breakfast/guest house,7842,5,,281047,5,,52.95591400000000,PI/000003053,231,commercial@north-norfolk.gov.uk,North Norfolk,http://www.northnorfolk.org,1.01794200000000,NR25 7ND,2013-11-18,fhrs_5_en-GB,5,,FHRS,5
26250,Village Hall,Langham Road,Blakeney,Norfolk,Blakeney Village Hall,Other catering premises,7841,,,689749,,,52.95265800000000,PI/000057953,231,commercial@north-norfolk.gov.uk,North Norfolk,http://www.northnorfolk.org,1.01408200000000,NR25 7PG,,fhrs_awaitinginspection_en-GB,AwaitingInspection,,FHRS,
26251,Lancaster Road,Sculthorpe,Norfolk,,Blenheim Park Cp School,School/college/university,7845,5,,281305,0,,52.85478100000000,PI/000035714,231,commercial@north-norfolk.gov.uk,North Norfolk,http://www.northnorfolk.org,0.73574500000000,NR21 7PX,2014-01-28,fhrs_5_en-GB,5,,FHRS,5
26252,,,,,Blissful Cakes,Retailers - other,4613,5,,638052,10,,,PI/000071757,231,commercial@north-norfolk.gov.uk,North Norfolk,http://www.northnorfolk.org,,,2014-04-25,fhrs_4_en-GB,4,,FHRS,0
26253,Runton Road Cafe,Runton Road,Cromer,Norfolk,Blue Sky Cafe,Restaurant/Cafe/Canteen,1,0,,281658,5,,52.93309500000000,PI/000064777,231,commercial@north-norfolk.gov.uk,North Norfolk,http://www.northnorfolk.org,1.29028500000000,NR27 9AU,2014-06-17,fhrs_5_en-GB,5,,FHRS,5
26254,Wood Hill Caravan Park,Cromer Road,East Runton,Norfolk,Blue Sky Leisure,Retailers - other,4613,,,689650,,,52.93760300000000,PI/000010367,231,commercial@north-norfolk.gov.uk,North Norfolk,http://www.northnorfolk.org,1.26742000000000,NR27 9PX,,fhrs_awaitinginspection_en-GB,AwaitingInspection,,FHRS,
26255,7 Hamilton Road,Cromer,Norfolk,,Blue Willow Tea Rooms,Restaurant/Cafe/Canteen,1,5,,281774,5,,52.93129700000000,PI/000067349,231,commercial@north-norfolk.gov.uk,North Norfolk,http://www.northnorfolk.org,1.29836400000000,NR27 9HL,2014-09-09,fhrs_5_en-GB,5,,FHRS,5
26256,Bluebell,22-24 Holt Road,Langham,Norfolk,Bluebell Inn,Pub/bar/nightclub,7843,0,,281613,5,,52.93097100000000,PI/000059353,231,commercial@north-norfolk.gov.uk,North Norfolk,http://www.northnorfolk.org,0.98760100000000,NR25 7BX,2014-09-12,fhrs_5_en-GB,5,,FHRS,0
26257,Bacton Road,North Walsham,Norfolk,,Bluebell Public House,Pub/bar/nightclub,7843,5,,281259,5,,52.82851700000000,PI/000027573,231,commercial@north-norfolk.gov.uk,North Norfolk,http://www.northnorfolk.org,1.40227200000000,NR28 0RA,2014-11-11,fhrs_5_en-GB,5,,FHRS,5
26258,44 Market Place,North Walsham,Norfolk,,Bocadillo,Takeaway/sandwich shop,7844,10,,281709,10,,52.82134300000000,PI/000065607,231,commercial@north-norfolk.gov.uk,North Norfolk,http://www.northnorfolk.org,1.38708700000000,NR28 9BT,2014-12-02,fhrs_3_en-GB,3,,FHRS,10
26259,Village Hall,The Street,Bodham,Norfolk,Bodham & Beckham Village Hall,Other catering premises,7841,,,689639,,,52.91562000000000,PI/000003282,231,commercial@north-norfolk.gov.uk,North Norfolk,http://www.northnorfolk.org,1.16263100000000,NR25 6AD,,fhrs_awaitinginspection_en-GB,AwaitingInspection,,FHRS,
26260,Bon Vista,12 Alfred Road,Cromer,Norfolk,Bon Vista Guest House,Hotel/bed & breakfast/guest house,7842,,,281862,,,52.93214700000000,PI/000068530,231,commercial@north-norfolk.gov.uk,North Norfolk,http://www.northnorfolk.org,1.29302600000000,NR27 9AN,,fhrs_awaitinginspection_en-GB,AwaitingInspection,,FHRS,
26261,2 Bond Street,Cromer,Norfolk,,Bond Street Bakery,Manufacturers/packers,7839,20,,281067,10,,52.93036300000000,PI/000006002,231,commercial@north-norfolk.gov.uk,North Norfolk,http://www.northnorfolk.org,1.30124000000000,NR27 9DA,2014-08-13,fhrs_1_en-GB,1,,FHRS,15
26262,Hempstead Road,Holt,Norfolk,,Booker Cash & Carry,Retailers - other,4613,,,281195,,,52.90136900000000,PI/000019632,231,commercial@north-norfolk.gov.uk,North Norfolk,http://www.northnorfolk.org,1.10082300000000,NR25 6EE,,fhrs_awaitinginspection_en-GB,AwaitingInspection,,FHRS,
26263,,,,,Booking The Cooks,Other catering premises,7841,0,,281923,0,,,PI/000101312,231,commercial@north-norfolk.gov.uk,North Norfolk,http://www.northnorfolk.org,,,2009-12-16,fhrs_5_en-GB,5,,FHRS,0
26264,,,,,Bootifull Coffee,Mobile caterer,7846,5,,404561,5,,,PI/500006940,231,commercial@north-norfolk.gov.uk,North Norfolk,http://www.northnorfolk.org,,,2012-07-10,fhrs_5_en-GB,5,,FHRS,5
26265,,,,,Bootifull Coffee (West Raynham),Mobile caterer,7846,5,,710397,5,,,PI/500009302,231,commercial@north-norfolk.gov.uk,North Norfolk,http://www.northnorfolk.org,,,2014-11-11,fhrs_5_en-GB,5,,FHRS,5
26266,7-10 Market Place,Fakenham,Norfolk,,Boots The Chemists Ltd,Retailers - other,4613,,,689654,,,52.82967100000000,PI/000013215,231,commercial@north-norfolk.gov.uk,North Norfolk,http://www.northnorfolk.org,0.84746200000000,NR21 9BG,,fhrs_awaitinginspection_en-GB,AwaitingInspection,,FHRS,
26267,20 Church Street,Wells-next-the-Sea,Norfolk,,Bowling Green P H,Pub/bar/nightclub,7843,5,,281428,5,,52.95084800000000,PI/000047090,231,commercial@north-norfolk.gov.uk,North Norfolk,http://www.northnorfolk.org,0.85474900000000,NR23 1JB,2013-08-22,fhrs_4_en-GB,4,,FHRS,10
26268,Boxwood,Northfield Lane,Wells-next-the-Sea,Norfolk,Boxwood Guesthouse,Hotel/bed & breakfast/guest house,7842,,,281740,,,52.95515000000000,PI/000066249,231,commercial@north-norfolk.gov.uk,North Norfolk,http://www.northnorfolk.org,0.85537500000000,NR23 1JZ,,fhrs_awaitinginspection_en-GB,AwaitingInspection,,FHRS,
26269,Kelling Heath Holiday Park,Sandy Hill Lane,Weybourne,Norfolk,Bracken & Forge Restaurants,Restaurant/Cafe/Canteen,1,0,,281712,0,,52.92901800000000,PI/000065657,231,commercial@north-norfolk.gov.uk,North Norfolk,http://www.northnorfolk.org,1.15082500000000,NR25 7HW,2012-07-24,fhrs_5_en-GB,5,,FHRS,0
26270,1-3 St Peters Road,Sheringham,Norfolk,,Brackendale House,Hospitals/Childcare/Caring Premises,5,0,,281351,5,,52.94226200000000,PI/000039469,231,commercial@north-norfolk.gov.uk,North Norfolk,http://www.northnorfolk.org,1.20870000000000,NR26 8QY,2014-01-13,fhrs_5_en-GB,5,,FHRS,5
26271,Southrepps Road,Bradfield,Norfolk,,Bradfield Cricket Club,Restaurant/Cafe/Canteen,1,,,689640,,,52.85531400000000,PI/000003385,231,commercial@north-norfolk.gov.uk,North Norfolk,http://www.northnorfolk.org,1.37090900000000,NR28 0QW,,fhrs_awaitinginspection_en-GB,AwaitingInspection,,FHRS,
26272,,,,,Brambles Farm,Mobile caterer,7846,5,,282045,5,,,PI/500005598,231,commercial@north-norfolk.gov.uk,North Norfolk,http://www.northnorfolk.org,,,2014-10-24,fhrs_5_en-GB,5,,FHRS,5
26273,Branthill Farm House,Branthill Farm,Branthill,Wells-next-the-Sea,Branthill Farms Ltd,Retailers - other,4613,,,689849,,,52.92932300000000,PI/000100082,231,commercial@north-norfolk.gov.uk,North Norfolk,http://www.northnorfolk.org,0.82721600000000,NR23 1SB,,fhrs_awaitinginspection_en-GB,AwaitingInspection,,FHRS,
26274,5 North Street,Sheringham,Norfolk,,Break,Hospitals/Childcare/Caring Premises,5,,,281625,,,52.94323300000000,PI/000060953,231,commercial@north-norfolk.gov.uk,North Norfolk,http://www.northnorfolk.org,1.20604700000000,NR26 8LW,,fhrs_awaitinginspection_en-GB,AwaitingInspection,,FHRS,
26275,64 Cromer Road,Mundesley,Norfolk,,Break Charity,Hospitals/Childcare/Caring Premises,5,10,,281247,0,,52.88295100000000,PI/000025744,231,commercial@north-norfolk.gov.uk,North Norfolk,http://www.northnorfolk.org,1.42556600000000,NR11 8DD,2009-01-12,fhrs_4_en-GB,4,,FHRS,0
26276,28 Garden Street,Cromer,Norfolk,,Breakers Cafe,Restaurant/Cafe/Canteen,1,5,,281795,5,,52.93181700000000,PI/000067607,231,commercial@north-norfolk.gov.uk,North Norfolk,http://www.northnorfolk.org,1.29941500000000,NR27 9HN,2014-12-16,fhrs_5_en-GB,5,,FHRS,5
26277,Weybourne Road,Weybourne,Norfolk,,Breck Farm,Retailers - other,4613,,,691684,,,52.92466800000000,PI/000057877,231,commercial@north-norfolk.gov.uk,North Norfolk,http://www.northnorfolk.org,1.15004700000000,NR25 6QL,2010-05-25,fhrs_exempt_en-GB,Exempt,,FHRS,
26278,Norwich Road,Hoveton,Norfolk,,Bridge Tea Rooms,Restaurant/Cafe/Canteen,1,5,,281502,5,,52.71203200000000,PI/000057213,231,commercial@north-norfolk.gov.uk,North Norfolk,http://www.northnorfolk.org,1.40875800000000,NR12 8DA,2014-11-06,fhrs_5_en-GB,5,,FHRS,5
26279,Sheringham Cp School,Cooper Road,Sheringham,Norfolk,Bright Stars,Hospitals/Childcare/Caring Premises,5,,,281911,,,52.93440000000000,PI/000101008,231,commercial@north-norfolk.gov.uk,North Norfolk,http://www.northnorfolk.org,1.20244700000000,NR26 8UH,,fhrs_awaitinginspection_en-GB,AwaitingInspection,,FHRS,
26280,Trunch Road,Mundesley,Norfolk,,Brightside,Retailers - other,4613,,,689856,,,52.87225200000000,PI/000100760,231,commercial@north-norfolk.gov.uk,North Norfolk,http://www.northnorfolk.org,1.42295300000000,NR11 8JX,,fhrs_exempt_en-GB,Exempt,,FHRS,
26281,19 Macdonald Road,Cromer,Norfolk,,Brightside B&B,Hotel/bed & breakfast/guest house,7842,,,281941,,,52.93223000000000,PI/000102181,231,commercial@north-norfolk.gov.uk,North Norfolk,http://www.northnorfolk.org,1.29228800000000,NR27 9AP,,fhrs_awaitinginspection_en-GB,AwaitingInspection,,FHRS,
26282,The Atrium,Spenser Avenue,North Walsham,Norfolk,Brightstart Montessori Nursery,Hospitals/Childcare/Caring Premises,5,,,689827,,,52.81572300000000,PI/000068601,231,commercial@north-norfolk.gov.uk,North Norfolk,http://www.northnorfolk.org,1.39459200000000,NR28 9HZ,,fhrs_awaitinginspection_en-GB,AwaitingInspection,,FHRS,
26283,Brightstart Nursery,The Fairstead,Scottow,Norfolk,Brightstart Scottow,Hospitals/Childcare/Caring Premises,5,,,281651,,,52.76148400000000,PI/000064567,231,commercial@north-norfolk.gov.uk,North Norfolk,http://www.northnorfolk.org,1.37564600000000,NR10 5AQ,,fhrs_awaitinginspection_en-GB,AwaitingInspection,,FHRS,
26284,The Copeman Centre,Hall Street,Briston,Norfolk,Briston Community Nursery School,Hospitals/Childcare/Caring Premises,5,,,281720,,,52.84926400000000,PI/000065716,231,commercial@north-norfolk.gov.uk,North Norfolk,http://www.northnorfolk.org,1.06201900000000,NR24 2LG,,fhrs_awaitinginspection_en-GB,AwaitingInspection,,FHRS,
26285,Briston Care Centre,22 All Saints Close,Briston,Norfolk,Briston Day Care Centre,Restaurant/Cafe/Canteen,1,5,,281052,5,,52.85370700000000,PI/000003549,231,commercial@north-norfolk.gov.uk,North Norfolk,http://www.northnorfolk.org,1.05711800000000,NR24 2LA,2014-10-16,fhrs_5_en-GB,5,,FHRS,5
26286,Coffee Shop at,RoadKill Customs,Norwich Road,Cromer,Brit Stop Coffee Shop,Restaurant/Cafe/Canteen,1,,,689831,,,52.91671900000000,PI/000069037,231,commercial@north-norfolk.gov.uk,North Norfolk,http://www.northnorfolk.org,1.30839900000000,NR27 0HF,,fhrs_awaitinginspection_en-GB,AwaitingInspection,,FHRS,
26287,H M Prison Bure,Jaguar Drive,Badersfield,Scottow,Britannia Enterprises,Restaurant/Cafe/Canteen,1,5,,731272,5,,52.76057600000000,PI/000072933,231,commercial@north-norfolk.gov.uk,North Norfolk,http://www.northnorfolk.org,1.34771900000000,NR10 5GB,2015-01-16,fhrs_5_en-GB,5,,FHRS,0
26288,Hall Road,Barton Turf,Norfolk,,Broadacres Residential Home,Hospitals/Childcare/Caring Premises,5,5,,281465,0,,52.73785800000000,PI/000051060,231,commercial@north-norfolk.gov.uk,North Norfolk,http://www.northnorfolk.org,1.47395800000000,NR12 8AR,2014-02-25,fhrs_5_en-GB,5,,FHRS,5
26289,23-27 High Street,Stalham,Norfolk,,Broadland Fish & Chips,Takeaway/sandwich shop,7844,5,,281385,5,,52.77287900000000,PI/000041683,231,commercial@north-norfolk.gov.uk,North Norfolk,http://www.northnorfolk.org,1.51121400000000,NR12 9AH,2013-07-11,fhrs_5_en-GB,5,,FHRS,5
26290,Tunstead Road,Hoveton,Norfolk,,Broadland High School,School/college/university,7845,5,,281216,5,,52.71749700000000,PI/000022564,231,commercial@north-norfolk.gov.uk,North Norfolk,http://www.northnorfolk.org,1.41265000000000,NR12 8QN,2014-10-13,fhrs_5_en-GB,5,,FHRS,5
26291,Bridge Road,Potter Heigham,Norfolk,,Broadland House,Hospitals/Childcare/Caring Premises,5,5,,281294,5,,52.71383800000000,PI/000033684,231,commercial@north-norfolk.gov.uk,North Norfolk,http://www.northnorfolk.org,1.57539300000000,NR29 5JB,2014-01-06,fhrs_5_en-GB,5,,FHRS,5
26292,Bridge Road,Potter Heigham,Norfolk,,Broads Haven Tavern,Pub/bar/nightclub,7843,10,,281590,0,,52.71028200000000,PI/000058642,231,commercial@north-norfolk.gov.uk,North Norfolk,http://www.northnorfolk.org,1.58055200000000,NR29 5JD,2013-12-04,fhrs_4_en-GB,4,,FHRS,5
26293,Stalham Chalets Ltd,Broadside Chalet Park,Stalham,Norfolk,Broadside Caterers,Pub/bar/nightclub,7843,5,,281959,5,,52.76812400000000,PI/000102598,231,commercial@north-norfolk.gov.uk,North Norfolk,http://www.northnorfolk.org,1.52112200000000,NR12 9PN,2013-06-25,fhrs_5_en-GB,5,,FHRS,5
26294,Stalham Chalets Ltd,Broadside Chalet Park,Stalham,Norfolk,Broadside Chalet Park,Pub/bar/nightclub,7843,,,689691,,,52.76812400000000,PI/000041372,231,commercial@north-norfolk.gov.uk,North Norfolk,http://www.northnorfolk.org,1.52112200000000,NR12 9PN,,fhrs_awaitinginspection_en-GB,AwaitingInspection,,FHRS,
26295,Brook House,36 Brook Road,Sheringham,Norfolk,Brook House B&B,Hotel/bed & breakfast/guest house,7842,,,281657,,,52.93764200000000,PI/000064745,231,commercial@north-norfolk.gov.uk,North Norfolk,http://www.northnorfolk.org,1.21891100000000,NR26 8QE,,fhrs_awaitinginspection_en-GB,AwaitingInspection,,FHRS,
26296,Brook Lodge,Walcott Road,Bacton,Norfolk,Brook Lodge Care Home,Hospitals/Childcare/Caring Premises,5,,,281035,,,52.84730400000000,PI/000001277,231,commercial@north-norfolk.gov.uk,North Norfolk,http://www.northnorfolk.org,1.48623300000000,NR12 0HB,,fhrs_awaitinginspection_en-GB,AwaitingInspection,,FHRS,
26297,Broomfield,Norwich Road,Roughton,Norfolk,Broomfield B&B,Hotel/bed & breakfast/guest house,7842,0,,679867,5,,52.88935000000000,PI/000072043,231,commercial@north-norfolk.gov.uk,North Norfolk,http://www.northnorfolk.org,1.29813500000000,NR11 8NA,2014-06-10,fhrs_5_en-GB,5,,FHRS,0
26298,5 Bond Street,Cromer,Norfolk,,Brownes On Bond Street,Restaurant/Cafe/Canteen,1,5,,638049,5,,52.93036300000000,PI/000071684,231,commercial@north-norfolk.gov.uk,North Norfolk,http://www.northnorfolk.org,1.30124000000000,NR27 9DA,2014-06-30,fhrs_5_en-GB,5,,FHRS,5
26299,,,,,Bryan Buckenham,Retailers - other,4613,,,731273,,,,PI/000072934,231,commercial@north-norfolk.gov.uk,North Norfolk,http://www.northnorfolk.org,,,,fhrs_awaitinginspection_en-GB,AwaitingInspection,,FHRS,
26300,24-26 Wells Road,Fakenham,Norfolk,,Budgens,Retailers - supermarkets/hypermarkets,7840,5,,670091,5,,52.83326200000000,PI/000072010,231,commercial@north-norfolk.gov.uk,North Norfolk,http://www.northnorfolk.org,0.84621200000000,NR21 9AA,2014-10-20,fhrs_4_en-GB,4,,FHRS,10
26301,Budgens Store,Kerridge Way,Holt,Norfolk,Budgens of Holt,Retailers - supermarkets/hypermarkets,7840,5,,281530,5,,52.90448100000000,PI/000057840,231,commercial@north-norfolk.gov.uk,North Norfolk,http://www.northnorfolk.org,1.08974200000000,NR25 6DN,2014-11-28,fhrs_5_en-GB,5,,FHRS,5
26302,The Pavilion,North Walsham Road,Bacton,Norfolk,Building Lego Only Club for Kids,Other catering premises,7841,,,689810,,,52.84705100000000,PI/000067423,231,commercial@north-norfolk.gov.uk,North Norfolk,http://www.northnorfolk.org,1.47678000000000,NR12 0LN,,fhrs_awaitinginspection_en-GB,AwaitingInspection,,FHRS,
26303,Parish Hall,Knapton Road,Trunch,Norfolk,Bumbles Pre-School,Hospitals/Childcare/Caring Premises,5,,,281666,,,52.86098000000000,PI/000064832,231,commercial@north-norfolk.gov.uk,North Norfolk,http://www.northnorfolk.org,1.39992400000000,NR28 0QE,,fhrs_awaitinginspection_en-GB,AwaitingInspection,,FHRS,
26304,5 Oak Street,Fakenham,Norfolk,,Bunnies,Restaurant/Cafe/Canteen,1,5,,682131,5,,52.83126800000000,PI/000071898,231,commercial@north-norfolk.gov.uk,North Norfolk,http://www.northnorfolk.org,0.84574000000000,NR21 9DX,2014-09-16,fhrs_4_en-GB,4,,FHRS,10
26305,,,,,Buns Of Fun,Retailers - other,4613,5,,689796,5,,,PI/000065665,231,commercial@north-norfolk.gov.uk,North Norfolk,http://www.northnorfolk.org,,,2015-01-21,fhrs_5_en-GB,5,,FHRS,0
26306,C & A Seafoods,Beach Lane,Weybourne,Norfolk,Bunteas,Restaurant/Cafe/Canteen,1,0,,281456,0,,52.94356700000000,PI/000049398,231,commercial@north-norfolk.gov.uk,North Norfolk,http://www.northnorfolk.org,1.14001700000000,NR25 7AH,2012-08-10,fhrs_5_en-GB,5,,FHRS,5
26307,27 Lower Street,Horning,Norfolk,,Bure River Cottage Restaurant,Restaurant/Cafe/Canteen,1,5,,281203,0,,52.70479900000000,PI/000021218,231,commercial@north-norfolk.gov.uk,North Norfolk,http://www.northnorfolk.org,1.46309700000000,NR12 8AA,2014-10-14,fhrs_5_en-GB,5,,FHRS,5
26308,Bure Valley Railway,Belaugh Road,Hoveton,Norfolk,Bure Valley Railway Ltd,Retailers - other,4613,,,281992,,,52.71804000000000,PI/000103602,231,commercial@north-norfolk.gov.uk,North Norfolk,http://www.northnorfolk.org,1.40596800000000,NR12 8UU,,fhrs_awaitinginspection_en-GB,AwaitingInspection,,FHRS,
26309,The Esplanade,Sheringham,Norfolk,,Burlington Hotel,Hotel/bed & breakfast/guest house,7842,0,,281370,0,,52.94508400000000,PI/000039762,231,commercial@north-norfolk.gov.uk,North Norfolk,http://www.northnorfolk.org,1.20777700000000,NR26 8LG,2012-06-21,fhrs_5_en-GB,5,,FHRS,5
26310,Oak Lane,East Ruston,Norfolk,,Butchers Arms,Pub/bar/nightclub,7843,10,,281128,10,,52.80005900000000,PI/000010823,231,commercial@north-norfolk.gov.uk,North Norfolk,http://www.northnorfolk.org,1.47920000000000,NR12 9JG,2015-01-14,fhrs_3_en-GB,3,,FHRS,10
26311,5 High Street,Cromer,Norfolk,,Buttercups Tearooms,Restaurant/Cafe/Canteen,1,5,,281570,5,,52.93189100000000,PI/000058290,231,commercial@north-norfolk.gov.uk,North Norfolk,http://www.northnorfolk.org,1.30062700000000,NR27 9HG,2014-06-16,fhrs_5_en-GB,5,,FHRS,5
26312,"Restaurant At, Byfords",1-3A Shirehall Plain,Holt,Norfolk,Byfords Restaurant,Restaurant/Cafe/Canteen,1,5,,281529,5,,52.90623500000000,PI/000057813,231,commercial@north-norfolk.gov.uk,North Norfolk,http://www.northnorfolk.org,1.08834900000000,NR25 6BG,2013-11-12,fhrs_5_en-GB,5,,FHRS,5
26313,3 Station Road,Weybourne,Norfolk,,C A Seafoods,Manufacturers/packers,7839,5,,281663,0,,52.94021900000000,PI/000064824,231,commercial@north-norfolk.gov.uk,North Norfolk,http://www.northnorfolk.org,1.14386800000000,NR25 7HQ,2014-09-09,fhrs_5_en-GB,5,,FHRS,5
26314,37 Market Place,North Walsham,Norfolk,,C D Page Confectioner & Tobacconist,Retailers - other,4613,,,689889,,,52.82134300000000,PI/000103559,231,commercial@north-norfolk.gov.uk,North Norfolk,http://www.northnorfolk.org,1.38708700000000,NR28 9BT,,fhrs_awaitinginspection_en-GB,AwaitingInspection,,FHRS,
26315,,,,,Cabin Crew,Mobile caterer,7846,0,,282035,0,,,PI/500005557,231,commercial@north-norfolk.gov.uk,North Norfolk,http://www.northnorfolk.org,,,2013-10-15,fhrs_5_en-GB,5,,FHRS,5
26316,Seaview Cottage,24 Freeman Street,Wells-next-the-Sea,Norfolk,Cafe 24,Restaurant/Cafe/Canteen,1,,,734146,,,52.95763700000000,PI/000072950,231,commercial@north-norfolk.gov.uk,North Norfolk,http://www.northnorfolk.org,0.84874900000000,NR23 1BA,,fhrs_awaitinginspection_en-GB,AwaitingInspection,,FHRS,
26317,Walcott Road,Bacton,Norfolk,,Cafe Bacton,Restaurant/Cafe/Canteen,1,5,,281653,5,,52.84730400000000,PI/000064670,231,commercial@north-norfolk.gov.uk,North Norfolk,http://www.northnorfolk.org,1.48623300000000,NR12 0HB,2014-03-25,fhrs_5_en-GB,5,,FHRS,5
26318,4 St Nicholas Court,Vicarage Street,North Walsham,Norfolk,Cafe Kitale,Restaurant/Cafe/Canteen,1,10,,281854,5,,52.82202000000000,PI/000068396,231,commercial@north-norfolk.gov.uk,North Norfolk,http://www.northnorfolk.org,1.38668000000000,NR28 9BY,2015-01-26,fhrs_3_en-GB,3,,FHRS,10
26319,50 Church Street,Cromer,Norfolk,,Cafe Main,Restaurant/Cafe/Canteen,1,0,,281078,0,,52.93103900000000,PI/000006485,231,commercial@north-norfolk.gov.uk,North Norfolk,http://www.northnorfolk.org,1.30020500000000,NR27 9HH,2014-11-26,fhrs_5_en-GB,5,,FHRS,5
26320,9 Norwich Road,Fakenham,Norfolk,,Cafe Scrumptious,Restaurant/Cafe/Canteen,1,5,,329019,0,,52.83044400000000,PI/000066661,231,commercial@north-norfolk.gov.uk,North Norfolk,http://www.northnorfolk.org,0.85236800000000,NR21 8AU,2014-12-02,fhrs_5_en-GB,5,,FHRS,0
26321,"Cafe TMC, Blakeney Methodist Church",111 High Street,Blakeney,Norfolk,Cafe TMC,Restaurant/Cafe/Canteen,1,5,,647503,5,,52.95371500000000,PI/000071825,231,commercial@north-norfolk.gov.uk,North Norfolk,http://www.northnorfolk.org,1.01954500000000,NR25 7PS,2013-09-11,fhrs_5_en-GB,5,,FHRS,5
26322,,,,,Caffe Capri,Mobile caterer,7846,0,,591626,0,,,PI/500008033,231,commercial@north-norfolk.gov.uk,North Norfolk,http://www.northnorfolk.org,,,2013-09-24,fhrs_5_en-GB,5,,FHRS,5
26323,,,,,Caffe Roma,Mobile caterer,7846,,,689914,,,,PI/500006143,231,commercial@north-norfolk.gov.uk,North Norfolk,http://www.northnorfolk.org,,,,fhrs_awaitinginspection_en-GB,AwaitingInspection,,FHRS,
26324,,,,,Caffenito,Mobile caterer,7846,,,282033,,,,PI/500005551,231,commercial@north-norfolk.gov.uk,North Norfolk,http://www.northnorfolk.org,,,,fhrs_awaitinginspection_en-GB,AwaitingInspection,,FHRS,
26325,,,,,Cake Me Smile,Retailers - other,4613,,,281809,,,,PI/000067714,231,commercial@north-norfolk.gov.uk,North Norfolk,http://www.northnorfolk.org,,,,fhrs_awaitinginspection_en-GB,AwaitingInspection,,FHRS,
26326,,,,,Cakes by the Coast,Retailers - other,4613,,,689809,,,,PI/000067355,231,commercial@north-norfolk.gov.uk,North Norfolk,http://www.northnorfolk.org,,,,fhrs_awaitinginspection_en-GB,AwaitingInspection,,FHRS,
26327,Camberley House,62 Cliff Road,Sheringham,Norfolk,Camberley House B&B,Hotel/bed & breakfast/guest house,7842,,,281317,,,52.94387500000000,PI/000037215,231,commercial@north-norfolk.gov.uk,North Norfolk,http://www.northnorfolk.org,1.21621800000000,NR26 8BJ,,fhrs_awaitinginspection_en-GB,AwaitingInspection,,FHRS,
26328,Cambridge House,The Gangway,Cromer,Norfolk,Cambridge House B&B,Hotel/bed & breakfast/guest house,7842,,,281561,,,,PI/000058187,231,commercial@north-norfolk.gov.uk,North Norfolk,http://www.northnorfolk.org,,,,fhrs_awaitinginspection_en-GB,AwaitingInspection,,FHRS,
26329,2 Beeston Road,Sheringham,Norfolk,,Campbell House B&B,Hotel/bed & breakfast/guest house,7842,,,281312,,,52.94363200000000,PI/000036813,231,commercial@north-norfolk.gov.uk,North Norfolk,http://www.northnorfolk.org,1.21390800000000,NR26 8EH,,fhrs_awaitinginspection_en-GB,AwaitingInspection,,FHRS,
26330,Thornage Hall,The Street,Thornage,Norfolk,Camphill Communities,Hospitals/Childcare/Caring Premises,5,,,281402,,,52.88512300000000,PI/000044410,231,commercial@north-norfolk.gov.uk,North Norfolk,http://www.northnorfolk.org,1.04435800000000,NR25 7QH,2014-04-23,fhrs_exempt_en-GB,Exempt,,FHRS,
26331,Holgate Lane,West Runton,Norfolk,,Camping & Caravan Club,Retailers - other,4613,,,689705,,,52.92972800000000,PI/000048947,231,commercial@north-norfolk.gov.uk,North Norfolk,http://www.northnorfolk.org,1.25486100000000,NR27 9NW,,fhrs_awaitinginspection_en-GB,AwaitingInspection,,FHRS,
26332,21 Holt Road,Sheringham,Norfolk,,Canaan Christian Centre,Other catering premises,7841,5,,687377,0,,52.93826800000000,PI/000101040,231,commercial@north-norfolk.gov.uk,North Norfolk,http://www.northnorfolk.org,1.19941300000000,NR26 8NB,2011-01-06,fhrs_5_en-GB,5,,FHRS,0
26333,Freeman Street,Wells-next-the-Sea,Norfolk,,Captains Table,Pub/bar/nightclub,7843,5,,595424,5,,52.95743100000000,PI/000071167,231,commercial@north-norfolk.gov.uk,North Norfolk,http://www.northnorfolk.org,0.84872100000000,NR23 1BQ,2013-11-08,fhrs_5_en-GB,5,,FHRS,5
26334,Holly Cottage,32 The Street,Hindolveston,Norfolk,Caring In Care Ltd,Hospitals/Childcare/Caring Premises,5,5,,281184,10,,52.82296900000000,PI/000018506,231,commercial@north-norfolk.gov.uk,North Norfolk,http://www.northnorfolk.org,1.01710300000000,NR20 5BU,2013-12-17,fhrs_4_en-GB,4,,FHRS,5
26335,,,,,Carobies,Retailers - other,4613,,,689820,,,,PI/000067994,231,commercial@north-norfolk.gov.uk,North Norfolk,http://www.northnorfolk.org,,,,fhrs_awaitinginspection_en-GB,AwaitingInspection,,FHRS,
26336,,,,,Carols Cakes,Retailers - other,4613,5,,499540,0,,,PI/000070205,231,commercial@north-norfolk.gov.uk,North Norfolk,http://www.northnorfolk.org,,,2013-03-19,fhrs_5_en-GB,5,,FHRS,0
26337,18-20 High Street,Sheringham,Norfolk,,Carousel Candys,Retailers - other,4613,5,,349005,5,,52.94469400000000,PI/000058056,231,commercial@north-norfolk.gov.uk,North Norfolk,http://www.northnorfolk.org,1.21188700000000,NR26 8JR,2012-09-05,fhrs_5_en-GB,5,,FHRS,5
26338,North Norfolk Railway,Station Approach,Sheringham,Norfolk,Carriage: Kitchen Car,Restaurant/Cafe/Canteen,1,5,,520755,0,,52.94186600000000,PI/000070314,231,commercial@north-norfolk.gov.uk,North Norfolk,http://www.northnorfolk.org,1.20938500000000,NR26 8RA,2013-05-01,fhrs_5_en-GB,5,,FHRS,0
26339,North Norfolk Railway,Station Approach,Sheringham,Norfolk,Carriage: RBR,Restaurant/Cafe/Canteen,1,5,,520754,0,,52.94186600000000,PI/000070313,231,commercial@north-norfolk.gov.uk,North Norfolk,http://www.northnorfolk.org,1.20938500000000,NR26 8RA,2012-07-30,fhrs_5_en-GB,5,,FHRS,0
26340,Paston Road,Bacton,Norfolk,,Castaways Holiday Park,Other catering premises,7841,5,,281995,5,,52.85385300000000,PI/000105641,231,commercial@north-norfolk.gov.uk,North Norfolk,http://www.northnorfolk.org,1.43499900000000,,2012-11-13,fhrs_5_en-GB,5,,FHRS,5
26341,Catesbys At,Catesby Court,The Quay,Wells-next-the-Sea,Catesby's,Restaurant/Cafe/Canteen,1,5,,281814,0,,52.95709200000000,PI/000067831,231,commercial@north-norfolk.gov.uk,North Norfolk,http://www.northnorfolk.org,0.85164700000000,NR23 1AH,2013-07-22,fhrs_5_en-GB,5,,FHRS,0
26342,Catfield Va School,School Road,Catfield,Norfolk,Catfield C Of E Primary School,School/college/university,7845,,,689642,,,52.73584000000000,PI/000004773,231,commercial@north-norfolk.gov.uk,North Norfolk,http://www.northnorfolk.org,1.52702200000000,NR29 5DA,,fhrs_awaitinginspection_en-GB,AwaitingInspection,,FHRS,
26343,Catfield Post Office,The Street,Catfield,Norfolk,Catfield Stores & Post Office,Retailers - other,4613,5,,281058,5,,52.74043600000000,PI/000004865,231,commercial@north-norfolk.gov.uk,North Norfolk,http://www.northnorfolk.org,1.53456600000000,NR29 5AA,2013-08-19,fhrs_5_en-GB,5,,FHRS,5
26344,Village Hall,The Street,Catfield,Norfolk,Catfield Village Hall,Pub/bar/nightclub,7843,,,689758,,,52.74043600000000,PI/000058628,231,commercial@north-norfolk.gov.uk,North Norfolk,http://www.northnorfolk.org,1.53456600000000,NR29 5AA,,fhrs_awaitinginspection_en-GB,AwaitingInspection,,FHRS,
26345,,,,,Catherine Baker (Rampant Horse Inn),Retailers - other,4613,10,,281675,5,,,PI/000065001,231,commercial@north-norfolk.gov.uk,North Norfolk,http://www.northnorfolk.org,,,2010-03-18,fhrs_4_en-GB,4,,FHRS,0
26346,,,,,Catmic Cakes,Retailers - other,4613,,,689807,,,,PI/000067283,231,commercial@north-norfolk.gov.uk,North Norfolk,http://www.northnorfolk.org,,,,fhrs_awaitinginspection_en-GB,AwaitingInspection,,FHRS,
26347,Causeway Farm,Sea Palling Road,Ingham,Norfolk,Causeway Butchers,Retailers - other,4613,5,,281630,5,,52.78337100000000,PI/000062164,231,commercial@north-norfolk.gov.uk,North Norfolk,http://www.northnorfolk.org,1.56230100000000,NR12 0TP,2014-10-29,fhrs_5_en-GB,5,,FHRS,5
26348,R Cawdron & Sons Butchers,103 High Street,Stalham,Norfolk,Cawdrons Butchers,Retailers - other,4613,5,,281509,5,,52.77201400000000,PI/000057343,231,commercial@north-norfolk.gov.uk,North Norfolk,http://www.northnorfolk.org,1.51461400000000,NR12 9BB,2013-11-13,fhrs_5_en-GB,5,,FHRS,5
26349,,,,,Celebrations Catering,Retailers - other,4613,,,667316,,,,PI/000071956,231,commercial@north-norfolk.gov.uk,North Norfolk,http://www.northnorfolk.org,,,,fhrs_awaitinginspection_en-GB,AwaitingInspection,,FHRS,
26350,3 The Quay,Wells-next-the-Sea,Norfolk,,Cellar By The Quay,Retailers - other,4613,,,689838,,,,PI/000070545,231,commercial@north-norfolk.gov.uk,North Norfolk,http://www.northnorfolk.org,,NR23 1FA,,fhrs_awaitinginspection_en-GB,AwaitingInspection,,FHRS,
26351,36A High Street,Sheringham,Norfolk,,Chai-Yo Thai Restaurant,Restaurant/Cafe/Canteen,1,10,,281604,10,,52.94397100000000,PI/000059218,231,commercial@north-norfolk.gov.uk,North Norfolk,http://www.northnorfolk.org,1.21101500000000,NR26 8DT,2014-03-19,fhrs_3_en-GB,3,,FHRS,10
26352,1 Mundesley Road,North Walsham,Norfolk,,Charcoal Grill,Takeaway/sandwich shop,7844,10,,281852,10,,52.82252100000000,PI/000068394,231,commercial@north-norfolk.gov.uk,North Norfolk,http://www.northnorfolk.org,1.38520400000000,NR28 0DA,2014-12-01,fhrs_3_en-GB,3,,FHRS,10
26353,Tides Reach,1-5 The Street,Morston,Norfolk,Charlie Ward Traditional Boats Ltd,Other catering premises,7841,,,689853,,,52.95489100000000,PI/000100723,231,commercial@north-norfolk.gov.uk,North Norfolk,http://www.northnorfolk.org,0.98654100000000,NR25 7AA,,fhrs_exempt_en-GB,Exempt,,FHRS,
26354,77 High Street,Stalham,Norfolk,,Cherry Blossom Cafe,Restaurant/Cafe/Canteen,1,10,,570115,5,,52.77201400000000,PI/000070873,231,commercial@north-norfolk.gov.uk,North Norfolk,http://www.northnorfolk.org,1.51461400000000,NR12 9BB,2013-07-17,fhrs_4_en-GB,4,,FHRS,5
26355,51 Cromer Road,North Walsham,Norfolk,,Chimneys Bed & Breakfast,Hotel/bed & breakfast/guest house,7842,5,,700003,0,,52.82450800000000,PI/000071962,231,commercial@north-norfolk.gov.uk,North Norfolk,http://www.northnorfolk.org,1.37483200000000,NR28 0HB,2015-01-05,fhrs_5_en-GB,5,,FHRS,0
26356,31 Station Road,Cromer,Norfolk,,China City,Takeaway/sandwich shop,7844,5,,281110,5,,52.92027200000000,PI/000009482,231,commercial@north-norfolk.gov.uk,North Norfolk,http://www.northnorfolk.org,1.30932500000000,NR27 0DX,2014-11-28,fhrs_5_en-GB,5,,FHRS,5
26357,,,,,Chips And ?,Mobile caterer,7846,10,,430803,5,,,PI/500007044,231,commercial@north-norfolk.gov.uk,North Norfolk,http://www.northnorfolk.org,,,2012-08-24,fhrs_4_en-GB,4,,FHRS,5
26358,,,,,Choco Melt,Retailers - other,4613,,,664645,,,,PI/000071903,231,commercial@north-norfolk.gov.uk,North Norfolk,http://www.northnorfolk.org,,,,fhrs_awaitinginspection_en-GB,AwaitingInspection,,FHRS,
26359,,,,,Chubby Chutney Company,Retailers - other,4613,,,689863,,,,PI/000101250,231,commercial@north-norfolk.gov.uk,North Norfolk,http://www.northnorfolk.org,,,,fhrs_awaitinginspection_en-GB,AwaitingInspection,,FHRS,
26360,The Chubby Panda,20-22 Market Street,North Walsham,Norfolk,Chubby Panda,Restaurant/Cafe/Canteen,1,5,,281584,10,,52.82183700000000,PI/000058498,231,commercial@north-norfolk.gov.uk,North Norfolk,http://www.northnorfolk.org,1.38524000000000,NR28 9BZ,2014-03-13,fhrs_3_en-GB,3,,FHRS,10
26361,Lighthouse Community Church,62 Cromer Road,Sheringham,Norfolk,Church Cafe,Other catering premises,7841,10,,606959,10,,52.93961700000000,PI/000071184,231,commercial@north-norfolk.gov.uk,North Norfolk,http://www.northnorfolk.org,1.21471100000000,NR26 8RT,2013-11-22,fhrs_3_en-GB,3,,FHRS,5
26362,Church Cottage,Church Street,Stiffkey,Norfolk,Church Cottage B&B,Hotel/bed & breakfast/guest house,7842,,,281393,,,52.94853200000000,PI/000043011,231,commercial@north-norfolk.gov.uk,North Norfolk,http://www.northnorfolk.org,0.93539300000000,NR23 1QJ,,fhrs_awaitinginspection_en-GB,AwaitingInspection,,FHRS,
26363,Church Farm Barn,Rectory Road,Edingthorpe,Norfolk,Church Farm Barn B&B,Hotel/bed & breakfast/guest house,7842,,,281464,,,52.84338800000000,PI/000050936,231,commercial@north-norfolk.gov.uk,North Norfolk,http://www.northnorfolk.org,1.44667500000000,NR28 9TN,,fhrs_awaitinginspection_en-GB,AwaitingInspection,,FHRS,
26364,,,,,Church Farm Barns,Retailers - other,4613,,,460018,,,,PI/000069935,231,commercial@north-norfolk.gov.uk,North Norfolk,http://www.northnorfolk.org,,,2013-04-10,fhrs_5_en-GB,5,,FHRS,
26365,Church Road,Sea Palling,Norfolk,,Church Meeting Room,Other catering premises,7841,10,,667314,0,,52.78407500000000,PI/000067815,231,commercial@north-norfolk.gov.uk,North Norfolk,http://www.northnorfolk.org,1.60060200000000,NR12 0UB,2014-06-04,fhrs_4_en-GB,4,,FHRS,5
26366,109 High Street,Stalham,Norfolk,,Cinnamon,Takeaway/sandwich shop,7844,10,,281384,10,,52.77201400000000,PI/000041674,231,commercial@north-norfolk.gov.uk,North Norfolk,http://www.northnorfolk.org,1.51461400000000,NR12 9BB,2015-01-20,fhrs_3_en-GB,3,,FHRS,10
26367,,,,,Claridges Catering,Mobile caterer,7846,10,,533987,5,,,PI/500007523,231,commercial@north-norfolk.gov.uk,North Norfolk,http://www.northnorfolk.org,,,2013-11-12,fhrs_4_en-GB,4,,FHRS,5
26368,7 Montague Road,Sheringham,Norfolk,,Cleat House,Hotel/bed & breakfast/guest house,7842,,,281915,,,52.94260400000000,PI/000101053,231,commercial@north-norfolk.gov.uk,North Norfolk,http://www.northnorfolk.org,1.20470500000000,NR26 8LN,,fhrs_awaitinginspection_en-GB,AwaitingInspection,,FHRS,
26369,38 Cromer Road,West Runton,Norfolk,,Clementines,Restaurant/Cafe/Canteen,1,0,,281728,5,,52.93766100000000,PI/000065968,231,commercial@north-norfolk.gov.uk,North Norfolk,http://www.northnorfolk.org,1.24529000000000,NR27 9AD,2012-07-25,fhrs_5_en-GB,5,,FHRS,0
26370,High Street,Cley-next-the-Sea,Norfolk,,Cley Smokehouse,Retailers - other,4613,5,,281543,5,,52.95226300000000,PI/000057961,231,commercial@north-norfolk.gov.uk,North Norfolk,http://www.northnorfolk.org,1.04331200000000,NR25 7RF,2012-08-02,fhrs_5_en-GB,5,,FHRS,5
26371,Village Hall,The Fairstead,Cley-next-the-Sea,Norfolk,Cley Social Club,Pub/bar/nightclub,7843,,,689866,,,52.95220700000000,PI/000101363,231,commercial@north-norfolk.gov.uk,North Norfolk,http://www.northnorfolk.org,1.04447000000000,NR25 7RJ,,fhrs_awaitinginspection_en-GB,AwaitingInspection,,FHRS,
26372,The Quay,Cley-next-the-Sea,Norfolk,,Cley Windmill,Hotel/bed & breakfast/guest house,7842,5,,281063,5,,52.95435300000000,PI/000005273,231,commercial@north-norfolk.gov.uk,North Norfolk,http://www.northnorfolk.org,1.04281900000000,NR25 7RP,2014-08-08,fhrs_5_en-GB,5,,FHRS,5
26373,18 High Street,Overstrand,Norfolk,,Cliff Cottage B&B,Hotel/bed & breakfast/guest house,7842,,,281955,,,52.91672500000000,PI/000102545,231,commercial@north-norfolk.gov.uk,North Norfolk,http://www.northnorfolk.org,1.34282900000000,NR27 0AB,,fhrs_awaitinginspection_en-GB,AwaitingInspection,,FHRS,
26374,22 Cliff Road,Overstrand,Norfolk,,Cliff Top Cafe Ltd,Restaurant/Cafe/Canteen,1,5,,281286,0,,52.91849400000000,PI/000033087,231,commercial@north-norfolk.gov.uk,North Norfolk,http://www.northnorfolk.org,1.34324800000000,NR27 0PP,2014-09-29,fhrs_5_en-GB,5,,FHRS,5
26375,Runton Road,Cromer,Norfolk,,Cliftonville Hotel,Hotel/bed & breakfast/guest house,7842,0,,281469,0,,52.93293700000000,PI/000051701,231,commercial@north-norfolk.gov.uk,North Norfolk,http://www.northnorfolk.org,1.29243100000000,NR27 9AS,2014-09-11,fhrs_5_en-GB,5,,FHRS,5
26376,Clover Lodge,The Common,Happisburgh,Norfolk,Clover Childcare Services Ltd,Hospitals/Childcare/Caring Premises,5,,,281172,,,52.80253500000000,PI/000016984,231,commercial@north-norfolk.gov.uk,North Norfolk,http://www.northnorfolk.org,1.52446800000000,NR12 0RT,,fhrs_awaitinginspection_en-GB,AwaitingInspection,,FHRS,
26377,The Old Rectory,Old Rectory Road,Brumstead,Norfolk,Clover Childcare Services Ltd,Hospitals/Childcare/Caring Premises,5,0,,281785,0,,52.79143500000000,PI/000067522,231,commercial@north-norfolk.gov.uk,North Norfolk,http://www.northnorfolk.org,1.50815400000000,NR12 9EU,2011-10-13,fhrs_5_en-GB,5,,FHRS,0
26378,Holt Road,Fakenham,Norfolk,,Co Operative Pharmacy,Retailers - other,4613,,,715116,,,52.83611900000000,PI/000067640,231,commercial@north-norfolk.gov.uk,North Norfolk,http://www.northnorfolk.org,0.86277800000000,NR21 8JG,,fhrs_awaitinginspection_en-GB,AwaitingInspection,,FHRS,
26379,23 New Street,Cromer,Norfolk,,Coast Kebab,Takeaway/sandwich shop,7844,0,,482622,5,,52.93260800000000,PI/000070127,231,commercial@north-norfolk.gov.uk,North Norfolk,http://www.northnorfolk.org,1.29940100000000,NR27 9HP,2014-07-25,fhrs_5_en-GB,5,,FHRS,0
26380,,,,,Coffee Cube,Mobile caterer,7846,,,282032,,,,PI/500005549,231,commercial@north-norfolk.gov.uk,North Norfolk,http://www.northnorfolk.org,,,,fhrs_awaitinginspection_en-GB,AwaitingInspection,,FHRS,
26381,Fakenham Baptist Church,Mill Court,Bridge Street,Fakenham,Coffee Morning,Restaurant/Cafe/Canteen,1,5,,606961,5,,52.82801644471696,PI/000071189,231,commercial@north-norfolk.gov.uk,North Norfolk,http://www.northnorfolk.org,0.84883718308764,,2013-11-28,fhrs_5_en-GB,5,,FHRS,5
26382,Big Blue Sky,Warham Road,Wells-next-the-Sea,Norfolk,Coffee Tea Toast,Restaurant/Cafe/Canteen,1,5,,638048,5,,52.95014900000000,PI/000071681,231,commercial@north-norfolk.gov.uk,North Norfolk,http://www.northnorfolk.org,0.86027200000000,NR23 1QA,2014-04-04,fhrs_5_en-GB,5,,FHRS,5
26383,Bridge Road,Colby,Norfolk,,Colby Cp School,School/college/university,7845,0,,281064,0,,52.81950800000000,PI/000005313,231,commercial@north-norfolk.gov.uk,North Norfolk,http://www.northnorfolk.org,1.30036600000000,NR11 7EA,2009-02-24,fhrs_5_en-GB,5,,FHRS,0
26384,27 School Close,Ludham,Norfolk,,Common Rooms (Sheltered Housing),Hospitals/Childcare/Caring Premises,5,,,687381,,,52.71234000000000,PI/000103632,231,commercial@north-norfolk.gov.uk,North Norfolk,http://www.northnorfolk.org,1.53451400000000,NR29 5QW,,fhrs_exempt_en-GB,Exempt,,FHRS,
26385,Lee Warner Avenue,Fakenham,Norfolk,,Communal Centre,Hospitals/Childcare/Caring Premises,5,,,687380,,,,PI/000103429,231,commercial@north-norfolk.gov.uk,North Norfolk,http://www.northnorfolk.org,,,,fhrs_exempt_en-GB,Exempt,,FHRS,
26386,Blacksmiths Close,Trunch,Norfolk,,Community Centre,Hospitals/Childcare/Caring Premises,5,,,689876,,,52.86062100000000,PI/000102743,231,commercial@north-norfolk.gov.uk,North Norfolk,http://www.northnorfolk.org,1.39612200000000,NR28 0QZ,,fhrs_exempt_en-GB,Exempt,,FHRS,
26387,Leeds Way,Horning,Norfolk,,Community Centre,Other catering premises,7841,10,,349027,5,,52.70421100000000,PI/000068919,231,commercial@north-norfolk.gov.uk,North Norfolk,http://www.northnorfolk.org,1.46691500000000,NR12 8LU,2009-01-20,fhrs_4_en-GB,4,,FHRS,5
26388,The Green,Aldborough,Norfolk,,Community Centre,Pub/bar/nightclub,7843,,,281487,,,52.86164400000000,PI/000056924,231,commercial@north-norfolk.gov.uk,North Norfolk,http://www.northnorfolk.org,1.24387500000000,NR11 7AA,,fhrs_awaitinginspection_en-GB,AwaitingInspection,,FHRS,
26389,High Street,East Runton,Norfolk,,Constantia Cottage Restaurant,Restaurant/Cafe/Canteen,1,0,,281124,5,,52.93590600000000,PI/000010438,231,commercial@north-norfolk.gov.uk,North Norfolk,http://www.northnorfolk.org,1.27122200000000,NR27 9NX,2014-07-23,fhrs_5_en-GB,5,,FHRS,0
26390,High Street,Cley-next-the-Sea,Norfolk,,Cookes Of Cley,Restaurant/Cafe/Canteen,1,5,,281062,0,,52.95431900000000,PI/000005094,231,commercial@north-norfolk.gov.uk,North Norfolk,http://www.northnorfolk.org,1.04415700000000,NR25 7RX,2012-03-09,fhrs_5_en-GB,5,,FHRS,0
26391,Cookies,Coast Road,Salthouse,Norfolk,Cookies Crab Shop,Restaurant/Cafe/Canteen,1,5,,281536,0,,52.95196300000000,PI/000057894,231,commercial@north-norfolk.gov.uk,North Norfolk,http://www.northnorfolk.org,1.08767700000000,NR25 7AJ,2013-11-08,fhrs_5_en-GB,5,,FHRS,0
26392,Cookes of Ingham,Boundary Farm,Sea Palling Road,Ingham,Cooks of Ingham,Retailers - other,4613,,,689768,,,52.78246900000000,PI/000062165,231,commercial@north-norfolk.gov.uk,North Norfolk,http://www.northnorfolk.org,1.57373900000000,NR12 0TS,,fhrs_exempt_en-GB,Exempt,,FHRS,
26393,18 Church Street,Briston,Norfolk,,Co-Op Foodstore,Retailers - other,4613,,,281053,,,52.85397900000000,PI/000003658,231,commercial@north-norfolk.gov.uk,North Norfolk,http://www.northnorfolk.org,1.05880100000000,NR24 2HN,,fhrs_awaitinginspection_en-GB,AwaitingInspection,,FHRS,
26394,73 Briston Road,Melton Constable,Norfolk,,Co-Op Foodstore,Retailers - other,4613,5,,281947,0,,52.85673300000000,PI/000102417,231,commercial@north-norfolk.gov.uk,North Norfolk,http://www.northnorfolk.org,1.03770500000000,NR24 2AP,2009-07-22,fhrs_5_en-GB,5,,FHRS,5
26395,14 Church Street,Sheringham,Norfolk,,Co-Operative Food Store,Retailers - supermarkets/hypermarkets,7840,5,,281314,0,,52.94279600000000,PI/000037129,231,commercial@north-norfolk.gov.uk,North Norfolk,http://www.northnorfolk.org,1.20890300000000,NR26 8QS,2012-01-12,fhrs_5_en-GB,5,,FHRS,5
26396,Polka Road,Wells-next-the-Sea,Norfolk,,Co-Operative Foodstore,Retailers - supermarkets/hypermarkets,7840,,,615703,,,52.95146500000000,PI/000071240,231,commercial@north-norfolk.gov.uk,North Norfolk,http://www.northnorfolk.org,0.85751500000000,NR23 1JG,,fhrs_awaitinginspection_en-GB,AwaitingInspection,,FHRS,
26397,Corner Cottage,Water Lane,West Runton,Norfolk,Corner Cottage B&B,Hotel/bed & breakfast/guest house,7842,,,281963,,,52.93885700000000,PI/000102710,231,commercial@north-norfolk.gov.uk,North Norfolk,http://www.northnorfolk.org,1.24463500000000,NR27 9QP,,fhrs_awaitinginspection_en-GB,AwaitingInspection,,FHRS,
26398,Corner House,2 Station Road,West Runton,Norfolk,Corner House Bed & Breakfast,Hotel/bed & breakfast/guest house,7842,,,664642,,,52.93700000000000,PI/000071855,231,commercial@north-norfolk.gov.uk,North Norfolk,http://www.northnorfolk.org,1.24448100000000,NR27 9QD,,fhrs_awaitinginspection_en-GB,AwaitingInspection,,FHRS,
26399,65 Church Street,Cromer,Norfolk,,"Cornerstone Cafe, Cromer Parish Hall",Restaurant/Cafe/Canteen,1,5,,281748,5,,52.93103900000000,PI/000066551,231,commercial@north-norfolk.gov.uk,North Norfolk,http://www.northnorfolk.org,1.30020500000000,NR27 9HH,2015-01-15,fhrs_5_en-GB,5,,FHRS,0
26400,Corpusty And Holt Childrens Centre,Charles Road,Holt,Norfolk,Corpusty & Holt Children's Centre,Hospitals/Childcare/Caring Premises,5,5,,281686,0,,52.90100700000000,PI/000065086,231,commercial@north-norfolk.gov.uk,North Norfolk,http://www.northnorfolk.org,1.09779300000000,NR25 6DA,2012-05-28,fhrs_5_en-GB,5,,FHRS,0
26401,Corpusty Cp School,Norwich Road,Corpusty,Norfolk,Corpusty Primary School,School/college/university,7845,5,,281887,0,,52.82765700000000,PI/000100122,231,commercial@north-norfolk.gov.uk,North Norfolk,http://www.northnorfolk.org,1.13525500000000,NR11 6QG,2014-09-19,fhrs_5_en-GB,5,,FHRS,5
26402,Corpusty Spar Stores,Norwich Road,Corpusty,Norfolk,Corpusty Stores Ltd,Retailers - other,4613,10,,282002,5,,52.82647500000000,PI/000107078,231,commercial@north-norfolk.gov.uk,North Norfolk,http://www.northnorfolk.org,1.13641700000000,NR11 6QD,2014-12-05,fhrs_4_en-GB,4,,FHRS,5
26403,1 Mitre Tavern Yard,North Walsham,Norfolk,,Cosy Cafe,Restaurant/Cafe/Canteen,1,10,,734147,10,,52.82201200000000,PI/000072951,231,commercial@north-norfolk.gov.uk,North Norfolk,http://www.northnorfolk.org,1.38572900000000,NR28 9BN,2015-01-23,fhrs_3_en-GB,3,,FHRS,10
26404,43-45 Staithe Street,Wells-next-the-Sea,Norfolk,,Country Garden,Retailers - other,4613,,,689738,,,52.95528600000000,PI/000057686,231,commercial@north-norfolk.gov.uk,North Norfolk,http://www.northnorfolk.org,0.85196000000000,NR23 1AG,,fhrs_awaitinginspection_en-GB,AwaitingInspection,,FHRS,
26405,31 Morris Street,Sheringham,Norfolk,,Country Market,Hotel/bed & breakfast/guest house,7842,,,409627,,,52.94456100000000,PI/000102586,231,commercial@north-norfolk.gov.uk,North Norfolk,http://www.northnorfolk.org,1.21015000000000,NR26 8JY,,fhrs_awaitinginspection_en-GB,AwaitingInspection,,FHRS,
26406,,,,,Country Market,Retailers - other,4613,,,409630,,,,PI/500006965,231,commercial@north-norfolk.gov.uk,North Norfolk,http://www.northnorfolk.org,,,,fhrs_awaitinginspection_en-GB,AwaitingInspection,,FHRS,
26407,19 High Street,Mundesley,Norfolk,,Country Pickings,Retailers - other,4613,,,689834,,,52.87632500000000,PI/000070041,231,commercial@north-norfolk.gov.uk,North Norfolk,http://www.northnorfolk.org,1.43357600000000,NR11 8LH,,fhrs_awaitinginspection_en-GB,AwaitingInspection,,FHRS,
26408,Mill Crafts,12 Lower Street,Horning,Norfolk,Country Treats,Restaurant/Cafe/Canteen,1,10,,281505,5,,52.70479900000000,PI/000057227,231,commercial@north-norfolk.gov.uk,North Norfolk,http://www.northnorfolk.org,1.46309700000000,NR12 8AA,2014-03-25,fhrs_4_en-GB,4,,FHRS,5
26409,Fakenham Road,Bale,Norfolk,,Countryside Filling Station,Retailers - other,4613,,,281511,,,52.88149100000000,PI/000057461,231,commercial@north-norfolk.gov.uk,North Norfolk,http://www.northnorfolk.org,0.97949900000000,NR21 0QW,,fhrs_awaitinginspection_en-GB,AwaitingInspection,,FHRS,
26410,36 High Street,Sheringham,Norfolk,,Craft Bakery,Manufacturers/packers,7839,5,,281338,5,,52.94397100000000,PI/000038062,231,commercial@north-norfolk.gov.uk,North Norfolk,http://www.northnorfolk.org,1.21101500000000,NR26 8DT,2013-06-24,fhrs_4_en-GB,4,,FHRS,10
26411,21 Vicarage Road,Cromer,Norfolk,,Cranleigh Residential Home,Hospitals/Childcare/Caring Premises,5,0,,281116,5,,52.92827200000000,PI/000009735,231,commercial@north-norfolk.gov.uk,North Norfolk,http://www.northnorfolk.org,1.30106500000000,NR27 9DQ,2014-04-10,fhrs_5_en-GB,5,,FHRS,5
26412,Norwich Road,Fakenham,Norfolk,,Cranmer House,Hospitals/Childcare/Caring Premises,5,5,,281150,0,,52.83169700000000,PI/000013558,231,commercial@north-norfolk.gov.uk,North Norfolk,http://www.northnorfolk.org,0.86195200000000,NR21 8HR,2014-03-24,fhrs_5_en-GB,5,,FHRS,5
26413,Holt Road,Thursford,Norfolk,,Crawfish Public House,Restaurant/Cafe/Canteen,1,5,,281405,5,,52.86498700000000,PI/000044798,231,commercial@north-norfolk.gov.uk,North Norfolk,http://www.northnorfolk.org,0.96127900000000,NR21 0BJ,2013-06-28,fhrs_5_en-GB,5,,FHRS,0
26414,,,,,Creative Cakes,Retailers - other,4613,0,,589163,5,,,PI/000071115,231,commercial@north-norfolk.gov.uk,North Norfolk,http://www.northnorfolk.org,,,2014-06-26,fhrs_5_en-GB,5,,FHRS,0
26415,Fakenham Road,Great Ryburgh,Norfolk,,Crisp Maltings Social Club,Pub/bar/nightclub,7843,,,689659,,,52.80860900000000,PI/000016062,231,commercial@north-norfolk.gov.uk,North Norfolk,http://www.northnorfolk.org,0.89953800000000,NR21 7AN,,fhrs_awaitinginspection_en-GB,AwaitingInspection,,FHRS,
26416,,,,,Croc's,Mobile caterer,7846,5,,282031,5,,,PI/500005547,231,commercial@north-norfolk.gov.uk,North Norfolk,http://www.northnorfolk.org,,,2013-07-10,fhrs_5_en-GB,5,,FHRS,5
26417,32 High Street,Sheringham,Norfolk,,Crofters Restaurant,Restaurant/Cafe/Canteen,1,5,,281618,5,,52.94397100000000,PI/000059487,231,commercial@north-norfolk.gov.uk,North Norfolk,http://www.northnorfolk.org,1.21101500000000,NR26 8DT,2014-05-07,fhrs_5_en-GB,5,,FHRS,5
26418,Mill Road,Cromer,Norfolk,,Cromer & District Hospital,Hospitals/Childcare/Caring Premises,5,5,,281099,5,,52.92357800000000,PI/000008332,231,commercial@north-norfolk.gov.uk,North Norfolk,http://www.northnorfolk.org,1.30914500000000,NR27 0BQ,2014-03-12,fhrs_5_en-GB,5,,FHRS,5
26419,Norwich Road,Cromer,Norfolk,,Cromer Academy,School/college/university,7845,0,,281103,5,,52.92403300000000,PI/000008592,231,commercial@north-norfolk.gov.uk,North Norfolk,http://www.northnorfolk.org,1.30346600000000,NR27 0EX,2014-11-12,fhrs_5_en-GB,5,,FHRS,5
26420,127 Overstrand Road,Cromer,Norfolk,,Cromer Country Club,Pub/bar/nightclub,7843,5,,281106,5,,52.92439300000000,PI/000008686,231,commercial@north-norfolk.gov.uk,North Norfolk,http://www.northnorfolk.org,1.31151400000000,NR27 0DJ,2014-09-02,fhrs_5_en-GB,5,,FHRS,5
26421,15 Tucker Street,Cromer,Norfolk,,Cromer Farm & Health Shop,Retailers - other,4613,5,,281716,5,,52.93161100000000,PI/000065672,231,commercial@north-norfolk.gov.uk,North Norfolk,http://www.northnorfolk.org,1.30196000000000,NR27 9HA,2010-07-06,fhrs_5_en-GB,5,,FHRS,5
26422,10 Alfred Road,Cromer,Norfolk,,Cromer House B&B,Hotel/bed & breakfast/guest house,7842,,,281936,,,52.93214700000000,PI/000102142,231,commercial@north-norfolk.gov.uk,North Norfolk,http://www.northnorfolk.org,1.29302600000000,NR27 9AN,,fhrs_awaitinginspection_en-GB,AwaitingInspection,,FHRS,
26423,34 Garden Street,Cromer,Norfolk,,Cromer Ices,Retailers - other,4613,5,,281083,5,,52.93181700000000,PI/000007268,231,commercial@north-norfolk.gov.uk,North Norfolk,http://www.northnorfolk.org,1.29941500000000,NR27 9HN,2012-05-08,fhrs_5_en-GB,5,,FHRS,5
26424,Cromer County Junior School,Norwich Road,Cromer,Norfolk,Cromer Junior School,School/college/university,7845,5,,281104,0,,52.92403300000000,PI/000008593,231,commercial@north-norfolk.gov.uk,North Norfolk,http://www.northnorfolk.org,1.30346600000000,NR27 0EX,2014-10-15,fhrs_5_en-GB,5,,FHRS,0
26425,13 Hamilton Road,Cromer,Norfolk,,Cromer Kebab,Restaurant/Cafe/Canteen,1,,,281569,,,52.93129700000000,PI/000058286,231,commercial@north-norfolk.gov.uk,North Norfolk,http://www.northnorfolk.org,1.29836300000000,NR27 9HL,2013-07-12,fhrs_4_en-GB,4,,FHRS,
26426,Norwich Road,Cromer,Norfolk,,Cromer Lawn Tennis & Squash Assoc,Other catering premises,7841,0,,281557,5,,52.92403300000000,PI/000058132,231,commercial@north-norfolk.gov.uk,North Norfolk,http://www.northnorfolk.org,1.30346600000000,NR27 0EX,2009-10-13,fhrs_4_en-GB,4,,FHRS,10
26427,Cromer Museum 1-5 East Cottages,Tucker Street,Cromer,Norfolk,Cromer Museum,Other catering premises,7841,,,687361,,,52.93140300000000,PI/000058238,231,commercial@north-norfolk.gov.uk,North Norfolk,http://www.northnorfolk.org,1.30198900000000,NR27 9HB,,fhrs_exempt_en-GB,Exempt,,FHRS,
26428,36 Garden Street,Cromer,Norfolk,,Cromer Pizza House,Restaurant/Cafe/Canteen,1,5,,358981,0,,52.93181700000000,PI/000068977,231,commercial@north-norfolk.gov.uk,North Norfolk,http://www.northnorfolk.org,1.29941500000000,NR27 9HN,2014-07-24,fhrs_5_en-GB,5,,FHRS,5
26429,31-33 Cromer Road,Sheringham,Norfolk,,Cromer Road Stores,Retailers - other,4613,0,,281327,5,,52.93964500000000,PI/000037673,231,commercial@north-norfolk.gov.uk,North Norfolk,http://www.northnorfolk.org,1.21767600000000,NR26 8AB,2010-01-12,fhrs_5_en-GB,5,,FHRS,5
26430,8 Hamilton Road,Cromer,Norfolk,,Cromer Rock & Candy Shop,Retailers - other,4613,5,,329020,5,,52.93129700000000,PI/000068062,231,commercial@north-norfolk.gov.uk,North Norfolk,http://www.northnorfolk.org,1.29836400000000,NR27 9HL,2012-04-20,fhrs_5_en-GB,5,,FHRS,5
26431,Cromer Ex Servicemens & Social Club,The Croft,Cromer,Norfolk,Cromer Social Club,Pub/bar/nightclub,7843,0,,281112,5,,52.92980100000000,PI/000009610,231,commercial@north-norfolk.gov.uk,North Norfolk,http://www.northnorfolk.org,1.29816100000000,NR27 9EH,2011-11-17,fhrs_5_en-GB,5,,FHRS,5
26432,29 Church Street,Cromer,Norfolk,,Cromer Tandoori,Restaurant/Cafe/Canteen,1,5,,281079,0,,52.93056900000000,PI/000006504,231,commercial@north-norfolk.gov.uk,North Norfolk,http://www.northnorfolk.org,1.30222300000000,NR27 9ES,2014-01-21,fhrs_5_en-GB,5,,FHRS,0
26433,Mill Road,Cromer,Norfolk,,Cromer Town Football Club,Restaurant/Cafe/Canteen,1,,,427360,,,52.92446000000000,PI/000008283,231,commercial@north-norfolk.gov.uk,North Norfolk,http://www.northnorfolk.org,1.30782900000000,NR27 0BG,2012-09-11,fhrs_5_en-GB,5,,FHRS,
26434,The Street,Dilham,Norfolk,,Cross Keys Inn,Pub/bar/nightclub,7843,10,,281119,10,,52.77517600000000,PI/000010101,231,commercial@north-norfolk.gov.uk,North Norfolk,http://www.northnorfolk.org,1.45602000000000,NR28 9PS,2014-10-02,fhrs_3_en-GB,3,,FHRS,10
26435,1 The Boulevard,Sheringham,Norfolk,,Crossways,Hospitals/Childcare/Caring Premises,5,0,,281368,5,,52.94328000000000,PI/000039695,231,commercial@north-norfolk.gov.uk,North Norfolk,http://www.northnorfolk.org,1.20829900000000,NR26 8LH,2014-08-18,fhrs_5_en-GB,5,,FHRS,5
26436,The Buttlands,Wells-next-the-Sea,Norfolk,,Crown Hotel,Hotel/bed & breakfast/guest house,7842,5,,281766,5,,52.95279400000000,PI/000067180,231,commercial@north-norfolk.gov.uk,North Norfolk,http://www.northnorfolk.org,0.85161700000000,NR23 1EX,2014-09-09,fhrs_5_en-GB,5,,FHRS,5
26437,East Cliff,Sheringham,Norfolk,,Crown Inn,Pub/bar/nightclub,7843,5,,281328,10,,52.94505500000000,PI/000037744,231,commercial@north-norfolk.gov.uk,North Norfolk,http://www.northnorfolk.org,1.21317900000000,NR26 8BQ,2014-03-24,fhrs_4_en-GB,4,,FHRS,5
26438,The Street,Catfield,Norfolk,,Crown Inn,Pub/bar/nightclub,7843,10,,281059,5,,52.74043600000000,PI/000004874,231,commercial@north-norfolk.gov.uk,North Norfolk,http://www.northnorfolk.org,1.53456600000000,NR29 5AA,2013-06-13,fhrs_4_en-GB,4,,FHRS,5
26439,,,,,Crystal Cakes,Retailers - other,4613,,,689837,,,,PI/000070316,231,commercial@north-norfolk.gov.uk,North Norfolk,http://www.northnorfolk.org,,,,fhrs_awaitinginspection_en-GB,AwaitingInspection,,FHRS,
26440,Rosedale,9 Howards Hill,Cromer,Norfolk,Crystal Care,Hospitals/Childcare/Caring Premises,5,10,,281714,10,,52.93098700000000,PI/000065668,231,commercial@north-norfolk.gov.uk,North Norfolk,http://www.northnorfolk.org,1.28848700000000,NR27 9BL,2010-05-24,fhrs_4_en-GB,4,,FHRS,0
26441,Rose Cottage,Aylmerton Road,Sustead,Norfolk,Cudmore-Empson,Retailers - other,4613,,,689842,,,52.88559600000000,PI/000071905,231,commercial@north-norfolk.gov.uk,North Norfolk,http://www.northnorfolk.org,1.24936600000000,NR11 8RU,,fhrs_exempt_en-GB,Exempt,,FHRS,
26442,,,,,Cuttings Home Bakes,Retailers - other,4613,5,,480145,5,,,PI/000070108,231,commercial@north-norfolk.gov.uk,North Norfolk,http://www.northnorfolk.org,,,2013-02-12,fhrs_5_en-GB,5,,FHRS,5
26443,Shop At,Hawthorn Farm,High Road,Briston,D K Jeary,Retailers - other,4613,0,,281830,0,,52.84696100000000,PI/000068110,231,commercial@north-norfolk.gov.uk,North Norfolk,http://www.northnorfolk.org,1.07145300000000,NR24 2JQ,2010-01-22,fhrs_5_en-GB,5,,FHRS,0
26444,,,,,D K Jeary (Market Stall),Retailers - other,4613,5,,628259,0,,,PI/500008371,231,commercial@north-norfolk.gov.uk,North Norfolk,http://www.northnorfolk.org,,,2014-07-26,fhrs_4_en-GB,4,,FHRS,10
26445,Lound Farm,Hickling Road,Hickling,Norfolk,Dairy Barns,Hotel/bed & breakfast/guest house,7842,5,,281629,5,,52.77315700000000,PI/000062152,231,commercial@north-norfolk.gov.uk,North Norfolk,http://www.northnorfolk.org,1.58544800000000,NR12 0BE,2014-12-02,fhrs_5_en-GB,5,,FHRS,5
26446,,,,,Dairyland,Mobile caterer,7846,,,282040,,,,PI/500005583,231,commercial@north-norfolk.gov.uk,North Norfolk,http://www.northnorfolk.org,,,,fhrs_awaitinginspection_en-GB,AwaitingInspection,,FHRS,
26447,,,,,Dairyland (Brass Monkeys van),Mobile caterer,7846,,,689897,,,,PI/500005586,231,commercial@north-norfolk.gov.uk,North Norfolk,http://www.northnorfolk.org,,,,fhrs_awaitinginspection_en-GB,AwaitingInspection,,FHRS,
26448,,,,,Dairyland Ice Cream,Mobile caterer,7846,5,,372007,5,,,PI/500005579,231,commercial@north-norfolk.gov.uk,North Norfolk,http://www.northnorfolk.org,,,2012-05-21,fhrs_5_en-GB,5,,FHRS,0
26449,,,,,Daisychain Catering,Retailers - other,4613,,,689825,,,,PI/000068142,231,commercial@north-norfolk.gov.uk,North Norfolk,http://www.northnorfolk.org,,,,fhrs_awaitinginspection_en-GB,AwaitingInspection,,FHRS,
26450,Dalmeny House,2 The Boulevard,Sheringham,Norfolk,Dalmeny House Residential Home,Hospitals/Childcare/Caring Premises,5,5,,281367,5,,52.94328000000000,PI/000039692,231,commercial@north-norfolk.gov.uk,North Norfolk,http://www.northnorfolk.org,1.20829900000000,NR26 8LH,2014-10-13,fhrs_5_en-GB,5,,FHRS,5
26451,School Road,Erpingham,Norfolk,,Dandelion Nursery,School/college/university,7845,,,734141,,,52.83837200000000,PI/000072889,231,commercial@north-norfolk.gov.uk,North Norfolk,http://www.northnorfolk.org,1.25097500000000,NR11 7QY,,fhrs_awaitinginspection_en-GB,AwaitingInspection,,FHRS,
26452,6 The Meadows,Gresham,Norfolk,,Daniel Denny,Retailers - other,4613,,,689798,,,52.89864000000000,PI/000065832,231,commercial@north-norfolk.gov.uk,North Norfolk,http://www.northnorfolk.org,1.21454500000000,NR11 8RZ,,fhrs_exempt_en-GB,Exempt,,FHRS,
26453,22 Pauls Lane,Overstrand,Norfolk,,Danum House B&B,Hotel/bed & breakfast/guest house,7842,,,281976,,,52.91771600000000,PI/000103023,231,commercial@north-norfolk.gov.uk,North Norfolk,http://www.northnorfolk.org,1.33604600000000,NR27 0PE,,fhrs_awaitinginspection_en-GB,AwaitingInspection,,FHRS,
26454,,,,,Dave Morris,Retailers - other,4613,,,281924,,,,PI/000101388,231,commercial@north-norfolk.gov.uk,North Norfolk,http://www.northnorfolk.org,,,,fhrs_awaitinginspection_en-GB,AwaitingInspection,,FHRS,
26455,Cromer Road,North Walsham,Norfolk,,Davenports Magic Kingdom,Restaurant/Cafe/Canteen,1,20,,551101,10,,52.82705900000000,PI/000070043,231,commercial@north-norfolk.gov.uk,North Norfolk,http://www.northnorfolk.org,1.36830400000000,NR28 0NB,2013-06-25,fhrs_1_en-GB,1,,FHRS,5
26456,Greshams School,Cromer Road,Holt,Norfolk,Daves Diner,School/college/university,7845,0,,595425,0,,52.91026500000000,PI/000071170,231,commercial@north-norfolk.gov.uk,North Norfolk,http://www.northnorfolk.org,1.10383900000000,NR25 6EA,2015-01-15,fhrs_5_en-GB,5,,FHRS,5
26457,7-11 Co-Operative Street,Sheringham,Norfolk,,Daves Fish Bar & Restaurant,Restaurant/Cafe/Canteen,1,5,,281319,10,,52.94409700000000,PI/000037281,231,commercial@north-norfolk.gov.uk,North Norfolk,http://www.northnorfolk.org,1.21267700000000,NR26 8DX,2014-09-08,fhrs_4_en-GB,4,,FHRS,5
26458,5 Staithe Street,Wells-next-the-Sea,Norfolk,,David Jagger Ltd,Retailers - other,4613,,,689739,,,52.95528600000000,PI/000057687,231,commercial@north-norfolk.gov.uk,North Norfolk,http://www.northnorfolk.org,0.85196000000000,NR23 1AG,,fhrs_awaitinginspection_en-GB,AwaitingInspection,,FHRS,
26459,7 Garden Street,Cromer,Norfolk,,Davies Fishmonger,Retailers - other,4613,5,,281085,5,,52.93181700000000,PI/000007298,231,commercial@north-norfolk.gov.uk,North Norfolk,http://www.northnorfolk.org,1.29941500000000,NR27 9HN,2014-12-05,fhrs_5_en-GB,5,,FHRS,0
26460,47 Station Road,Sheringham,Norfolk,,Dawnfresh,Retailers - other,4613,,,689750,,,52.94178700000000,PI/000058079,231,commercial@north-norfolk.gov.uk,North Norfolk,http://www.northnorfolk.org,1.21031700000000,NR26 8RG,,fhrs_awaitinginspection_en-GB,AwaitingInspection,,FHRS,
26461,Norfolk C C Day Care Services,Benjamin Court,Roughton Road,Cromer,Day Care Centre (Social Services),Hospitals/Childcare/Caring Premises,5,5,,281602,0,,52.92461900000000,PI/000059191,231,commercial@north-norfolk.gov.uk,North Norfolk,http://www.northnorfolk.org,1.30081700000000,NR27 0EU,2013-10-03,fhrs_5_en-GB,5,,FHRS,0
26462,Bramley Lodge,The Street,Ridlington,Norfolk,Day/Respite Service,Hospitals/Childcare/Caring Premises,5,10,,281297,0,,52.82370100000000,PI/000034829,231,commercial@north-norfolk.gov.uk,North Norfolk,http://www.northnorfolk.org,1.47960500000000,NR28 9NS,2012-08-01,fhrs_4_en-GB,4,,FHRS,0
26463,The Green,Aldborough,Norfolk,,Days Stores,Retailers - other,4613,,,689710,,,52.86164400000000,PI/000056925,231,commercial@north-norfolk.gov.uk,North Norfolk,http://www.northnorfolk.org,1.24387500000000,NR11 7AA,,fhrs_awaitinginspection_en-GB,AwaitingInspection,,FHRS,
26464,,,,,Deborah Robson,Retailers - other,4613,10,,638047,0,,,PI/000071680,231,commercial@north-norfolk.gov.uk,North Norfolk,http://www.northnorfolk.org,,,2014-05-07,fhrs_4_en-GB,4,,FHRS,0
26465,,,,,Deborah Steward Specialist Catering,Other catering premises,7841,5,,281525,5,,,PI/000057640,231,commercial@north-norfolk.gov.uk,North Norfolk,http://www.northnorfolk.org,,,2013-06-25,fhrs_5_en-GB,5,,FHRS,5
26466,Indulge,Norwich Road,Hoveton,Norfolk,Deckside Cafe,Restaurant/Cafe/Canteen,1,10,,689844,5,,52.71206200000000,PI/000071992,231,commercial@north-norfolk.gov.uk,North Norfolk,http://www.northnorfolk.org,1.40896700000000,NR12 8DA,2014-09-04,fhrs_4_en-GB,4,,FHRS,5
26467,Deers Glade Caravan Park,White Post Road,Hanworth,Norfolk,Deer's Glade Caravan & Camping Park,Retailers - other,4613,,,689893,,,52.85787800000000,PI/000108385,231,commercial@north-norfolk.gov.uk,North Norfolk,http://www.northnorfolk.org,1.28758900000000,NR11 7HN,,fhrs_awaitinginspection_en-GB,AwaitingInspection,,FHRS,
26468,Club At,95 Station Road,Sheringham,Norfolk,Dee's Kitchen,Pub/bar/nightclub,7843,10,,281552,5,,52.94175100000000,PI/000058095,231,commercial@north-norfolk.gov.uk,North Norfolk,http://www.northnorfolk.org,1.21028500000000,NR26 8RG,2014-03-26,fhrs_4_en-GB,4,,FHRS,5
26469,,,,,Dee's Snacks,Mobile caterer,7846,10,,282041,0,,,PI/500005584,231,commercial@north-norfolk.gov.uk,North Norfolk,http://www.northnorfolk.org,,,2009-08-13,fhrs_4_en-GB,4,,FHRS,0
26470,15 Beach Road,Mundesley,Norfolk,,Del's,Retailers - other,4613,,,710396,,,52.87532900000000,PI/000102432,231,commercial@north-norfolk.gov.uk,North Norfolk,http://www.northnorfolk.org,1.44000800000000,NR11 8BN,,fhrs_awaitinginspection_en-GB,AwaitingInspection,,FHRS,
26471,,,,,Denises's Kitchen,Mobile caterer,7846,10,,715119,5,,,PI/500009334,231,commercial@north-norfolk.gov.uk,North Norfolk,http://www.northnorfolk.org,,,2014-10-30,fhrs_4_en-GB,4,,FHRS,5
26472,,,,,Didi' Diane Cornish Ice Cream,Mobile caterer,7846,5,,427361,5,,,PI/500007002,231,commercial@north-norfolk.gov.uk,North Norfolk,http://www.northnorfolk.org,,,2012-08-29,fhrs_5_en-GB,5,,FHRS,5
26473,6 Garden Street,Cromer,Norfolk,,Digby's Fine Chocolates,Retailers - other,4613,5,,570113,0,,52.93181700000000,PI/000007285,231,commercial@north-norfolk.gov.uk,North Norfolk,http://www.northnorfolk.org,1.29941500000000,NR27 9HN,2009-08-27,fhrs_5_en-GB,5,,FHRS,0
26474,Village Hall,The Street,Dilham,Norfolk,Dilham Pre-School,Hospitals/Childcare/Caring Premises,5,,,281930,,,52.77488500000000,PI/000101797,231,commercial@north-norfolk.gov.uk,North Norfolk,http://www.northnorfolk.org,1.45522600000000,NR28 9PT,,fhrs_awaitinginspection_en-GB,AwaitingInspection,,FHRS,
26475,Cross Keys Inn,The Street,Dilham,Norfolk,Dilham Village Stores,Retailers - other,4613,5,,710395,0,,52.77517600000000,PI/000072669,231,commercial@north-norfolk.gov.uk,North Norfolk,http://www.northnorfolk.org,1.45602000000000,NR28 9PS,2015-01-21,fhrs_5_en-GB,5,,FHRS,0
26476,D Inacios,9 Norwich Street,Fakenham,Norfolk,D'Inacios Brasserie,Restaurant/Cafe/Canteen,1,5,,281154,5,,52.83029100000000,PI/000013785,231,commercial@north-norfolk.gov.uk,North Norfolk,http://www.northnorfolk.org,0.84935900000000,NR21 9AF,2013-10-24,fhrs_5_en-GB,5,,FHRS,5
26477,,,,,DJ Mobile Refreshments,Retailers - other,4613,5,,282082,10,,,PI/500006682,231,commercial@north-norfolk.gov.uk,North Norfolk,http://www.northnorfolk.org,,,2015-01-15,fhrs_3_en-GB,3,,FHRS,10
26478,,,,,Donna's Finest Scones,Retailers - other,4613,,,689819,,,,PI/000067993,231,commercial@north-norfolk.gov.uk,North Norfolk,http://www.northnorfolk.org,,,,fhrs_awaitinginspection_en-GB,AwaitingInspection,,FHRS,
26479,,,,,Doreen Neave,Retailers - other,4613,,,689788,,,,PI/000065303,231,commercial@north-norfolk.gov.uk,North Norfolk,http://www.northnorfolk.org,,,,fhrs_awaitinginspection_en-GB,AwaitingInspection,,FHRS,
26480,16 Cliff Road,Sheringham,Norfolk,,Dormie Residential Home,Hospitals/Childcare/Caring Premises,5,20,,281318,15,,52.94382800000000,PI/000037243,231,commercial@north-norfolk.gov.uk,North Norfolk,http://www.northnorfolk.org,1.21628900000000,NR26 8BJ,2015-01-05,fhrs_1_en-GB,1,,FHRS,5
26481,Cromer Road,West Runton,Norfolk,,Dormy House Hotel,Hotel/bed & breakfast/guest house,7842,5,,281448,5,,52.93717000000000,PI/000048896,231,commercial@north-norfolk.gov.uk,North Norfolk,http://www.northnorfolk.org,1.25207000000000,NR27 9QA,2014-08-05,fhrs_5_en-GB,5,,FHRS,5
26482,Westfield Avenue,Wells-next-the-Sea,Norfolk,,Dorrington House,Hospitals/Childcare/Caring Premises,5,0,,281650,0,,52.95581600000000,PI/000064437,231,commercial@north-norfolk.gov.uk,North Norfolk,http://www.northnorfolk.org,0.84410300000000,NR23 1BY,2014-01-10,fhrs_5_en-GB,5,,FHRS,0
26483,Douglas Bader Centre,Filby Road,Badersfield,Scottow,Douglas Bader School,School/college/university,7845,5,,281485,5,,52.75966900000000,PI/000056914,231,commercial@north-norfolk.gov.uk,North Norfolk,http://www.northnorfolk.org,1.34226800000000,NR10 5JW,2014-11-26,fhrs_5_en-GB,5,,FHRS,0
26484,The Dozy Dormouse,High Street,East Runton,Norfolk,Dozy Dormouse,Pub/bar/nightclub,7843,5,,635400,5,,52.93590600000000,PI/000071589,231,commercial@north-norfolk.gov.uk,North Norfolk,http://www.northnorfolk.org,1.27122200000000,NR27 9NX,2014-04-04,fhrs_5_en-GB,5,,FHRS,5
26485,20 Oak Street,Fakenham,Norfolk,,Drifters,Takeaway/sandwich shop,7844,5,,731274,5,,52.83147900000000,PI/000072935,231,commercial@north-norfolk.gov.uk,North Norfolk,http://www.northnorfolk.org,0.84633300000000,NR21 9DY,2014-12-19,fhrs_5_en-GB,5,,FHRS,5
26486,Unit 5 At,21 Tucker Street,Cromer,Norfolk,Dudley's Bakery,Manufacturers/packers,7839,0,,281568,0,,52.93161100000000,PI/000058285,231,commercial@north-norfolk.gov.uk,North Norfolk,http://www.northnorfolk.org,1.30196000000000,NR27 9HA,2014-03-31,fhrs_5_en-GB,5,,FHRS,5
26487,Coast Road,Bacton,Norfolk,,Duke Of Edinburgh,Pub/bar/nightclub,7843,10,,515715,10,,52.84817300000000,PI/000000925,231,commercial@north-norfolk.gov.uk,North Norfolk,http://www.northnorfolk.org,1.47871200000000,NR12 0EU,2013-10-03,fhrs_2_en-GB,2,,FHRS,15
26488,Dunsland,23-25 Paston Road,Mundesley,Norfolk,Dunsland Residential Home,Hospitals/Childcare/Caring Premises,5,,,281253,,,52.87532900000000,PI/000026584,231,commercial@north-norfolk.gov.uk,North Norfolk,http://www.northnorfolk.org,1.44000800000000,NR11 8BN,,fhrs_awaitinginspection_en-GB,AwaitingInspection,,FHRS,
26489,Atthills Farmhouse,Fox Hill,East Ruston,Norfolk,E & J de Feyter,Retailers - other,4613,,,689651,,,52.81304400000000,PI/000010712,231,commercial@north-norfolk.gov.uk,North Norfolk,http://www.northnorfolk.org,1.49027200000000,NR12 9HX,,fhrs_exempt_en-GB,Exempt,,FHRS,
26490,Top Farm,Thursford Road,Great Snoring,Norfolk,E J Perowne,Manufacturers/packers,7839,,,691682,,,52.87432400000000,PI/000016288,231,commercial@north-norfolk.gov.uk,North Norfolk,http://www.northnorfolk.org,0.89261200000000,NR21 0HW,2010-04-15,fhrs_exempt_en-GB,Exempt,,FHRS,
26491,,,,,East Coast Bars,Mobile caterer,7846,5,,705838,0,,,PI/500009257,231,commercial@north-norfolk.gov.uk,North Norfolk,http://www.northnorfolk.org,,,2015-01-07,fhrs_4_en-GB,4,,FHRS,10
26492,4 Folgate Road,North Walsham,Norfolk,,East Coast Plastics Ltd,Manufacturers/packers,7839,5,,281956,5,,52.82918600000000,PI/000102554,231,commercial@north-norfolk.gov.uk,North Norfolk,http://www.northnorfolk.org,1.38361400000000,NR28 0AJ,2014-03-31,fhrs_5_en-GB,5,,FHRS,5
26493,Shop At,46 High Street,East Runton,Norfolk,East Runton Butchers,Retailers - other,4613,5,,281573,5,,52.93590600000000,PI/000058329,231,commercial@north-norfolk.gov.uk,North Norfolk,http://www.northnorfolk.org,1.27122200000000,NR27 9NX,2013-11-14,fhrs_4_en-GB,4,,FHRS,10
26494,,,,,East Runton Butchers (Market Stall),Retailers - other,4613,10,,282071,10,,,PI/500005677,231,commercial@north-norfolk.gov.uk,North Norfolk,http://www.northnorfolk.org,,,2014-03-15,fhrs_3_en-GB,3,,FHRS,10
26495,East Runton Newsagents,17-19 High Street,East Runton,Norfolk,East Runton Newsagents/Tea Room,Restaurant/Cafe/Canteen,1,5,,281476,5,,52.93572000000000,PI/000053811,231,commercial@north-norfolk.gov.uk,North Norfolk,http://www.northnorfolk.org,1.27178800000000,NR27 9AB,2014-09-03,fhrs_4_en-GB,4,,FHRS,10
26496,High Street,East Runton,Norfolk,,East Runton Stores,Retailers - other,4613,5,,281123,5,,52.93572000000000,PI/000010409,231,commercial@north-norfolk.gov.uk,North Norfolk,http://www.northnorfolk.org,1.27178800000000,NR27 9AB,2009-07-07,fhrs_5_en-GB,5,,FHRS,5
