,addressline1,addressline2,addressline3,addressline4,businessname,businesstype,businesstypeid,confidenceinmanagement,extractdate,fhrsid,hygiene,itemcount,latitude,localauthoritybusinessid,localauthoritycode,localauthorityemailaddress,localauthorityname,localauthoritywebsite,longitude,postcode,ratingdate,ratingkey,ratingvalue,returncode,schemetype,structural
68494,University of Northampton,Boughton Green Road,Kingsthorpe,Northampton,1st Degree Facilities,Restaurant/Cafe/Canteen,1,5,,615641,5,,52.27200100000000,PI/000080526,239,ehadmin@northampton.gov.uk,Northampton,http://www.northampton.gov.uk,-0.88310200000000,NN2 7AL,2014-09-26,fhrs_5_en-GB,5,,FHRS,5
68495,@ Derngate Gym,9 Derngate,Northampton,,27 Red,Restaurant/Cafe/Canteen,1,10,,180101,10,,52.23701300000000,PI/000061999,239,ehadmin@northampton.gov.uk,Northampton,http://www.northampton.gov.uk,-0.89305900000000,NN1 1NN,2007-06-12,fhrs_3_en-GB,3,,FHRS,5
68496,56 Rushmere Road,Northampton,,,2's Catering,Restaurant/Cafe/Canteen,1,10,,175227,10,,52.23774800000000,PI/000031584,239,ehadmin@northampton.gov.uk,Northampton,http://www.northampton.gov.uk,-0.86158500000000,NN1 5RY,2010-04-15,fhrs_3_en-GB,3,,FHRS,5
68497,105c Harlestone Road,Duston,Northampton,,3 Tiers,Restaurant/Cafe/Canteen,1,5,,729241,5,,52.24499700000000,PI/000083299,239,ehadmin@northampton.gov.uk,Northampton,http://www.northampton.gov.uk,-0.92127600000000,NN5 7AQ,2014-11-07,fhrs_5_en-GB,5,,FHRS,5
68498,20 Gambrel Road,Duston,Northampton,,7 Day Catering @ Sainsburys,Restaurant/Cafe/Canteen,1,5,,181035,5,,52.23939500000000,PI/000068437,239,ehadmin@northampton.gov.uk,Northampton,http://www.northampton.gov.uk,-0.93503100000000,NN5 5DG,2013-05-03,fhrs_5_en-GB,5,,FHRS,5
68499,12e Weston Favell Centre,Weston Favell,Northampton,,99p Store,Retailers - other,4613,5,,181273,5,,52.25703900000000,PI/000069676,239,ehadmin@northampton.gov.uk,Northampton,http://www.northampton.gov.uk,-0.83549600000000,NN3 8JZ,2014-04-02,fhrs_5_en-GB,5,,FHRS,5
68500,55/57 Abington Street,Northampton,,,99p Store,Retailers - other,4613,5,,729251,5,,52.23879700000000,PI/000083817,239,ehadmin@northampton.gov.uk,Northampton,http://www.northampton.gov.uk,-0.89257600000000,NN1 2AW,2015-01-13,fhrs_5_en-GB,5,,FHRS,5
68501,34 Gold Street,Northampton,,,99p Stores Ltd,Retailers - other,4613,5,,169850,5,,52.23694700000000,PI/000016052,239,ehadmin@northampton.gov.uk,Northampton,http://www.northampton.gov.uk,-0.89950400000000,NN1 1RS,2012-08-22,fhrs_5_en-GB,5,,FHRS,5
68502,205 Broadway East,Abington,Northampton,,A & D Mini Market Ltd,Retailers - other,4613,10,,164394,5,,52.25559130000000,PI/000006210,239,ehadmin@northampton.gov.uk,Northampton,http://www.northampton.gov.uk,-0.85886613000000,NN3 OPU,2013-03-18,fhrs_4_en-GB,4,,FHRS,5
68503,180 Wellingborough Road,Northampton,,,A & K General Stores,Retailers - other,4613,10,,180295,5,,52.24152200000000,PI/000063488,239,ehadmin@northampton.gov.uk,Northampton,http://www.northampton.gov.uk,-0.87929700000000,NN1 4DZ,2014-03-05,fhrs_3_en-GB,3,,FHRS,10
68504,15 Warren Road,Dallington,Northampton,,A & K Newsagents,Retailers - other,4613,10,,176866,5,,52.24608500000000,PI/000039425,239,ehadmin@northampton.gov.uk,Northampton,http://www.northampton.gov.uk,-0.91830500000000,NN5 7BN,2008-04-24,fhrs_4_en-GB,4,,FHRS,5
68505,Ecton Brook Road,Ecton Brook,Northampton,,A & M Newsagents,Retailers - other,4613,,,168275,,,52.25632200000000,PI/000012877,239,ehadmin@northampton.gov.uk,Northampton,http://www.northampton.gov.uk,-0.80420600000000,NN3 5EN,2013-12-19,fhrs_exempt_en-GB,Exempt,,FHRS,
68506,61-63 Delapre Street,Far Cotton,Northampton,,Aarthiee Super Store,Retailers - other,4613,20,,715388,10,,52.22674100000000,PI/000084028,239,ehadmin@northampton.gov.uk,Northampton,http://www.northampton.gov.uk,-0.90609600000000,NN4 8EU,2014-10-16,fhrs_1_en-GB,1,,FHRS,15
68507,c/o Abbey Centre,Overslade Close,Merefield,Northampton,Abbey Centre Pre School,Hospitals/Childcare/Caring Premises,5,5,,174130,5,,52.21024200000000,PI/000028079,239,ehadmin@northampton.gov.uk,Northampton,http://www.northampton.gov.uk,-0.89827600000000,NN4 0XQ,2014-03-19,fhrs_5_en-GB,5,,FHRS,0
68508,245 Abington Avenue,Northampton,,,Abbey House,Hospitals/Childcare/Caring Premises,5,5,,160582,5,,52.24998200000000,PI/000000289,239,ehadmin@northampton.gov.uk,Northampton,http://www.northampton.gov.uk,-0.86792200000000,NN3 2BU,2013-07-22,fhrs_5_en-GB,5,,FHRS,5
68509,123 Abington Avenue,Northampton,,,Abington Avenue Guest House,Hotel/bed & breakfast/guest house,7842,10,,160519,5,,52.24884400000000,PI/000000211,239,ehadmin@northampton.gov.uk,Northampton,http://www.northampton.gov.uk,-0.87492400000000,NN1 4QB,2013-01-29,fhrs_4_en-GB,4,,FHRS,5
68510,12 Park Avenue South,Abington,Northampton,,Abington Bowling Club,Pub/bar/nightclub,7843,0,,174236,0,,52.24169900000000,PI/000028472,239,ehadmin@northampton.gov.uk,Northampton,http://www.northampton.gov.uk,-0.86303600000000,NN3 3AA,2013-09-11,fhrs_5_en-GB,5,,FHRS,0
68511,Lea Road,Northampton,,,Abington Christian Centre,Restaurant/Cafe/Canteen,1,10,,171869,5,,52.24701300000000,PI/000021586,239,ehadmin@northampton.gov.uk,Northampton,http://www.northampton.gov.uk,-0.87527700000000,NN1 4PF,2013-03-20,fhrs_3_en-GB,3,,FHRS,10
68512,473 Wellingborough Road,Northampton,,,Abington Park Day Nursery,School/college/university,7845,5,,178775,5,,52.25006400000000,PI/000050231,239,ehadmin@northampton.gov.uk,Northampton,http://www.northampton.gov.uk,-0.86431600000000,NN3 3HN,2014-03-13,fhrs_5_en-GB,5,,FHRS,5
68513,407 Wellingborough Road,Northampton,,,Abington Park Guest House,Hotel/bed & breakfast/guest house,7842,10,,177052,10,,52.24650500000000,PI/000040405,239,ehadmin@northampton.gov.uk,Northampton,http://www.northampton.gov.uk,-0.87003200000000,NN1 4EY,2013-10-04,fhrs_3_en-GB,3,,FHRS,5
68514,477 Wellingborough Road,Northampton,,,Abington Park View Resid.Care Home,Hospitals/Childcare/Caring Premises,5,5,,177057,5,,52.25006400000000,PI/000040433,239,ehadmin@northampton.gov.uk,Northampton,http://www.northampton.gov.uk,-0.86431600000000,NN3 3HN,2014-06-18,fhrs_5_en-GB,5,,FHRS,0
68515,51f Beech Avenue,Abington,Northampton,,Abington Pharmacy,Retailers - other,4613,,,179203,,,52.25327100000000,PI/000053981,239,ehadmin@northampton.gov.uk,Northampton,http://www.northampton.gov.uk,-0.86590500000000,NN3 2JG,2013-08-28,fhrs_exempt_en-GB,Exempt,,FHRS,
68516,43 Landcross Drive,Abington Vale,Northampton,,Abington Plaice,Takeaway/sandwich shop,7844,5,,180150,5,,52.24204300000000,PI/000062480,239,ehadmin@northampton.gov.uk,Northampton,http://www.northampton.gov.uk,-0.85667100000000,NN3 3LN,2013-03-26,fhrs_5_en-GB,5,,FHRS,5
68517,5 Kettering Road,Northampton,,,Abington Square News,Retailers - other,4613,,,177818,,,52.24106900000000,PI/000043812,239,ehadmin@northampton.gov.uk,Northampton,http://www.northampton.gov.uk,-0.88651400000000,NN1 4AJ,2006-12-12,fhrs_exempt_en-GB,Exempt,,FHRS,
68518,244 Wellingborough Road,Northampton,,,Abington Supermarket,Retailers - other,4613,10,,177014,5,,52.24206200000000,PI/000040242,239,ehadmin@northampton.gov.uk,Northampton,http://www.northampton.gov.uk,-0.87556400000000,NN1 4EJ,2010-03-22,fhrs_3_en-GB,3,,FHRS,10
68519,113 Adnitt Road,Abington,Northampton,,Abington Tandoori Takeaway,Takeaway/sandwich shop,7844,20,,161046,10,,52.23807500000000,PI/000000926,239,ehadmin@northampton.gov.uk,Northampton,http://www.northampton.gov.uk,-0.89706000000000,NN1 2HJ,2014-09-25,fhrs_1_en-GB,1,,FHRS,15
68520,45/47 Landcross Drive,Abington Vale,Northampton,,Abington Vale Supermarket,Retailers - other,4613,10,,171791,5,,52.25024900000000,PI/000021335,239,ehadmin@northampton.gov.uk,Northampton,http://www.northampton.gov.uk,-0.94367600000000,NN5 3LN,2013-03-19,fhrs_4_en-GB,4,,FHRS,5
68521,13 Warren Road,Dallington,Northampton,,Abirami Mini Market,Retailers - other,4613,10,,181271,5,,52.24608500000000,PI/000069671,239,ehadmin@northampton.gov.uk,Northampton,http://www.northampton.gov.uk,-0.91830500000000,NN5 7BN,2009-11-03,fhrs_4_en-GB,4,,FHRS,5
68522,16 Nene Place,Off Nene Way,Northampton,,Abi's Flavours,Restaurant/Cafe/Canteen,1,10,,434290,5,,52.25969400000000,PI/000076761,239,ehadmin@northampton.gov.uk,Northampton,http://www.northampton.gov.uk,-0.91705100000000,NN5 7PR,2012-05-24,fhrs_4_en-GB,4,,FHRS,5
68523,C/O Levi Strauss (Uk) Ltd,Tithe Barn Way,Swan Valley,Northampton,ABM Catering Ltd,Restaurant/Cafe/Canteen,1,0,,178467,0,,52.21349200000000,PI/000047278,239,ehadmin@northampton.gov.uk,Northampton,http://www.northampton.gov.uk,-0.95106300000000,NN4 9BA,2013-10-23,fhrs_5_en-GB,5,,FHRS,5
68524,The Mews,1 College Street Mews,Northampton,,Academy Coffee Haus,Restaurant/Cafe/Canteen,1,5,,664733,5,,52.23760500000000,PI/000082183,239,ehadmin@northampton.gov.uk,Northampton,http://www.northampton.gov.uk,-0.89868300000000,NN1 2QF,2013-12-05,fhrs_5_en-GB,5,,FHRS,5
68525,40 Kingsley Park Terrace,Kingsley,Northampton,,Acca Limited T/A Pizza Hut,Takeaway/sandwich shop,7844,5,,178876,5,,52.25275500000000,PI/000050652,239,ehadmin@northampton.gov.uk,Northampton,http://www.northampton.gov.uk,-0.87774000000000,NN2 7HH,2013-06-10,fhrs_4_en-GB,4,,FHRS,10
68526,4 Cullahill Court,Camp Hill,Northampton,,Ace Cafe (Mobile Trader),Mobile caterer,7846,10,,179433,5,,52.22278100000000,PI/000057150,239,ehadmin@northampton.gov.uk,Northampton,http://www.northampton.gov.uk,-0.92821100000000,NN4 9YJ,2013-03-22,fhrs_3_en-GB,3,,FHRS,10
68527,Headlands Primary School,Bushland Road,Headlands,Northampton,Acorn Child Care,Hospitals/Childcare/Caring Premises,5,5,,164786,5,,52.25884700000000,PI/000006904,239,ehadmin@northampton.gov.uk,Northampton,http://www.northampton.gov.uk,-0.85215100000000,NN3 2NS,2014-02-05,fhrs_5_en-GB,5,,FHRS,5
68528,145-147 Adnitt Road,Abington,Northampton,,Adnitt News Food and Wine Stores,Retailers - other,4613,10,,161071,5,,52.24587400000000,PI/000000956,239,ehadmin@northampton.gov.uk,Northampton,http://www.northampton.gov.uk,-0.87369500000000,NN1 4NH,2008-09-29,fhrs_3_en-GB,3,,FHRS,10
68529,62 Clarence Avenue,Queens Park,Northampton,,ADore...Flavas,Mobile caterer,7846,10,,180625,5,,52.25699500000000,PI/000065890,239,ehadmin@northampton.gov.uk,Northampton,http://www.northampton.gov.uk,-0.89836400000000,NN2 6PA,2011-07-14,fhrs_4_en-GB,4,,FHRS,5
68530,3 Carousel Way,Riverside Park,A45 Northampton,,ADR Group Ltd,Mobile caterer,7846,5,,581703,5,,52.24491000000000,PI/000073321,239,ehadmin@northampton.gov.uk,Northampton,http://www.northampton.gov.uk,-0.83361600000000,NN3 9HG,2013-04-26,fhrs_5_en-GB,5,,FHRS,5
68531,Elders Society,Park Avenue North,Abington,Northampton,African & Caribbean,Restaurant/Cafe/Canteen,1,5,,174233,5,,52.25101500000000,PI/000028467,239,ehadmin@northampton.gov.uk,Northampton,http://www.northampton.gov.uk,-0.85566400000000,NN3 3HT,2013-12-10,fhrs_5_en-GB,5,,FHRS,5
68532,36 Abington Square,Northampton,,,Afro Choice,Retailers - other,4613,10,,648851,15,,52.23990800000000,PI/000082222,239,ehadmin@northampton.gov.uk,Northampton,http://www.northampton.gov.uk,-0.88833000000000,NN1 4AA,2014-03-31,fhrs_2_en-GB,2,,FHRS,10
68533,84 Wellingborough Road,Northampton,,,Afro Express Mart,Retailers - other,4613,10,,181097,10,,52.24072900000000,PI/000068716,239,ehadmin@northampton.gov.uk,Northampton,http://www.northampton.gov.uk,-0.88478000000000,NN1 4DP,2013-11-20,fhrs_3_en-GB,3,,FHRS,5
68534,@ Eleonore House,3 Buttermere Close,Eastfield,Northampton,Age UK Northamptonshire,Hospitals/Childcare/Caring Premises,5,5,,182276,0,,52.26350900000000,PI/000073540,239,ehadmin@northampton.gov.uk,Northampton,http://www.northampton.gov.uk,-0.85354000000000,NN3 2BG,2011-02-24,fhrs_5_en-GB,5,,FHRS,0
68535,c/o Community Room,Nene Drive,Kings Heath,Northampton,Age UK Northamptonshire,Restaurant/Cafe/Canteen,1,5,,173570,5,,52.25975200000000,PI/000026165,239,ehadmin@northampton.gov.uk,Northampton,http://www.northampton.gov.uk,-0.91844200000000,NN5 7NQ,2011-06-02,fhrs_4_en-GB,4,,FHRS,10
68536,William & Patricia Venton Centre,York Road,Northampton,,Age UK Northamptonshire,Restaurant/Cafe/Canteen,1,5,,177453,5,,52.23889600000000,PI/000042296,239,ehadmin@northampton.gov.uk,Northampton,http://www.northampton.gov.uk,-0.88869200000000,NN1 5QG,2014-09-01,fhrs_5_en-GB,5,,FHRS,5
68537,29a High Street,Wootton,Northampton,,AJ's Village Shop,Retailers - other,4613,10,,170815,5,,52.20235500000000,PI/000018745,239,ehadmin@northampton.gov.uk,Northampton,http://www.northampton.gov.uk,-0.88654600000000,NN4 6LW,2006-11-30,fhrs_4_en-GB,4,,FHRS,5
68538,113 St Leonards Road,Far Cotton,Northampton,,Akbor Tandoori Indian Takeaway,Restaurant/Cafe/Canteen,1,10,,181055,5,,52.22806200000000,PI/000068506,239,ehadmin@northampton.gov.uk,Northampton,http://www.northampton.gov.uk,-0.90016300000000,NN4 8DN,2014-10-09,fhrs_4_en-GB,4,,FHRS,5
68539,9 Sheep Street,Northampton,,,Al Fairoz Kebabish,Takeaway/sandwich shop,7844,10,,181275,5,,52.23904900000000,PI/000069680,239,ehadmin@northampton.gov.uk,Northampton,http://www.northampton.gov.uk,-0.89826600000000,NN1 2LT,2013-08-20,fhrs_4_en-GB,4,,FHRS,5
68540,96 Bridge Street,Northampton,,,Aladdins Balti,Restaurant/Cafe/Canteen,1,10,,164126,10,,52.23425000000000,PI/000005862,239,ehadmin@northampton.gov.uk,Northampton,http://www.northampton.gov.uk,-0.89762400000000,NN1 1PD,2013-02-12,fhrs_3_en-GB,3,,FHRS,10
68541,94 Abington Street,Northampton,,,Albert J Ramsbottom,Restaurant/Cafe/Canteen,1,5,,683477,5,,52.23851400000000,PI/000083254,239,ehadmin@northampton.gov.uk,Northampton,http://www.northampton.gov.uk,-0.89211400000000,NN1 2AP,2014-04-30,fhrs_5_en-GB,5,,FHRS,5
68542,54 Kingswell Street,Northampton,,,Albion Brewery,Manufacturers/packers,7839,5,,700482,5,,52.23491800000000,PI/000082159,239,ehadmin@northampton.gov.uk,Northampton,http://www.northampton.gov.uk,-0.89791500000000,NN1 1PR,2014-07-09,fhrs_5_en-GB,5,,FHRS,5
68543,39 Harlestone Road,Duston,Northampton,,Aldi,Retailers - supermarkets/hypermarkets,7840,5,,170546,5,,52.24022500000000,PI/000017867,239,ehadmin@northampton.gov.uk,Northampton,http://www.northampton.gov.uk,-0.91557700000000,NN5 7AE,2006-03-21,fhrs_5_en-GB,5,,FHRS,5
68544,582-590 Wellingborough Road,Northampton,,,Aldi Stores,Retailers - supermarkets/hypermarkets,7840,5,,434269,5,,52.25222900000000,PI/000067884,239,ehadmin@northampton.gov.uk,Northampton,http://www.northampton.gov.uk,-0.84646200000000,NN3 3JB,2012-05-17,fhrs_5_en-GB,5,,FHRS,5
68545,15 Bradshaw Street,Northampton,,,Ali Baba,Takeaway/sandwich shop,7844,10,,179251,10,,52.23844300000000,PI/000054965,239,ehadmin@northampton.gov.uk,Northampton,http://www.northampton.gov.uk,-0.89793000000000,NN1 2HL,2014-03-12,fhrs_3_en-GB,3,,FHRS,5
68546,3 George Row,Northampton,,,All Saints Cafe,Restaurant/Cafe/Canteen,1,5,,180835,5,,52.23676500000000,PI/000067374,239,ehadmin@northampton.gov.uk,Northampton,http://www.northampton.gov.uk,-0.89640400000000,NN1 1DF,2014-02-13,fhrs_5_en-GB,5,,FHRS,5
68547,c/o Billing Garden Village,The Causeway,Great Billing,Northampton,All Seasons Cafe,Restaurant/Cafe/Canteen,1,5,,182313,5,,52.24475500000000,PI/000073880,239,ehadmin@northampton.gov.uk,Northampton,http://www.northampton.gov.uk,-0.80816400000000,NN3 9EX,2013-07-25,fhrs_5_en-GB,5,,FHRS,0
68548,119 Whitworth Road,Northampton,,,Allen & Whitworth UK Ltd,Hospitals/Childcare/Caring Premises,5,5,,648831,5,,52.24412500000000,PI/000041240,239,ehadmin@northampton.gov.uk,Northampton,http://www.northampton.gov.uk,-0.87980300000000,NN1 4HQ,2014-03-31,fhrs_4_en-GB,4,,FHRS,10
68549,71 Allen Road,Abington,Northampton,,Allen & Whitworth UK Ltd,Hospitals/Childcare/Caring Premises,5,5,,648827,5,,52.24465400000000,PI/000001473,239,ehadmin@northampton.gov.uk,Northampton,http://www.northampton.gov.uk,-0.87391600000000,NN1 4NB,2014-03-31,fhrs_5_en-GB,5,,FHRS,5
68550,90 Perry Street,Northampton,,,Allen & Whitworth UK Ltd,Hospitals/Childcare/Caring Premises,5,5,,648832,5,,52.24540700000000,PI/000042901,239,ehadmin@northampton.gov.uk,Northampton,http://www.northampton.gov.uk,-0.87845300000000,NN1 4HW,2014-03-31,fhrs_5_en-GB,5,,FHRS,5
68551,7 Windflower Place,Ecton Brook,Northampton,,Allires,Restaurant/Cafe/Canteen,1,10,,543292,5,,52.25821200000000,PI/000042451,239,ehadmin@northampton.gov.uk,Northampton,http://www.northampton.gov.uk,-0.80616300000000,NN3 5HA,2013-04-09,fhrs_4_en-GB,4,,FHRS,5
68552,Community Cafe,Adelaide Street,Semilong,Northampton,Alliston Gns Youth &,Other catering premises,7841,10,,161026,5,,52.24580700000000,PI/000000908,239,ehadmin@northampton.gov.uk,Northampton,http://www.northampton.gov.uk,-0.90189300000000,NN2 6BB,2014-03-31,fhrs_4_en-GB,4,,FHRS,5
68553,192 Kettering Road,Northampton,,,Al-Madina Supermarket,Retailers - other,4613,20,,177771,15,,52.24500200000000,PI/000043676,239,ehadmin@northampton.gov.uk,Northampton,http://www.northampton.gov.uk,-0.88312000000000,NN1 4BJ,2013-08-20,fhrs_1_en-GB,1,,FHRS,15
68554,@ Camp Hill Centre,Hunsbury Hill Road,Camp Hill,Northampton,Alphabet Day Nursery,Hospitals/Childcare/Caring Premises,5,5,,179020,5,,52.22138900000000,PI/000051643,239,ehadmin@northampton.gov.uk,Northampton,http://www.northampton.gov.uk,-0.92634200000000,NN4 9UW,2014-05-15,fhrs_5_en-GB,5,,FHRS,5
68555,Kingswell Road,Kingsthorpe,Northampton,,Alphabet Day Nursery,Hospitals/Childcare/Caring Premises,5,5,,171696,5,,52.26046900000000,PI/000021073,239,ehadmin@northampton.gov.uk,Northampton,http://www.northampton.gov.uk,-0.90355200000000,NN2 6QB,2014-10-07,fhrs_5_en-GB,5,,FHRS,5
68556,47 Bordeaux Close,St Giles Park,Northampton,,Alsace Park Fish Bar,Takeaway/sandwich shop,7844,5,,178014,5,,52.25355900000000,PI/000044773,239,ehadmin@northampton.gov.uk,Northampton,http://www.northampton.gov.uk,-0.96270200000000,NN5 6YR,2014-02-20,fhrs_5_en-GB,5,,FHRS,5
68557,@ Eleanor House,3 Buttermere Close,Eastfield,Northampton,Alzheimer's Society Day Support Serv,Hospitals/Childcare/Caring Premises,5,5,,182279,5,,52.26350900000000,PI/000073568,239,ehadmin@northampton.gov.uk,Northampton,http://www.northampton.gov.uk,-0.85354000000000,NN3 2BG,2011-08-17,fhrs_5_en-GB,5,,FHRS,5
68558,2 St Marks House,30 St Andrews Street,Northampton,,Ambe Supermarket,Retailers - other,4613,10,,175810,5,,52.24061900000000,PI/000033989,239,ehadmin@northampton.gov.uk,Northampton,http://www.northampton.gov.uk,-0.90082000000000,NN1 2JD,2008-05-28,fhrs_3_en-GB,3,,FHRS,10
68559,2 Cypress Court,The Arbours,Northampton,,Amberlicious Cupcakes,Restaurant/Cafe/Canteen,1,10,,700488,5,,52.26144900000000,PI/000083056,239,ehadmin@northampton.gov.uk,Northampton,http://www.northampton.gov.uk,-0.84323400000000,NN3 3RU,2014-09-15,fhrs_4_en-GB,4,,FHRS,0
68560,38 Ambush Street,St James,Northampton,,Ambush Street Mini Market,Retailers - other,4613,10,,180882,5,,52.23807500000000,PI/000067846,239,ehadmin@northampton.gov.uk,Northampton,http://www.northampton.gov.uk,-0.91063600000000,NN5 5DX,2013-03-14,fhrs_3_en-GB,3,,FHRS,10
68561,Weston Favell School,Booth Lane South,Weston Favell,Northampton,AMEY (Catering),School/college/university,7845,0,,179208,0,,52.25823500000000,PI/000054210,239,ehadmin@northampton.gov.uk,Northampton,http://www.northampton.gov.uk,-0.84747900000000,NN3 3EZ,2013-10-16,fhrs_5_en-GB,5,,FHRS,5
68562,45-48 Lower Meadow Court,Thorplands,Northampton,,Amey@ Bridgewood Probation Hostel,Hospitals/Childcare/Caring Premises,5,10,,180620,5,,52.26915300000000,PI/000065882,239,ehadmin@northampton.gov.uk,Northampton,http://www.northampton.gov.uk,-0.83673200000000,NN3 8AU,2013-06-13,fhrs_4_en-GB,4,,FHRS,5
68563,334 Wellingborough Road,Northampton,,,Amigos,Restaurant/Cafe/Canteen,1,10,,636071,10,,52.24353100000000,PI/000082246,239,ehadmin@northampton.gov.uk,Northampton,http://www.northampton.gov.uk,-0.87209900000000,NN1 4ES,2014-01-30,fhrs_2_en-GB,2,,FHRS,15
68564,12 St Giles Street,Northampton,,,Amika Express Ltd,Retailers - other,4613,10,,181085,5,,52.23714300000000,PI/000068648,239,ehadmin@northampton.gov.uk,Northampton,http://www.northampton.gov.uk,-0.89348100000000,NN1 1JA,2013-03-21,fhrs_4_en-GB,4,,FHRS,5
68565,193 Broadway East,Abington,Northampton,,Amin News,Retailers - other,4613,10,,164382,5,,52.25586000000000,PI/000006199,239,ehadmin@northampton.gov.uk,Northampton,http://www.northampton.gov.uk,-0.85833800000000,NN3 2PU,2013-03-19,fhrs_4_en-GB,4,,FHRS,5
68566,1 Greenview Drive,Links View,Northampton,,Amisha General Store,Retailers - other,4613,10,,170215,10,,52.25831600000000,PI/000016972,239,ehadmin@northampton.gov.uk,Northampton,http://www.northampton.gov.uk,-0.88296200000000,NN2 7LA,2008-03-19,fhrs_3_en-GB,3,,FHRS,5
68567,Northampton Uni Library,Park Campus,Boughton Green Road,Kingsthorpe,AMT Coffee Ltd,Restaurant/Cafe/Canteen,1,5,,182453,5,,52.27200100000000,PI/000075409,239,ehadmin@northampton.gov.uk,Northampton,http://www.northampton.gov.uk,-0.88310200000000,NN2 7AL,2013-03-19,fhrs_5_en-GB,5,,FHRS,5
68568,18 Alexandra Road,Northampton,,,Amy's Vintage Tea,Restaurant/Cafe/Canteen,1,10,,700483,5,,52.23872100000000,PI/000082413,239,ehadmin@northampton.gov.uk,Northampton,http://www.northampton.gov.uk,-0.88727600000000,NN1 5QP,2014-02-18,fhrs_4_en-GB,4,,FHRS,5
68569,174/175 Open Market,Northampton,,,Andreoli,Retailers - other,4613,10,,178324,5,,52.23811900000000,PI/000046387,239,ehadmin@northampton.gov.uk,Northampton,http://www.northampton.gov.uk,-0.89695700000000,NN1 2DL,2009-01-30,fhrs_4_en-GB,4,,FHRS,5
68570,199/199a Kettering Road,Northampton,,,Andrew Squires,Retailers - other,4613,5,,177775,5,,52.24591800000000,PI/000043690,239,ehadmin@northampton.gov.uk,Northampton,http://www.northampton.gov.uk,-0.88303900000000,NN1 4BP,2007-08-08,fhrs_5_en-GB,5,,FHRS,5
68571,7a Weston Favell Centre,Weston Favell,Northampton,,Andrews Emporium,Restaurant/Cafe/Canteen,1,10,,338737,5,,52.25703900000000,PI/000076630,239,ehadmin@northampton.gov.uk,Northampton,http://www.northampton.gov.uk,-0.83549600000000,NN3 8JZ,2013-10-04,fhrs_4_en-GB,4,,FHRS,5
68572,7 Coppice Drive,Parklands,Northampton,,Andrews Take Away,Takeaway/sandwich shop,7844,10,,166619,10,,52.27481000000000,PI/000009892,239,ehadmin@northampton.gov.uk,Northampton,http://www.northampton.gov.uk,-0.82997900000000,NN3 1ND,2014-06-06,fhrs_3_en-GB,3,,FHRS,5
68573,21 Barring Street,Upton (Area D2),Northampton,,Angel Cakes,Restaurant/Cafe/Canteen,1,5,,462540,5,,52.25275200000000,PI/000077356,239,ehadmin@northampton.gov.uk,Northampton,http://www.northampton.gov.uk,-0.81577300000000,NN3 9BJ,2012-10-16,fhrs_5_en-GB,5,,FHRS,5
68574,Ann Summers,9a Abington Street,Northampton,,Ann Summers,Retailers - other,4613,,,179025,,,52.23812700000000,PI/000051745,239,ehadmin@northampton.gov.uk,Northampton,http://www.northampton.gov.uk,-0.89489200000000,NN1 2AN,2010-10-07,fhrs_exempt_en-GB,Exempt,,FHRS,
68575,213 Cotswold Avenue,Duston,Northampton,,Anna's Delight,Restaurant/Cafe/Canteen,1,5,,581713,5,,52.24989000000000,PI/000079074,239,ehadmin@northampton.gov.uk,Northampton,http://www.northampton.gov.uk,-0.94233900000000,NN5 6EG,2013-07-18,fhrs_5_en-GB,5,,FHRS,5
68576,168/170 Kettering Road,Northampton,,,Apna Cash & Carry,Retailers - other,4613,20,,177757,15,,52.24416100000000,PI/000043643,239,ehadmin@northampton.gov.uk,Northampton,http://www.northampton.gov.uk,-0.88358100000000,NN1 4BE,2013-11-27,fhrs_1_en-GB,1,,FHRS,15
68577,57 Drovers Walk,Spring Park,Northampton,,Arabian Munch,Restaurant/Cafe/Canteen,1,5,,734861,0,,52.27065900000000,PI/000083795,239,ehadmin@northampton.gov.uk,Northampton,http://www.northampton.gov.uk,-0.91273900000000,NN2 8BB,2014-11-27,fhrs_5_en-GB,5,,FHRS,0
68578,C/O Nationwide Anglia,Kings Park Road,Moulton Park,Northampton,Aramark,Restaurant/Cafe/Canteen,1,0,,171485,0,,52.23439025878906,PI/000020528,239,ehadmin@northampton.gov.uk,Northampton,http://www.northampton.gov.uk,-0.88120001554489,NN3 1NL,2009-09-18,fhrs_5_en-GB,5,,FHRS,0
68579,@ Northants Police,Wootton Hall Park,Wootton,Northampton,Aramark Services,Restaurant/Cafe/Canteen,1,5,,182277,5,,52.20992100000000,PI/000073541,239,ehadmin@northampton.gov.uk,Northampton,http://www.northampton.gov.uk,-0.90138700000000,NN4 0JQ,2014-06-04,fhrs_5_en-GB,5,,FHRS,5
68580,2 Wootton Hope Drive,Wootton,Northampton,,Aramintas,Takeaway/sandwich shop,7844,10,,178487,5,,52.20309600000000,PI/000047479,239,ehadmin@northampton.gov.uk,Northampton,http://www.northampton.gov.uk,-0.87648900000000,NN4 6DY,2014-02-12,fhrs_4_en-GB,4,,FHRS,5
68581,62 St Giles Street,Northampton,,,Are you being served?,Restaurant/Cafe/Canteen,1,0,,181158,5,,52.23763700000000,PI/000068950,239,ehadmin@northampton.gov.uk,Northampton,http://www.northampton.gov.uk,-0.89054000000000,NN1 1JW,2014-03-24,fhrs_5_en-GB,5,,FHRS,5
68582,4/7 St Peters Square,Northampton,,,Argos Ltd,Retailers - other,4613,,,178435,,,52.23584700000000,PI/000047056,239,ehadmin@northampton.gov.uk,Northampton,http://www.northampton.gov.uk,-0.89915100000000,NN1 1PS,2013-09-19,fhrs_exempt_en-GB,Exempt,,FHRS,
68583,Weedon Road,St James,Northampton,,Argos Ltd,Retailers - other,4613,,,180809,,,52.23884200000000,PI/000067159,239,ehadmin@northampton.gov.uk,Northampton,http://www.northampton.gov.uk,-0.93349200000000,NN5 5DF,2014-01-02,fhrs_exempt_en-GB,Exempt,,FHRS,
68584,Manning Road,Moulton Leys,Northampton,,Arnold House,Hotel/bed & breakfast/guest house,7842,5,,180894,0,,52.27971600000000,PI/000067942,239,ehadmin@northampton.gov.uk,Northampton,http://www.northampton.gov.uk,-0.85598000000000,NN3 7XE,2013-08-30,fhrs_5_en-GB,5,,FHRS,0
68585,130 Adnitt Road,Abington,Northampton,,ASC Ltd Newsagent,Retailers - other,4613,10,,161060,10,,52.24551600000000,PI/000000943,239,ehadmin@northampton.gov.uk,Northampton,http://www.northampton.gov.uk,-0.87386500000000,NN1 4NF,2013-08-27,fhrs_3_en-GB,3,,FHRS,10
68586,50 Harborough Road,Kingsthorpe,Northampton,,Asda,Retailers - supermarkets/hypermarkets,7840,5,,179108,10,,52.26911100000000,PI/000052569,239,ehadmin@northampton.gov.uk,Northampton,http://www.northampton.gov.uk,-0.89124900000000,NN2 7BA,2014-01-23,fhrs_4_en-GB,4,,FHRS,5
68587,London Road,Northampton,,,Asda,Retailers - supermarkets/hypermarkets,7840,5,,434277,5,,52.22867400000000,PI/000075858,239,ehadmin@northampton.gov.uk,Northampton,http://www.northampton.gov.uk,-0.89543400000000,NN4 8ER,2012-07-31,fhrs_5_en-GB,5,,FHRS,5
68588,Thornton Road,Kingsthorpe Hollow,Northampton,,Asda Supermarket,Retailers - supermarkets/hypermarkets,7840,5,,446076,5,,52.25331800000000,PI/000075028,239,ehadmin@northampton.gov.uk,Northampton,http://www.northampton.gov.uk,-0.90327500000000,NN2 6LS,2012-08-08,fhrs_5_en-GB,5,,FHRS,5
68589,332 Wellingborough Road,Northampton,,,Asheesh Newsagents,Retailers - other,4613,,,177035,,,52.24302700000000,PI/000040341,239,ehadmin@northampton.gov.uk,Northampton,http://www.northampton.gov.uk,-0.87307900000000,NN1 4EP,2013-12-03,fhrs_exempt_en-GB,Exempt,,FHRS,
68590,3 Quarry Road,New Duston,Northampton,,Ashvin Food & Wine,Retailers - other,4613,10,,177584,5,,52.25950600000000,PI/000042743,239,ehadmin@northampton.gov.uk,Northampton,http://www.northampton.gov.uk,-0.95304000000000,NN5 6NT,2008-04-16,fhrs_3_en-GB,3,,FHRS,10
68591,10 St Giles Square,Northampton,,,Ask Restaurants Ltd,Restaurant/Cafe/Canteen,1,5,,566920,0,,52.23717700000000,PI/000079641,239,ehadmin@northampton.gov.uk,Northampton,http://www.northampton.gov.uk,-0.89517900000000,NN1 1DA,2012-06-07,fhrs_5_en-GB,5,,FHRS,0
68592,Commercial Street,Northampton,,,Aspers (Northampton) Ltd,Restaurant/Cafe/Canteen,1,5,,180215,0,,52.23477100000000,PI/000062979,239,ehadmin@northampton.gov.uk,Northampton,http://www.northampton.gov.uk,-0.89846000000000,NN1 1PJ,2012-05-15,fhrs_5_en-GB,5,,FHRS,0
68593,Old School Building,Adelaide Place,Town Centre,Northampton,Atmosphere,Pub/bar/nightclub,7843,5,,180266,5,,52.23614700000000,PI/000063292,239,ehadmin@northampton.gov.uk,Northampton,http://www.northampton.gov.uk,-0.90041800000000,NN1 1AJ,2007-10-03,fhrs_4_en-GB,4,,FHRS,10
68594,54 Lindsay Avenue,Abington,Northampton,,Aunty Bo's,Restaurant/Cafe/Canteen,1,10,,180141,5,,52.25556200000000,PI/000062416,239,ehadmin@northampton.gov.uk,Northampton,http://www.northampton.gov.uk,-0.86294500000000,NN3 2LP,2011-01-27,fhrs_4_en-GB,4,,FHRS,0
68595,@ B & Q Warehouse,Towcester Road,Northampton,,Autograph the Food People,Restaurant/Cafe/Canteen,1,5,,176645,0,,52.23127200000000,PI/000038238,239,ehadmin@northampton.gov.uk,Northampton,http://www.northampton.gov.uk,-0.90605800000000,NN1 1ET,2014-05-22,fhrs_5_en-GB,5,,FHRS,0
68596,University of Northampton,Avenue Campus,St Georges Avenue,Northampton,Avenue Restaurant,Restaurant/Cafe/Canteen,1,5,,200547,5,,52.25099200000000,PI/000065912,239,ehadmin@northampton.gov.uk,Northampton,http://www.northampton.gov.uk,-0.89000200000000,NN2 6JD,2013-10-16,fhrs_5_en-GB,5,,FHRS,5
68597,Cliftonville Care Centre,Cliftonville Road,Northampton,,Avery Homes Cliftonville Ltd,Hospitals/Childcare/Caring Premises,5,0,,182325,0,,52.23439200000000,PI/000074035,239,ehadmin@northampton.gov.uk,Northampton,http://www.northampton.gov.uk,-0.87927200000000,NN1 5BU,2014-10-23,fhrs_5_en-GB,5,,FHRS,5
68598,Spencer House Care Home,Cliftonville Road,Northampton,,Avery Homes SH Ltd,Hospitals/Childcare/Caring Premises,5,5,,729246,0,,52.23439200000000,PI/000083619,239,ehadmin@northampton.gov.uk,Northampton,http://www.northampton.gov.uk,-0.87927200000000,NN1 5BU,2014-12-11,fhrs_5_en-GB,5,,FHRS,0
68599,t/a Georges Takeaway,176 Kettering Road,Northampton,,Ayaz Kebab Ltd,Takeaway/sandwich shop,7844,10,,615645,5,,52.24458100000000,PI/000080775,239,ehadmin@northampton.gov.uk,Northampton,http://www.northampton.gov.uk,-0.88333600000000,NN1 4BH,2014-07-04,fhrs_3_en-GB,3,,FHRS,10
68600,Billing Brook Road,Northampton,,,B & M Retail Ltd,Retailers - other,4613,5,,481745,5,,,PI/000078196,239,ehadmin@northampton.gov.uk,Northampton,http://www.northampton.gov.uk,,NN3 8SE,2012-11-19,fhrs_5_en-GB,5,,FHRS,5
68601,Unit 4a,Nene Valley Retail Park,Northampton,,B & M Stores,Retailers - other,4613,10,,535343,5,,52.23127200000000,PI/000078864,239,ehadmin@northampton.gov.uk,Northampton,http://www.northampton.gov.uk,-0.90605800000000,NN1 1ET,2013-02-25,fhrs_4_en-GB,4,,FHRS,5
68602,148/150 Beech Avenue,Abington,Northampton,,B Hollowell & Son,Restaurant/Cafe/Canteen,1,5,,162802,5,,52.25562800000000,PI/000003677,239,ehadmin@northampton.gov.uk,Northampton,http://www.northampton.gov.uk,-0.86789600000000,NN3 2JN,2006-08-25,fhrs_4_en-GB,4,,FHRS,10
68603,18 Kingsley Park Terrace,Kingsley,Northampton,,Baba & Nyonya,Restaurant/Cafe/Canteen,1,5,,683479,0,,52.25166300000000,PI/000083302,239,ehadmin@northampton.gov.uk,Northampton,http://www.northampton.gov.uk,-0.87920300000000,NN2 7HG,2014-07-01,fhrs_5_en-GB,5,,FHRS,5
68604,212a Wellingborough Road,Northampton,,,Babouchi Grill,Restaurant/Cafe/Canteen,1,10,,615637,10,,52.24171600000000,PI/000080262,239,ehadmin@northampton.gov.uk,Northampton,http://www.northampton.gov.uk,-0.87787200000000,NN1 4EE,2013-10-23,fhrs_3_en-GB,3,,FHRS,5
68605,115 Bailiff Street,Northampton,,,Bailiff Street Mini Market,Retailers - other,4613,10,,555207,5,,52.24500000000000,PI/000079450,239,ehadmin@northampton.gov.uk,Northampton,http://www.northampton.gov.uk,-0.89341700000000,NN1 3EA,2013-03-21,fhrs_4_en-GB,4,,FHRS,5
68606,5 The Woodlands,Harlestone Road,Duston,Northampton,Baking Love,Restaurant/Cafe/Canteen,1,5,,434273,5,,52.26051800000000,PI/000074347,239,ehadmin@northampton.gov.uk,Northampton,http://www.northampton.gov.uk,-0.95254700000000,NN5 6NW,2012-07-24,fhrs_5_en-GB,5,,FHRS,5
68607,21 Bridge Street,Northampton,,,Balloon Bar / Restaurant,Pub/bar/nightclub,7843,10,,164064,10,,52.23626700000000,PI/000005800,239,ehadmin@northampton.gov.uk,Northampton,http://www.northampton.gov.uk,-0.89698800000000,NN1 1NH,2007-10-17,fhrs_3_en-GB,3,,FHRS,5
68608,Thornton Road,Kingsthorpe Hollow,Northampton,,Balmoral Pharmacy,Retailers - other,4613,,,179183,,,52.25331800000000,PI/000053621,239,ehadmin@northampton.gov.uk,Northampton,http://www.northampton.gov.uk,-0.90327500000000,NN2 6LS,2006-05-18,fhrs_exempt_en-GB,Exempt,,FHRS,
68609,15 Marefair,Northampton,,,Balti Central,Restaurant/Cafe/Canteen,1,5,,179932,10,,52.23665500000000,PI/000060634,239,ehadmin@northampton.gov.uk,Northampton,http://www.northampton.gov.uk,-0.90189900000000,NN1 1SR,2014-03-26,fhrs_4_en-GB,4,,FHRS,5
68610,76 Earl Street,Northampton,,,Balti King,Restaurant/Cafe/Canteen,1,10,,168029,5,,52.24261900000000,PI/000012456,239,ehadmin@northampton.gov.uk,Northampton,http://www.northampton.gov.uk,-0.89163100000000,NN1 3AX,2013-09-02,fhrs_4_en-GB,4,,FHRS,5
68611,112b St James Road,St James,Northampton,,Bamboo Garden,Restaurant/Cafe/Canteen,1,10,,623669,5,,52.23895900000000,PI/000078177,239,ehadmin@northampton.gov.uk,Northampton,http://www.northampton.gov.uk,-0.91475900000000,NN5 5LF,2014-02-24,fhrs_3_en-GB,3,,FHRS,10
68612,95 Clare Street,Northampton,,,Bangla Bazar,Retailers - other,4613,10,,165935,10,,52.24349600000000,PI/000008746,239,ehadmin@northampton.gov.uk,Northampton,http://www.northampton.gov.uk,-0.88551600000000,NN1 3LP,2014-09-29,fhrs_3_en-GB,3,,FHRS,10
68613,23 Low Farm Place,Moulton Park,Northampton,,Banjos,Restaurant/Cafe/Canteen,1,5,,172369,5,,52.28026900000000,PI/000022981,239,ehadmin@northampton.gov.uk,Northampton,http://www.northampton.gov.uk,-0.87798300000000,NN3 6HY,2014-11-11,fhrs_5_en-GB,5,,FHRS,5
68614,124 Wellingborough Road,Northampton,,,Bar Serengeti,Pub/bar/nightclub,7843,10,,181276,10,,52.24102200000000,PI/000069685,239,ehadmin@northampton.gov.uk,Northampton,http://www.northampton.gov.uk,-0.88346900000000,NN1 4DR,2010-05-05,fhrs_3_en-GB,3,,FHRS,10
68615,25 Abington Square,Northampton,,,Bar So,Pub/bar/nightclub,7843,10,,160687,5,,52.24099100000000,PI/000000474,239,ehadmin@northampton.gov.uk,Northampton,http://www.northampton.gov.uk,-0.88776100000000,NN1 4AQ,2006-09-19,fhrs_4_en-GB,4,,FHRS,5
68616,9 Wellington Place,Northampton,,,Baraka Coffee,Restaurant/Cafe/Canteen,1,10,,365183,10,,52.24351900000000,PI/000076536,239,ehadmin@northampton.gov.uk,Northampton,http://www.northampton.gov.uk,-0.89752600000000,NN1 3RQ,2014-09-24,fhrs_3_en-GB,3,,FHRS,10
68617,133 Kettering Road,Northampton,,,Barakah Halal Butchers,Retailers - other,4613,10,,535340,5,,52.24482700000000,PI/000078619,239,ehadmin@northampton.gov.uk,Northampton,http://www.northampton.gov.uk,-0.88363800000000,NN1 4BS,2013-03-11,fhrs_4_en-GB,4,,FHRS,5
68618,Billing Aquadrome,Northampton,,,Bare Essentials Supermarket,Retailers - other,4613,10,,182496,5,,52.24559020996094,PI/000075749,239,ehadmin@northampton.gov.uk,Northampton,http://www.northampton.gov.uk,-0.81246268749237,NN3 9DA,2011-09-12,fhrs_4_en-GB,4,,FHRS,5
68619,11 Limehurst Square,Duston,Northampton,,Bargain Booze,Retailers - other,4613,5,,172026,5,,52.25112300000000,PI/000022043,239,ehadmin@northampton.gov.uk,Northampton,http://www.northampton.gov.uk,-0.94348100000000,NN5 6LP,2006-10-20,fhrs_5_en-GB,5,,FHRS,5
68620,75a Harborough Road,Kingsthorpe,Northampton,,Bargain Booze,Retailers - other,4613,5,,170452,5,,52.26464000000000,PI/000017637,239,ehadmin@northampton.gov.uk,Northampton,http://www.northampton.gov.uk,-0.89959600000000,NN2 7SL,2013-11-25,fhrs_5_en-GB,5,,FHRS,5
68621,Olden Road,Rectory Farm,Northampton,,Barn Owl,Pub/bar/nightclub,7843,10,,173983,5,,52.26877500000000,PI/000027662,239,ehadmin@northampton.gov.uk,Northampton,http://www.northampton.gov.uk,-0.80875100000000,NN3 5DD,2008-06-06,fhrs_4_en-GB,4,,FHRS,5
68622,31 St Giles Street,Northampton,,,Baroque,Pub/bar/nightclub,7843,5,,175858,5,,52.23774600000000,PI/000034285,239,ehadmin@northampton.gov.uk,Northampton,http://www.northampton.gov.uk,-0.89162100000000,NN1 1JF,2013-12-04,fhrs_4_en-GB,4,,FHRS,10
68623,Kingsthorpe Road,Northampton,,,Barratts Club,Restaurant/Cafe/Canteen,1,5,,171671,10,,52.25086200000000,PI/000020988,239,ehadmin@northampton.gov.uk,Northampton,http://www.northampton.gov.uk,-0.89727100000000,NN2 6HT,2014-02-20,fhrs_4_en-GB,4,,FHRS,5
68624,235 Wellingborough Road,Northampton,,,Bartellas Coffee House,Restaurant/Cafe/Canteen,1,10,,729255,5,,52.24223200000000,PI/000084299,239,ehadmin@northampton.gov.uk,Northampton,http://www.northampton.gov.uk,-0.87638000000000,NN1 4EH,2014-09-17,fhrs_4_en-GB,4,,FHRS,5
68625,117 Bailiff Street,Northampton,,,Bat & Wickets,Pub/bar/nightclub,7843,10,,162265,5,,52.24500000000000,PI/000002657,239,ehadmin@northampton.gov.uk,Northampton,http://www.northampton.gov.uk,-0.89341700000000,NN1 3EA,2007-02-23,fhrs_4_en-GB,4,,FHRS,5
68626,c/o Nationwide,Northampton Administration Centre,Kings Park Road,Moulton Park,BaxterStorey,Restaurant/Cafe/Canteen,1,0,,481737,0,,52.27388000000000,PI/000077735,239,ehadmin@northampton.gov.uk,Northampton,http://www.northampton.gov.uk,-0.87547700000000,NN3 6NW,2014-07-04,fhrs_5_en-GB,5,,FHRS,5
68627,The Mall Cafe,Weston Favell Centre,Weston Favell,Northampton,BB's Coffee & Muffin,Restaurant/Cafe/Canteen,1,10,,177158,10,,52.26544000000000,PI/000040911,239,ehadmin@northampton.gov.uk,Northampton,http://www.northampton.gov.uk,-0.83858800000000,NN3 8JX,2015-01-14,fhrs_3_en-GB,3,,FHRS,5
68628,Weedon Road,St James,Northampton,,Beacon Bingo,Restaurant/Cafe/Canteen,1,5,,176937,5,,52.24094100000000,PI/000039902,239,ehadmin@northampton.gov.uk,Northampton,http://www.northampton.gov.uk,-0.91922100000000,NN5 5BG,2014-02-28,fhrs_5_en-GB,5,,FHRS,5
68629,Becketts Park,Victoria Promenade,Northampton,,Becketts Park Kiosk,Restaurant/Cafe/Canteen,1,10,,176803,5,,52.23419000000000,PI/000039018,239,ehadmin@northampton.gov.uk,Northampton,http://www.northampton.gov.uk,-0.89504800000000,NN1 1HH,2013-08-15,fhrs_2_en-GB,2,,FHRS,15
68630,217 Wellingborough Road,Northampton,,,Behind the Bus Stop,Restaurant/Cafe/Canteen,1,10,,543301,5,,52.24204400000000,PI/000078816,239,ehadmin@northampton.gov.uk,Northampton,http://www.northampton.gov.uk,-0.87748300000000,NN1 4EF,2013-04-08,fhrs_4_en-GB,4,,FHRS,5
68631,43 Kingsthorpe Road,Northampton,,,Beijing House,Takeaway/sandwich shop,7844,10,,171666,5,,52.25033700000000,PI/000020972,239,ehadmin@northampton.gov.uk,Northampton,http://www.northampton.gov.uk,-0.89789900000000,NN2 6EZ,2013-09-26,fhrs_4_en-GB,4,,FHRS,5
68632,Walter Tull Way,Sixfields,Northampton,,Bella Italia,Restaurant/Cafe/Canteen,1,5,,179900,5,,52.23522800000000,PI/000060441,239,ehadmin@northampton.gov.uk,Northampton,http://www.northampton.gov.uk,-0.93661000000000,NN5 5QJ,2013-11-08,fhrs_5_en-GB,5,,FHRS,5
68633,3 Regiment Close,Simpson Barracks,Northampton,,Bella's Cakery,Restaurant/Cafe/Canteen,1,5,,581715,5,,52.20698600000000,PI/000079183,239,ehadmin@northampton.gov.uk,Northampton,http://www.northampton.gov.uk,-0.88755700000000,NN4 6RQ,2013-07-05,fhrs_5_en-GB,5,,FHRS,5
68634,Fieldmill Square,Bellinge,Northampton,,Bellinge Community Centre,Other catering premises,7841,0,,163157,0,,52.25242800000000,PI/000004271,239,ehadmin@northampton.gov.uk,Northampton,http://www.northampton.gov.uk,-0.81392100000000,NN3 9AQ,2013-09-02,fhrs_5_en-GB,5,,FHRS,0
68635,Fieldmill Square,Bellinge,Northampton,,Bellinge Community House,Restaurant/Cafe/Canteen,1,5,,163160,5,,52.25242800000000,PI/000004272,239,ehadmin@northampton.gov.uk,Northampton,http://www.northampton.gov.uk,-0.81392100000000,NN3 9AQ,2014-06-30,fhrs_5_en-GB,5,,FHRS,5
68636,106 Earl Street,Northampton,,,Bengal Foods,Distributors/Transporters,7,10,,168000,5,,52.24261900000000,PI/000012419,239,ehadmin@northampton.gov.uk,Northampton,http://www.northampton.gov.uk,-0.89163100000000,NN1 3AX,2012-10-17,fhrs_3_en-GB,3,,FHRS,10
68637,107 St James Park Road,St James,Northampton,,Bennett's Bespoke Bakes,Restaurant/Cafe/Canteen,1,5,,581698,5,,52.24170700000000,PI/000034469,239,ehadmin@northampton.gov.uk,Northampton,http://www.northampton.gov.uk,-0.91252400000000,NN5 5EU,2013-07-05,fhrs_5_en-GB,5,,FHRS,5
68638,The Coach House,Mill Lane,Kingsthorpe,Northampton,Bernadette O'Connor,Other catering premises,7841,5,,173307,5,,52.25921600000000,PI/000025383,239,ehadmin@northampton.gov.uk,Northampton,http://www.northampton.gov.uk,-0.90608900000000,NN2 6RQ,2012-10-31,fhrs_5_en-GB,5,,FHRS,5
68639,Berrywood Drive,"St Crispins, Duston",Northampton,,Berrywood Hospital,Hospitals/Childcare/Caring Premises,5,5,,181888,0,,52.24768300000000,PI/000071862,239,ehadmin@northampton.gov.uk,Northampton,http://www.northampton.gov.uk,-0.96010000000000,NN5 6UD,2012-07-26,fhrs_5_en-GB,5,,FHRS,0
68640,Res. Care Home,25-33 Berrywood Road,Duston,Northampton,Berrywood Lodge,Hospitals/Childcare/Caring Premises,5,10,,162971,5,,52.24695100000000,PI/000004018,239,ehadmin@northampton.gov.uk,Northampton,http://www.northampton.gov.uk,-0.95565000000000,NN5 6XA,2013-12-06,fhrs_4_en-GB,4,,FHRS,5
68641,4 Clayfield Close,Moulton Park,Northampton,,Berzerk Leisure Ltd,Other catering premises,7841,5,,166146,5,,52.27493500000000,PI/000009048,239,ehadmin@northampton.gov.uk,Northampton,http://www.northampton.gov.uk,-0.85900500000000,NN3 6QF,2014-10-02,fhrs_5_en-GB,5,,FHRS,5
68642,40 Barrack Road,Northampton,,,Best Pol Delicatessen,Retailers - other,4613,10,,706661,5,,52.24471900000000,PI/000074672,239,ehadmin@northampton.gov.uk,Northampton,http://www.northampton.gov.uk,-0.89705700000000,NN1 3RJ,2014-09-24,fhrs_4_en-GB,4,,FHRS,5
68643,Old Dana Park Factory,Hill Close,Lodge Farm Indus Est,Northampton,Bestway Cash & Carry,Distributors/Transporters,7,5,,170868,5,,52.25024900000000,PI/000018892,239,ehadmin@northampton.gov.uk,Northampton,http://www.northampton.gov.uk,-0.94367600000000,NN5 7UD,2008-07-17,fhrs_5_en-GB,5,,FHRS,5
68644,Kingsley Road,Kingsley,Northampton,,Bethany Homestead,Hospitals/Childcare/Caring Premises,5,5,,171627,5,,52.25349300000000,PI/000020876,239,ehadmin@northampton.gov.uk,Northampton,http://www.northampton.gov.uk,-0.88737500000000,NN2 7BP,2014-11-27,fhrs_5_en-GB,5,,FHRS,5
68645,Unit F1 (First Floor),Nene Enterprise Centre,Freehold Street,Kingsthorpe Hollow,Better Bodies Ltd,Retailers - other,4613,,,169368,,,52.25005600000000,PI/000014950,239,ehadmin@northampton.gov.uk,Northampton,http://www.northampton.gov.uk,-0.89565000000000,NN2 6EW,2007-09-04,fhrs_exempt_en-GB,Exempt,,FHRS,
68646,Unit L4 Nene Enterprise Centre,Freehold Street,Kingsthorpe Hollow,Northampton,Better Lifestyle Centre,Restaurant/Cafe/Canteen,1,10,,504892,10,,52.24992300000000,PI/000078460,239,ehadmin@northampton.gov.uk,Northampton,http://www.northampton.gov.uk,-0.89783600000000,NN2 6EN,2013-01-23,fhrs_3_en-GB,3,,FHRS,10
68647,131 Stimpson Avenue,Northampton,,,Bharat Newsagents,Retailers - other,4613,5,,176143,5,,52.24584400000000,PI/000035593,239,ehadmin@northampton.gov.uk,Northampton,http://www.northampton.gov.uk,-0.87713800000000,NN1 4JW,2013-11-29,fhrs_5_en-GB,5,,FHRS,5
68648,94 Lower Adelaide Street,Semilong,Northampton,,Big Mike's Takeaway,Restaurant/Cafe/Canteen,1,10,,177631,5,,52.24580700000000,PI/000042971,239,ehadmin@northampton.gov.uk,Northampton,http://www.northampton.gov.uk,-0.90189300000000,NN2 6BB,2013-05-08,fhrs_4_en-GB,4,,FHRS,5
68649,The Causeway,Great Billing,Northampton,,Billing Fish Bar,Takeaway/sandwich shop,7844,20,,182366,5,,52.23439025878906,PI/000074479,239,ehadmin@northampton.gov.uk,Northampton,http://www.northampton.gov.uk,-0.88120001554489,NN3 9DA,2014-10-27,fhrs_1_en-GB,1,,FHRS,5
68650,The Causeway,Great Billing,Northampton,,Billing Garden Store,Retailers - other,4613,10,,178462,5,,52.23439025878906,PI/000047233,239,ehadmin@northampton.gov.uk,Northampton,http://www.northampton.gov.uk,-0.88120001554489,NN3 9EX,2006-08-22,fhrs_4_en-GB,4,,FHRS,5
68651,The Causeway,Great Billing,Northampton,,Billing Mill PH,Pub/bar/nightclub,7843,5,,180084,5,,52.23439025878906,PI/000061865,239,ehadmin@northampton.gov.uk,Northampton,http://www.northampton.gov.uk,-0.88120001554489,NN3 9EX,2014-11-14,fhrs_5_en-GB,5,,FHRS,5
68652,The Causeway,Great Billing,Northampton,,Billing Service Station Ltd,Retailers - other,4613,10,,179091,5,,52.23439025878906,PI/000052371,239,ehadmin@northampton.gov.uk,Northampton,http://www.northampton.gov.uk,-0.88120001554489,NN3 9DA,2009-02-18,fhrs_4_en-GB,4,,FHRS,5
68653,31 Farmhill Road,Southfields,Northampton,,Bill's Edible Art,Restaurant/Cafe/Canteen,1,10,,700487,5,,52.27647300000000,PI/000082970,239,ehadmin@northampton.gov.uk,Northampton,http://www.northampton.gov.uk,-0.82695400000000,NN3 5NU,2014-09-15,fhrs_4_en-GB,4,,FHRS,5
68654,184 Birchfield Road East,Abington,Northampton,,Birchfield Fish Bar,Takeaway/sandwich shop,7844,10,,163302,5,,52.25228200000000,PI/000004467,239,ehadmin@northampton.gov.uk,Northampton,http://www.northampton.gov.uk,-0.86499200000000,NN3 2HG,2014-11-13,fhrs_2_en-GB,2,,FHRS,15
68655,65 Clare Street,Northampton,,,Bite Me Spices,Manufacturers/packers,7839,10,,566904,5,,52.24390900000000,PI/000008721,239,ehadmin@northampton.gov.uk,Northampton,http://www.northampton.gov.uk,-0.88733700000000,NN1 3JE,2013-06-13,fhrs_4_en-GB,4,,FHRS,5
68656,Great Billing Pavilion,Great Billing Playing Fields,Penfold Lane,Great Billing,Bizzy Bears Pre-School,Hospitals/Childcare/Caring Premises,5,5,,178970,5,,52.26013300000000,PI/000051241,239,ehadmin@northampton.gov.uk,Northampton,http://www.northampton.gov.uk,-0.81389100000000,NN3 9EF,2007-04-18,fhrs_4_en-GB,4,,FHRS,10
68657,The Courtyard,3 George Row,Northampton,,Black Bottom Club,Restaurant/Cafe/Canteen,1,0,,169618,0,,52.23676500000000,PI/000015509,239,ehadmin@northampton.gov.uk,Northampton,http://www.northampton.gov.uk,-0.89640400000000,NN1 1DF,2013-08-28,fhrs_5_en-GB,5,,FHRS,0
68658,Fairground Way,Riverside Park,"A45, Northampton",,Blacks Leisure,Retailers - other,4613,,,178123,,,52.24159100000000,PI/000045350,239,ehadmin@northampton.gov.uk,Northampton,http://www.northampton.gov.uk,-0.83982500000000,NN3 9HU,2014-06-27,fhrs_exempt_en-GB,Exempt,,FHRS,
68659,Longmead Court,Blackthorn,Northampton,,Blackthorn Community Centre,Other catering premises,7841,5,,172304,5,,52.26563800000000,PI/000022768,239,ehadmin@northampton.gov.uk,Northampton,http://www.northampton.gov.uk,-0.81956200000000,NN3 8QD,2006-01-30,fhrs_5_en-GB,5,,FHRS,5
68660,Unit 9,Blackthorn Road,Blackthorn,Northampton,Blackthorn Tandoori,Takeaway/sandwich shop,7844,10,,163427,5,,52.27481000000000,PI/000004706,239,ehadmin@northampton.gov.uk,Northampton,http://www.northampton.gov.uk,-0.82997900000000,NN3 4PT,2014-03-31,fhrs_4_en-GB,4,,FHRS,5
68661,75 St Giles Street,Northampton,,,Blenders,Retailers - other,4613,5,,175866,5,,52.24175500000000,PI/000034327,239,ehadmin@northampton.gov.uk,Northampton,http://www.northampton.gov.uk,-0.88091900000000,NN1 1JJ,2013-12-13,fhrs_4_en-GB,4,,FHRS,10
68662,1 Kingsthorpe Centre,Harborough Road,Northampton,,Blockbuster Express,Retailers - other,4613,,,178493,,,52.26218300000000,PI/000047574,239,ehadmin@northampton.gov.uk,Northampton,http://www.northampton.gov.uk,-0.90129800000000,NN2 7BD,2006-08-21,fhrs_exempt_en-GB,Exempt,,FHRS,
68663,340/346 Wellingborough Road,Northampton,,,Blockbuster Video,Retailers - other,4613,,,177038,,,52.24353100000000,PI/000040352,239,ehadmin@northampton.gov.uk,Northampton,http://www.northampton.gov.uk,-0.87209900000000,NN1 4ES,2008-03-03,fhrs_exempt_en-GB,Exempt,,FHRS,
68664,63 Collingwood Road,Abington,Northampton,,Blue Box Muffins,Restaurant/Cafe/Canteen,1,5,,734866,5,,52.25073800000000,PI/000084334,239,ehadmin@northampton.gov.uk,Northampton,http://www.northampton.gov.uk,-0.87467000000000,NN1 4RL,2015-01-21,fhrs_5_en-GB,5,,FHRS,5
68665,St Andrews Healthcare,Cliftonville House,Cliftonville Road,Northampton,Blue Tree Cliftonville,Restaurant/Cafe/Canteen,1,5,,605072,5,,52.23815200000000,PI/000078829,239,ehadmin@northampton.gov.uk,Northampton,http://www.northampton.gov.uk,-0.87371500000000,NN1 5DG,2013-09-18,fhrs_5_en-GB,5,,FHRS,0
68666,St Andrews Healthcare,St Andrews Hospital,Billing Road,Northampton,Blue Tree Restaurant,Restaurant/Cafe/Canteen,1,5,,180833,0,,52.23815200000000,PI/000067365,239,ehadmin@northampton.gov.uk,Northampton,http://www.northampton.gov.uk,-0.87371500000000,NN1 5DG,2011-06-08,fhrs_5_en-GB,5,,FHRS,0
68667,8 Kingsley Park Terrace,Kingsley,Northampton,,Body Fuel,Retailers - other,4613,10,,180235,10,,52.25166300000000,PI/000063075,239,ehadmin@northampton.gov.uk,Northampton,http://www.northampton.gov.uk,-0.87920300000000,NN2 7HG,2014-09-12,fhrs_3_en-GB,3,,FHRS,10
68668,48 High Street,High Street,Weston Favell,Northampton,Bold Dragoon,Pub/bar/nightclub,7843,10,,170796,5,,52.25146700000000,PI/000018675,239,ehadmin@northampton.gov.uk,Northampton,http://www.northampton.gov.uk,-0.84485600000000,NN3 3JW,2013-03-27,fhrs_3_en-GB,3,,FHRS,10
68669,11 Welford Road,Kingsthorpe,Northampton,,Bombay Palace Tandoori,Restaurant/Cafe/Canteen,1,10,,176950,10,,52.26361100000000,PI/000039981,239,ehadmin@northampton.gov.uk,Northampton,http://www.northampton.gov.uk,-0.90114500000000,NN2 8AE,2013-08-30,fhrs_3_en-GB,3,,FHRS,10
68670,Ravens Way,Crow Lane Ind. Est.,Northampton,,Booker Cash & Carry,Distributors/Transporters,7,5,,174861,5,,52.24876000000000,PI/000030354,239,ehadmin@northampton.gov.uk,Northampton,http://www.northampton.gov.uk,-0.81215800000000,NN3 9UD,2008-11-06,fhrs_4_en-GB,4,,FHRS,10
68671,Booth Lane North,Northampton,,,Boothville Community Cent,Restaurant/Cafe/Canteen,1,10,,163528,5,,52.26709300000000,PI/000004875,239,ehadmin@northampton.gov.uk,Northampton,http://www.northampton.gov.uk,-0.85133700000000,NN3 6JH,2014-06-16,fhrs_4_en-GB,4,,FHRS,5
68672,3 Boothville Green,Boothville,Northampton,,Boothville Fish Bar,Takeaway/sandwich shop,7844,5,,163628,5,,52.26849500000000,PI/000005030,239,ehadmin@northampton.gov.uk,Northampton,http://www.northampton.gov.uk,-0.85036300000000,NN3 6JR,2013-05-22,fhrs_4_en-GB,4,,FHRS,10
68673,3 Booth Lane North,Northampton,,,Boothville Stores,Retailers - other,4613,,,163517,,,52.27127200000000,PI/000004855,239,ehadmin@northampton.gov.uk,Northampton,http://www.northampton.gov.uk,-0.85304700000000,NN3 6JE,2013-08-27,fhrs_exempt_en-GB,Exempt,,FHRS,
68674,7 Booth Lane North,Northampton,,,Boothville Stores,Retailers - other,4613,10,,623672,10,,52.27127200000000,PI/000082148,239,ehadmin@northampton.gov.uk,Northampton,http://www.northampton.gov.uk,-0.85304700000000,NN3 6JE,2014-01-13,fhrs_3_en-GB,3,,FHRS,5
68675,58-60 Wellingborough Road,Northampton,,,Bootleggers,Pub/bar/nightclub,7843,5,,177066,5,,52.24016900000000,PI/000040501,239,ehadmin@northampton.gov.uk,Northampton,http://www.northampton.gov.uk,-0.88640500000000,NN1 4DN,2013-04-03,fhrs_5_en-GB,5,,FHRS,5
68676,30 Weston Favell Centre,Weston Favell,Northampton,,Boots Company Plc,Retailers - other,4613,5,,177140,5,,52.27481000000000,PI/000040870,239,ehadmin@northampton.gov.uk,Northampton,http://www.northampton.gov.uk,-0.82997900000000,NN3 4JZ,2013-11-25,fhrs_5_en-GB,5,,FHRS,5
68677,9 The Parade,Northampton,,,Boots Company Plc,Retailers - other,4613,5,,176510,0,,52.23878900000000,PI/000037416,239,ehadmin@northampton.gov.uk,Northampton,http://www.northampton.gov.uk,-0.89648600000000,NN1 2BY,2014-04-03,fhrs_5_en-GB,5,,FHRS,0
68678,Unit D Sixfields Retail Park,Upton Way,Upton,Northampton,Boots The Chemist,Retailers - other,4613,5,,176761,0,,52.23939500000000,PI/000038779,239,ehadmin@northampton.gov.uk,Northampton,http://www.northampton.gov.uk,-0.93503100000000,NN5 5DG,2007-02-22,fhrs_5_en-GB,5,,FHRS,5
68679,Fairground Way,Riverside Park,"A45, Northampton",,Boots The Chemists Ltd,Retailers - other,4613,0,,178121,0,,52.24159100000000,PI/000045344,239,ehadmin@northampton.gov.uk,Northampton,http://www.northampton.gov.uk,-0.83982500000000,NN3 9HU,2013-08-23,fhrs_5_en-GB,5,,FHRS,0
68680,1 St Peters Walk,St Peters Walk,Northampton,,Booze City,Retailers - other,4613,10,,365176,5,,52.23647100000000,PI/000068712,239,ehadmin@northampton.gov.uk,Northampton,http://www.northampton.gov.uk,-0.89948700000000,NN1 1PT,2012-04-16,fhrs_4_en-GB,4,,FHRS,5
68681,t/a Borjia,17 Castilian Street,Northampton,,Borjia Ltd (Formerly  Lounge 17 Ltd),Restaurant/Cafe/Canteen,1,5,,434280,5,,52.23711700000000,PI/000075995,239,ehadmin@northampton.gov.uk,Northampton,http://www.northampton.gov.uk,-0.89267600000000,NN1 1JS,2014-05-20,fhrs_5_en-GB,5,,FHRS,5
68682,Open Market,Northampton,,,Bosnian Specialities (Ciro's Place),Mobile caterer,7846,10,,178308,5,,52.24175500000000,PI/000046325,239,ehadmin@northampton.gov.uk,Northampton,http://www.northampton.gov.uk,-0.88091900000000,NN1 2DY,2014-06-11,fhrs_4_en-GB,4,,FHRS,5
68683,College Street,Northampton,,,Boston Clipper,Pub/bar/nightclub,7843,10,,166336,10,,52.23770700000000,PI/000009378,239,ehadmin@northampton.gov.uk,Northampton,http://www.northampton.gov.uk,-0.89808000000000,NN1 2QP,2013-08-01,fhrs_3_en-GB,3,,FHRS,10
68684,29-40 St Georges Avenue,Northampton,,,Bosworth Independent College,School/college/university,7845,5,,615638,0,,52.24962800000000,PI/000080298,239,ehadmin@northampton.gov.uk,Northampton,http://www.northampton.gov.uk,-0.89410800000000,NN2 6JA,2013-11-18,fhrs_5_en-GB,5,,FHRS,5
68685,105 Boughton Green Road,Kingsthorpe,Northampton,,Boughton Lodge Residential Care Home,Hospitals/Childcare/Caring Premises,5,5,,163719,5,,52.26799900000000,PI/000005187,239,ehadmin@northampton.gov.uk,Northampton,http://www.northampton.gov.uk,-0.89639100000000,NN2 7SU,2014-02-28,fhrs_5_en-GB,5,,FHRS,5
68686,10 Military Road,Northampton,,,Box Food,Mobile caterer,7846,10,,706658,5,,52.24470400000000,PI/000048605,239,ehadmin@northampton.gov.uk,Northampton,http://www.northampton.gov.uk,-0.89155000000000,NN1 3ET,2014-09-18,fhrs_4_en-GB,4,,FHRS,5
68687,St Andrews Road,Northampton,,,Boys Brigade Old Boys Rugby Club,Pub/bar/nightclub,7843,10,,179218,5,,52.24424400000000,PI/000054334,239,ehadmin@northampton.gov.uk,Northampton,http://www.northampton.gov.uk,-0.90393800000000,NN1 2PD,2014-02-27,fhrs_4_en-GB,4,,FHRS,5
68688,159-185 Abington Avenue,Northampton,,,BP Express Shopping Ltd,Retailers - other,4613,5,,179156,0,,52.24841800000000,PI/000053052,239,ehadmin@northampton.gov.uk,Northampton,http://www.northampton.gov.uk,-0.87546200000000,NN1 4QD,2009-10-27,fhrs_5_en-GB,5,,FHRS,0
68689,Upton Way,Upton,Northampton,,BP Express Shopping Ltd,Retailers - other,4613,5,,176751,0,,52.23437300000000,PI/000038764,239,ehadmin@northampton.gov.uk,Northampton,http://www.northampton.gov.uk,-0.93846100000000,NN5 4EG,2008-12-11,fhrs_5_en-GB,5,,FHRS,0
68690,Harborough Road,Kingsthorpe,Northampton,,BP Harborough Simply Food Connect,Retailers - other,4613,0,,170471,5,,52.26918400000000,PI/000017662,239,ehadmin@northampton.gov.uk,Northampton,http://www.northampton.gov.uk,-0.90006900000000,NN2 8DW,2013-06-10,fhrs_5_en-GB,5,,FHRS,0
68691,Mill Lane,Dallington,Northampton,,BP Mill Lane Connect,Retailers - other,4613,5,,178291,5,,52.25222100000000,PI/000046211,239,ehadmin@northampton.gov.uk,Northampton,http://www.northampton.gov.uk,-0.92077800000000,NN5 7AS,2013-11-25,fhrs_5_en-GB,5,,FHRS,5
68692,Bradlaugh Fields,Fulford Drive,Links View,Northampton,Bradlaugh's Barn Association,Restaurant/Cafe/Canteen,1,10,,181057,5,,52.26392100000000,PI/000068516,239,ehadmin@northampton.gov.uk,Northampton,http://www.northampton.gov.uk,-0.88147300000000,NN2 7NX,2011-04-13,fhrs_3_en-GB,3,,FHRS,10
68693,2 Willow Close,Northampton,,,Brambles,Hospitals/Childcare/Caring Premises,5,5,,178499,5,,52.23973900000000,PI/000047593,239,ehadmin@northampton.gov.uk,Northampton,http://www.northampton.gov.uk,-0.94734000000000,NN5 6UH,2013-08-14,fhrs_5_en-GB,5,,FHRS,0
68694,Manheim Auctions,Salthouse Road,Brackmills,Northampton,Bramleys Catering,Restaurant/Cafe/Canteen,1,5,,177669,5,,52.20531300000000,PI/000043211,239,ehadmin@northampton.gov.uk,Northampton,http://www.northampton.gov.uk,-0.88516300000000,NN4 0BD,2013-07-26,fhrs_5_en-GB,5,,FHRS,5
68695,421 Welford Road,Kingsthorpe,Northampton,,Brampton View,Hospitals/Childcare/Caring Premises,5,5,,504893,5,,52.27500400000000,PI/000078487,239,ehadmin@northampton.gov.uk,Northampton,http://www.northampton.gov.uk,-0.92183700000000,NN2 8PT,2013-01-07,fhrs_5_en-GB,5,,FHRS,5
68696,Ecton Brook Primary School,Ecton Brook Road,Ecton Brook,Northampton,Breakfast & Afterschool Club,School/college/university,7845,5,,179562,5,,52.25435700000000,PI/000058413,239,ehadmin@northampton.gov.uk,Northampton,http://www.northampton.gov.uk,-0.80286700000000,NN3 5DY,2014-06-11,fhrs_5_en-GB,5,,FHRS,5
68697,@ Collingtree CEVA School,Lodge Avenue,Collingtree,Northampton,Breakfast Club,School/college/university,7845,10,,182407,5,,52.19577800000000,PI/000074926,239,ehadmin@northampton.gov.uk,Northampton,http://www.northampton.gov.uk,-0.90046300000000,NN4 0NQ,2011-06-20,fhrs_4_en-GB,4,,FHRS,5
68698,Chiltern Primary School,Chiltern Way,Duston,Northampton,Breakfast Club,School/college/university,7845,5,,683462,5,,52.24901900000000,PI/000082580,239,ehadmin@northampton.gov.uk,Northampton,http://www.northampton.gov.uk,-0.93152000000000,NN5 6BW,2014-07-09,fhrs_5_en-GB,5,,FHRS,0
68699,St Marys Primary School Woodside Way,Kings Heath,Northampton,,Breakfast Club,School/college/university,7845,5,,683445,5,,52.25285300000000,PI/000062336,239,ehadmin@northampton.gov.uk,Northampton,http://www.northampton.gov.uk,-0.92499700000000,NN5 7HX,2014-05-09,fhrs_5_en-GB,5,,FHRS,0
68700,24 Breezehill,Wootton,Northampton,,Breezehill Bakery,Restaurant/Cafe/Canteen,1,5,,182342,5,,52.20521000000000,PI/000074266,239,ehadmin@northampton.gov.uk,Northampton,http://www.northampton.gov.uk,-0.88133800000000,NN4 6AG,2011-06-23,fhrs_5_en-GB,5,,FHRS,5
68701,168 Lutterworth Road,Northampton,,,Brian Harradine,Retailers - other,4613,0,,172622,0,,52.24259300000000,PI/000023593,239,ehadmin@northampton.gov.uk,Northampton,http://www.northampton.gov.uk,-0.87181600000000,NN1 5JL,2013-08-28,fhrs_5_en-GB,5,,FHRS,0
68702,The Springs,Briar Hill,Northampton,,Briar Hill Community Centre,Other catering premises,7841,10,,176521,10,,52.22642700000000,PI/000037488,239,ehadmin@northampton.gov.uk,Northampton,http://www.northampton.gov.uk,-0.91688000000000,NN4 8SX,2007-02-20,fhrs_3_en-GB,3,,FHRS,5
68703,15 The Springs,Briar Hill,Northampton,,Briar Hill Fish Bar,Takeaway/sandwich shop,7844,5,,176518,5,,52.22642700000000,PI/000037478,239,ehadmin@northampton.gov.uk,Northampton,http://www.northampton.gov.uk,-0.91688000000000,NN4 8SX,2014-07-02,fhrs_4_en-GB,4,,FHRS,10
68704,17 The Springs,Briar Hill,Northampton,,Briar Hill Stores,Retailers - other,4613,10,,176520,5,,52.22642700000000,PI/000037480,239,ehadmin@northampton.gov.uk,Northampton,http://www.northampton.gov.uk,-0.91688000000000,NN4 8SX,2012-04-23,fhrs_3_en-GB,3,,FHRS,10
68705,"Unit 7, Sol Central",Marefair,Northampton,,Brickyard Coffee Lounge,Restaurant/Cafe/Canteen,1,10,,729247,10,,52.23665500000000,PI/000083631,239,ehadmin@northampton.gov.uk,Northampton,http://www.northampton.gov.uk,-0.90189900000000,NN1 1SR,2014-12-10,fhrs_3_en-GB,3,,FHRS,5
68706,63c Gold Street,Northampton,,,Bridge Substance Misuse Programme,Restaurant/Cafe/Canteen,1,10,,605070,10,,52.23662100000000,PI/000075834,239,ehadmin@northampton.gov.uk,Northampton,http://www.northampton.gov.uk,-0.89924900000000,NN1 1RA,2013-10-07,fhrs_3_en-GB,3,,FHRS,10
68707,Bembridge House,Bembridge Drive,Kingsthorpe Hollow,Northampton,Briggs And Forrester,Restaurant/Cafe/Canteen,1,5,,162900,5,,52.25373300000000,PI/000003888,239,ehadmin@northampton.gov.uk,Northampton,http://www.northampton.gov.uk,-0.90431900000000,NN2 6LZ,2014-03-25,fhrs_5_en-GB,5,,FHRS,5
68708,c/o Wootton Community Centre,Curtlee Hill,Wootton,Northampton,Bright Eyes Breakfast Club,School/college/university,7845,5,,581711,5,,52.20166400000000,PI/000078769,239,ehadmin@northampton.gov.uk,Northampton,http://www.northampton.gov.uk,-0.88188000000000,NN4 6ED,2013-07-10,fhrs_5_en-GB,5,,FHRS,5
68709,Old Bedford Road,Waterside,Northampton,,Britannia Inn,Pub/bar/nightclub,7843,5,,734870,5,,,PI/000084692,239,ehadmin@northampton.gov.uk,Northampton,http://www.northampton.gov.uk,,NN4 0AA,2013-09-10,fhrs_5_en-GB,5,,FHRS,5
68710,35/39a Abington Street,Northampton,,,British Home Stores,Restaurant/Cafe/Canteen,1,5,,160747,0,,52.23879700000000,PI/000000560,239,ehadmin@northampton.gov.uk,Northampton,http://www.northampton.gov.uk,-0.89257600000000,NN1 2AW,2014-10-21,fhrs_5_en-GB,5,,FHRS,5
68711,St James Retail Park,Towcester Road,Northampton,,British Home Stores,Restaurant/Cafe/Canteen,1,10,,176649,5,,52.23393900000000,PI/000038248,239,ehadmin@northampton.gov.uk,Northampton,http://www.northampton.gov.uk,-0.90574400000000,NN1 1EE,2013-11-12,fhrs_4_en-GB,4,,FHRS,5
68712,Sports & Social Club,St Andrews Road,Northampton,,British Rail (Lmr),Pub/bar/nightclub,7843,10,,177660,5,,52.24358900000000,PI/000043125,239,ehadmin@northampton.gov.uk,Northampton,http://www.northampton.gov.uk,-0.90404200000000,NN1 2PB,2008-12-30,fhrs_3_en-GB,3,,FHRS,10
68713,69 Broadmead Avenue,Eastfield,Northampton,,Broadmead Fish Bar,Restaurant/Cafe/Canteen,1,5,,181181,0,,52.25888200000000,PI/000069039,239,ehadmin@northampton.gov.uk,Northampton,http://www.northampton.gov.uk,-0.86406200000000,NN3 2RA,2013-08-07,fhrs_5_en-GB,5,,FHRS,5
68714,71/73 Broadmead Avenue,Eastfield,Northampton,,Broadmead News,Retailers - other,4613,5,,164294,5,,52.25888200000000,PI/000006071,239,ehadmin@northampton.gov.uk,Northampton,http://www.northampton.gov.uk,-0.86406200000000,NN3 2RA,2006-10-31,fhrs_4_en-GB,4,,FHRS,10
68715,61 Broadmead Avenue,Eastfield,Northampton,,Broadmead Pub,Pub/bar/nightclub,7843,10,,164288,5,,52.25807600000000,PI/000006062,239,ehadmin@northampton.gov.uk,Northampton,http://www.northampton.gov.uk,-0.86812600000000,NN3 2QX,2014-09-26,fhrs_2_en-GB,2,,FHRS,15
68716,Ecton Brook Road,Ecton Brook,Northampton,,Brook Pharmacy,Retailers - other,4613,,,168276,,,52.25632200000000,PI/000012878,239,ehadmin@northampton.gov.uk,Northampton,http://www.northampton.gov.uk,-0.80420600000000,NN3 5EN,2013-09-06,fhrs_exempt_en-GB,Exempt,,FHRS,
68717,The Brookside Hall,Lings Local Centre,Billing Brook Road,Northampton,Brookside Hall Community Association,Other catering premises,7841,10,,481742,5,,52.26403800000000,PI/000077963,239,ehadmin@northampton.gov.uk,Northampton,http://www.northampton.gov.uk,-0.83503400000000,NN3 8NQ,2014-06-04,fhrs_3_en-GB,3,,FHRS,10
68718,Shop on the Corner,2 St Peters Walk,Northampton,,Brothers 2 Ltd,Retailers - other,4613,20,,581719,10,,52.23294300000000,PI/000079434,239,ehadmin@northampton.gov.uk,Northampton,http://www.northampton.gov.uk,-0.91270900000000,NN1 1AT,2013-07-10,fhrs_1_en-GB,1,,FHRS,5
68719,Dychurch Lane,Northampton,,,Buddies,Restaurant/Cafe/Canteen,1,5,,167980,5,,52.23775700000000,PI/000012399,239,ehadmin@northampton.gov.uk,Northampton,http://www.northampton.gov.uk,-0.89478400000000,NN1 2AB,2013-12-03,fhrs_5_en-GB,5,,FHRS,5
68720,Acre Lane,Spring Park,Northampton,,Buddies USA,Restaurant/Cafe/Canteen,1,5,,181188,5,,52.26987700000000,PI/000069087,239,ehadmin@northampton.gov.uk,Northampton,http://www.northampton.gov.uk,-0.90981300000000,NN2 8BN,2013-07-17,fhrs_5_en-GB,5,,FHRS,5
68721,American Diner,Upton Way,Upton,Northampton,Buddies USA,Restaurant/Cafe/Canteen,1,5,,179219,5,,52.23437300000000,PI/000054355,239,ehadmin@northampton.gov.uk,Northampton,http://www.northampton.gov.uk,-0.93846100000000,NN5 4EG,2013-12-13,fhrs_5_en-GB,5,,FHRS,5
68722,25 Market Square,Northampton,,,Burger King,Restaurant/Cafe/Canteen,1,0,,172943,5,,52.23798900000000,PI/000024507,239,ehadmin@northampton.gov.uk,Northampton,http://www.northampton.gov.uk,-0.89549500000000,NN1 2DF,2013-07-10,fhrs_5_en-GB,5,,FHRS,0
68723,Roseholme Road,Northampton,,,Burlington Court Care Home,Hospitals/Childcare/Caring Premises,5,5,,689956,5,,52.24566100000000,PI/000082155,239,ehadmin@northampton.gov.uk,Northampton,http://www.northampton.gov.uk,-0.87203100000000,NN1 4RS,2014-06-13,fhrs_5_en-GB,5,,FHRS,5
68724,16 Bushland Road,Headlands,Northampton,,Bushland Chippy,Takeaway/sandwich shop,7844,10,,581705,10,,52.25884700000000,PI/000074232,239,ehadmin@northampton.gov.uk,Northampton,http://www.northampton.gov.uk,-0.85215100000000,NN3 2NS,2014-09-29,fhrs_3_en-GB,3,,FHRS,10
68725,(next to Morrisons),Kettering Road,Northampton,,Busy Bees,Hospitals/Childcare/Caring Premises,5,0,,179289,5,,52.25885100000000,PI/000055454,239,ehadmin@northampton.gov.uk,Northampton,http://www.northampton.gov.uk,-0.87305900000000,NN3 6AA,2014-06-04,fhrs_5_en-GB,5,,FHRS,0
68726,Wootton Fields Local Centre,Wootton Hope Drive,Wootton,Northampton,Busy Bees Childrens Day Nursery,Hospitals/Childcare/Caring Premises,5,5,,178489,0,,52.20309600000000,PI/000047485,239,ehadmin@northampton.gov.uk,Northampton,http://www.northampton.gov.uk,-0.87648900000000,NN4 6DY,2014-05-21,fhrs_5_en-GB,5,,FHRS,5
68727,185 Kettering Road,Northampton,,,Butt Savouries,Takeaway/sandwich shop,7844,10,,177769,5,,52.24591800000000,PI/000043666,239,ehadmin@northampton.gov.uk,Northampton,http://www.northampton.gov.uk,-0.88303900000000,NN1 4BP,2013-06-06,fhrs_4_en-GB,4,,FHRS,5
68728,23 Faracre Court,Bellinge,Northampton,,C & L Seafood Bar and Cafe,Mobile caterer,7846,10,,605067,5,,52.25275200000000,PI/000050442,239,ehadmin@northampton.gov.uk,Northampton,http://www.northampton.gov.uk,-0.81577300000000,NN3 9BJ,2013-10-16,fhrs_4_en-GB,4,,FHRS,5
68729,15 Grafton View,Wootton,Northampton,,C K Woodland Venison,Retailers - other,4613,,,180787,,,52.20369900000000,PI/000067030,239,ehadmin@northampton.gov.uk,Northampton,http://www.northampton.gov.uk,-0.88701000000000,NN4 6HQ,2014-04-01,fhrs_exempt_en-GB,Exempt,,FHRS,
68730,8-10 The Lakes,"Waterside, Bedford Road",Northampton,,Cafe @ Lakeside,Restaurant/Cafe/Canteen,1,5,,715390,5,,52.23294300000000,PI/000084232,239,ehadmin@northampton.gov.uk,Northampton,http://www.northampton.gov.uk,-0.91270900000000,NN4 7DD,2014-11-03,fhrs_5_en-GB,5,,FHRS,5
68731,72 St Giles Street,Northampton,,,Cafe Cest La Vie - The Parlour,Restaurant/Cafe/Canteen,1,10,,648840,5,,52.23761300000000,PI/000080521,239,ehadmin@northampton.gov.uk,Northampton,http://www.northampton.gov.uk,-0.89092100000000,NN1 1JW,2014-02-25,fhrs_3_en-GB,3,,FHRS,10
68732,16a St Peters Walk,Northampton,,,Cafe Coco,Restaurant/Cafe/Canteen,1,10,,182267,5,,52.23647100000000,PI/000073518,239,ehadmin@northampton.gov.uk,Northampton,http://www.northampton.gov.uk,-0.89948700000000,NN1 1PT,2014-03-05,fhrs_4_en-GB,4,,FHRS,5
68733,Open Market,Northampton,,,Cafe Continental,Mobile caterer,7846,5,,178307,5,,52.24175500000000,PI/000046324,239,ehadmin@northampton.gov.uk,Northampton,http://www.northampton.gov.uk,-0.88091900000000,NN1 2DY,2013-07-10,fhrs_5_en-GB,5,,FHRS,5
68734,4a Fish Street,Northampton,,,Cafe Creperie,Restaurant/Cafe/Canteen,1,10,,689961,10,,52.23785400000000,PI/000083209,239,ehadmin@northampton.gov.uk,Northampton,http://www.northampton.gov.uk,-0.89450300000000,NN1 2AJ,2014-07-03,fhrs_3_en-GB,3,,FHRS,5
68735,96 Abington Street,Northampton,,,Cafe del Sol,Restaurant/Cafe/Canteen,1,10,,180796,10,,52.24175500000000,PI/000067075,239,ehadmin@northampton.gov.uk,Northampton,http://www.northampton.gov.uk,-0.88091900000000,NN1 2AD,2013-08-27,fhrs_3_en-GB,3,,FHRS,10
68736,103 St Leonards Road,Far Cotton,Northampton,,Cafe Famille,Restaurant/Cafe/Canteen,1,10,,180761,5,,52.22806200000000,PI/000066672,239,ehadmin@northampton.gov.uk,Northampton,http://www.northampton.gov.uk,-0.90016300000000,NN4 8DN,2013-11-14,fhrs_3_en-GB,3,,FHRS,10
68737,@ Wollaston BMW Motors,Bedford Road,Northampton,,Cafe Racer,Restaurant/Cafe/Canteen,1,5,,162781,5,,52.23290500000000,PI/000003630,239,ehadmin@northampton.gov.uk,Northampton,http://www.northampton.gov.uk,-0.87882600000000,NN1 5SZ,2014-10-02,fhrs_5_en-GB,5,,FHRS,5
68738,Northampton General Hospital,Cliftonville,Northampton,,Cafe Royale,Restaurant/Cafe/Canteen,1,5,,180381,5,,52.24046400000000,PI/000064297,239,ehadmin@northampton.gov.uk,Northampton,http://www.northampton.gov.uk,-0.92201500000000,NN5 5BD,2014-10-02,fhrs_5_en-GB,5,,FHRS,5
68739,10 Gold Street Mews,Gold Street,Northampton,,Cafe Xanadu,Restaurant/Cafe/Canteen,1,5,,178546,5,,52.23662100000000,PI/000048104,239,ehadmin@northampton.gov.uk,Northampton,http://www.northampton.gov.uk,-0.89924900000000,NN1 1RA,2014-05-06,fhrs_5_en-GB,5,,FHRS,5
68740,Northampton College,Lower Mounts,Northampton,,Cafeteria LM2,Restaurant/Cafe/Canteen,1,0,,182253,5,,52.23439025878906,PI/000073481,239,ehadmin@northampton.gov.uk,Northampton,http://www.northampton.gov.uk,-0.88120001554489,NN1 3DE,2010-11-09,fhrs_5_en-GB,5,,FHRS,0
68741,5 Fish Street,Northampton,,,Caffe d'Italia,Restaurant/Cafe/Canteen,1,10,,169074,5,,52.23785900000000,PI/000014394,239,ehadmin@northampton.gov.uk,Northampton,http://www.northampton.gov.uk,-0.89312600000000,NN1 2AA,2013-07-30,fhrs_3_en-GB,3,,FHRS,10
68742,5 Gold Street,Northampton,,,Caffe Morandi,Restaurant/Cafe/Canteen,1,10,,664732,5,,52.23662100000000,PI/000082080,239,ehadmin@northampton.gov.uk,Northampton,http://www.northampton.gov.uk,-0.89924900000000,NN1 1RA,2013-11-12,fhrs_3_en-GB,3,,FHRS,10
68743,6a Abington Street,Northampton,,,Caffe Nero,Restaurant/Cafe/Canteen,1,5,,160779,5,,52.23785400000000,PI/000000606,239,ehadmin@northampton.gov.uk,Northampton,http://www.northampton.gov.uk,-0.89450300000000,NN1 2AJ,2014-02-14,fhrs_5_en-GB,5,,FHRS,5
68744,@ Dunelm Soft Furnishings Ltd,Nene Valley Retail Park,Towcester Road,Northampton,Caffe Pausa,Restaurant/Cafe/Canteen,1,0,,683450,5,,52.23127200000000,PI/000080385,239,ehadmin@northampton.gov.uk,Northampton,http://www.northampton.gov.uk,-0.90605800000000,NN1 1ET,2014-07-09,fhrs_5_en-GB,5,,FHRS,5
68745,14 Tiffany Gardens,Blacky More,Northampton,,Cake Majic,Restaurant/Cafe/Canteen,1,5,,615628,5,,52.20566600000000,PI/000038017,239,ehadmin@northampton.gov.uk,Northampton,http://www.northampton.gov.uk,-0.89730700000000,NN4 0TJ,2013-10-31,fhrs_5_en-GB,5,,FHRS,5
68746,12a Coneygree Court,Bellinge,Northampton,,Cake Me Happy,Restaurant/Cafe/Canteen,1,5,,566914,5,,52.25331300000000,PI/000079216,239,ehadmin@northampton.gov.uk,Northampton,http://www.northampton.gov.uk,-0.81613900000000,NN3 9BN,2013-06-12,fhrs_5_en-GB,5,,FHRS,5
68747,School House,9a Wallace Road,Kingsley,Northampton,Cakeaboo,Restaurant/Cafe/Canteen,1,5,,179884,5,,52.25724900000000,PI/000060239,239,ehadmin@northampton.gov.uk,Northampton,http://www.northampton.gov.uk,-0.87570700000000,NN2 7EE,2009-07-09,fhrs_5_en-GB,5,,FHRS,5
68748,15 New Road,Wootton,Northampton,,Cakes By Isabel,Restaurant/Cafe/Canteen,1,10,,173597,5,,52.20575000000000,PI/000026268,239,ehadmin@northampton.gov.uk,Northampton,http://www.northampton.gov.uk,-0.88423600000000,NN4 6HD,2006-04-12,fhrs_4_en-GB,4,,FHRS,5
68749,2 Roundwood Way,St Crispins,Duston,Northampton,Cakes by Victoria Shaw,Restaurant/Cafe/Canteen,1,5,,581702,5,,52.24781900000000,PI/000072229,239,ehadmin@northampton.gov.uk,Northampton,http://www.northampton.gov.uk,-0.96230900000000,NN5 6GJ,2013-08-22,fhrs_5_en-GB,5,,FHRS,5
68750,Tenby Road,Spencer,Northampton,,Camrose Centre,Hospitals/Childcare/Caring Premises,5,5,,176332,5,,52.24798400000000,PI/000036601,239,ehadmin@northampton.gov.uk,Northampton,http://www.northampton.gov.uk,-0.91461200000000,NN5 7DF,2014-02-05,fhrs_5_en-GB,5,,FHRS,0
68751,16 Park Square,Kings Heath,Northampton,,Camrose Childen Centre,Restaurant/Cafe/Canteen,1,5,,434265,5,,52.25601700000000,PI/000028690,239,ehadmin@northampton.gov.uk,Northampton,http://www.northampton.gov.uk,-0.91999700000000,NN5 7LQ,2012-05-28,fhrs_4_en-GB,4,,FHRS,10
68752,63 Timken Way South,Duston,Northampton,,Candy Floss,Mobile caterer,7846,5,,664736,5,,52.25002600000000,PI/000082693,239,ehadmin@northampton.gov.uk,Northampton,http://www.northampton.gov.uk,-0.94646600000000,NN5 6LF,2014-04-23,fhrs_5_en-GB,5,,FHRS,5
68753,3 Abington Avenue,Northampton,,,Candy Shop,Retailers - other,4613,,,160588,,,52.24685300000000,PI/000000295,239,ehadmin@northampton.gov.uk,Northampton,http://www.northampton.gov.uk,-0.88106700000000,NN1 4NY,2008-02-08,fhrs_exempt_en-GB,Exempt,,FHRS,
68754,Weston Favell Centre,Weston Favell,Northampton,,Candy Store (Mobile Unit),Retailers - other,4613,10,,338731,0,,52.25703900000000,PI/000076510,239,ehadmin@northampton.gov.uk,Northampton,http://www.northampton.gov.uk,-0.83549600000000,NN3 8JZ,2012-02-21,fhrs_4_en-GB,4,,FHRS,0
68755,17 Low Farm Place,Moulton Park,Northampton,,Canton Express,Takeaway/sandwich shop,7844,10,,172364,10,,52.28026900000000,PI/000022974,239,ehadmin@northampton.gov.uk,Northampton,http://www.northampton.gov.uk,-0.87798300000000,NN3 6HY,2013-09-18,fhrs_3_en-GB,3,,FHRS,10
68756,24 Dallington Road,Dallington,Northampton,,Canton House,Takeaway/sandwich shop,7844,20,,180202,10,,52.24480600000000,PI/000062904,239,ehadmin@northampton.gov.uk,Northampton,http://www.northampton.gov.uk,-0.91609500000000,NN5 7BG,2014-07-10,fhrs_1_en-GB,1,,FHRS,15
68757,5 Carlton Road,Kingsley,Northampton,,Capell's Cakes,Restaurant/Cafe/Canteen,1,10,,508980,5,,52.25545300000000,PI/000078851,239,ehadmin@northampton.gov.uk,Northampton,http://www.northampton.gov.uk,-0.88159800000000,NN2 7DQ,2013-02-04,fhrs_4_en-GB,4,,FHRS,5
68758,26-28 Kingsley Park Terrace,Kingsley,Northampton,,Capital Off Licence,Retailers - other,4613,20,,636069,15,,52.25166300000000,PI/000082213,239,ehadmin@northampton.gov.uk,Northampton,http://www.northampton.gov.uk,-0.87920300000000,NN2 7HG,2014-01-29,fhrs_1_en-GB,1,,FHRS,5
68759,Hot Food Delivery Service,3 Stafford Place,Moulton Park,Northampton,Captain Fingers,Takeaway/sandwich shop,7844,10,,176055,5,,52.27965800000000,PI/000035184,239,ehadmin@northampton.gov.uk,Northampton,http://www.northampton.gov.uk,-0.87421700000000,NN3 6NN,2014-05-13,fhrs_4_en-GB,4,,FHRS,5
68760,Willow Barn,Willow Lane,Great Houghton,Northampton,Caramelia Cakery,Restaurant/Cafe/Canteen,1,5,,481731,5,,52.22255800000000,PI/000058546,239,ehadmin@northampton.gov.uk,Northampton,http://www.northampton.gov.uk,-0.83897400000000,NN4 7AW,2012-10-24,fhrs_5_en-GB,5,,FHRS,5
68761,10 Billing Aquadrome,Northampton,,,Caravan Accessories Shop,Retailers - other,4613,,,163047,,,52.27481000000000,PI/000004123,239,ehadmin@northampton.gov.uk,Northampton,http://www.northampton.gov.uk,-0.82997900000000,NN3 4DA,2008-05-20,fhrs_exempt_en-GB,Exempt,,FHRS,
68762,20 Weston Favell Centre,Weston Favell,Northampton,,Card Factory,Retailers - other,4613,0,,446075,0,,52.25703900000000,PI/000040855,239,ehadmin@northampton.gov.uk,Northampton,http://www.northampton.gov.uk,-0.83549600000000,NN3 8JZ,2012-07-24,fhrs_5_en-GB,5,,FHRS,0
68763,27/28 Weston Favell Centre,Weston Favell,Northampton,,Card Factory,Retailers - other,4613,,,566909,,,52.25703900000000,PI/000077560,239,ehadmin@northampton.gov.uk,Northampton,http://www.northampton.gov.uk,-0.83549600000000,NN3 8JZ,2013-07-04,fhrs_exempt_en-GB,Exempt,,FHRS,
68764,30/32 Newland Walk,Grosvenor Centre,Northampton,,Card Factory,Retailers - other,4613,,,581716,,,52.23863400000000,PI/000079187,239,ehadmin@northampton.gov.uk,Northampton,http://www.northampton.gov.uk,-0.89436600000000,NN1 2EB,2013-07-10,fhrs_exempt_en-GB,Exempt,,FHRS,
68765,@ Travis Perkins RDC,Gowerton Road,Brackmills,Northampton,Cardamom Catering Group,Restaurant/Cafe/Canteen,1,10,,581708,5,,52.21120100000000,PI/000078724,239,ehadmin@northampton.gov.uk,Northampton,http://www.northampton.gov.uk,-0.85914600000000,NN4 7BW,2013-07-29,fhrs_4_en-GB,4,,FHRS,5
68766,75B Harborough Road,Kingsthorpe,Northampton,,Cardamon,Restaurant/Cafe/Canteen,1,10,,605071,5,,52.26464000000000,PI/000078096,239,ehadmin@northampton.gov.uk,Northampton,http://www.northampton.gov.uk,-0.89959600000000,NN2 7SL,2014-10-07,fhrs_3_en-GB,3,,FHRS,10
68767,77 Kettering Road,Northampton,,,Caribbean DutchPot Ltd,Takeaway/sandwich shop,7844,10,,689957,10,,52.24192100000000,PI/000082457,239,ehadmin@northampton.gov.uk,Northampton,http://www.northampton.gov.uk,-0.88623000000000,NN1 4AW,2014-07-24,fhrs_3_en-GB,3,,FHRS,5
68768,St Lukes,Main Road,Duston,Northampton,Caring Kindergartens,Hospitals/Childcare/Caring Premises,5,5,,555205,5,,52.24323900000000,PI/000079078,239,ehadmin@northampton.gov.uk,Northampton,http://www.northampton.gov.uk,-0.94161800000000,NN5 6JB,2014-05-08,fhrs_5_en-GB,5,,FHRS,5
68769,Owl Close,Moulton Park,Northampton,,Caring Kindergartens Ltd,Hospitals/Childcare/Caring Premises,5,5,,174164,5,,52.27957200000000,PI/000028199,239,ehadmin@northampton.gov.uk,Northampton,http://www.northampton.gov.uk,-0.87841100000000,NN3 6HZ,2015-01-16,fhrs_5_en-GB,5,,FHRS,5
68770,Old Towcester Road,Far Cotton,Northampton,,Carlsberg Sports & Social Club,Pub/bar/nightclub,7843,5,,173981,5,,52.23236800000000,PI/000027648,239,ehadmin@northampton.gov.uk,Northampton,http://www.northampton.gov.uk,-0.89923700000000,NN1 1PZ,2010-01-21,fhrs_5_en-GB,5,,FHRS,5
68771,43 Nettle Gap Close,Wootton,Northampton,,Carmela's Kitchen,Restaurant/Cafe/Canteen,1,5,,481730,5,,52.20465900000000,PI/000046299,239,ehadmin@northampton.gov.uk,Northampton,http://www.northampton.gov.uk,-0.88009300000000,NN4 6AH,2012-11-13,fhrs_5_en-GB,5,,FHRS,5
68772,590 Kettering Road North,Northampton,,,Carmies Caffee,Mobile caterer,7846,10,,365180,5,,52.26882700000000,PI/000075500,239,ehadmin@northampton.gov.uk,Northampton,http://www.northampton.gov.uk,-0.85678800000000,NN3 6HN,2012-04-12,fhrs_4_en-GB,4,,FHRS,5
68773,76 Burrows Court,Lumbertubs,Northampton,,Carols Bakes,Restaurant/Cafe/Canteen,1,5,,543293,5,,52.26545900000000,PI/000050113,239,ehadmin@northampton.gov.uk,Northampton,http://www.northampton.gov.uk,-0.83962700000000,NN3 8JW,2013-02-25,fhrs_5_en-GB,5,,FHRS,5
68774,11 Bank View,Merefield,Northampton,,Carolyn Murphy (Home Baker),Restaurant/Cafe/Canteen,1,5,,462529,5,,52.20731100000000,PI/000002966,239,ehadmin@northampton.gov.uk,Northampton,http://www.northampton.gov.uk,-0.90601700000000,NN4 0RS,2012-10-29,fhrs_5_en-GB,5,,FHRS,5
68775,Rushmills House,Old Bedford Road,Waterside,Northampton,Casuals Rugby Club,Restaurant/Cafe/Canteen,1,5,,734868,5,,52.22861000000000,PI/000084689,239,ehadmin@northampton.gov.uk,Northampton,http://www.northampton.gov.uk,-0.86416100000000,NN4 7AA,2014-04-02,fhrs_5_en-GB,5,,FHRS,5
68776,@ Northampton Academy,Wellingborough Road,Northampton,,Cater Link Ltd,School/college/university,7845,5,,636068,5,,52.25806200000000,PI/000081889,239,ehadmin@northampton.gov.uk,Northampton,http://www.northampton.gov.uk,-0.83079500000000,NN3 8NH,2014-01-14,fhrs_5_en-GB,5,,FHRS,5
68777,St Andrews Healthcare,St Andrews Hospital,Billing Road,Northampton,Catering Hub Store,Hospitals/Childcare/Caring Premises,5,0,,180840,0,,52.23815200000000,PI/000067394,239,ehadmin@northampton.gov.uk,Northampton,http://www.northampton.gov.uk,-0.87371500000000,NN1 5DG,2009-08-07,fhrs_5_en-GB,5,,FHRS,5
68778,C/O British Pepper & Spice,Rhosili Road,Brackmills,Northampton,Catermaster,Restaurant/Cafe/Canteen,1,5,,174994,0,,52.20531300000000,PI/000030754,239,ehadmin@northampton.gov.uk,Northampton,http://www.northampton.gov.uk,-0.88516300000000,NN4 0LD,2013-12-17,fhrs_5_en-GB,5,,FHRS,5
68779,@ Pets at Home SDC,Swan Valley Way,Northampton,,Catermasters,Restaurant/Cafe/Canteen,1,5,,458853,5,,52.21349200000000,PI/000076537,239,ehadmin@northampton.gov.uk,Northampton,http://www.northampton.gov.uk,-0.95106300000000,NN4 9BA,2014-03-06,fhrs_5_en-GB,5,,FHRS,5
68780,Avon Cosmetics,Nunn Mills Road,Northampton,,Catermasters,Restaurant/Cafe/Canteen,1,5,,173845,5,,52.23131000000000,PI/000027168,239,ehadmin@northampton.gov.uk,Northampton,http://www.northampton.gov.uk,-0.88706600000000,NN1 5PA,2014-02-17,fhrs_5_en-GB,5,,FHRS,0
68781,Norbert Dentressangle,Lodge Way,Lodge Farm Indus Est,Northampton,Catermasters,Restaurant/Cafe/Canteen,1,5,,172193,0,,52.26288700000000,PI/000022464,239,ehadmin@northampton.gov.uk,Northampton,http://www.northampton.gov.uk,-0.94897500000000,NN5 7SL,2014-05-21,fhrs_5_en-GB,5,,FHRS,5
68782,Robert Horne Group Ltd,Mansion Close,Moulton Park,Northampton,Catermasters,Restaurant/Cafe/Canteen,1,5,,181552,0,,52.24876000000000,PI/000070747,239,ehadmin@northampton.gov.uk,Northampton,http://www.northampton.gov.uk,-0.81215800000000,NN3 6LA,2012-05-17,fhrs_5_en-GB,5,,FHRS,0
68783,Gowerton Road,Brackmills,Northampton,,Catermasters @ DHL,Restaurant/Cafe/Canteen,1,5,,683458,5,,52.22117500000000,PI/000082456,239,ehadmin@northampton.gov.uk,Northampton,http://www.northampton.gov.uk,-0.86697100000000,NN4 7BD,2014-04-16,fhrs_4_en-GB,4,,FHRS,10
68784,54 Billing Road,Northampton,,,Catherine Hse Day Nursery,Hospitals/Childcare/Caring Premises,5,5,,177727,5,,52.23835000000000,PI/000043510,239,ehadmin@northampton.gov.uk,Northampton,http://www.northampton.gov.uk,-0.87851300000000,NN1 5DB,2014-01-30,fhrs_5_en-GB,5,,FHRS,5
68785,25 Reynard Way,Boughton Green,Northampton,,Celebration Cakes,Retailers - other,4613,10,,181467,5,,52.27642200000000,PI/000070508,239,ehadmin@northampton.gov.uk,Northampton,http://www.northampton.gov.uk,-0.89051000000000,NN2 8QS,2010-03-03,fhrs_4_en-GB,4,,FHRS,5
68786,49 Queen Eleanor Road,Far Cotton,Northampton,,Chang Lung,Takeaway/sandwich shop,7844,10,,177601,5,,52.20531300000000,PI/000042784,239,ehadmin@northampton.gov.uk,Northampton,http://www.northampton.gov.uk,-0.88516300000000,NN4 9NN,2014-03-24,fhrs_3_en-GB,3,,FHRS,10
68787,23 Charnwood Avenue,Westone,Northampton,,Charnwood Food & Wine,Retailers - other,4613,10,,182231,5,,52.25730200000000,PI/000073381,239,ehadmin@northampton.gov.uk,Northampton,http://www.northampton.gov.uk,-0.84212600000000,NN3 3DX,2011-04-04,fhrs_4_en-GB,4,,FHRS,5
68788,"C/O Quinton House School,The Hall",Upton Lane,Upton,Northampton,Chartwell (Compass Group),School/college/university,7845,0,,178472,0,,52.23404800000000,PI/000047293,239,ehadmin@northampton.gov.uk,Northampton,http://www.northampton.gov.uk,-0.94942200000000,NN5 4UX,2013-03-15,fhrs_5_en-GB,5,,FHRS,5
68789,c/o Preston Hedges School,Wootton Hope Drive,Wootton,Northampton,Chartwells,School/college/university,7845,5,,729244,5,,52.20337400000000,PI/000083559,239,ehadmin@northampton.gov.uk,Northampton,http://www.northampton.gov.uk,-0.87832600000000,NN4 6BU,2014-12-11,fhrs_5_en-GB,5,,FHRS,5
68790,Cottage Inn,58 St Giles Street,Northampton,,Chata Cottage Inn Ltd,Restaurant/Cafe/Canteen,1,10,,180505,10,,52.23763700000000,PI/000065438,239,ehadmin@northampton.gov.uk,Northampton,http://www.northampton.gov.uk,-0.89054000000000,NN1 1JW,2013-09-25,fhrs_3_en-GB,3,,FHRS,10
68791,15 Thruxton Drive,Parklands,Northampton,,Chelle's Cupcake Corner,Restaurant/Cafe/Canteen,1,5,,481741,5,,,PI/000077951,239,ehadmin@northampton.gov.uk,Northampton,http://www.northampton.gov.uk,,NN3 1ES,2012-11-06,fhrs_5_en-GB,5,,FHRS,5
68792,37 Kettering Road,Northampton,,,Cheyanne's Caribbean Cuisine,Restaurant/Cafe/Canteen,1,10,,615632,10,,52.24106900000000,PI/000077825,239,ehadmin@northampton.gov.uk,Northampton,http://www.northampton.gov.uk,-0.88651400000000,NN1 4AJ,2013-11-13,fhrs_2_en-GB,2,,FHRS,15
68793,2 Cheyne Walk,Northampton,,,Cheyne Walk Club,Pub/bar/nightclub,7843,10,,180356,5,,52.23715000000000,PI/000063980,239,ehadmin@northampton.gov.uk,Northampton,http://www.northampton.gov.uk,-0.88854600000000,NN1 5PU,2008-06-27,fhrs_3_en-GB,3,,FHRS,10
68794,36 Gold Street,Northampton,,,Chicken Mac,Restaurant/Cafe/Canteen,1,10,,181241,10,,52.23694700000000,PI/000069408,239,ehadmin@northampton.gov.uk,Northampton,http://www.northampton.gov.uk,-0.89950400000000,NN1 1RS,2014-02-13,fhrs_3_en-GB,3,,FHRS,10
68795,114 Wellingborough Road,Northampton,,,Chicken Village,Takeaway/sandwich shop,7844,10,,605078,5,,52.24102200000000,PI/000080102,239,ehadmin@northampton.gov.uk,Northampton,http://www.northampton.gov.uk,-0.88346900000000,NN1 4DR,2013-10-16,fhrs_4_en-GB,4,,FHRS,5
68796,Moulton Lodge,Moulton Way North,Moulton Leys,Northampton,Child First Nursery,Hospitals/Childcare/Caring Premises,5,0,,173499,0,,52.27592400000000,PI/000025981,239,ehadmin@northampton.gov.uk,Northampton,http://www.northampton.gov.uk,-0.85710400000000,NN3 7RW,2014-03-13,fhrs_5_en-GB,5,,FHRS,0
68797,2 Farndon Close,Goldings,Northampton,,Children's Friend Ltd,Hospitals/Childcare/Caring Premises,5,5,,168928,5,,52.27481000000000,PI/000014120,239,ehadmin@northampton.gov.uk,Northampton,http://www.northampton.gov.uk,-0.82997900000000,NN3 3TJ,2006-08-22,fhrs_5_en-GB,5,,FHRS,0
68798,9 Oliver Street,Kingsley,Northampton,,Chilli Alchemy,Restaurant/Cafe/Canteen,1,10,,200553,5,,52.25256100000000,PI/000027792,239,ehadmin@northampton.gov.uk,Northampton,http://www.northampton.gov.uk,-0.88101200000000,NN2 7JH,2011-12-15,fhrs_4_en-GB,4,,FHRS,5
68799,Clannell Road,Merefield,Northampton,,Chillies Indian Restaurant & Bar Serenity,Restaurant/Cafe/Canteen,1,10,,165871,10,,52.21507400000000,PI/000008643,239,ehadmin@northampton.gov.uk,Northampton,http://www.northampton.gov.uk,-0.91130100000000,NN4 0JF,2007-03-26,fhrs_3_en-GB,3,,FHRS,10
68800,97 Weedon Road,St James,Northampton,,China Cottage,Takeaway/sandwich shop,7844,5,,176936,0,,52.24094100000000,PI/000039898,239,ehadmin@northampton.gov.uk,Northampton,http://www.northampton.gov.uk,-0.91922100000000,NN5 5BG,2012-05-28,fhrs_5_en-GB,5,,FHRS,0
68801,19 Spencer Bridge Road,St James,Northampton,,China House,Takeaway/sandwich shop,7844,5,,648868,5,,52.24162700000000,PI/000082543,239,ehadmin@northampton.gov.uk,Northampton,http://www.northampton.gov.uk,-0.91454700000000,NN5 5HA,2014-02-13,fhrs_4_en-GB,4,,FHRS,10
68802,6 Alexandra Terrace,Kingsthorpe,Northampton,,China Palace,Takeaway/sandwich shop,7844,5,,161383,10,,52.26425800000000,PI/000001379,239,ehadmin@northampton.gov.uk,Northampton,http://www.northampton.gov.uk,-0.90014700000000,NN2 7SJ,2012-10-29,fhrs_4_en-GB,4,,FHRS,5
68803,201 Broadway East,Abington,Northampton,,China Red,Takeaway/sandwich shop,7844,10,,164393,5,,52.25586000000000,PI/000006208,239,ehadmin@northampton.gov.uk,Northampton,http://www.northampton.gov.uk,-0.85833800000000,NN3 2PU,2012-11-07,fhrs_4_en-GB,4,,FHRS,0
68804,105 Clare Street,Northampton,,,China Spice,Takeaway/sandwich shop,7844,10,,165876,10,,52.24433400000000,PI/000008653,239,ehadmin@northampton.gov.uk,Northampton,http://www.northampton.gov.uk,-0.88471900000000,NN1 3JA,2013-09-26,fhrs_2_en-GB,2,,FHRS,15
68805,158 Beech Avenue,Abington,Northampton,,China Star,Takeaway/sandwich shop,7844,10,,605084,10,,52.25562800000000,PI/000080264,239,ehadmin@northampton.gov.uk,Northampton,http://www.northampton.gov.uk,-0.86789600000000,NN3 2JN,2013-09-06,fhrs_3_en-GB,3,,FHRS,10
68806,355 Wellingborough Road,Northampton,,,Chip Stop,Takeaway/sandwich shop,7844,10,,182430,5,,52.24384000000000,PI/000075124,239,ehadmin@northampton.gov.uk,Northampton,http://www.northampton.gov.uk,-0.87247200000000,NN1 4ER,2013-07-10,fhrs_4_en-GB,4,,FHRS,5
68807,2 Farmhill Road,Southfields,Northampton,,Chip-Patti,Restaurant/Cafe/Canteen,1,5,,648834,10,,52.27611700000000,PI/000079309,239,ehadmin@northampton.gov.uk,Northampton,http://www.northampton.gov.uk,-0.82818000000000,NN3 5DS,2014-03-31,fhrs_4_en-GB,4,,FHRS,5
68808,3 Wootton Hope Drive,Wootton,Northampton,,Chi's Fish Bar,Takeaway/sandwich shop,7844,10,,178488,5,,52.20337400000000,PI/000047481,239,ehadmin@northampton.gov.uk,Northampton,http://www.northampton.gov.uk,-0.87832600000000,NN4 6BU,2014-06-04,fhrs_4_en-GB,4,,FHRS,5
68809,7a-b Wellington Place,Northampton,,,Chivitos Pizza and Kebabs,Takeaway/sandwich shop,7844,20,,200550,5,,52.24351900000000,PI/000076314,239,ehadmin@northampton.gov.uk,Northampton,http://www.northampton.gov.uk,-0.89752600000000,NN1 3RQ,2014-10-30,fhrs_1_en-GB,1,,FHRS,10
68810,4 Firtree Walk,Westone,Northampton,,Chloe's Cake Creations,Restaurant/Cafe/Canteen,1,5,,581701,5,,52.25418200000000,PI/000068440,239,ehadmin@northampton.gov.uk,Northampton,http://www.northampton.gov.uk,-0.83938000000000,NN3 3DN,2013-08-29,fhrs_5_en-GB,5,,FHRS,5
68811,49 Avon Drive,Kings Heath,Northampton,,Chocolate Heaven Delight,Mobile caterer,7846,10,,180562,5,,52.25467500000000,PI/000065725,239,ehadmin@northampton.gov.uk,Northampton,http://www.northampton.gov.uk,-0.92567000000000,NN5 7HZ,2013-09-03,fhrs_4_en-GB,4,,FHRS,5
68812,11 Abington Street,Northampton,,,Chopstix Noodle Bar,Takeaway/sandwich shop,7844,5,,508979,5,,52.23812700000000,PI/000078347,239,ehadmin@northampton.gov.uk,Northampton,http://www.northampton.gov.uk,-0.89489200000000,NN1 2AN,2014-09-16,fhrs_5_en-GB,5,,FHRS,0
68813,92 Rickyard Road,The Arbours,Northampton,,Christine's Cake Creations,Restaurant/Cafe/Canteen,1,5,,492618,5,,52.26194500000000,PI/000030830,239,ehadmin@northampton.gov.uk,Northampton,http://www.northampton.gov.uk,-0.84248900000000,NN3 3RR,2012-12-04,fhrs_5_en-GB,5,,FHRS,5
68814,Latter Day Saints,137 Harlestone Road,Duston,Northampton,Church Of Jesus Christ Of,Restaurant/Cafe/Canteen,1,10,,170532,5,,52.24793900000000,PI/000017839,239,ehadmin@northampton.gov.uk,Northampton,http://www.northampton.gov.uk,-0.92643400000000,NN5 6AA,2014-09-16,fhrs_4_en-GB,4,,FHRS,5
68815,High Street,Great Billing,Northampton,,Church Rooms (Catholic),Restaurant/Cafe/Canteen,1,5,,170826,5,,52.27481000000000,PI/000018782,239,ehadmin@northampton.gov.uk,Northampton,http://www.northampton.gov.uk,-0.82997900000000,NN3 4DT,2004-06-07,fhrs_5_en-GB,5,,FHRS,5
68816,c/o Church & Co (Footwear) Ltd,St James Road,St James,Northampton,Churchill Catering,Restaurant/Cafe/Canteen,1,10,,180783,10,,52.23726600000000,PI/000066997,239,ehadmin@northampton.gov.uk,Northampton,http://www.northampton.gov.uk,-0.91357000000000,NN5 5JB,2014-05-14,fhrs_2_en-GB,2,,FHRS,15
68817,Walter Tull Way,Sixfields,Northampton,,Cineworld Cinemas Ltd,Restaurant/Cafe/Canteen,1,0,,176754,0,,52.23522800000000,PI/000038771,239,ehadmin@northampton.gov.uk,Northampton,http://www.northampton.gov.uk,-0.93661000000000,NN5 5QJ,2011-01-19,fhrs_5_en-GB,5,,FHRS,5
68818,2 Malvern Grove,Duston,Northampton,,Cinnamon,Takeaway/sandwich shop,7844,10,,172845,10,,52.24739600000000,PI/000024158,239,ehadmin@northampton.gov.uk,Northampton,http://www.northampton.gov.uk,-0.93400500000000,NN5 6AY,2013-08-29,fhrs_3_en-GB,3,,FHRS,10
68819,2 Wrekin Close,Briar Hill,Northampton,,Clarkes Butchers,Retailers - other,4613,10,,178483,5,,52.22790400000000,PI/000047450,239,ehadmin@northampton.gov.uk,Northampton,http://www.northampton.gov.uk,-0.93003500000000,NN4 8JL,2013-07-10,fhrs_4_en-GB,4,,FHRS,5
68820,13 Alexandra Terrace,Kingsthorpe,Northampton,,Classic News,Retailers - other,4613,10,,161365,10,,52.26425800000000,PI/000001363,239,ehadmin@northampton.gov.uk,Northampton,http://www.northampton.gov.uk,-0.90014700000000,NN2 7SJ,2008-04-22,fhrs_3_en-GB,3,,FHRS,5
68821,147 Park Avenue North,Abington,Northampton,,Classic News,Retailers - other,4613,,,174215,,,52.25330700000000,PI/000028409,239,ehadmin@northampton.gov.uk,Northampton,http://www.northampton.gov.uk,-0.87053300000000,NN3 2HU,2006-10-27,fhrs_exempt_en-GB,Exempt,,FHRS,
68822,39 Kettering Road,Northampton,,,Click - Cybernet,Restaurant/Cafe/Canteen,1,5,,181262,5,,52.24106900000000,PI/000069561,239,ehadmin@northampton.gov.uk,Northampton,http://www.northampton.gov.uk,-0.88651400000000,NN1 4AJ,2010-05-05,fhrs_5_en-GB,5,,FHRS,5
68823,10 Peacock Place,Northampton,,,Clinton Cards Plc,Retailers - other,4613,,,177857,,,52.24175500000000,PI/000043991,239,ehadmin@northampton.gov.uk,Northampton,http://www.northampton.gov.uk,-0.88091900000000,NN1 2DJ,2004-05-28,fhrs_exempt_en-GB,Exempt,,FHRS,
68824,22 Weston Favell Centre,Weston Favell,Northampton,,Clinton Cards Plc,Retailers - other,4613,,,177135,,,52.27481000000000,PI/000040859,239,ehadmin@northampton.gov.uk,Northampton,http://www.northampton.gov.uk,-0.82997900000000,NN3 4JZ,2004-04-23,fhrs_exempt_en-GB,Exempt,,FHRS,
68825,Nene White Water Rafting,Bedford Road,Northampton,,Clubs for Young People (Northants),Restaurant/Cafe/Canteen,1,10,,162775,10,,52.22861100000000,PI/000003623,239,ehadmin@northampton.gov.uk,Northampton,http://www.northampton.gov.uk,-0.86416100000000,NN4 7AA,2012-05-09,fhrs_3_en-GB,3,,FHRS,5
68826,@ Danes Camp Leisure Centre,Clannell Road,Merefield,Northampton,Coffee Box,Restaurant/Cafe/Canteen,1,5,,720003,0,,52.21410000000000,PI/000083593,239,ehadmin@northampton.gov.uk,Northampton,http://www.northampton.gov.uk,-0.90996300000000,NN4 0RX,2014-09-11,fhrs_5_en-GB,5,,FHRS,5
68827,10 Kingsley Park Terrace,Kingsley,Northampton,,Coffee Lounge,Restaurant/Cafe/Canteen,1,10,,446078,5,,52.25166300000000,PI/000077524,239,ehadmin@northampton.gov.uk,Northampton,http://www.northampton.gov.uk,-0.87920300000000,NN2 7HG,2014-03-31,fhrs_4_en-GB,4,,FHRS,5
68828,9-11 College Street,Northampton,,,College Street Chippy,Takeaway/sandwich shop,7844,20,,182286,15,,52.23770700000000,PI/000073634,239,ehadmin@northampton.gov.uk,Northampton,http://www.northampton.gov.uk,-0.89808000000000,NN1 2QP,2014-07-01,fhrs_1_en-GB,1,,FHRS,10
68829,110 Windingbrook Lane,Blacky More,Northampton,,Collingtree Park Care Home,Hospitals/Childcare/Caring Premises,5,5,,177498,5,,52.19592300000000,PI/000042458,239,ehadmin@northampton.gov.uk,Northampton,http://www.northampton.gov.uk,-0.89664100000000,NN4 0XN,2014-03-19,fhrs_5_en-GB,5,,FHRS,5
68830,Windingbrook Lane,Blacky More,Northampton,,Collingtree Park Golf Course Ltd,Pub/bar/nightclub,7843,5,,177500,5,,52.19592300000000,PI/000042476,239,ehadmin@northampton.gov.uk,Northampton,http://www.northampton.gov.uk,-0.89664100000000,NN4 0XN,2013-09-05,fhrs_5_en-GB,5,,FHRS,5
68831,North Gate Bus Station,Bradshaw Street,Northampton,,Colombiano Coffee House,Restaurant/Cafe/Canteen,1,10,,648859,5,,52.23988800000000,PI/000082434,239,ehadmin@northampton.gov.uk,Northampton,http://www.northampton.gov.uk,-0.89569700000000,NN1 3BZ,2014-03-25,fhrs_4_en-GB,4,,FHRS,5
68832,Butts Croft Close,Blackymore,Northampton,,Community Centre,Other catering premises,7841,10,,178052,5,,,PI/000044902,239,ehadmin@northampton.gov.uk,Northampton,http://www.northampton.gov.uk,,NN4 OWP,2007-07-12,fhrs_4_en-GB,4,,FHRS,5
68833,1000 Montague Crescent,Ryehill,Northampton,,Community Room,Restaurant/Cafe/Canteen,1,10,,173210,10,,52.25623300000000,PI/000025150,239,ehadmin@northampton.gov.uk,Northampton,http://www.northampton.gov.uk,-0.93492100000000,NN5 7RH,2008-09-22,fhrs_3_en-GB,3,,FHRS,10
68834,70 Hunters Close,Kingsthorpe,Northampton,,Community Room,Restaurant/Cafe/Canteen,1,5,,171166,5,,52.27616200000000,PI/000019686,239,ehadmin@northampton.gov.uk,Northampton,http://www.northampton.gov.uk,-0.89249500000000,NN2 8TH,2005-10-12,fhrs_5_en-GB,5,,FHRS,5
68835,Brunswick Place,Northampton,,,Community Room,Restaurant/Cafe/Canteen,1,5,,164553,5,,52.24305400000000,PI/000006528,239,ehadmin@northampton.gov.uk,Northampton,http://www.northampton.gov.uk,-0.88346200000000,NN1 4BG,2007-01-03,fhrs_5_en-GB,5,,FHRS,5
68836,Cardigan Close,Dallington,Northampton,,Community Room,Restaurant/Cafe/Canteen,1,10,,165012,5,,52.24892700000000,PI/000007285,239,ehadmin@northampton.gov.uk,Northampton,http://www.northampton.gov.uk,-0.91746000000000,NN5 7DH,2010-05-18,fhrs_3_en-GB,3,,FHRS,10
68837,Goldcrest Court,Goldings,Northampton,,Community Room,Restaurant/Cafe/Canteen,1,10,,178131,5,,52.26982700000000,PI/000045422,239,ehadmin@northampton.gov.uk,Northampton,http://www.northampton.gov.uk,-0.82764300000000,NN3 8XJ,2013-07-29,fhrs_4_en-GB,4,,FHRS,5
68838,Leicester Street,Northampton,,,Community Room,Other catering premises,7841,10,,171917,5,,52.24561900000000,PI/000021757,239,ehadmin@northampton.gov.uk,Northampton,http://www.northampton.gov.uk,-0.89618500000000,NN1 3RS,2014-01-22,fhrs_4_en-GB,4,,FHRS,5
68839,James Lewis Court,Northampton,,,Community Room Day Centre,Restaurant/Cafe/Canteen,1,5,,171240,5,,52.25665700000000,PI/000019885,239,ehadmin@northampton.gov.uk,Northampton,http://www.northampton.gov.uk,-0.85338000000000,NN3 2TH,2008-05-27,fhrs_5_en-GB,5,,FHRS,5
68840,Quinton House Junior School,Upton Lane,Upton,Northampton,Compass,School/college/university,7845,0,,180474,0,,52.23404800000000,PI/000065288,239,ehadmin@northampton.gov.uk,Northampton,http://www.northampton.gov.uk,-0.94942200000000,NN5 4UX,2013-03-15,fhrs_5_en-GB,5,,FHRS,0
68841,(Staff Canteen),1/2 Weston Favell Centre,Weston Favell,Northampton,Compass at Tesco,Restaurant/Cafe/Canteen,1,5,,180058,5,,52.25703900000000,PI/000061478,239,ehadmin@northampton.gov.uk,Northampton,http://www.northampton.gov.uk,-0.83549600000000,NN3 8JZ,2014-02-19,fhrs_5_en-GB,5,,FHRS,5
68842,Ashview,330 Main Road,Duston,Northampton,Compass Care,Hospitals/Childcare/Caring Premises,5,10,,172775,5,,52.25800900000000,PI/000023978,239,ehadmin@northampton.gov.uk,Northampton,http://www.northampton.gov.uk,-0.95254800000000,NN5 6NJ,2007-12-03,fhrs_4_en-GB,4,,FHRS,5
68843,Whittingtons,Northampton Combined Courts,Campbell Square,Northampton,Compass Catering,Restaurant/Cafe/Canteen,1,5,,182306,5,,52.24081300000000,PI/000073811,239,ehadmin@northampton.gov.uk,Northampton,http://www.northampton.gov.uk,-0.89365300000000,NN1 3HQ,2014-05-19,fhrs_5_en-GB,5,,FHRS,5
68844,Christchurch Court,4 Christchurch Road,Abington,Northampton,Connect Catering Ltd,Hospitals/Childcare/Caring Premises,5,5,,182417,5,,52.24376900000000,PI/000075013,239,ehadmin@northampton.gov.uk,Northampton,http://www.northampton.gov.uk,-0.86972100000000,NN1 5LL,2013-04-11,fhrs_5_en-GB,5,,FHRS,0
68845,Christchurch Court,2 Christchurch Road,Abington,Northampton,Connect Catering Ltd,Hospitals/Childcare/Caring Premises,5,5,,182416,5,,52.24376900000000,PI/000075011,239,ehadmin@northampton.gov.uk,Northampton,http://www.northampton.gov.uk,-0.86972100000000,NN1 5LL,2013-04-11,fhrs_5_en-GB,5,,FHRS,5
68846,& Halal Butcher,82 Earl Street,Northampton,,Continental Supermarket,Retailers - other,4613,10,,178818,10,,52.24261900000000,PI/000050426,239,ehadmin@northampton.gov.uk,Northampton,http://www.northampton.gov.uk,-0.89163100000000,NN1 3AX,2013-07-26,fhrs_3_en-GB,3,,FHRS,10
68847,33 Naseby Street,Semilong,Northampton,,Cool as Ice,Retailers - other,4613,10,,657050,10,,52.25020500000000,PI/000062132,239,ehadmin@northampton.gov.uk,Northampton,http://www.northampton.gov.uk,-0.90203300000000,NN2 6HW,2013-09-05,fhrs_3_en-GB,3,,FHRS,10
68848,Wootton Hope Drive,Wootton,Northampton,,Co-op,Retailers - supermarkets/hypermarkets,7840,5,,178485,5,,52.20575000000000,PI/000047476,239,ehadmin@northampton.gov.uk,Northampton,http://www.northampton.gov.uk,-0.88423600000000,NN4 6HD,2014-08-21,fhrs_4_en-GB,4,,FHRS,10
68849,18 Newnham Road,Kingsthorpe,Northampton,,Co-Op Late Shop,Retailers - supermarkets/hypermarkets,7840,5,,173641,5,,52.26414600000000,PI/000026451,239,ehadmin@northampton.gov.uk,Northampton,http://www.northampton.gov.uk,-0.88724100000000,NN2 7RE,2013-03-26,fhrs_5_en-GB,5,,FHRS,5
68850,5 Rothersthorpe Road,Northampton,,,Co-Op Late Shop,Retailers - supermarkets/hypermarkets,7840,5,,175186,5,,,PI/000031441,239,ehadmin@northampton.gov.uk,Northampton,http://www.northampton.gov.uk,,NN4 9JA,2013-07-29,fhrs_5_en-GB,5,,FHRS,5
68851,45-49 Oulton Rise,Parklands,Northampton,,Co-operative Food,Retailers - supermarkets/hypermarkets,7840,5,,615634,5,,52.26804800000000,PI/000079523,239,ehadmin@northampton.gov.uk,Northampton,http://www.northampton.gov.uk,-0.87484800000000,NN3 6EW,2013-11-11,fhrs_5_en-GB,5,,FHRS,5
68852,Unit 1,Fieldmill Square,Bellinge,Northampton,Co-operative Group Ltd,Retailers - other,4613,5,,163161,5,,52.25242800000000,PI/000004273,239,ehadmin@northampton.gov.uk,Northampton,http://www.northampton.gov.uk,-0.81392100000000,NN3 9AQ,2014-05-12,fhrs_4_en-GB,4,,FHRS,10
68853,7-8 Leicester Terrace,Northampton,,,Co-operative Pharmacy,Retailers - other,4613,,,180753,,,52.24588600000000,PI/000066609,239,ehadmin@northampton.gov.uk,Northampton,http://www.northampton.gov.uk,-0.89781900000000,NN2 6AJ,2009-04-06,fhrs_exempt_en-GB,Exempt,,FHRS,
68854,Barry Road,Northampton,,,Co-operative Supermarket,Retailers - supermarkets/hypermarkets,7840,5,,162659,5,,52.24065900000000,PI/000003346,239,ehadmin@northampton.gov.uk,Northampton,http://www.northampton.gov.uk,-0.87267000000000,NN1 5JS,2014-10-02,fhrs_5_en-GB,5,,FHRS,5
68855,1/9 Overstone Road,Northampton,,,Coopers Snooker Club Ltd,Pub/bar/nightclub,7843,5,,504884,5,,52.24279100000000,PI/000074216,239,ehadmin@northampton.gov.uk,Northampton,http://www.northampton.gov.uk,-0.88982500000000,NN1 3JL,2014-06-06,fhrs_5_en-GB,5,,FHRS,5
68856,361 Wellingborough Road,Northampton,,,Corkers,Pub/bar/nightclub,7843,10,,179033,10,,52.24481900000000,PI/000051802,239,ehadmin@northampton.gov.uk,Northampton,http://www.northampton.gov.uk,-0.87149500000000,NN1 4EU,2014-02-26,fhrs_3_en-GB,3,,FHRS,5
68857,52 Longland Road,Headlands,Northampton,,Cornwell's Catering,Restaurant/Cafe/Canteen,1,5,,172279,10,,52.25737700000000,PI/000022703,239,ehadmin@northampton.gov.uk,Northampton,http://www.northampton.gov.uk,-0.85818100000000,NN3 2QE,2014-03-06,fhrs_4_en-GB,4,,FHRS,5
68858,Tesco Extra Mereway,Northampton,,,Costa,Restaurant/Cafe/Canteen,1,0,,180675,5,,52.21507400000000,PI/000066135,239,ehadmin@northampton.gov.uk,Northampton,http://www.northampton.gov.uk,-0.91130100000000,NN4 0JF,2013-12-03,fhrs_5_en-GB,5,,FHRS,5
68859,Fairground Way,Riverside Park,"A45, Northampton",,Costa @ Next,Restaurant/Cafe/Canteen,1,0,,683463,5,,52.24159100000000,PI/000082643,239,ehadmin@northampton.gov.uk,Northampton,http://www.northampton.gov.uk,-0.83982500000000,NN3 9HU,2014-06-09,fhrs_5_en-GB,5,,FHRS,5
