,businessname,ratingvalue,structural,hygiene,confidenceinmanagement,ratingdate,latitude,longitude
68494,1st Degree Facilities,5,5,5,5,2014-09-26,52.272001,-0.883102
68495,27 Red,3,5,10,10,2007-06-12,52.237013,-0.893059
68496,2's Catering,3,5,10,10,2010-04-15,52.237748,-0.861585
68497,3 Tiers,5,5,5,5,2014-11-07,52.244997,-0.921276
68498,7 Day Catering @ Sainsburys,5,5,5,5,2013-05-03,52.239395,-0.935031
68499,99p Store,5,5,5,5,2014-04-02,52.257039,-0.835496
68500,99p Store,5,5,5,5,2015-01-13,52.238797,-0.892576
68501,99p Stores Ltd,5,5,5,5,2012-08-22,52.236947,-0.899504
68502,A & D Mini Market Ltd,4,5,5,10,2013-03-18,52.2555913,-0.85886613
68503,A & K General Stores,3,10,5,10,2014-03-05,52.241522,-0.879297
68504,A & K Newsagents,4,5,5,10,2008-04-24,52.246085,-0.918305
68505,A & M Newsagents,Exempt,nan,nan,nan,2013-12-19,52.256322,-0.804206
68506,Aarthiee Super Store,1,15,10,20,2014-10-16,52.226741,-0.906096
68507,Abbey Centre Pre School,5,0,5,5,2014-03-19,52.210242,-0.898276
68508,Abbey House,5,5,5,5,2013-07-22,52.249982,-0.867922
68509,Abington Avenue Guest House,4,5,5,10,2013-01-29,52.248844,-0.874924
68510,Abington Bowling Club,5,0,0,0,2013-09-11,52.241699,-0.863036
68511,Abington Christian Centre,3,10,5,10,2013-03-20,52.247013,-0.875277
68512,Abington Park Day Nursery,5,5,5,5,2014-03-13,52.250064,-0.864316
68513,Abington Park Guest House,3,5,10,10,2013-10-04,52.246505,-0.870032
68514,Abington Park View Resid.Care Home,5,0,5,5,2014-06-18,52.250064,-0.864316
68515,Abington Pharmacy,Exempt,nan,nan,nan,2013-08-28,52.253271,-0.865905
68516,Abington Plaice,5,5,5,5,2013-03-26,52.242043,-0.856671
68517,Abington Square News,Exempt,nan,nan,nan,2006-12-12,52.241069,-0.886514
68518,Abington Supermarket,3,10,5,10,2010-03-22,52.242062,-0.875564
68519,Abington Tandoori Takeaway,1,15,10,20,2014-09-25,52.238075,-0.89706
68520,Abington Vale Supermarket,4,5,5,10,2013-03-19,52.250249,-0.943676
68521,Abirami Mini Market,4,5,5,10,2009-11-03,52.246085,-0.918305
68522,Abi's Flavours,4,5,5,10,2012-05-24,52.259694,-0.917051
68523,ABM Catering Ltd,5,5,0,0,2013-10-23,52.213492,-0.951063
68524,Academy Coffee Haus,5,5,5,5,2013-12-05,52.237605,-0.898683
68525,Acca Limited T/A Pizza Hut,4,10,5,5,2013-06-10,52.252755,-0.87774
68526,Ace Cafe (Mobile Trader),3,10,5,10,2013-03-22,52.222781,-0.928211
68527,Acorn Child Care,5,5,5,5,2014-02-05,52.258847,-0.852151
68528,Adnitt News Food and Wine Stores,3,10,5,10,2008-09-29,52.245874,-0.873695
68529,ADore...Flavas,4,5,5,10,2011-07-14,52.256995,-0.898364
68530,ADR Group Ltd,5,5,5,5,2013-04-26,52.24491,-0.833616
68531,African & Caribbean,5,5,5,5,2013-12-10,52.251015,-0.855664
68532,Afro Choice,2,10,15,10,2014-03-31,52.239908,-0.88833
68533,Afro Express Mart,3,5,10,10,2013-11-20,52.240729,-0.88478
68534,Age UK Northamptonshire,5,0,0,5,2011-02-24,52.263509,-0.85354
68535,Age UK Northamptonshire,4,10,5,5,2011-06-02,52.259752,-0.918442
68536,Age UK Northamptonshire,5,5,5,5,2014-09-01,52.238896,-0.888692
68537,AJ's Village Shop,4,5,5,10,2006-11-30,52.202355,-0.886546
68538,Akbor Tandoori Indian Takeaway,4,5,5,10,2014-10-09,52.228062,-0.900163
68539,Al Fairoz Kebabish,4,5,5,10,2013-08-20,52.239049,-0.898266
68540,Aladdins Balti,3,10,10,10,2013-02-12,52.23425,-0.897624
68541,Albert J Ramsbottom,5,5,5,5,2014-04-30,52.238514,-0.892114
68542,Albion Brewery,5,5,5,5,2014-07-09,52.234918,-0.897915
68543,Aldi,5,5,5,5,2006-03-21,52.240225,-0.915577
68544,Aldi Stores,5,5,5,5,2012-05-17,52.252229,-0.846462
68545,Ali Baba,3,5,10,10,2014-03-12,52.238443,-0.89793
68546,All Saints Cafe,5,5,5,5,2014-02-13,52.236765,-0.896404
68547,All Seasons Cafe,5,0,5,5,2013-07-25,52.244755,-0.808164
68548,Allen & Whitworth UK Ltd,4,10,5,5,2014-03-31,52.244125,-0.879803
68549,Allen & Whitworth UK Ltd,5,5,5,5,2014-03-31,52.244654,-0.873916
68550,Allen & Whitworth UK Ltd,5,5,5,5,2014-03-31,52.245407,-0.878453
68551,Allires,4,5,5,10,2013-04-09,52.258212,-0.806163
68552,Alliston Gns Youth &,4,5,5,10,2014-03-31,52.245807,-0.901893
68553,Al-Madina Supermarket,1,15,15,20,2013-08-20,52.245002,-0.88312
68554,Alphabet Day Nursery,5,5,5,5,2014-05-15,52.221389,-0.926342
68555,Alphabet Day Nursery,5,5,5,5,2014-10-07,52.260469,-0.903552
68556,Alsace Park Fish Bar,5,5,5,5,2014-02-20,52.253559,-0.962702
68557,Alzheimer's Society Day Support Serv,5,5,5,5,2011-08-17,52.263509,-0.85354
68558,Ambe Supermarket,3,10,5,10,2008-05-28,52.240619,-0.90082
68559,Amberlicious Cupcakes,4,0,5,10,2014-09-15,52.261449,-0.843234
68560,Ambush Street Mini Market,3,10,5,10,2013-03-14,52.238075,-0.910636
68561,AMEY (Catering),5,5,0,0,2013-10-16,52.258235,-0.847479
68562,Amey@ Bridgewood Probation Hostel,4,5,5,10,2013-06-13,52.269153,-0.836732
68563,Amigos,2,15,10,10,2014-01-30,52.243531,-0.872099
68564,Amika Express Ltd,4,5,5,10,2013-03-21,52.237143,-0.893481
68565,Amin News,4,5,5,10,2013-03-19,52.25586,-0.858338
68566,Amisha General Store,3,5,10,10,2008-03-19,52.258316,-0.882962
68567,AMT Coffee Ltd,5,5,5,5,2013-03-19,52.272001,-0.883102
68568,Amy's Vintage Tea,4,5,5,10,2014-02-18,52.238721,-0.887276
68569,Andreoli,4,5,5,10,2009-01-30,52.238119,-0.896957
68570,Andrew Squires,5,5,5,5,2007-08-08,52.245918,-0.883039
68571,Andrews Emporium,4,5,5,10,2013-10-04,52.257039,-0.835496
68572,Andrews Take Away,3,5,10,10,2014-06-06,52.27481,-0.829979
68573,Angel Cakes,5,5,5,5,2012-10-16,52.252752,-0.815773
68574,Ann Summers,Exempt,nan,nan,nan,2010-10-07,52.238127,-0.894892
68575,Anna's Delight,5,5,5,5,2013-07-18,52.24989,-0.942339
68576,Apna Cash & Carry,1,15,15,20,2013-11-27,52.244161,-0.883581
68577,Arabian Munch,5,0,0,5,2014-11-27,52.270659,-0.912739
68578,Aramark,5,0,0,0,2009-09-18,52.2343902588,-0.881200015545
68579,Aramark Services,5,5,5,5,2014-06-04,52.209921,-0.901387
68580,Aramintas,4,5,5,10,2014-02-12,52.203096,-0.876489
68581,Are you being served?,5,5,5,0,2014-03-24,52.237637,-0.89054
68582,Argos Ltd,Exempt,nan,nan,nan,2013-09-19,52.235847,-0.899151
68583,Argos Ltd,Exempt,nan,nan,nan,2014-01-02,52.238842,-0.933492
68584,Arnold House,5,0,0,5,2013-08-30,52.279716,-0.85598
68585,ASC Ltd Newsagent,3,10,10,10,2013-08-27,52.245516,-0.873865
68586,Asda,4,5,10,5,2014-01-23,52.269111,-0.891249
68587,Asda,5,5,5,5,2012-07-31,52.228674,-0.895434
68588,Asda Supermarket,5,5,5,5,2012-08-08,52.253318,-0.903275
68589,Asheesh Newsagents,Exempt,nan,nan,nan,2013-12-03,52.243027,-0.873079
68590,Ashvin Food & Wine,3,10,5,10,2008-04-16,52.259506,-0.95304
68591,Ask Restaurants Ltd,5,0,0,5,2012-06-07,52.237177,-0.895179
68592,Aspers (Northampton) Ltd,5,0,0,5,2012-05-15,52.234771,-0.89846
68593,Atmosphere,4,10,5,5,2007-10-03,52.236147,-0.900418
68594,Aunty Bo's,4,0,5,10,2011-01-27,52.255562,-0.862945
68595,Autograph the Food People,5,0,0,5,2014-05-22,52.231272,-0.906058
68596,Avenue Restaurant,5,5,5,5,2013-10-16,52.250992,-0.890002
68597,Avery Homes Cliftonville Ltd,5,5,0,0,2014-10-23,52.234392,-0.879272
68598,Avery Homes SH Ltd,5,0,0,5,2014-12-11,52.234392,-0.879272
68599,Ayaz Kebab Ltd,3,10,5,10,2014-07-04,52.244581,-0.883336
68600,B & M Retail Ltd,5,5,5,5,2012-11-19,,
68601,B & M Stores,4,5,5,10,2013-02-25,52.231272,-0.906058
68602,B Hollowell & Son,4,10,5,5,2006-08-25,52.255628,-0.867896
68603,Baba & Nyonya,5,5,0,5,2014-07-01,52.251663,-0.879203
68604,Babouchi Grill,3,5,10,10,2013-10-23,52.241716,-0.877872
68605,Bailiff Street Mini Market,4,5,5,10,2013-03-21,52.245,-0.893417
68606,Baking Love,5,5,5,5,2012-07-24,52.260518,-0.952547
68607,Balloon Bar / Restaurant,3,5,10,10,2007-10-17,52.236267,-0.896988
68608,Balmoral Pharmacy,Exempt,nan,nan,nan,2006-05-18,52.253318,-0.903275
68609,Balti Central,4,5,10,5,2014-03-26,52.236655,-0.901899
68610,Balti King,4,5,5,10,2013-09-02,52.242619,-0.891631
68611,Bamboo Garden,3,10,5,10,2014-02-24,52.238959,-0.914759
68612,Bangla Bazar,3,10,10,10,2014-09-29,52.243496,-0.885516
68613,Banjos,5,5,5,5,2014-11-11,52.280269,-0.877983
68614,Bar Serengeti,3,10,10,10,2010-05-05,52.241022,-0.883469
68615,Bar So,4,5,5,10,2006-09-19,52.240991,-0.887761
68616,Baraka Coffee,3,10,10,10,2014-09-24,52.243519,-0.897526
68617,Barakah Halal Butchers,4,5,5,10,2013-03-11,52.244827,-0.883638
68618,Bare Essentials Supermarket,4,5,5,10,2011-09-12,52.24559021,-0.812462687492
68619,Bargain Booze,5,5,5,5,2006-10-20,52.251123,-0.943481
68620,Bargain Booze,5,5,5,5,2013-11-25,52.26464,-0.899596
68621,Barn Owl,4,5,5,10,2008-06-06,52.268775,-0.808751
68622,Baroque,4,10,5,5,2013-12-04,52.237746,-0.891621
68623,Barratts Club,4,5,10,5,2014-02-20,52.250862,-0.897271
68624,Bartellas Coffee House,4,5,5,10,2014-09-17,52.242232,-0.87638
68625,Bat & Wickets,4,5,5,10,2007-02-23,52.245,-0.893417
68626,BaxterStorey,5,5,0,0,2014-07-04,52.27388,-0.875477
68627,BB's Coffee & Muffin,3,5,10,10,2015-01-14,52.26544,-0.838588
68628,Beacon Bingo,5,5,5,5,2014-02-28,52.240941,-0.919221
68629,Becketts Park Kiosk,2,15,5,10,2013-08-15,52.23419,-0.895048
68630,Behind the Bus Stop,4,5,5,10,2013-04-08,52.242044,-0.877483
68631,Beijing House,4,5,5,10,2013-09-26,52.250337,-0.897899
68632,Bella Italia,5,5,5,5,2013-11-08,52.235228,-0.93661
68633,Bella's Cakery,5,5,5,5,2013-07-05,52.206986,-0.887557
68634,Bellinge Community Centre,5,0,0,0,2013-09-02,52.252428,-0.813921
68635,Bellinge Community House,5,5,5,5,2014-06-30,52.252428,-0.813921
68636,Bengal Foods,3,10,5,10,2012-10-17,52.242619,-0.891631
68637,Bennett's Bespoke Bakes,5,5,5,5,2013-07-05,52.241707,-0.912524
68638,Bernadette O'Connor,5,5,5,5,2012-10-31,52.259216,-0.906089
68639,Berrywood Hospital,5,0,0,5,2012-07-26,52.247683,-0.9601
68640,Berrywood Lodge,4,5,5,10,2013-12-06,52.246951,-0.95565
68641,Berzerk Leisure Ltd,5,5,5,5,2014-10-02,52.274935,-0.859005
68642,Best Pol Delicatessen,4,5,5,10,2014-09-24,52.244719,-0.897057
68643,Bestway Cash & Carry,5,5,5,5,2008-07-17,52.250249,-0.943676
68644,Bethany Homestead,5,5,5,5,2014-11-27,52.253493,-0.887375
68645,Better Bodies Ltd,Exempt,nan,nan,nan,2007-09-04,52.250056,-0.89565
68646,Better Lifestyle Centre,3,10,10,10,2013-01-23,52.249923,-0.897836
68647,Bharat Newsagents,5,5,5,5,2013-11-29,52.245844,-0.877138
68648,Big Mike's Takeaway,4,5,5,10,2013-05-08,52.245807,-0.901893
68649,Billing Fish Bar,1,5,5,20,2014-10-27,52.2343902588,-0.881200015545
68650,Billing Garden Store,4,5,5,10,2006-08-22,52.2343902588,-0.881200015545
68651,Billing Mill PH,5,5,5,5,2014-11-14,52.2343902588,-0.881200015545
68652,Billing Service Station Ltd,4,5,5,10,2009-02-18,52.2343902588,-0.881200015545
68653,Bill's Edible Art,4,5,5,10,2014-09-15,52.276473,-0.826954
68654,Birchfield Fish Bar,2,15,5,10,2014-11-13,52.252282,-0.864992
68655,Bite Me Spices,4,5,5,10,2013-06-13,52.243909,-0.887337
68656,Bizzy Bears Pre-School,4,10,5,5,2007-04-18,52.260133,-0.813891
68657,Black Bottom Club,5,0,0,0,2013-08-28,52.236765,-0.896404
68658,Blacks Leisure,Exempt,nan,nan,nan,2014-06-27,52.241591,-0.839825
68659,Blackthorn Community Centre,5,5,5,5,2006-01-30,52.265638,-0.819562
68660,Blackthorn Tandoori,4,5,5,10,2014-03-31,52.27481,-0.829979
68661,Blenders,4,10,5,5,2013-12-13,52.241755,-0.880919
68662,Blockbuster Express,Exempt,nan,nan,nan,2006-08-21,52.262183,-0.901298
68663,Blockbuster Video,Exempt,nan,nan,nan,2008-03-03,52.243531,-0.872099
68664,Blue Box Muffins,5,5,5,5,2015-01-21,52.250738,-0.87467
68665,Blue Tree Cliftonville,5,0,5,5,2013-09-18,52.238152,-0.873715
68666,Blue Tree Restaurant,5,0,0,5,2011-06-08,52.238152,-0.873715
68667,Body Fuel,3,10,10,10,2014-09-12,52.251663,-0.879203
68668,Bold Dragoon,3,10,5,10,2013-03-27,52.251467,-0.844856
68669,Bombay Palace Tandoori,3,10,10,10,2013-08-30,52.263611,-0.901145
68670,Booker Cash & Carry,4,10,5,5,2008-11-06,52.24876,-0.812158
68671,Boothville Community Cent,4,5,5,10,2014-06-16,52.267093,-0.851337
68672,Boothville Fish Bar,4,10,5,5,2013-05-22,52.268495,-0.850363
68673,Boothville Stores,Exempt,nan,nan,nan,2013-08-27,52.271272,-0.853047
68674,Boothville Stores,3,5,10,10,2014-01-13,52.271272,-0.853047
68675,Bootleggers,5,5,5,5,2013-04-03,52.240169,-0.886405
68676,Boots Company Plc,5,5,5,5,2013-11-25,52.27481,-0.829979
68677,Boots Company Plc,5,0,0,5,2014-04-03,52.238789,-0.896486
68678,Boots The Chemist,5,5,0,5,2007-02-22,52.239395,-0.935031
68679,Boots The Chemists Ltd,5,0,0,0,2013-08-23,52.241591,-0.839825
68680,Booze City,4,5,5,10,2012-04-16,52.236471,-0.899487
68681,Borjia Ltd (Formerly  Lounge 17 Ltd),5,5,5,5,2014-05-20,52.237117,-0.892676
68682,Bosnian Specialities (Ciro's Place),4,5,5,10,2014-06-11,52.241755,-0.880919
68683,Boston Clipper,3,10,10,10,2013-08-01,52.237707,-0.89808
68684,Bosworth Independent College,5,5,0,5,2013-11-18,52.249628,-0.894108
68685,Boughton Lodge Residential Care Home,5,5,5,5,2014-02-28,52.267999,-0.896391
68686,Box Food,4,5,5,10,2014-09-18,52.244704,-0.89155
68687,Boys Brigade Old Boys Rugby Club,4,5,5,10,2014-02-27,52.244244,-0.903938
68688,BP Express Shopping Ltd,5,0,0,5,2009-10-27,52.248418,-0.875462
68689,BP Express Shopping Ltd,5,0,0,5,2008-12-11,52.234373,-0.938461
68690,BP Harborough Simply Food Connect,5,0,5,0,2013-06-10,52.269184,-0.900069
68691,BP Mill Lane Connect,5,5,5,5,2013-11-25,52.252221,-0.920778
68692,Bradlaugh's Barn Association,3,10,5,10,2011-04-13,52.263921,-0.881473
68693,Brambles,5,0,5,5,2013-08-14,52.239739,-0.94734
68694,Bramleys Catering,5,5,5,5,2013-07-26,52.205313,-0.885163
68695,Brampton View,5,5,5,5,2013-01-07,52.275004,-0.921837
68696,Breakfast & Afterschool Club,5,5,5,5,2014-06-11,52.254357,-0.802867
68697,Breakfast Club,4,5,5,10,2011-06-20,52.195778,-0.900463
68698,Breakfast Club,5,0,5,5,2014-07-09,52.249019,-0.93152
68699,Breakfast Club,5,0,5,5,2014-05-09,52.252853,-0.924997
68700,Breezehill Bakery,5,5,5,5,2011-06-23,52.20521,-0.881338
68701,Brian Harradine,5,0,0,0,2013-08-28,52.242593,-0.871816
68702,Briar Hill Community Centre,3,5,10,10,2007-02-20,52.226427,-0.91688
68703,Briar Hill Fish Bar,4,10,5,5,2014-07-02,52.226427,-0.91688
68704,Briar Hill Stores,3,10,5,10,2012-04-23,52.226427,-0.91688
68705,Brickyard Coffee Lounge,3,5,10,10,2014-12-10,52.236655,-0.901899
68706,Bridge Substance Misuse Programme,3,10,10,10,2013-10-07,52.236621,-0.899249
68707,Briggs And Forrester,5,5,5,5,2014-03-25,52.253733,-0.904319
68708,Bright Eyes Breakfast Club,5,5,5,5,2013-07-10,52.201664,-0.88188
68709,Britannia Inn,5,5,5,5,2013-09-10,,
68710,British Home Stores,5,5,0,5,2014-10-21,52.238797,-0.892576
68711,British Home Stores,4,5,5,10,2013-11-12,52.233939,-0.905744
68712,British Rail (Lmr),3,10,5,10,2008-12-30,52.243589,-0.904042
68713,Broadmead Fish Bar,5,5,0,5,2013-08-07,52.258882,-0.864062
68714,Broadmead News,4,10,5,5,2006-10-31,52.258882,-0.864062
68715,Broadmead Pub,2,15,5,10,2014-09-26,52.258076,-0.868126
68716,Brook Pharmacy,Exempt,nan,nan,nan,2013-09-06,52.256322,-0.804206
68717,Brookside Hall Community Association,3,10,5,10,2014-06-04,52.264038,-0.835034
68718,Brothers 2 Ltd,1,5,10,20,2013-07-10,52.232943,-0.912709
68719,Buddies,5,5,5,5,2013-12-03,52.237757,-0.894784
68720,Buddies USA,5,5,5,5,2013-07-17,52.269877,-0.909813
68721,Buddies USA,5,5,5,5,2013-12-13,52.234373,-0.938461
68722,Burger King,5,0,5,0,2013-07-10,52.237989,-0.895495
68723,Burlington Court Care Home,5,5,5,5,2014-06-13,52.245661,-0.872031
68724,Bushland Chippy,3,10,10,10,2014-09-29,52.258847,-0.852151
68725,Busy Bees,5,0,5,0,2014-06-04,52.258851,-0.873059
68726,Busy Bees Childrens Day Nursery,5,5,0,5,2014-05-21,52.203096,-0.876489
68727,Butt Savouries,4,5,5,10,2013-06-06,52.245918,-0.883039
68728,C & L Seafood Bar and Cafe,4,5,5,10,2013-10-16,52.252752,-0.815773
68729,C K Woodland Venison,Exempt,nan,nan,nan,2014-04-01,52.203699,-0.88701
68730,Cafe @ Lakeside,5,5,5,5,2014-11-03,52.232943,-0.912709
68731,Cafe Cest La Vie - The Parlour,3,10,5,10,2014-02-25,52.237613,-0.890921
68732,Cafe Coco,4,5,5,10,2014-03-05,52.236471,-0.899487
68733,Cafe Continental,5,5,5,5,2013-07-10,52.241755,-0.880919
68734,Cafe Creperie,3,5,10,10,2014-07-03,52.237854,-0.894503
68735,Cafe del Sol,3,10,10,10,2013-08-27,52.241755,-0.880919
68736,Cafe Famille,3,10,5,10,2013-11-14,52.228062,-0.900163
68737,Cafe Racer,5,5,5,5,2014-10-02,52.232905,-0.878826
68738,Cafe Royale,5,5,5,5,2014-10-02,52.240464,-0.922015
68739,Cafe Xanadu,5,5,5,5,2014-05-06,52.236621,-0.899249
68740,Cafeteria LM2,5,0,5,0,2010-11-09,52.2343902588,-0.881200015545
68741,Caffe d'Italia,3,10,5,10,2013-07-30,52.237859,-0.893126
68742,Caffe Morandi,3,10,5,10,2013-11-12,52.236621,-0.899249
68743,Caffe Nero,5,5,5,5,2014-02-14,52.237854,-0.894503
68744,Caffe Pausa,5,5,5,0,2014-07-09,52.231272,-0.906058
68745,Cake Majic,5,5,5,5,2013-10-31,52.205666,-0.897307
68746,Cake Me Happy,5,5,5,5,2013-06-12,52.253313,-0.816139
68747,Cakeaboo,5,5,5,5,2009-07-09,52.257249,-0.875707
68748,Cakes By Isabel,4,5,5,10,2006-04-12,52.20575,-0.884236
68749,Cakes by Victoria Shaw,5,5,5,5,2013-08-22,52.247819,-0.962309
68750,Camrose Centre,5,0,5,5,2014-02-05,52.247984,-0.914612
68751,Camrose Childen Centre,4,10,5,5,2012-05-28,52.256017,-0.919997
68752,Candy Floss,5,5,5,5,2014-04-23,52.250026,-0.946466
68753,Candy Shop,Exempt,nan,nan,nan,2008-02-08,52.246853,-0.881067
68754,Candy Store (Mobile Unit),4,0,0,10,2012-02-21,52.257039,-0.835496
68755,Canton Express,3,10,10,10,2013-09-18,52.280269,-0.877983
68756,Canton House,1,15,10,20,2014-07-10,52.244806,-0.916095
68757,Capell's Cakes,4,5,5,10,2013-02-04,52.255453,-0.881598
68758,Capital Off Licence,1,5,15,20,2014-01-29,52.251663,-0.879203
68759,Captain Fingers,4,5,5,10,2014-05-13,52.279658,-0.874217
68760,Caramelia Cakery,5,5,5,5,2012-10-24,52.222558,-0.838974
68761,Caravan Accessories Shop,Exempt,nan,nan,nan,2008-05-20,52.27481,-0.829979
68762,Card Factory,5,0,0,0,2012-07-24,52.257039,-0.835496
68763,Card Factory,Exempt,nan,nan,nan,2013-07-04,52.257039,-0.835496
68764,Card Factory,Exempt,nan,nan,nan,2013-07-10,52.238634,-0.894366
68765,Cardamom Catering Group,4,5,5,10,2013-07-29,52.211201,-0.859146
68766,Cardamon,3,10,5,10,2014-10-07,52.26464,-0.899596
68767,Caribbean DutchPot Ltd,3,5,10,10,2014-07-24,52.241921,-0.88623
68768,Caring Kindergartens,5,5,5,5,2014-05-08,52.243239,-0.941618
68769,Caring Kindergartens Ltd,5,5,5,5,2015-01-16,52.279572,-0.878411
68770,Carlsberg Sports & Social Club,5,5,5,5,2010-01-21,52.232368,-0.899237
68771,Carmela's Kitchen,5,5,5,5,2012-11-13,52.204659,-0.880093
68772,Carmies Caffee,4,5,5,10,2012-04-12,52.268827,-0.856788
68773,Carols Bakes,5,5,5,5,2013-02-25,52.265459,-0.839627
68774,Carolyn Murphy (Home Baker),5,5,5,5,2012-10-29,52.207311,-0.906017
68775,Casuals Rugby Club,5,5,5,5,2014-04-02,52.22861,-0.864161
68776,Cater Link Ltd,5,5,5,5,2014-01-14,52.258062,-0.830795
68777,Catering Hub Store,5,5,0,0,2009-08-07,52.238152,-0.873715
68778,Catermaster,5,5,0,5,2013-12-17,52.205313,-0.885163
68779,Catermasters,5,5,5,5,2014-03-06,52.213492,-0.951063
68780,Catermasters,5,0,5,5,2014-02-17,52.23131,-0.887066
68781,Catermasters,5,5,0,5,2014-05-21,52.262887,-0.948975
68782,Catermasters,5,0,0,5,2012-05-17,52.24876,-0.812158
68783,Catermasters @ DHL,4,10,5,5,2014-04-16,52.221175,-0.866971
68784,Catherine Hse Day Nursery,5,5,5,5,2014-01-30,52.23835,-0.878513
68785,Celebration Cakes,4,5,5,10,2010-03-03,52.276422,-0.89051
68786,Chang Lung,3,10,5,10,2014-03-24,52.205313,-0.885163
68787,Charnwood Food & Wine,4,5,5,10,2011-04-04,52.257302,-0.842126
68788,Chartwell (Compass Group),5,5,0,0,2013-03-15,52.234048,-0.949422
68789,Chartwells,5,5,5,5,2014-12-11,52.203374,-0.878326
68790,Chata Cottage Inn Ltd,3,10,10,10,2013-09-25,52.237637,-0.89054
68791,Chelle's Cupcake Corner,5,5,5,5,2012-11-06,,
68792,Cheyanne's Caribbean Cuisine,2,15,10,10,2013-11-13,52.241069,-0.886514
68793,Cheyne Walk Club,3,10,5,10,2008-06-27,52.23715,-0.888546
68794,Chicken Mac,3,10,10,10,2014-02-13,52.236947,-0.899504
68795,Chicken Village,4,5,5,10,2013-10-16,52.241022,-0.883469
68796,Child First Nursery,5,0,0,0,2014-03-13,52.275924,-0.857104
68797,Children's Friend Ltd,5,0,5,5,2006-08-22,52.27481,-0.829979
68798,Chilli Alchemy,4,5,5,10,2011-12-15,52.252561,-0.881012
68799,Chillies Indian Restaurant & Bar Serenity,3,10,10,10,2007-03-26,52.215074,-0.911301
68800,China Cottage,5,0,0,5,2012-05-28,52.240941,-0.919221
68801,China House,4,10,5,5,2014-02-13,52.241627,-0.914547
68802,China Palace,4,5,10,5,2012-10-29,52.264258,-0.900147
68803,China Red,4,0,5,10,2012-11-07,52.25586,-0.858338
68804,China Spice,2,15,10,10,2013-09-26,52.244334,-0.884719
68805,China Star,3,10,10,10,2013-09-06,52.255628,-0.867896
68806,Chip Stop,4,5,5,10,2013-07-10,52.24384,-0.872472
68807,Chip-Patti,4,5,10,5,2014-03-31,52.276117,-0.82818
68808,Chi's Fish Bar,4,5,5,10,2014-06-04,52.203374,-0.878326
68809,Chivitos Pizza and Kebabs,1,10,5,20,2014-10-30,52.243519,-0.897526
68810,Chloe's Cake Creations,5,5,5,5,2013-08-29,52.254182,-0.83938
68811,Chocolate Heaven Delight,4,5,5,10,2013-09-03,52.254675,-0.92567
68812,Chopstix Noodle Bar,5,0,5,5,2014-09-16,52.238127,-0.894892
68813,Christine's Cake Creations,5,5,5,5,2012-12-04,52.261945,-0.842489
68814,Church Of Jesus Christ Of,4,5,5,10,2014-09-16,52.247939,-0.926434
68815,Church Rooms (Catholic),5,5,5,5,2004-06-07,52.27481,-0.829979
68816,Churchill Catering,2,15,10,10,2014-05-14,52.237266,-0.91357
68817,Cineworld Cinemas Ltd,5,5,0,0,2011-01-19,52.235228,-0.93661
68818,Cinnamon,3,10,10,10,2013-08-29,52.247396,-0.934005
68819,Clarkes Butchers,4,5,5,10,2013-07-10,52.227904,-0.930035
68820,Classic News,3,5,10,10,2008-04-22,52.264258,-0.900147
68821,Classic News,Exempt,nan,nan,nan,2006-10-27,52.253307,-0.870533
68822,Click - Cybernet,5,5,5,5,2010-05-05,52.241069,-0.886514
68823,Clinton Cards Plc,Exempt,nan,nan,nan,2004-05-28,52.241755,-0.880919
68824,Clinton Cards Plc,Exempt,nan,nan,nan,2004-04-23,52.27481,-0.829979
68825,Clubs for Young People (Northants),3,5,10,10,2012-05-09,52.228611,-0.864161
68826,Coffee Box,5,5,0,5,2014-09-11,52.2141,-0.909963
68827,Coffee Lounge,4,5,5,10,2014-03-31,52.251663,-0.879203
68828,College Street Chippy,1,10,15,20,2014-07-01,52.237707,-0.89808
68829,Collingtree Park Care Home,5,5,5,5,2014-03-19,52.195923,-0.896641
68830,Collingtree Park Golf Course Ltd,5,5,5,5,2013-09-05,52.195923,-0.896641
68831,Colombiano Coffee House,4,5,5,10,2014-03-25,52.239888,-0.895697
68832,Community Centre,4,5,5,10,2007-07-12,,
68833,Community Room,3,10,10,10,2008-09-22,52.256233,-0.934921
68834,Community Room,5,5,5,5,2005-10-12,52.276162,-0.892495
68835,Community Room,5,5,5,5,2007-01-03,52.243054,-0.883462
68836,Community Room,3,10,5,10,2010-05-18,52.248927,-0.91746
68837,Community Room,4,5,5,10,2013-07-29,52.269827,-0.827643
68838,Community Room,4,5,5,10,2014-01-22,52.245619,-0.896185
68839,Community Room Day Centre,5,5,5,5,2008-05-27,52.256657,-0.85338
68840,Compass,5,0,0,0,2013-03-15,52.234048,-0.949422
68841,Compass at Tesco,5,5,5,5,2014-02-19,52.257039,-0.835496
68842,Compass Care,4,5,5,10,2007-12-03,52.258009,-0.952548
68843,Compass Catering,5,5,5,5,2014-05-19,52.240813,-0.893653
68844,Connect Catering Ltd,5,0,5,5,2013-04-11,52.243769,-0.869721
68845,Connect Catering Ltd,5,5,5,5,2013-04-11,52.243769,-0.869721
68846,Continental Supermarket,3,10,10,10,2013-07-26,52.242619,-0.891631
68847,Cool as Ice,3,10,10,10,2013-09-05,52.250205,-0.902033
68848,Co-op,4,10,5,5,2014-08-21,52.20575,-0.884236
68849,Co-Op Late Shop,5,5,5,5,2013-03-26,52.264146,-0.887241
68850,Co-Op Late Shop,5,5,5,5,2013-07-29,,
68851,Co-operative Food,5,5,5,5,2013-11-11,52.268048,-0.874848
68852,Co-operative Group Ltd,4,10,5,5,2014-05-12,52.252428,-0.813921
68853,Co-operative Pharmacy,Exempt,nan,nan,nan,2009-04-06,52.245886,-0.897819
68854,Co-operative Supermarket,5,5,5,5,2014-10-02,52.240659,-0.87267
68855,Coopers Snooker Club Ltd,5,5,5,5,2014-06-06,52.242791,-0.889825
68856,Corkers,3,5,10,10,2014-02-26,52.244819,-0.871495
68857,Cornwell's Catering,4,5,10,5,2014-03-06,52.257377,-0.858181
68858,Costa,5,5,5,0,2013-12-03,52.215074,-0.911301
68859,Costa @ Next,5,5,5,0,2014-06-09,52.241591,-0.839825
68860,Costa Coffee,5,5,0,0,2013-03-25,52.237854,-0.894503
68861,Costa Coffee,5,0,0,5,2011-06-28,52.239284,-0.894585
68862,Costa Ltd,5,5,5,5,2014-11-05,52.241591,-0.839825
68863,Costcutter,4,5,5,10,2013-07-24,52.241294,-0.883682
68864,Costcutter,3,10,5,10,2009-06-10,52.245918,-0.883039
68865,Costcutter (Food Only),4,5,5,10,2014-03-28,52.22736,-0.896257
68866,Costcutter Supermarket,4,5,5,10,2010-02-26,52.270338,-0.842035
68867,Costcutters,5,5,5,5,2013-12-02,52.264038,-0.835034
68868,Costcutters,5,0,0,0,2013-09-06,52.268775,-0.808751
68869,Countrywide Care Homes Ltd,4,5,5,10,2014-03-07,52.245272,-0.923861
68870,Crafty Cooks Northampton,5,0,0,5,2014-07-22,52.222024,-0.928947
68871,Crazy 4 Kids,5,5,5,5,2014-03-31,52.192598,-0.903599
68872,Crazy 4 Kids,5,5,5,0,2014-02-12,52.211,-0.885129
68873,Creative Event Services,5,5,5,5,2013-04-26,52.265201,-0.910704
68874,Creative Fudge,5,0,0,0,2013-09-24,52.268771,-0.833562
68875,Crescent Home Ltd,5,5,5,5,2014-08-28,52.250652,-0.876885
68876,Crescent Off-Licence,3,10,5,10,2014-06-06,52.241755,-0.880919
68877,Cricketers Arms,3,10,5,10,2010-06-02,52.244152,-0.887331
68878,Cripps Recreation Centre,3,10,10,10,2013-11-06,52.2371406555,-0.886700570583
68879,Cromwells,1,5,15,20,2014-05-07,52.238314,-0.897567
68880,Crown & Anchor Ph,5,5,5,5,2013-04-18,52.239525,-0.884898
68881,Crown & Cushion Ph,4,5,5,10,2013-03-11,52.242062,-0.875564
68882,Crsl,5,5,5,5,2007-06-21,52.252646,-0.875706
68883,Crsl,5,5,5,5,2007-06-21,52.252646,-0.875706
68884,Cupcakes by Kerry,5,5,5,5,2011-08-17,52.264803,-0.836875
68885,Cygnet Catering,5,5,5,5,2008-03-27,52.240659,-0.87267
68886,Cygnet Catering,5,0,5,5,2013-12-03,52.249019,-0.93152
68887,Cygnet Catering Ltd,5,5,5,5,2013-04-25,52.244095,-0.876552
68888,Cygnet Catering Ltd,5,5,5,5,2008-06-10,52.252515,-0.867711
68889,Cygnet Foods Ltd,5,5,0,0,2010-12-10,52.262937,-0.852031
68890,D H Hillyer,5,5,5,5,2014-02-17,52.203632,-0.885665
68891,Daily Bread Co-Operative,4,5,5,10,2014-10-27,52.232465,-0.873244
68892,Dainty Bakes,5,0,0,5,2012-10-29,52.263943,-0.897166
68893,Dairy Crest,4,5,5,10,2012-11-08,52.252828,-0.901749
68894,Daisy Chain Day Nursery,4,10,5,5,2013-10-24,52.274935,-0.859005
68895,Daisy Chain Pre-School,4,10,5,5,2014-02-06,52.268775,-0.808751
68896,Daisy Chain Pre-School,5,5,5,5,2013-06-11,52.238778,-0.910852
68897,Daisy Made Me,4,5,5,10,2011-11-29,52.243003,-0.876155
68898,Dalepak Ltd,5,0,0,0,2012-11-07,52.217769,-0.963009
68899,Dallington Fitness Leisure Wellbeing Club,3,5,10,10,2014-03-20,52.252221,-0.920778
68900,Dallington Stores,4,5,5,10,2013-08-30,52.244806,-0.916095
68901,Dave's Supermarket (Londis),3,10,10,10,2006-10-20,52.213323,-0.882627
68902,De Lush,3,5,10,10,2013-07-31,52.236621,-0.899249
68903,Debenhams,5,5,5,5,2014-06-03,52.237983,-0.897824
68904,Delapre Crescent Stores,4,5,5,10,2013-07-19,,
68905,Delapre Golf Centre,3,10,10,10,2014-03-05,52.205313,-0.885163
68906,Delapre Pharmacy,Exempt,nan,nan,nan,2007-08-06,52.219572,-0.902862
68907,Delapre Post Office,Exempt,nan,nan,nan,2013-08-19,52.205313,-0.885163
68908,DELOS,4,10,5,5,2014-02-19,52.248927,-0.91746
68909,Dept of Liquor & Social Affairs,5,0,0,5,2014-09-04,52.235355,-0.897435
68910,Desi UK,5,5,5,5,2013-07-04,52.279658,-0.874217
68911,Devynn Catering,5,5,5,5,2014-03-11,52.22861,-0.864161
68912,Devynn Catering Services,5,5,5,5,2014-06-27,52.241699,-0.863036
68913,Dig Workers Co-Op Ltd,5,5,5,0,2007-10-29,52.245093,-0.882342
68914,Dine Contract Catering Ltd,5,5,5,5,2014-09-30,,
68915,Dine Contract Catering Ltd,5,5,5,5,2013-04-30,52.27218,-0.855764
68916,Dinky Donuts,5,5,5,5,2014-10-08,52.260662,-0.807577
68917,Divine,3,10,10,10,2014-11-07,52.256017,-0.919997
68918,Divine Cake Creations,5,0,5,5,2014-09-19,52.214867,-0.899655
68919,Dixy Chicken,4,10,5,5,2014-02-13,52.240169,-0.886405
68920,D-Light Supermarket,3,5,10,10,2013-10-16,52.241947,-0.886214
68921,DMB Meats,4,5,5,10,2014-10-22,52.244755,-0.808164
68922,Doddridge Community Centre,5,0,0,0,2013-10-03,52.238207,-0.913239
68923,Dominos Pizza,5,5,0,0,2013-07-18,52.255363,-0.836053
68924,Domino's Pizza,5,5,5,5,2014-02-20,52.236212,-0.90065
68925,Double Top Club,3,10,10,10,2012-07-16,52.241649,-0.890762
68926,Down Under Bar,3,10,10,10,2012-10-04,52.242062,-0.875564
68927,Dreams Coffee Lounge,5,5,0,0,2013-11-21,52.237746,-0.891621
68928,Drovers Return Cafe,5,5,5,5,2014-10-07,52.221389,-0.926342
68929,Duke Of York,4,5,5,10,2006-03-10,52.247169,-0.902298
68930,Dur Dur Social Club,3,10,10,10,2014-11-20,52.243231,-0.899466
68931,Duston Community Centre,5,0,0,0,2013-11-05,52.250555,-0.941327
68932,Duston Conservative Assoc & Club,4,5,5,10,2013-12-02,52.24399,-0.943153
68933,Duston Cottage Chinese Take-Away,4,5,5,10,2014-03-31,52.255286,-0.952612
68934,Duston Fish Bar,4,5,5,10,2013-04-18,52.255286,-0.952612
68935,Duston Off Licence and News,3,10,5,10,2008-05-28,52.255286,-0.952612
68936,Duston Sports Centre,3,5,10,10,2013-10-08,52.247753,-0.936691
68937,Duston United Reformed Church,5,5,5,5,2014-03-19,52.243421,-0.944865
68938,Duston Village Bakery,5,5,5,5,2014-03-31,52.243421,-0.944865
68939,Duston Village Chippy,4,10,5,5,2013-04-11,52.243421,-0.944865
68940,Duston Village Hall,4,5,5,10,2014-01-20,52.250376,-0.944422
68941,DW Sports Fitness Club,5,0,0,0,2014-09-30,52.233939,-0.905744
68942,Early Birds,4,5,5,10,2014-05-13,52.250555,-0.941327
68943,East Hunsbury School Kids Club,5,5,5,5,2014-01-16,52.205758,-0.905324
68944,Eastern Balti,3,10,10,10,2014-10-29,52.252428,-0.813921
68945,Eastern District Social C,3,10,10,10,2007-07-19,52.27481,-0.829979
68946,Eastern Stores,3,10,10,10,2014-06-17,52.239357,-0.889882
68947,Eastfield Fish Bar,3,10,10,10,2013-02-28,52.259183,-0.859908
68948,Eastgate,4,5,10,5,2014-12-04,52.239357,-0.889882
68949,Ebenezer Market,4,5,5,10,2013-01-29,52.228062,-0.900163
68950,Ecton Brook House,5,5,5,5,2014-03-12,52.256322,-0.804206
68951,Ecton Brook Public House,3,10,5,10,2007-10-31,52.27481,-0.829979
68952,Ecton Brook Supermarket,4,5,5,10,2013-03-26,52.256322,-0.804206
68953,Eden Close Community Room,3,10,10,10,2012-12-06,52.27481,-0.829979
68954,Edge of Town,1,15,15,20,2014-08-25,52.242138,-0.897912
68955,Edinburgh Woollen Mill,Exempt,nan,nan,nan,2007-10-12,52.238514,-0.892114
68956,Edingburgh Woollen Mills,Exempt,nan,nan,nan,2008-11-06,52.210019,-0.892691
68957,Education and Youth Services,4,5,5,10,2012-10-19,52.239824,-0.891803
68958,Edyta's Cakes,4,0,5,10,2011-03-31,52.231317,-0.941594
68959,Efes BBQ Restaurant,3,10,10,10,2013-11-13,52.239409,-0.888753
68960,Eldean Childcare Ltd @,5,5,0,5,2014-05-21,52.254694,-0.951805
68961,Eleanor Lodge,4,0,10,10,2012-06-28,52.205313,-0.885163
68962,Elgars Coffee Shop,4,5,5,10,2011-08-19,52.231216,-0.942299
68963,Elim Christian Centre,4,5,5,10,2011-07-27,52.244881,-0.910601
68964,Elior,5,5,5,5,2014-08-22,52.231668,-0.912886
68965,Elwes Arms,3,5,10,10,2013-05-10,52.27481,-0.829979
68966,Elysium Nightclub (formerly Fever),3,10,5,10,2007-12-27,52.236212,-0.90065
68967,Embers Grill,3,10,10,10,2013-09-02,52.245918,-0.883039
68968,Emmanuel Church,4,5,5,10,2008-06-09,52.257109,-0.834424
68969,Energie,4,5,5,10,2005-07-12,52.238844,-0.890773
68970,Enjoy Donuts,5,5,5,5,2008-08-15,52.24491,-0.833616
68971,Eurest,5,5,5,5,2013-04-26,52.27481,-0.829979
68972,Eurest @ National Grid Transco,5,0,0,0,2011-02-07,52.227982,-0.856783
68973,Eurest Local Sites,5,5,5,5,2014-03-31,52.216885,-0.879961
68974,Eurest Services,5,5,0,0,2011-01-13,52.205313,-0.885163
68975,Euro Food Brands Ltd,Exempt,nan,nan,nan,2014-12-10,52.223101,-0.867142
68976,Euro Superstore,1,10,10,20,2013-05-21,52.243415,-0.884508
68977,Evergreen Cottage,3,10,10,10,2014-09-25,52.243172,-0.886403
68978,Eversley House,4,0,5,10,2013-12-02,52.251841,-0.88185
68979,Ex Servicemen's Club,3,10,5,10,2008-03-17,52.240615,-0.898447
68980,Excaliber Catering Ltd,5,5,5,5,2013-07-10,52.232943,-0.912709
68981,F F Tees,3,10,10,10,2013-12-03,52.242603,-0.90058
68982,Fairfield News,4,5,5,10,2008-02-25,52.256872,-0.874823
68983,Fairhaven,5,5,5,5,2014-02-21,52.250992,-0.890002
68984,Fairways Catering Co,4,5,5,10,2014-03-03,52.256125,-0.889024
68985,Falcon Suite,5,5,5,5,2007-05-31,52.258235,-0.847479
68986,Family Bargains,1,15,10,20,2014-05-08,52.231272,-0.906058
68987,Far Cotton Food and Wine,4,5,5,10,2012-08-01,52.228062,-0.900163
68988,Far Cotton Loco Club,4,5,5,10,2013-12-19,52.228062,-0.900163
68989,Far Cotton Tandoori,5,5,5,5,2013-04-04,52.228062,-0.900163
68990,Far Cotton Wmc,4,5,5,10,2007-09-14,52.227727,-0.903832
68991,Farm Foods,5,5,5,5,2012-11-23,52.239055,-0.913511
68992,Farrow House Ltd,3,10,5,10,2007-04-02,52.257489,-0.900198
68993,Felix Yu The Restaurant,3,10,5,10,2014-09-26,52.237117,-0.892676
68994,Fellas,4,5,5,10,2013-12-05,52.228166,-0.897818
68995,Fiddlers,5,5,5,5,2014-04-30,52.241022,-0.883469
68996,Finest Cuisine,4,5,5,10,2014-10-09,52.214684,-0.927601
68997,Firepowder,4,0,5,10,2014-03-31,52.252515,-0.867711
68998,Fish Finger Hut & Street Bistro,5,5,5,5,2014-05-27,52.243948,-0.903052
68999,Fitness 4 Less,5,0,0,0,2013-09-02,52.2343902588,-0.881200015545
69000,Flames Grill,4,10,5,5,2013-07-10,52.239409,-0.888753
69001,Footsteps Daycare Ltd,5,5,5,5,2013-10-18,52.236597,-0.904331
69002,Forum Day Centre,4,10,5,5,2008-02-13,52.27481,-0.829979
69003,Foundryman's Arms,3,5,10,10,2012-05-08,52.239055,-0.913511
69004,Fourways,3,10,10,10,2013-04-11,52.241755,-0.880919
69005,Fox And Hounds,4,10,5,5,2014-10-23,52.269011,-0.900748
69006,Frankie & Benny's,5,5,5,5,2013-09-10,52.241591,-0.839825
69007,Frankie & Benny's New York Italian Restaurant & Bar,5,5,0,5,2013-11-20,52.234373,-0.938461
69008,Franks Hamburger House,4,5,10,5,2014-04-01,52.241522,-0.879297
69009,Franks Steakhouse Ltd,4,5,10,5,2013-10-11,52.241522,-0.879297
69010,Freddy's Chicken,3,5,10,10,2014-09-26,52.240941,-0.919221
69011,Freddy's Chicken & Pizza,3,5,10,10,2013-04-18,52.241716,-0.877872
69012,French Food Ltd,5,5,5,5,2014-06-12,52.236621,-0.899249
69013,Fresh,3,10,10,10,2014-02-18,52.240245,-0.888703
69014,Fresh Fish Supermarket,3,10,5,10,2014-03-31,52.245918,-0.883039
69015,Fresh Fish To Go,3,10,5,10,2014-07-04,52.270254,-0.813709
69016,Fresh Lunch Delivery,4,0,10,10,2013-08-27,52.263485,-0.891463
69017,Friars Farm,5,0,0,0,2014-08-13,52.218409,-0.901485
69018,Frog And Fiddler,5,5,5,5,2014-06-24,52.265706,-0.900156
69019,Fryin Brian,5,5,5,5,2014-02-12,52.238443,-0.89793
69020,Fudge's Food Bar,1,10,10,20,2014-02-20,52.249894,-0.945854
69021,Funky's (Catering Vehicle),3,10,10,10,2014-02-18,52.228561,-0.901644
69022,Furlow,5,5,5,5,2008-07-18,52.239739,-0.94734
69023,Fusion Buffet/Thali,2,10,15,10,2013-03-26,52.241692,-0.880084
69024,G & Tea Vintage Travelling Tea Shop,5,5,0,5,2014-05-28,52.256193,-0.896289
69025,G J Catering,5,0,0,0,2014-02-25,52.25223,-0.949637
69026,Gale Stores Ltd,4,5,5,10,2008-05-29,52.269106,-0.91392
69027,Galleon,5,5,0,5,2014-11-06,52.248687,-0.904107
69028,Gallones Ltd,5,5,5,5,2013-10-02,52.264517,-0.901841
69029,Gardners Bakery,4,5,5,10,2013-11-28,52.26464,-0.899596
69030,Gemstar Parties,5,5,5,5,2013-04-03,52.265541,-0.896994
69031,Genesis Housing,5,5,5,5,2009-08-25,52.253539,-0.882716
69032,Get Pickled,3,10,5,10,2010-06-30,52.279077,-0.896585
69033,Gianbiaz,5,5,5,5,2014-02-10,52.241755,-0.880919
69034,Gift Tube Ltd,5,0,0,5,2014-01-21,52.2453,-0.942873
69035,Giggling Sausage,5,5,5,5,2013-07-12,52.226449,-0.896968
69036,Gills,3,10,10,10,2015-01-14,52.261232,-0.949952
69037,Gill's Cake Box,5,0,0,5,2014-11-25,52.261332,-0.905568
69038,Gladstone Centre,5,0,0,5,2014-10-23,52.248452,-0.911803
69039,Glebeland Road Stores,3,10,5,10,2008-04-21,52.250181,-0.91696
69040,Glenside Residential Home,5,5,5,0,2013-06-18,52.240589,-0.924941
69041,Globell Ltd t/a,5,5,5,5,2008-07-22,52.263328,-0.899702
69042,Gloucester Nursery,4,5,5,10,2011-05-13,52.205313,-0.885163
69043,Goals Soccer Centre,3,10,10,10,2014-06-04,52.216032,-0.906023
69044,Going Bananas,4,5,5,10,2012-02-29,52.245793,-0.851214
69045,Gold Street News,3,5,10,10,2008-03-10,52.236621,-0.899249
69046,Goldcare Homes,5,0,0,5,2010-05-04,52.248875,-0.926557
69047,Goldcare Ltd,3,5,10,10,2011-03-24,52.246334,-0.882311
69048,Golden Bowl Chinese Takeaway,4,5,5,10,2013-07-31,52.238435,-0.901884
69049,Golden Chef,3,10,10,10,2014-12-17,52.25425,-0.827995
69050,Golden China,3,10,10,10,2014-11-05,52.251663,-0.879203
69051,Golden City,5,5,5,5,2014-11-26,52.245279,-0.898258
69052,Golden Hill,5,5,5,5,2013-03-04,52.276642,-0.904414
69053,Golden Horse,5,0,0,0,2013-08-28,52.205313,-0.885163
69054,Golden Kitchen Takeaway,5,0,5,5,2014-10-01,52.241522,-0.879297
69055,Golden Rice Bowl,5,0,5,5,2014-03-11,52.251123,-0.943481
69056,Goldings Butcher,5,5,5,5,2014-02-17,52.251123,-0.943481
69057,Gourmet House,2,15,15,10,2014-01-22,52.240729,-0.88478
69058,GR8 Kids,5,5,0,5,2013-09-13,52.240659,-0.87267
69059,Grafton Street Service Station,Exempt,nan,nan,nan,2013-09-23,52.242603,-0.90058
69060,Grangewood Residents Club,3,10,10,10,2008-02-28,,
69061,Great Wall,3,10,10,10,2013-11-21,52.228062,-0.900163
69062,Greencore/M&S Lunch To U,5,5,0,0,2011-03-16,52.24876,-0.812158
69063,Greggs,5,0,0,0,2013-12-09,52.237486,-0.896489
69064,Greggs,5,5,5,0,2014-03-10,52.238797,-0.892576
69065,Greggs,5,5,5,5,2013-04-10,52.264258,-0.900147
69066,Greggs,5,5,0,0,2010-12-02,52.250992,-0.890002
69067,Greggs,5,5,5,0,2013-08-26,52.250249,-0.943676
69068,Greggs plc,5,5,5,0,2014-02-12,52.257039,-0.835496
69069,Greggs plc,5,5,0,0,2010-11-25,52.272001,-0.883102
69070,Grillers,3,10,10,10,2013-11-21,52.235355,-0.897435
69071,Grosvenor Casino,5,5,0,0,2010-07-02,52.241838,-0.89953
69072,Gurkha Field Kitchen,5,5,5,5,2014-09-04,52.193219,-0.904681
69073,Gym Supplements Online Ltd,Exempt,nan,nan,nan,2014-09-16,52.239764,-0.902642
69074,Gymnutrition,5,5,5,5,2013-11-06,52.260162,-0.88334
69075,H W J Pargiter,5,5,5,5,2014-12-02,52.205313,-0.885163
69076,Haddon,4,5,5,10,2005-07-18,52.238119,-0.896957
69077,Hakamou Island Bar and Grill,4,5,5,10,2011-07-08,52.238983,-0.894138
69078,Hala Ltd,5,5,5,5,2014-02-20,52.194447,-0.891717
69079,Happi Inn,3,10,5,10,2014-06-11,52.24535,-0.886686
69080,Happy Days Day Nursery,4,10,5,5,2015-01-14,52.271564,-0.894002
69081,Happy Days Pre-School,5,5,0,5,2014-03-25,52.255092,-0.802628
69082,Happy Dreams,4,5,5,10,2012-07-27,52.239871,-0.924065
69083,Happy Hands Day Nursery,4,5,5,10,2014-05-09,52.239055,-0.913511
69084,Happy Shopper,4,5,5,10,2013-03-26,52.256396,-0.866382
69085,Happy Times,3,10,5,10,2014-09-09,52.244746,-0.886437
69086,Happy Wok,3,10,10,10,2014-09-25,52.242062,-0.875564
69087,Hardingstone Day Nursery,5,5,5,5,2014-05-07,52.208854,-0.894067
69088,Hardingstone Village Hall,5,0,0,5,2014-04-01,52.213902,-0.883959
69089,Harlestone Road News (Londis),5,5,5,5,2013-11-13,52.260392,-0.953605
69090,Hart of Duston,3,10,10,10,2013-11-28,52.260392,-0.953605
69091,Harvester,4,10,5,5,2013-06-12,52.241591,-0.839825
69092,Hawes Signs,5,5,5,5,2013-10-29,52.27481,-0.829979
69093,Hawkshead Catering Ltd - The Cafe,3,10,5,10,2014-05-13,52.277292,-0.867534
69094,Haycock and Tailbar Associates Ltd,4,5,0,10,2013-06-18,52.236641,-0.892732
69095,Head Start Nursery School,5,5,5,5,2014-05-08,52.249406,-0.877297
69096,Headlands,4,10,5,5,2008-10-16,52.256002,-0.856312
69097,Headlands Children's Centre,5,0,0,0,2014-07-17,52.258847,-0.852151
69098,Headlands Primary School,5,5,5,5,2013-07-10,52.258847,-0.852151
69099,Headlands Tandoori Takeaway,4,5,5,10,2013-02-18,52.252085,-0.866931
69100,Headway Northampton,5,5,5,5,2014-11-03,52.252444,-0.911734
69101,Health Quest,Exempt,nan,nan,nan,2006-11-07,52.238983,-0.894138
69102,Hearty Cuisine,4,5,5,10,2014-03-03,52.227811,-0.905133
69103,Hearty Cuisine,4,10,5,5,2013-07-10,52.221884,-0.907855
69104,Heathers,3,5,10,10,2014-02-24,52.25375,-0.876499
69105,Hedgerow Preserves,5,5,5,5,2014-09-04,52.224947,-0.924177
69106,Helen's Cupcakery,5,5,5,5,2014-06-10,52.223867,-0.92697
69107,Hellerman Tyton,4,5,5,10,2014-05-19,52.220684,-0.857922
69108,Henny's,4,5,5,10,2013-05-29,52.244827,-0.883638
69109,Heron Foods,5,5,5,5,2015-01-20,52.262183,-0.901298
69110,Highlands P O,Exempt,nan,nan,nan,2007-10-16,52.267814,-0.864522
69111,Hillview Guest House,4,5,5,10,2013-12-02,52.246505,-0.870032
69112,Hing Lung Takeaway,3,10,10,5,2014-03-28,52.245918,-0.883039
69113,Hmv Uk Ltd,Exempt,nan,nan,nan,2010-10-07,52.238976,-0.894402
69114,Holiday Inn,5,5,5,5,2014-05-20,52.229679,-0.864002
69115,Holland and Barrett,Exempt,nan,nan,nan,2013-03-25,52.237854,-0.894503
69116,Holy Trinity & St Pauls Church Hall,3,10,10,10,2008-08-14,52.256193,-0.896289
69117,Homay Cuisine,1,15,15,20,2014-05-01,52.241004,-0.913347
69118,Home Bargains,5,0,0,0,2013-10-18,52.235847,-0.899151
69119,Home From Home,4,10,5,5,2014-03-26,52.248576,-0.80815
69120,Homesense,Exempt,nan,nan,nan,2010-12-02,52.233939,-0.905744
69121,Hon Shing,3,5,10,10,2013-05-17,52.255845,-0.802432
69122,Honeymoon Chinese Takeaway,5,5,5,5,2014-03-31,52.259107,-0.900245
69123,Hong Kong Takeaway,3,5,10,10,2014-03-31,52.265375,-0.818455
69124,Hoo Kee,4,10,5,5,2014-03-28,52.219572,-0.902862
69125,Hope Cafe,5,5,5,5,2014-06-18,52.276092,-0.869881
69126,Hopping Hare,5,5,5,5,2014-03-27,52.253481,-0.938781
69127,House of Fraser,4,5,5,10,2013-01-09,52.239284,-0.894585
69128,HQ (Ground Floor),4,5,5,10,2013-09-11,52.243274,-0.89056
69129,HRS Care Ltd,3,5,10,10,2014-05-22,52.23985,-0.913931
69130,Hrs Care Ltd t/a Hastings Cottage,4,5,5,10,2014-07-02,52.23985,-0.913931
69131,Hug in a Mug Ltd,4,5,5,10,2013-12-11,52.243027,-0.873079
69132,Hung Fung,2,15,10,10,2013-07-10,52.263328,-0.899702
69133,Hung Vo,4,5,5,10,2009-01-30,52.241755,-0.880919
69134,Hunsbury Fish Bar,3,10,5,10,2013-07-25,52.204719,-0.898896
69135,"I Cook, You Serve",5,5,5,5,2013-05-02,52.241829,-0.872772
69136,I Heart Popcorn,5,5,5,5,2013-07-24,52.24749,-0.952503
69137,Ibis Hotel,3,10,5,10,2013-12-03,52.2343902588,-0.881200015545
69138,Iceland Frozen Foods Plc,5,5,5,5,2013-12-02,52.24254,-0.918011
69139,Iceland Frozen Foods Plc,5,0,0,0,2013-09-16,52.235847,-0.899151
69140,idosweets,5,0,0,5,2013-03-25,52.216535,-0.939442
69141,Ikko Pizza,2,15,15,10,2013-10-29,52.241022,-0.883469
69142,Image Gym,Exempt,nan,nan,nan,2006-04-27,52.21941,-0.864776
69143,Imli Lounge,5,5,5,5,2013-07-18,52.276782,-0.853828
69144,Imperial Oriental Restaurant,2,15,15,10,2013-11-21,52.236975,-0.891918
69145,Imperial Raj,4,0,10,10,2014-06-19,52.271424,-0.901823
69146,Impressions Caterers,5,5,5,5,2014-03-31,52.23715,-0.888546
69147,Impressions Caterers Ltd,4,5,5,10,2013-07-09,52.265706,-0.900156
69148,Imran Balti Hut,4,0,10,10,2012-07-23,52.241921,-0.88623
69149,Indian Brasserie,5,5,5,5,2014-01-22,52.240941,-0.919221
69150,Indian Ignite,3,10,10,10,2014-03-31,52.239908,-0.88833
69151,Indoor Adventure Ltd,5,5,5,0,2013-07-15,52.252919,-0.913554
69152,Industrial Rehabilitation Workshop,4,5,5,10,2012-04-10,52.246951,-0.95565
69153,Industrial Rehabilitation Workshops,4,5,5,10,2012-05-15,52.243397,-0.894116
69154,Infrared Integrated Systems Ltd,5,0,5,5,2012-07-06,52.213884,-0.951654
69155,Isham House,5,5,5,5,2013-09-18,52.238152,-0.873715
69156,ISS Food & Hospitality,5,5,5,5,2014-06-03,52.218914,-0.874992
69157,Istanbul Chef,3,10,5,10,2013-07-26,52.241623,-0.878519
69158,Its A Gift Ltd,Exempt,nan,nan,nan,2013-12-19,52.205313,-0.885163
69159,It's a Wrap,5,5,5,0,2009-03-06,52.2526,-0.941747
69160,J.O.B's,5,5,5,5,2014-06-25,52.274107,-0.859774
69161,Jacks,4,5,5,10,2014-05-15,52.236655,-0.901899
69162,Jade Oriental Pavilion,5,5,5,5,2013-04-04,52.24533,-0.875071
69163,Jaja General Store,3,5,10,10,2012-11-01,52.241087,-0.886455
69164,Janosik,3,10,5,10,2012-12-10,52.240941,-0.919221
69165,Jay General Stores,5,5,5,5,2013-12-17,52.247979,-0.876586
69166,JBs,4,10,5,5,2009-08-11,52.24559021,-0.812462687492
69167,Jeckyll & Hyde,3,10,10,10,2013-12-02,52.241522,-0.879297
69168,Jemmy's CafÃ©,3,5,10,10,2013-11-21,52.228062,-0.900163
69169,Jenny's Restaurant,5,5,5,5,2013-06-07,52.236947,-0.899504
69170,Jenny's Restaurant,5,5,5,5,2013-05-17,52.238514,-0.892114
69171,Jenny's Restaurants Ltd,5,5,5,5,2013-07-25,52.257039,-0.835496
69172,Jen's Cupcakes,5,5,5,5,2012-09-27,52.234255,-0.88566
69173,Jesus Centre,5,5,5,5,2014-01-10,52.240245,-0.888703
69174,Jhoots Pharmacy,Exempt,nan,nan,nan,2013-09-06,52.247484,-0.900474
69175,Joe's Traditional Fish and Chips,3,10,10,10,2014-09-26,52.238207,-0.913239
69176,John Greenwood Shipman Centre,5,0,5,5,2013-06-27,52.270146,-0.836237
69177,John Lewis,5,0,0,0,2014-05-21,,
69178,Jossam Butchers & Grocers,3,10,10,10,2013-08-13,52.239908,-0.88833
69179,Julia Off Licence,3,10,5,10,2010-03-05,52.244581,-0.883336
69180,Julian Graves Ltd @ Billing Garden Store,Exempt,nan,nan,nan,2007-07-16,52.2343902588,-0.881200015545
69181,Justin Partridge Catering,5,0,5,5,2014-11-12,52.252515,-0.867711
69182,JWDKS,1,15,15,20,2014-06-19,52.279658,-0.874217
69183,K & S Ball Catering,5,5,5,5,2014-03-31,52.241221,-0.853573
69184,K Bakes,5,5,5,5,2011-07-12,52.24989,-0.942339
69185,K J Caribbean Bakery,4,5,10,5,2014-03-31,52.250337,-0.897899
69186,K P News & Off Licence,5,0,0,0,2013-08-19,52.240941,-0.919221
69187,Kaka Store,3,10,10,10,2013-09-11,52.240729,-0.88478
69188,Kakes,3,5,10,10,2008-08-04,52.269423,-0.857022
69189,KakesAndCreations,5,5,5,5,2013-02-27,52.267675,-0.847439
69190,Kandies,5,5,5,5,2013-07-24,52.250337,-0.897899
69191,Karen Herron (Home Baker),4,0,0,10,2013-03-18,52.222723,-0.910031
69192,Kass's Grill Bar,2,15,10,10,2014-10-09,52.242062,-0.875564
69193,Katie's Home Kitchen,5,5,5,5,2013-11-25,52.218482,-0.930979
69194,Katori Spice,3,5,10,10,2014-03-27,52.214684,-0.927601
69195,Kemsley Division,5,0,0,5,2011-06-08,52.238152,-0.873715
69196,Ken Stewart Family Centre,5,0,0,5,2008-05-15,52.2374801636,-0.882723450661
69197,KFC,4,10,5,5,2013-11-22,52.264258,-0.900147
69198,KFC,5,5,5,5,2013-04-23,52.240245,-0.888703
69199,KFC,5,5,5,5,2014-01-21,52.233939,-0.905744
69200,KFC,4,10,5,0,2014-03-31,52.250249,-0.943676
69201,KFC Marquee Drive,5,5,5,5,2014-02-04,52.243545,-0.835571
69202,Khindas,4,5,5,10,2013-03-26,52.249925,-0.874222
69203,King Billy,3,5,10,10,2014-05-06,52.234771,-0.89846
69204,King David Public House,1,15,15,20,2008-11-25,52.264146,-0.887241
69205,King Do,3,10,10,10,2013-07-10,52.258316,-0.882962
69206,King Edward General Store,3,5,10,10,2012-05-22,52.241755,-0.880919
69207,King Kebab,3,10,10,10,2013-09-09,52.241022,-0.883469
69208,King Richard Court Ltd,5,5,5,5,2014-02-11,52.204848,-0.900734
69209,King William IV,4,5,10,5,2014-02-06,52.260092,-0.906595
69210,Kingfisher Club,3,10,10,10,2007-10-30,52.2343902588,-0.881200015545
69211,Kings Heath Baptist Church Rooms,4,5,10,5,2007-01-29,52.256503,-0.916162
69212,Kings Park Conf. & Sports Centre,5,0,5,5,2012-12-07,52.2343902588,-0.881200015545
69213,Kings Pre-School,5,5,5,5,2014-05-07,52.272419,-0.888382
69214,Kingsheath Community Centre,5,5,5,5,2006-09-13,52.256847,-0.922307
69215,Kingsley Balti,3,10,10,10,2014-03-14,52.250644,-0.90088
69216,Kingsley Fish Bar,4,5,5,10,2013-11-19,52.252755,-0.87774
69217,Kingsley General Store,4,5,5,10,2008-05-20,52.251841,-0.88185
69218,Kingsley Nursing Home,4,5,5,10,2014-12-02,52.251841,-0.88185
69219,Kingsley Park Methodist,3,10,5,10,2008-05-16,52.253139,-0.880338
69220,Kingsley Park Wmc,4,5,5,10,2013-12-12,52.25375,-0.876499
69221,Kingsley Stores,4,5,5,10,2013-07-22,52.271424,-0.901823
69222,Kingsthorpe Children's Centre,5,0,0,5,2014-07-17,52.259368,-0.895389
69223,Kingsthorpe Grange,5,5,5,5,2014-03-11,52.272402,-0.9038
69224,Kingsthorpe Motor Company,3,10,5,10,2008-05-02,52.271938,-0.840162
69225,Kingsthorpe News,4,5,5,10,2013-08-21,52.26464,-0.899596
69226,Kingsthorpe Snooker Club,3,5,10,10,2012-05-16,52.262342,-0.908708
69227,Kingsthorpe Spice Ltd,4,5,10,5,2013-11-21,52.264258,-0.900147
69228,Kingsthorpe Stores,4,5,5,10,2008-07-15,52.250943,-0.898235
69229,Kingsthorpe Upper Crust,5,5,5,0,2013-10-17,52.2343902588,-0.881200015545
69230,Kingsthorpe Upper Crust,5,5,5,5,2013-06-11,52.270286,-0.853336
69231,Kingswood,3,10,5,10,2011-08-16,52.276642,-0.904414
69232,Kingswood Catering,5,5,5,5,2014-06-26,52.265863,-0.890993
69233,Kingswood Catering,5,5,5,5,2014-06-30,52.212418,-0.909917
69234,Kingswood Catering,5,5,5,5,2014-06-30,52.275008,-0.912428
69235,Kingswood Catering,5,5,5,5,2014-05-19,52.25451,-0.891276
69236,Kingswood Catering,1,5,5,20,2014-10-16,52.256322,-0.804206
69237,Kingswood Catering,5,5,5,5,2013-04-24,52.241885,-0.91624
69238,Kingswood Catering,5,0,0,0,2014-10-14,52.238856,-0.879687
69239,Kingswood Catering,5,0,5,5,2014-10-01,52.203276,-0.884093
69240,Kingswood Catering Company,4,10,5,5,2008-04-03,52.250555,-0.941327
69241,Kingswood Catering Company,4,5,5,10,2014-06-06,52.252849,-0.850167
69242,Kingswood Catering Company @,4,5,5,10,2013-04-19,52.268916,-0.889657
69243,Kitty O'Shea's,3,10,5,10,2014-12-05,52.235847,-0.89915
69244,Krates,4,5,5,10,2013-07-18,52.265754,-0.887127
69245,Kudos Catering,5,5,0,5,2013-11-19,52.240941,-0.919221
69246,Kurry Art c/o The Bantam,3,10,5,10,2014-03-17,52.240245,-0.888703
69247,Kwic Snax,3,10,10,10,2014-07-08,52.24876,-0.812158
69248,La Casa Caffee,3,10,10,10,2014-11-18,52.237486,-0.896489
69249,La Casa Coffee Ltd,1,10,5,20,2013-07-10,52.236575,-0.90398
69250,La Pazienza,5,5,5,5,2013-08-20,52.242062,-0.875564
69251,Ladbrokes,Exempt,nan,nan,nan,2006-08-25,52.238119,-0.896957
69252,Ladbrokes The Bookmakers,Exempt,nan,nan,nan,2005-06-01,52.236621,-0.899249
69253,Lakeside Public House,5,5,5,0,2014-06-11,52.228431,-0.854868
69254,Lakeview News,5,5,5,5,2014-06-17,52.27481,-0.829979
69255,Lakeview Supermarket,4,10,5,5,2006-10-23,52.27481,-0.829979
69256,Lanahay Foods,3,5,10,10,2014-12-11,52.254837,-0.947583
69257,Langham Hotel,5,5,5,5,2014-11-26,52.247429,-0.897444
69258,Lasaan (Once Upon A Time In India),3,10,10,10,2014-03-11,52.276642,-0.904414
69259,Laura's Kitchen,5,5,5,5,2013-10-22,52.217259,-0.901587
69260,Lawrence & Co,3,10,10,10,2013-10-08,52.237746,-0.891621
69261,Layla Beaumont Cakes,5,5,5,5,2012-10-23,52.272053,-0.842709
69262,LaZeez,3,10,10,10,2013-03-27,52.244719,-0.897057
69263,Lenka's Cakes,5,5,5,5,2015-01-22,52.26865,-0.810688
69264,Leopold's,5,5,5,5,2013-06-11,52.237854,-0.894503
69265,Leopolds Express t/a The No 48 Cafe,4,5,5,10,2014-10-02,52.23785,-0.897051
69266,Les Olives,4,5,10,5,2014-09-23,52.238943,-0.897551
69267,Leyland Fish & Chips,5,0,0,5,2012-05-25,52.269106,-0.91392
69268,Leys Residential Home,4,5,5,10,2012-06-19,52.27481,-0.829979
69269,Liburd Community Room,5,0,0,5,2008-06-19,52.264945,-0.888964
69270,Lidl UK GmbH,5,0,5,5,2014-08-20,52.239395,-0.935031
69271,Lidl UK Ltd,5,5,5,5,2009-06-19,52.255363,-0.836053
69272,Lindley Catering/Centerplate UK,5,5,5,5,2012-08-22,52.235109,-0.934285
69273,Little Acorns,5,5,0,5,2014-02-25,52.21549,-0.856431
69274,Little Fishes,5,5,5,5,2014-03-26,52.269644,-0.832733
69275,Little Gem's Cakes,5,5,5,5,2012-11-13,52.259346,-0.960311
69276,Little Green Bean Machine,5,5,5,5,2014-01-02,52.208036,-0.895023
69277,Little Green Cake Company Ltd,5,5,0,5,2011-07-05,52.243317,-0.868531
69278,Little Lady Cupcakery,5,0,0,5,2014-09-05,52.21265,-0.880888
69279,Little Pickle Coffee Shop,5,5,5,5,2013-06-25,52.241957,-0.952135
69280,Little Wiggles,5,5,5,0,2014-10-08,52.239235,-0.941245
69281,Little Wiggles,5,0,0,0,2014-07-10,52.239235,-0.941245
69282,Lloyds Pharmacy,Exempt,nan,nan,nan,2013-12-10,52.258316,-0.882962
69283,Lloyds Pharmacy,Exempt,nan,nan,nan,2005-09-28,52.257923,-0.870929
69284,Lloyds Pharmacy,5,5,5,5,2008-03-27,52.248797,-0.873753
69285,Lloyds Pharmacy,Exempt,nan,nan,nan,2006-07-13,52.243034,-0.873811
69286,Lloyds Pharmacy,Exempt,nan,nan,nan,2008-02-20,52.241117,-0.867928
69287,Lloyds Pharmacy,Exempt,nan,nan,nan,2014-01-21,52.27481,-0.829979
69288,Lodge Farm Meeting Hall,4,5,5,10,2013-08-02,52.269644,-0.832733
69289,Londis,4,5,10,5,2006-12-12,52.248938,-0.877236
69290,Londis,3,10,5,10,2013-11-07,52.244881,-0.910601
69291,Londis,5,5,5,5,2007-03-29,52.241921,-0.88623
69292,Londis,3,10,5,10,2013-11-21,52.256017,-0.919997
69293,Londis,5,5,5,5,2013-03-18,52.27481,-0.829979
69294,Londis Abington,3,10,5,10,2007-01-03,52.242775,-0.866436
69295,Londis Supermarket,4,5,5,10,2013-03-26,52.255628,-0.867896
69296,Looking Glass Theatre School,5,5,0,5,2013-10-23,52.236641,-0.892732
69297,Lorne Road Mini Market,3,10,5,10,2013-08-07,52.244696,-0.895519
69298,Lou Lou's Cupcakes,5,5,5,5,2014-09-05,52.26773,-0.875442
69299,Love Chin Chin Ltd,3,10,5,10,2011-11-16,52.203995,-0.894568
69300,"Lowther, Adolescent Division",5,5,0,0,2013-10-10,52.238152,-0.873715
69301,Lumsden Housing,5,5,5,5,2013-07-11,52.245041,-0.894881
69302,Lyncrest Primary School,5,5,5,5,2008-11-19,52.244159,-0.927931
69303,M & G Butchers,4,5,5,10,2014-01-29,52.243034,-0.873811
69304,M & G Butchers,4,5,5,10,2014-03-31,52.241755,-0.880919
69305,M & S,5,0,0,0,2013-07-26,52.239395,-0.935031
69306,Mace Express,4,5,5,10,2013-03-18,52.242043,-0.856671
69307,Magdalenka Polish Deli,4,5,5,10,2014-02-24,52.241297,-0.881119
69308,Magda's Home-Baked Cakes,5,5,5,5,2013-07-01,52.245741,-0.924949
69309,Magenta,5,5,5,0,2013-07-22,52.250249,-0.943676
69310,Maharajah Tandoori/Goya's Lounge,4,5,10,5,2014-12-01,52.241297,-0.881119
69311,Maid for a Day,4,5,5,10,2014-09-17,52.244021,-0.874548
69312,Main Road Convenience Sella Store,3,5,10,10,2013-07-16,52.254694,-0.951805
69313,Majestic Wines,Exempt,nan,nan,nan,2007-01-08,52.237012,-0.91135
69314,Malcolm Arnold House,5,5,0,0,2013-10-10,52.238152,-0.873715
69315,Malt Shovel,5,5,5,5,2014-10-08,52.232441,-0.896365
69316,Malvern Grove Post Office/Gen Store,3,10,5,10,2013-03-26,52.247396,-0.934005
69317,Mama's Handmade Pasta,5,5,5,5,2013-09-04,52.240037,-0.854789
69318,Mandarin Buffet,4,5,5,10,2014-02-06,52.255363,-0.836053
69319,Manfield Health Campus,5,0,5,0,2013-06-18,52.267814,-0.864522
69320,Manish Newsagent,3,5,10,10,2008-04-25,52.252282,-0.864992
69321,Mansion Fish Bar,1,10,10,20,2014-01-16,52.26464,-0.899596
69322,Margaret May,5,5,5,5,2015-01-13,52.238306,-0.879583
69323,Margarets Rest Home,5,5,5,5,2014-09-02,52.251841,-0.88185
69324,Maria's,2,15,10,10,2014-04-22,52.238797,-0.892576
69325,Mario's Ice Cream,4,5,5,10,2014-09-04,52.239225,-0.927142
69326,Market Square News,5,5,5,5,2013-11-25,52.237486,-0.896489
69327,Marks & Spencer,5,0,0,0,2008-06-04,52.238797,-0.892576
69328,Marmaris,5,5,5,5,2013-07-10,52.237143,-0.893481
69329,Martin The Newsagent,Exempt,nan,nan,nan,2014-05-07,52.262183,-0.901298
69330,Martins,5,5,5,5,2013-07-18,52.239439,-0.891007
69331,Martins,4,10,5,5,2008-09-29,52.27481,-0.829979
69332,Masala Catering Ltd,4,5,5,10,2014-11-21,52.207988,-0.885102
69333,Masala Catering Ltd,4,5,5,10,2015-01-15,52.27134,-0.846186
69334,Masala Indian Cuisine,3,10,10,10,2014-06-19,52.258316,-0.882962
69335,Masquerade Muffins,5,5,5,5,2014-03-31,52.26545,-0.897861
69336,Maule Brewing Company,Exempt,nan,nan,nan,2014-03-31,52.226454,-0.913014
69337,Maxxi Save International Food Store,1,15,10,20,2014-03-20,52.240941,-0.919221
69338,McDonalds,5,5,0,0,2014-06-05,,
69339,McDonalds Restaurants Ltd,5,5,0,0,2014-05-08,52.243545,-0.835571
69340,McDonalds Restaurants Ltd,5,5,5,5,2013-10-10,52.241755,-0.880919
69341,McDonalds Restaurants Ltd,5,5,0,0,2013-03-25,52.237147,-0.897815
69342,Mcdonalds Restaurants Ltd,5,5,0,0,2014-06-25,52.27481,-0.829979
69343,Mediterranean Grill & Pizza House,3,10,10,5,2014-06-13,52.252056,-0.865774
69344,Mega Munch,4,5,5,10,2014-02-17,52.208175,-0.906113
69345,Melbourne Arms,3,10,10,10,2012-04-02,52.242341,-0.94473
69346,Mellanoo,1,15,10,20,2015-01-07,52.239908,-0.88833
69347,Memsaab Ltd,4,10,5,5,2014-05-30,52.244819,-0.871495
69348,Mencap,4,5,5,10,2014-09-19,52.258306,-0.898199
69349,Mencap Homes Foundation,3,10,10,10,2007-12-05,52.221693,-0.917302
69350,Mencap Homes Foundation,3,10,5,10,2012-07-10,52.260149,-0.862154
69351,Mencap Homes Foundation,4,10,5,5,2011-05-11,52.261989,-0.897844
69352,Mens/Townsend Divisions,5,0,0,0,2009-04-15,52.238152,-0.873715
69353,Mentaur,4,5,5,10,2014-02-10,52.247184,-0.879038
69354,Mentaur,5,5,5,5,2007-11-16,52.267635,-0.895902
69355,Merlin Tandoori,5,5,5,5,2015-01-07,52.241809,-0.879144
69356,Merrifield House,5,5,5,5,2015-01-07,52.203738,-0.888282
69357,Michaels Grill,1,10,5,20,2013-11-25,52.274106,-0.909211
69358,Mickey's Cafe,4,5,5,10,2013-08-01,52.235202,-0.912947
69359,Midwest,5,5,5,0,2013-07-23,52.243034,-0.873811
69360,Millennium Pizza,4,5,5,10,2014-06-12,52.236947,-0.899504
69361,Millennium Pizza & Kebab,3,10,10,10,2014-01-30,52.239908,-0.88833
69362,Millies Cookies,5,5,5,5,2013-11-25,52.238983,-0.894138
69363,Milly's Cafe,4,5,5,10,2013-10-17,52.252952,-0.880489
69364,Milton Stores,3,10,10,10,2013-08-14,52.254534,-0.883321
69365,Mini Euro,4,5,5,10,2013-07-12,52.240169,-0.886405
69366,Mini Express,4,5,5,10,2013-03-21,52.241755,-0.880919
69367,Mini Market,4,5,5,10,2013-08-14,52.240941,-0.919221
69368,Mini Market,4,5,5,10,2014-07-09,52.238089,-0.895698
69369,Miss Bumblebee's Bakehouse,5,5,5,5,2013-02-07,52.27093,-0.825489
69370,Mithaai Mart,5,5,5,5,2014-11-14,52.258882,-0.864062
69371,MITIE Catering Services Ltd,5,5,0,5,2014-06-10,52.205313,-0.885163
69372,Mix It Up Cakes and Sweet Treats,5,0,5,5,2014-07-23,52.242717,-0.878257
69373,Mix Spice,3,10,10,10,2010-10-20,52.245,-0.893417
69374,Momo,3,10,10,10,2011-03-15,52.239439,-0.891007
69375,Monks Park W M C,4,10,5,5,2011-12-21,52.242485,-0.875553
69376,Morrisons,5,5,5,5,2014-01-07,52.258851,-0.873059
69377,Morrisons,5,5,5,5,2014-03-31,52.2343902588,-0.881200015545
69378,Mother Daughter Baking,5,5,5,5,2012-06-12,52.205542,-0.881271
69379,Mount Pleasant Bapt.Churc,4,5,5,10,2014-11-06,52.244827,-0.883638
69380,Mr Chippy,4,5,5,10,2014-05-15,52.228062,-0.900163
69381,Mr E J Fitzpatrick,4,5,5,10,2014-04-01,52.238119,-0.896957
69382,Mr Yummy,1,15,15,20,2014-09-05,52.25375,-0.876499
69383,Mrs B's Cakes,4,5,5,10,2013-05-16,52.24203,-0.888277
69384,Mrs D Hawkins (Catering),5,0,5,5,2013-08-16,52.251258,-0.866015
69385,Muffin Break Northampton,5,5,5,5,2013-08-22,52.238634,-0.894366
69386,Mu'gbortima Care Services,5,5,5,5,2014-08-20,52.246879,-0.884802
69387,Mumbai Dreams,1,15,15,20,2014-04-01,52.241583,-0.892448
69388,Mun Wai Express,3,10,10,10,2014-07-10,52.274107,-0.859774
69389,Munchies Snacks,1,15,15,20,2014-01-09,52.261232,-0.949952
69390,Nana,3,10,5,10,2013-12-06,52.240729,-0.88478
69391,Nando's,4,5,10,5,2013-06-11,52.241755,-0.880919
69392,Nanna's Kitchen,4,5,5,10,2014-10-15,52.240754,-0.886508
69393,Nasze Deli,2,15,10,10,2014-05-21,52.239908,-0.88833
69394,Nazareth House,5,5,5,5,2014-03-11,52.249725,-0.927108
69395,NB's,3,10,5,10,2010-09-28,52.235405,-0.897024
69396,NCC Nourish,5,5,0,0,2010-11-25,52.214867,-0.899655
69397,NCC Nourish,5,0,0,5,2012-10-24,52.240901,-0.858531
69398,NCC Nourish,4,0,5,10,2014-03-19,52.236388,-0.877347
69399,NCC Nourish,5,0,0,5,2012-07-13,52.252081,-0.815161
69400,NCC Nourish,5,5,5,5,2014-04-03,52.226813,-0.918803
69401,NCC Nourish,5,5,5,5,2013-12-06,52.245473,-0.850709
69402,NCC Nourish,5,5,5,5,2014-06-12,52.243527,-0.899342
69403,NCC Nourish,5,5,5,5,2014-11-14,52.195778,-0.900463
69404,NCC Nourish,4,10,5,5,2013-04-09,52.23629,-0.894615
69405,NCC Nourish,3,10,10,10,2014-05-13,52.254694,-0.951805
69406,NCC Nourish,5,5,5,5,2014-03-27,52.254357,-0.802867
69407,NCC Nourish,5,5,5,5,2014-03-31,52.254647,-0.890511
69408,NCC Nourish,5,5,5,5,2014-02-27,52.260674,-0.897628
69409,NCC Nourish,5,0,5,5,2014-05-21,52.211,-0.885129
69410,NCC Nourish,5,5,5,5,2014-03-31,52.221455,-0.921758
69411,NCC Nourish,5,5,5,5,2014-03-18,52.255254,-0.921159
69412,NCC Nourish,5,5,5,5,2013-12-04,52.279077,-0.855924
69413,NCC Nourish,5,0,0,5,2012-10-05,52.257249,-0.875707
69414,NCC Nourish,5,5,5,5,2014-05-20,52.258919,-0.898345
69415,NCC Nourish,4,0,5,10,2013-11-29,52.263105,-0.906652
69416,NCC Nourish,4,5,5,10,2014-05-23,52.265013,-0.83177
69417,NCC Nourish,5,0,5,5,2014-05-21,52.263837,-0.836519
69418,NCC Nourish,5,5,5,5,2013-12-03,52.239235,-0.941245
69419,NCC Nourish,5,5,5,5,2014-03-18,52.222754,-0.904716
69420,NCC Nourish,5,0,0,0,2013-12-17,52.268775,-0.808751
69421,NCC Nourish,5,5,5,5,2014-03-31,52.24094,-0.903419
69422,NCC Nourish,4,5,5,10,2013-09-10,52.2343902588,-0.881200015545
69423,NCC Nourish,5,0,0,0,2012-03-12,52.252853,-0.924997
69424,NCC Nourish,5,5,5,5,2014-03-31,52.249275,-0.831334
69425,NCC Nourish,5,5,5,5,2014-05-21,52.276422,-0.89051
69426,NCC Nourish,5,0,5,5,2014-05-21,52.262656,-0.846294
69427,NCC Nourish,4,5,5,10,2014-02-06,52.270134,-0.861767
69428,NCC Nourish,5,5,5,5,2014-06-12,52.232923,-0.943254
69429,NCC Nourish,5,5,5,5,2013-09-11,52.26813,-0.830618
69430,NCC Nourish,5,5,5,5,2014-10-01,52.236412,-0.894129
69431,Neill's Nosh,5,0,0,5,2014-11-12,,
69432,Nene Valley Day Nursery,5,5,0,0,2013-07-18,52.238392,-0.878146
69433,Nene Valley Stores,4,5,5,10,2008-04-23,52.244244,-0.903938
69434,Nevada Takeaway,5,0,0,5,2010-01-20,52.261945,-0.842489
69435,New Duston Post Office,Exempt,nan,nan,nan,2013-09-02,52.259753,-0.955496
69436,New International Superstore,1,10,10,20,2013-10-31,52.244827,-0.883638
69437,New Look,Exempt,nan,nan,nan,2011-03-30,52.23874,-0.897
69438,New Look,Exempt,nan,nan,nan,2011-03-29,52.257039,-0.835496
69439,New Mumtaz,1,10,10,20,2014-02-14,52.245918,-0.883039
69440,New Sage Silver River,4,10,5,5,2014-01-22,52.268495,-0.850363
69441,New Tung Shing,3,10,10,10,2013-07-30,52.252755,-0.87774
69442,Newnham Stores,4,5,5,10,2008-01-30,52.264146,-0.887241
69443,Next Retail Ltd,Exempt,nan,nan,nan,2008-02-29,52.241591,-0.839825
69444,Next Retail Ltd,Exempt,nan,nan,nan,2014-07-30,52.250249,-0.943676
69445,Ni Hao,3,10,10,10,2013-10-30,52.247979,-0.876586
69446,Nic Bec Day Nursery,5,5,5,5,2014-03-31,52.255606,-0.858154
69447,Nicholas Rothwell House,5,0,5,5,2012-07-12,52.273112,-0.902845
69448,Nick's Plaice,3,5,10,10,2013-12-04,52.251663,-0.879203
69449,Nicky's News ( Costcutter),3,10,5,10,2013-03-21,52.239091,-0.903757
69450,Nicola Cafe,3,10,5,10,2014-05-07,52.237147,-0.897815
69451,Nisa including Post Office Prentice Court,5,5,5,5,2013-07-16,52.2343902588,-0.881200015545
69452,Nisa Local,5,5,5,5,2005-10-04,52.252056,-0.865774
69453,Nisa Local,3,10,10,10,2014-06-05,52.258882,-0.864062
69454,NISA Today's,5,5,5,5,2007-11-13,52.27112,-0.895508
69455,Nishma,4,5,5,10,2007-02-26,52.245682,-0.89715
69456,Noah's Ark Playgroup,5,5,5,0,2013-02-21,52.244591,-0.960231
69457,Normanhurst Day Nursery,5,5,5,5,2014-03-20,52.251906,-0.88491
69458,Normans Newsagent,Exempt,nan,nan,nan,2013-08-28,52.239055,-0.913511
69459,Northampton Abington Community Association,3,10,10,5,2007-06-06,52.27481,-0.829979
69460,Northampton Best Kebab House,3,10,10,10,2013-12-03,52.236947,-0.899504
69461,Northampton Boat Club,4,5,5,10,2009-08-05,52.27481,-0.829979
69462,Northampton College,5,0,5,5,2013-12-03,52.263609,-0.849039
69463,Northampton Community Health Care,3,10,10,10,2011-01-10,52.246656,-0.956799
69464,Northampton Food Bank,5,5,5,5,2013-08-29,52.250056,-0.89565
69465,Northampton Fruit & Veg Ltd,3,10,5,10,2013-12-13,52.240169,-0.886405
69466,Northampton Garden Centre,5,5,5,5,2014-02-19,52.210019,-0.892691
69467,Northampton General Hospital,5,5,5,5,2014-10-02,52.237142,-0.886701
69468,Northampton High School For Girls,5,5,5,5,2014-05-09,52.209813,-0.886067
69469,Northampton Hilton,5,5,5,5,2014-03-31,52.189556,-0.895599
69470,Northampton Hope Centre,4,0,5,10,2013-03-19,52.242222,-0.89725
69471,Northampton Indoor Karting Ltd,4,5,5,10,2014-12-18,52.234369,-0.916276
69472,Northampton Lawn Tennis Club Westwood Way,5,5,5,5,2011-07-06,52.2524299622,-0.846390008926
69473,Northampton Mencap,5,0,5,5,2013-10-08,52.227824,-0.893039
69474,Northampton Pre-school Group,4,10,5,5,2008-03-18,52.25144,-0.831174
69475,Northampton Quality Meats,5,5,5,5,2013-12-03,52.242229,-0.84722
69476,Northampton School for Boys,5,0,0,5,2012-05-28,52.239226,-0.867566
69477,Northampton Town Football Club,5,5,5,5,2013-04-18,52.235109,-0.934285
69478,Northampton West End Bowling Club,4,5,5,10,2011-02-24,52.246204,-0.935381
69479,Northampton Working Mens Club,4,10,5,5,2008-07-21,52.240381,-0.897486
69480,Northamptonshire Police,3,5,10,10,2013-12-02,52.259486,-0.837498
69481,Northants C.C. Sports & Social Club,5,5,5,5,2013-12-16,,
69482,Northants County Council - Soc. Serv,5,0,0,5,2012-07-10,52.266212,-0.906298
69483,Northants Cricket,4,10,5,5,2014-02-24,52.249409,-0.870075
69484,Northants Healthcare NHS Trust,5,0,5,5,2014-01-03,52.239739,-0.94734
69485,Northants News,3,10,5,10,2010-11-30,52.244827,-0.883638
69486,Northants NHS Trust,3,5,10,10,2010-05-28,52.20392,-0.87518
69487,Nourish,5,5,5,5,2013-09-12,52.261148,-0.835564
69488,Nourish,5,5,5,5,2014-04-04,52.257489,-0.900198
69489,Nourish,3,10,5,10,2014-05-14,52.272028,-0.841156
69490,N'pton Afro-Caribbean,4,10,0,10,2006-03-15,52.243516,-0.888577
69491,N'pton Assoc Youth Clubs,5,5,5,5,2013-05-13,52.275412,-0.877842
69492,N'pton College Day Nursery,5,5,5,5,2013-10-25,52.239976,-0.889749
69493,N'pton Conservative Club,1,10,10,20,2014-07-15,52.238306,-0.879583
69494,N'pton Labour Party,1,10,10,20,2014-07-16,52.24316,-0.891867
69495,N'pton Old Scouts Rfc,4,5,5,10,2013-07-24,52.237748,-0.861585
69496,Npton Society of Model Engineers Ltd,5,5,5,5,2010-07-15,52.225554,-0.88964
69497,Npton Town & County Club,3,10,10,10,2014-01-16,52.236765,-0.896404
69498,Npton&Dist.Bowling Associ,4,5,5,10,2013-12-02,52.265706,-0.900156
69499,Nucare Pharmacy,Exempt,nan,nan,nan,2006-08-21,52.267814,-0.864522
69500,Nuffield Health Fitness & Wellbeing,4,0,5,10,2013-03-22,52.240941,-0.919221
69501,Nurtury (Northants) Ltd,5,5,5,5,2014-12-03,52.219741,-0.862675
69502,Nutty and Nice Cakes,5,5,5,5,2014-01-27,52.239619,-0.854244
69503,Oak Lodge,3,5,10,10,2014-03-11,52.245535,-0.946045
69504,Oakwood Nursing Home,5,5,5,5,2014-03-12,52.251606,-0.876084
69505,Obelisk Stores,4,5,5,10,2013-03-26,52.277409,-0.893182
69506,Office Depot,5,5,0,5,2014-06-10,52.203956,-0.868638
69507,Old Bakehouse Antiques Centre,5,5,5,5,2014-06-04,52.247184,-0.879038
69508,Old Bank,5,5,5,5,2014-06-02,52.237143,-0.893481
69509,Old Black Lion PH,3,10,10,10,2013-07-10,52.236575,-0.90398
69510,Old Cherry Tree,4,10,0,10,2013-03-20,52.205313,-0.885163
69511,Old House,4,5,5,10,2013-10-16,52.241716,-0.877872
69512,Old Northamptonians,5,0,5,5,2013-12-18,52.239543,-0.86501
69513,Old Rectory Day Nursery,5,0,5,5,2013-07-25,52.27481,-0.829979
69514,Old School Sausages,5,0,0,5,2014-08-06,52.279658,-0.874217
69515,Old White Hart (The),5,5,0,0,2012-06-06,52.214691,-0.944346
69516,Olde England Ltd,3,10,5,10,2012-03-02,52.245918,-0.883039
69517,Olimpiacakes,5,5,5,5,2009-08-14,52.207094,-0.895281
69518,Olive Catering Services,5,5,5,5,2013-11-14,52.218255,-0.879356
69519,Olive Catering Services Ltd,5,5,5,5,2014-02-04,52.21549,-0.856431
69520,Oliver Adams,5,5,5,5,2014-09-19,52.237413,-0.895422
69521,Oliver Adams,5,5,5,5,2014-03-05,52.264258,-0.900147
69522,Oliver Adams,5,5,5,5,2013-07-10,52.251663,-0.879203
69523,Oliver Adams,4,5,5,10,2014-09-19,52.24183857,-0.87792128
69524,Oliver Adams,4,5,5,10,2014-01-08,52.214684,-0.927601
69525,Oliver Adams,3,5,10,10,2014-10-01,52.240446,-0.91711
69526,Oliver Adams,4,5,5,10,2014-04-01,52.251663,-0.879203
69527,Oliver Adams,3,5,10,10,2013-03-21,52.241069,-0.886514
69528,Oliver Adams,3,10,10,10,2014-03-31,52.252919,-0.913554
69529,Oliver Adams Express,5,5,5,5,2014-09-19,52.237486,-0.896489
69530,Oliver Adams Ltd,5,0,0,5,2012-06-06,52.252282,-0.864992
69531,Oliver Adams Ltd,5,5,5,5,2013-08-15,,
69532,Oliver Adams Ltd,5,0,0,5,2012-07-13,52.257039,-0.835496
69533,Olympus Care Services,5,5,5,5,2014-03-12,52.27796,-0.89632
69534,Olympus Care Services,5,5,5,5,2014-02-06,52.276117,-0.82818
69535,Olympus Care Services Ltd,5,5,5,5,2014-05-07,52.265036,-0.888127
69536,Ondine Private Chef,5,5,5,5,2012-12-10,52.2587,-0.95029
69537,One Stop Store,5,0,0,5,2011-03-30,52.241957,-0.952135
69538,O'Neills Bar,5,5,5,5,2014-07-01,52.238314,-0.897567
69539,Opera Cafe,3,5,10,10,2013-04-23,52.239439,-0.891007
69540,Optima Catering Ltd,5,5,5,5,2014-09-10,52.217062,-0.948095
69541,Oregano (Grill House),3,10,10,10,2014-05-08,52.252444,-0.911734
69542,Oriental Garden,3,10,10,10,2014-12-09,52.239049,-0.898266
69543,Oriental Paradise,3,10,10,10,2013-06-04,52.2343902588,-0.881200015545
69544,Oriential Market,4,5,5,10,2012-12-05,52.264258,-0.900147
69545,Oscar's Out of School Club,3,10,5,10,2009-04-02,52.275354,-0.883999
69546,Oscar's Out of School Club,4,5,5,10,2014-06-04,52.258919,-0.898345
69547,Oxfam,Exempt,nan,nan,nan,2012-10-17,52.264258,-0.900147
69548,Palace Cafe,3,10,10,10,2014-02-10,52.244827,-0.883638
69549,Panni's Bakery,5,5,5,5,2013-03-18,52.245515,-0.903277
69550,Papa Cino's,4,5,5,10,2014-01-16,52.237757,-0.894784
69551,Papa John's Pizza,5,5,5,5,2013-03-11,52.26464,-0.899596
69552,Paper News,Exempt,nan,nan,nan,2007-07-02,52.27481,-0.829979
69553,Parade Day Nursery,5,0,5,5,2014-02-17,52.246505,-0.870032
69554,Park Square Pharmacy,Exempt,nan,nan,nan,2008-03-18,52.256017,-0.919997
69555,Parklands Community Centr,5,5,5,5,2006-05-05,52.27481,-0.829979
69556,Parklands Learning & Care Centre,5,5,5,5,2015-01-20,52.266944,-0.87703
69557,Parklands News,4,5,5,10,2013-03-27,52.268048,-0.874848
69558,Parkside B&B,5,0,5,5,2014-09-11,52.25981,-0.902323
69559,Party Puddings,5,0,0,5,2013-10-30,,
69560,Pat Cannon,5,0,0,5,2013-11-06,52.240381,-0.897486
69561,Pauls Papers,Exempt,nan,nan,nan,2013-12-09,52.250181,-0.91696
69562,Pauly's Soul Food Cafe,1,10,15,20,2014-01-30,52.251663,-0.879203
69563,Pavilion Bar (Students Union),5,5,5,5,2013-12-18,52.272001,-0.883102
69564,Pearl House,5,5,5,5,2012-06-28,52.219572,-0.902862
69565,Penny Pieces,5,5,5,5,2012-12-05,52.204224,-0.875934
69566,Pepe's Piri Piri,5,5,5,5,2013-12-03,52.236621,-0.899249
69567,Perestroyka,2,10,15,10,2014-06-10,52.24384,-0.872472
69568,Perthyn,4,0,5,10,2012-09-25,52.235003,-0.878217
69569,Pie People,Exempt,nan,nan,nan,2014-09-26,52.258718,-0.810867
69570,Pig & Whistle,5,5,5,5,2008-08-06,52.265375,-0.818455
69571,Piggy Wiggy Puddings,4,5,0,10,2013-06-19,52.254502,-0.860218
69572,Ping Chinese,3,10,10,10,2014-07-04,52.245,-0.893417
69573,Pinochio's Pizza,5,5,5,5,2013-07-10,52.243034,-0.873811
69574,Pioneer,2,15,10,10,2014-03-12,52.262838,-0.881046
69575,Pizza Delicious,3,5,10,10,2014-10-24,52.27481,-0.829979
69576,Pizza Express,5,5,0,5,2014-05-13,52.236852,-0.894162
69577,Pizza Go Go,4,5,5,10,2013-04-08,52.241022,-0.883469
69578,Pizza Hut,5,5,5,5,2013-06-21,52.238959,-0.914759
69579,Pizza Hut,5,5,0,0,2014-03-03,52.237831,-0.932052
69580,Pizza Hut Restaurant,5,0,0,5,2014-03-05,52.241591,-0.839825
69581,Planet Pizza,3,10,10,10,2013-05-17,52.245918,-0.883039
69582,Play 2 Learn,5,5,5,5,2014-03-12,,
69583,Playhouse Theatre,5,5,5,5,2014-01-27,52.251261,-0.850487
69584,Plough Hotel,3,10,5,10,2014-04-15,52.23385,-0.897106
69585,Polish Taste 'Krowka',4,5,5,10,2013-04-04,52.241022,-0.883469
69586,Polka Dot Cakes,5,5,5,5,2012-09-07,52.245535,-0.946045
69587,Polstar Ltd,3,10,5,10,2013-12-03,52.240729,-0.88478
69588,Pomfret Arms,3,10,10,10,2014-10-03,52.229745,-0.89652
69589,Post Office,Exempt,nan,nan,nan,2007-06-18,52.250798,-0.943342
69590,Post Office,Exempt,nan,nan,nan,2007-02-01,52.205313,-0.885163
69591,Poundland,Exempt,nan,nan,nan,2013-11-29,52.241755,-0.880919
69592,Poundland,Exempt,nan,nan,nan,2014-03-17,52.241651,-0.839531
69593,Poundstretcher Limited,Exempt,nan,nan,nan,2007-04-04,52.236621,-0.899249
69594,Poundworld,4,10,5,5,2012-03-19,52.239284,-0.894585
69595,Prana,1,15,15,20,2014-02-21,52.248452,-0.911803
69596,Preston Stores,4,5,5,10,2013-03-21,52.205313,-0.885163
69597,Prezzo,5,5,5,5,2013-03-25,52.237413,-0.895422
69598,Primark Stores Ltd,Exempt,nan,nan,nan,2011-04-05,52.238514,-0.892114
69599,Princess Alexandra PH,4,5,5,10,2014-07-01,52.238721,-0.887276
69600,Priti Raaj,3,5,10,10,2014-03-03,52.274106,-0.909211
69601,Pro Food Limited,4,5,5,10,2012-03-29,52.221367,-0.937819
69602,Products Online Ltd,5,5,5,5,2014-09-03,52.222943,-0.857323
69603,Project Care Ltd,5,0,5,5,2013-10-08,52.227824,-0.893039
69604,Pumpkin Cafe,4,10,5,5,2013-10-29,52.237481,-0.906608
69605,Punjabi by Nature,1,10,10,20,2013-11-21,52.241022,-0.883469
69606,Pyket Preserves,5,5,5,0,2013-11-07,52.250502,-0.843636
69607,Quadrant Catering,5,0,0,5,2010-08-25,52.215833,-0.953423
69608,Queen Adelaide,3,10,10,10,2013-07-09,52.263273,-0.903498
69609,Queen Eleanor Hotel,5,5,5,5,2014-11-25,52.203521,-0.862377
69610,Queens Park Nursing Home,5,0,0,5,2013-11-26,52.255278,-0.90034
69611,Queens Park Wmc,4,5,5,10,2013-09-11,52.253884,-0.897357
69612,Quick Stop Shop,Exempt,nan,nan,nan,2013-09-09,52.241755,-0.880919
69613,R A O B Club,5,5,5,5,2013-12-12,52.240188,-0.877017
69614,R B Robinson Catering @ NHS Trust,3,5,10,10,2014-10-29,52.276803,-0.872794
69615,R L Allison,Exempt,nan,nan,nan,2006-10-25,52.252755,-0.87774
69616,R Sons Newsagents,4,5,5,10,2013-09-02,52.242062,-0.875564
69617,Rahuls,4,5,5,10,2014-12-05,52.235405,-0.897024
69618,Rainbow Fish & Chips,5,0,5,5,2014-07-30,52.240941,-0.919221
69619,Rajput Balti Hut,3,10,5,10,2013-04-12,52.241817,-0.877152
69620,Ranee Foods Ltd,5,5,5,5,2012-06-18,52.226454,-0.913014
69621,Rathgar Care Home,1,5,5,20,2014-11-27,52.262923,-0.868237
69622,Rays Kebabs,4,5,5,10,2014-02-20,52.270254,-0.813709
69623,RCS News,5,5,5,5,2013-03-25,52.239888,-0.895697
69624,Rectory Farm Community Centre,5,5,5,5,2008-05-16,52.268775,-0.808751
69625,Red Hot Pizza and Grill House,3,10,10,10,2013-07-10,52.236621,-0.899249
69626,Redruth Nursing Home,4,5,5,10,2014-03-28,52.236776,-0.950763
69627,Reload,5,5,0,5,2012-06-27,52.246951,-0.95565
69628,Reload,5,5,5,5,2013-07-10,52.27093,-0.825489
69629,Reload (Caterers),5,0,0,5,2014-04-29,52.215556,-0.903078
69630,Reload (Caterers),5,0,0,0,2013-10-25,52.270748,-0.891326
69631,Rendezvous Coffee Shop,5,5,5,5,2014-12-10,52.23856,-0.895042
69632,Rethink,5,0,0,5,2012-06-06,52.271424,-0.901823
69633,Revolution Northampton,5,5,0,5,2013-02-14,52.235405,-0.897024
69634,Reynard Way Evangelical Church Reynard Way,4,5,5,10,2012-12-11,52.277409,-0.893182
69635,Rhymetime Nursery,4,0,5,10,2014-09-09,52.244597,-0.957873
69636,Rice Bowl,1,15,10,20,2014-02-13,52.241022,-0.883469
69637,Richard's Takeaway,4,5,5,10,2014-06-18,52.214684,-0.927601
69638,Richardson Partnership for Care,5,5,5,5,2013-11-18,52.241011,-0.914093
69639,Richardsons Chemist,Exempt,nan,nan,nan,2013-08-22,52.258089,-0.893253
69640,Richardsons Partnership for Care,4,5,5,10,2013-07-26,52.269184,-0.894295
69641,RIGA International Supermarket,2,10,15,10,2014-05-28,52.242561,-0.885452
69642,Rileys Sports Bar 2014 Ltd,3,10,10,10,2014-05-13,52.236621,-0.899249
69643,River Stop,4,5,5,10,2013-08-15,52.248687,-0.904107
69644,Riverside Hub,5,5,5,5,2013-10-08,52.24491,-0.833616
69645,Rizzo's Ice-Cream,5,0,0,0,2013-09-02,52.252276,-0.954866
69646,Road To Morrocco,5,0,0,0,2013-08-28,52.245155,-0.845708
69647,Rock Bottom Disc.W/House,Exempt,nan,nan,nan,2013-08-30,52.249406,-0.877297
69648,Roobarb & Kustard Ceramics Cafe,5,0,0,0,2013-08-28,52.23906,-0.892716
69649,Roosterz Ltd,1,15,10,20,2014-11-03,52.264038,-0.835034
69650,Rose Caterers,4,5,10,5,2013-09-02,52.207635,-0.880106
69651,Roseneath,5,5,5,5,2010-01-15,52.241755,-0.880919
69652,Royal & Derngate,4,5,5,10,2014-10-01,52.236412,-0.894129
69653,Royal Bengal,5,5,5,5,2014-07-04,52.235405,-0.897024
69654,Royal China,3,10,10,10,2014-09-04,52.243519,-0.897526
69655,Royal Market International,3,10,5,10,2013-03-18,52.239908,-0.88833
69656,Royal Navy & Marine Assoc,3,10,5,10,2008-03-10,52.244696,-0.895519
69657,Royal Voluntary Service Shop,5,5,5,5,2013-07-10,52.240464,-0.922015
69658,Ryan Q C Homes,4,5,5,10,2014-12-16,52.266682,-0.846102
69659,Ryan QC Homes,4,5,5,10,2014-12-16,52.270715,-0.847551
69660,Ryehill Stores,1,10,10,20,2014-04-29,52.255557,-0.935714
69661,S M Co-Op,5,0,0,0,2013-09-26,52.258847,-0.852151
69662,S M Co-Op,3,10,5,10,2008-10-06,52.246604,-0.900525
69663,S M Co-Op,5,5,0,0,2013-03-27,52.243872,-0.943976
69664,S15 Spy Missions Ltd,3,5,10,10,2013-10-16,52.222943,-0.857323
69665,Saffron,4,5,5,10,2014-06-25,52.237067,-0.89401
69666,Saigon,4,5,5,10,2014-05-06,52.236621,-0.899249
69667,Sainsbury Supermarkets Ltd,5,5,0,0,2014-02-12,52.238976,-0.894402
69668,Sainsbury Supermarkets Ltd,5,0,5,0,2013-06-20,52.239395,-0.935031
69669,Sainsbury's Supermarkets Ltd,5,0,0,0,2013-12-02,52.241964,-0.878466
69670,Saints Sports Club,5,5,5,5,2008-02-11,52.25566,-0.851618
69671,Saints Wok,3,10,10,10,2014-04-16,52.240941,-0.919221
69672,Sakura Japanese Restaurant,1,15,15,20,2014-10-08,52.232441,-0.896365
69673,Samantha Zoe Glover,4,5,10,5,2012-05-29,52.252079,-0.904418
69674,Samis Wholesale Cash and Carry,3,10,10,10,2014-01-21,52.224911,-0.908528
69675,Sam's Place,4,10,5,5,2013-12-03,52.24384,-0.872472
69676,Samuels,5,5,5,5,2013-05-09,52.257853,-0.867443
69677,Sandip Stores,3,10,10,10,2013-03-26,52.26386,-0.893094
69678,Sandra's,5,5,5,5,2006-03-10,52.205313,-0.885163
69679,Sapranos,3,10,10,10,2014-03-18,52.25144,-0.831174
69680,Sargeants Butchers,3,10,10,10,2014-03-31,52.27481,-0.829979
69681,Save The Children Fund,Exempt,nan,nan,nan,2013-03-21,52.237143,-0.893481
69682,Savers Health and Beauty Ltd,Exempt,nan,nan,nan,2013-09-09,52.257039,-0.835496
69683,Sazerac,4,5,0,10,2009-10-21,52.236975,-0.891918
69684,Scallywags Out of School,3,10,5,10,2014-01-23,52.212418,-0.909917
69685,Scope,3,10,5,10,2014-10-07,52.26544,-0.838588
69686,Scrummy Little Cup Cakes,5,5,5,5,2012-08-10,52.253349,-0.940059
69687,Sea Food City,2,10,15,10,2014-04-15,52.239499,-0.888809
69688,Sea King Fish Bar,3,10,10,10,2013-11-08,52.256017,-0.919997
69689,Semilong Community Centre,4,5,5,10,2006-03-28,52.249798,-0.90175
69690,Semilong Working Men Club,4,5,5,10,2006-04-04,52.246549,-0.904247
69691,Sergio's Ice Creams,4,5,5,10,2009-06-04,,
69692,Servest Catering,5,0,5,0,2014-04-23,52.211201,-0.859146
69693,Shajahan,3,10,10,10,2014-03-27,52.262999,-0.902992
69694,ShakeAway,5,5,0,0,2010-05-17,52.242068,-0.87426
69695,Shanhai Chinese Take-Away,4,5,10,5,2014-03-03,52.242062,-0.875564
69696,Shark Island Adventure Golf,5,0,5,5,2014-08-19,52.24559021,-0.812462687492
69697,Shell Far Cotton,5,5,0,5,2012-05-28,52.205313,-0.885163
69698,Shell Northampton,5,5,5,5,2008-05-21,52.194447,-0.891717
69699,Sheltered Housing,4,5,0,10,2006-02-06,52.21265,-0.880888
69700,Sheltered Housing,4,5,10,5,2009-10-15,52.252573,-0.944853
69701,Sheltered Housing,4,5,5,10,2006-10-19,52.205313,-0.885163
69702,Sheltered Housing,4,5,5,10,2008-08-08,52.209609,-0.880613
69703,Sheltered Housing,3,10,5,10,2007-03-12,52.221245,-0.92838
69704,Sheltered Housing,5,5,5,0,2004-11-01,52.227389,-0.919843
69705,Shipmans,3,10,10,5,2009-05-28,52.23785,-0.897051
69706,Shire Cakes,5,0,5,5,2013-09-09,52.206699,-0.89911
69707,Shugarbabes,5,5,5,5,2011-11-03,52.244478,-0.890501
69708,Shy Ann Catering,3,10,10,10,2014-02-19,52.213323,-0.882627
69709,Silver Sea,4,5,5,10,2013-11-15,52.251123,-0.943481
69710,Simon De Senlis Primary School Hilldrop Road,5,5,5,5,2013-12-02,52.663860321,-0.896860003471
69711,Sinful Sauces,5,0,0,0,2011-04-14,52.226263,-0.93047
69712,Sing Long Oriental Supermarket,5,5,5,5,2013-12-03,52.237147,-0.897815
69713,Sir Pickering Phipps,4,5,5,10,2014-07-23,52.242232,-0.87638
69714,Siri Guru Singh Sabha,3,10,10,10,2007-11-22,52.243231,-0.899466
69715,Sital General Stores,4,5,5,10,2013-03-26,52.25897,-0.878931
69716,Sixfields Hungry Horse,5,5,5,5,2014-09-24,52.237831,-0.932052
69717,Sloneczko Ltd,4,0,5,10,2014-03-12,52.25375,-0.876499
69718,Smeda,5,0,0,5,2012-11-14,52.25253,-0.918134
69719,Smiths Farm Foods,4,5,5,10,2008-02-12,52.244755,-0.808164
69720,"Smyth House, Womens Division",5,0,0,0,2009-04-15,52.238152,-0.873715
69721,Snack in a Box,5,5,5,5,2010-02-03,52.223405,-0.919764
69722,Snack Kiosk,5,5,5,5,2013-03-25,52.239888,-0.895697
69723,So Cakelicious,4,0,5,10,2012-08-13,52.20928,-0.919667
69724,Sodexo Ltd,5,5,5,5,2014-02-21,52.213983,-0.859484
69725,Sol Y Luna Tapas Bar,3,10,5,10,2014-04-01,52.252755,-0.87774
69726,Solange,5,5,5,5,2012-11-21,52.249987,-0.875979
69727,Sophia's Restaurant,5,0,0,5,2012-07-30,52.235355,-0.897435
69728,Sophisticake Creations,5,5,5,5,2012-12-19,52.250537,-0.937343
69729,Sorrentino Pasta House,3,10,5,10,2014-10-13,52.236947,-0.899504
69730,Southern Quarter Development Ltd,5,5,5,5,2013-09-25,52.227811,-0.905133
69731,Southfields Supermarket,3,10,5,10,2007-10-24,52.276117,-0.82818
69732,Spar,5,5,5,5,2014-02-11,52.236299,-0.910079
69733,Spar,3,10,10,10,2014-11-14,52.239049,-0.898266
69734,Spar,4,0,5,10,2014-03-25,52.272001,-0.883102
69735,Spar,5,5,5,5,2013-07-30,52.255338,-0.90195
69736,Special Cakes,4,5,5,10,2013-12-02,52.214091,-0.924717
69737,Spencer Bridge Food Bank,5,5,0,5,2014-11-26,52.244881,-0.9106
69738,Spencer Club N'pton Ltd,4,5,5,10,2007-06-19,52.249606,-0.918923
69739,Spencer Dallington,5,0,0,0,2013-08-20,52.246843,-0.91275
69740,"Spencer House, Womens Division",5,0,5,0,2013-08-15,52.238152,-0.873715
69741,Spencer Mini Market,4,5,5,10,2013-11-14,52.242703,-0.910361
69742,Spice Cube,3,10,10,10,2014-03-12,52.238063,-0.924007
69743,Spice Guru,2,15,10,10,2014-09-04,52.24366,-0.881968
69744,Spice Hut,2,15,10,10,2013-08-30,52.25869,-0.93914
69745,Spice of Life Northampton Ltd,5,5,5,5,2013-07-09,52.255691,-0.867953
69746,Spinney Hill Public House,4,10,5,5,2013-03-20,52.27481,-0.829979
69747,Spring Lane Nursery Unit,3,10,5,10,2014-06-10,52.24094,-0.903419
69748,Spring Lane Out of School Club,4,5,5,10,2009-09-16,52.24094,-0.903419
69749,Springhill,5,5,0,0,2009-11-11,52.2374801636,-0.882723450661
69750,Square One,5,5,5,5,2014-02-26,52.241755,-0.880919
69751,SRS Stores,3,10,5,10,2006-12-06,52.254098,-0.879054
69752,St Andrews Hospital,5,5,0,5,2014-02-20,52.23753,-0.877348
69753,St Andrews Methodist Church,5,0,0,5,2013-11-06,52.248875,-0.926557
69754,St Benedicts Pre School,5,5,5,5,2014-06-03,52.221389,-0.926342
69755,St Christophers Residential Home,5,5,5,5,2014-08-01,52.243933,-0.860679
69756,St Crispins Social Club,4,5,5,10,2013-12-19,52.245534,-0.952944
69757,St Davids Church Hall,4,5,5,10,2014-03-24,52.271424,-0.901823
69758,St David's Fish and Chips Bar,4,5,5,10,2013-09-05,52.264146,-0.887241
69759,St Georges Conservative Club,3,10,10,10,2013-12-04,52.251906,-0.88491
69760,St Giles Cheese,4,5,5,10,2014-07-02,52.237746,-0.891621
69761,St Giles Church Centre,4,5,5,10,2014-02-20,52.238701,-0.889986
69762,St Giles Garden Cafe,4,5,5,10,2014-07-09,52.238701,-0.889986
69763,St Giles News,4,5,5,10,2013-03-21,52.237143,-0.893481
69764,St James Childcare Centre,4,10,0,5,2013-12-02,52.250237,-0.920138
69765,St James Community Centre,5,5,5,5,2006-04-13,52.239055,-0.913511
69766,St James End Post Office,Exempt,nan,nan,nan,2013-12-19,52.239506,-0.915639
69767,St James Kebab,3,10,10,10,2013-08-20,52.240941,-0.919221
69768,St James Superstore,4,5,5,10,2014-05-02,52.255691,-0.867953
69769,St James Wmc,3,10,5,10,2008-01-30,52.240446,-0.91711
69770,St Johns Home,5,0,0,5,2014-08-26,52.252254,-0.849055
69771,St Marks Church Hall,5,5,5,5,2007-01-12,52.258072,-0.85746
69772,St Mary's Day Nursery,5,5,5,5,2014-12-03,52.226264,-0.907045
69773,St Marys Out of School Club,3,10,5,10,2014-05-01,52.252853,-0.924997
69774,St Matthews Nursery & Pre-school,5,0,5,5,2014-06-12,52.255084,-0.870297
69775,St Matthews Unit,5,5,5,5,2013-06-05,52.251049,-0.878984
69776,St Michaels House,3,10,10,10,2013-05-21,52.245093,-0.882342
69777,St Michaels Lodge,4,10,5,5,2014-01-30,52.245093,-0.882342
69778,St Peters Church Hall,3,5,10,10,2014-07-30,52.249728,-0.845414
69779,Standens Barn Community,4,5,5,10,2014-03-31,52.25144,-0.831174
69780,Standens Barn Supermarket,5,5,5,5,2007-11-27,52.25144,-0.831174
69781,Stanley Stores,4,5,5,10,2014-04-29,52.247905,-0.902163
69782,Star,2,15,10,10,2013-11-27,52.244161,-0.883581
69783,Star General Store,4,5,5,10,2013-03-21,52.243909,-0.887337
69784,Star Of India,5,0,0,5,2011-01-06,52.246853,-0.881067
69785,Starbucks Coffee,5,5,0,0,2013-04-22,52.233939,-0.905744
69786,Starry Design Studio,5,5,5,5,2011-07-14,52.269184,-0.900069
69787,Station Cafe,5,5,5,5,2014-06-05,52.24559021,-0.812462687492
69788,Stephanie Wilson (Home Baker),4,5,5,10,2014-04-16,52.243895,-0.880175
69789,Steve Whelan,5,5,5,5,2009-04-09,52.20724,-0.913863
69790,Stitchman House Community Room,4,10,10,0,2006-09-26,52.238015,-0.911882
69791,Stoke House,4,5,5,10,2014-03-31,52.266727,-0.899779
69792,Students Union,5,5,5,5,2013-12-06,52.272001,-0.883102
69793,Students Union,4,10,5,5,2013-11-28,52.249628,-0.894108
69794,Subway,5,5,5,5,2014-03-24,52.23874,-0.897
69795,Subway,5,5,5,5,2014-07-03,52.241817,-0.877152
69796,Subway,5,5,5,5,2014-09-24,52.26464,-0.899596
69797,Subway,5,5,5,5,2013-12-19,52.237859,-0.893126
69798,Subway,5,5,5,5,2013-12-03,52.257039,-0.835496
69799,Subway,5,5,5,5,2014-10-07,52.241591,-0.839825
69800,Subway,5,0,5,5,2014-03-31,52.215074,-0.911301
69801,Subway Restaurant,4,5,5,10,2014-05-12,52.240245,-0.888703
69802,Sue's Cakes,5,5,5,5,2007-05-10,52.261989,-0.897844
69803,Sue's Noodle,3,10,10,10,2014-11-24,52.25427,-0.944549
69804,Sugar Rush Custom Cakes,5,5,5,5,2012-10-26,52.253789,-0.921136
69805,Sun Beams Pre-School,2,15,5,5,2014-03-31,52.224911,-0.908528
69806,Sun Inn,5,5,5,5,2014-05-07,52.21385042,-0.87905439
69807,Sunley Management Centre,5,5,0,5,2013-08-21,52.272001,-0.883102
69808,Sunny Socks Nursery,5,5,5,0,2013-05-07,52.2388,-0.942895
69809,Sunnyside,4,10,5,5,2014-04-24,52.272419,-0.888382
69810,Sunnyside Breakfast Club,5,5,5,5,2012-12-07,52.276422,-0.89051
69811,Sunrise Grocery Store,4,5,5,10,2014-03-17,52.245918,-0.883039
69812,Sunset Kids After School Club,5,5,0,5,2014-05-01,52.203276,-0.884093
69813,Super Kebab,3,10,5,10,2013-04-03,52.241623,-0.878519
69814,Super Sausage Cafeteria,4,5,5,10,2014-07-21,52.242086,-0.90487
69815,Super Sausage II,4,5,10,5,2014-06-19,52.227052,-0.903775
69816,Superdrug Stores Plc,5,5,5,5,2008-10-13,52.238983,-0.894138
69817,Supershop Newsagents,5,5,5,5,2013-03-27,52.244248,-0.94486
69818,Susan's Sarnies 2U,4,5,5,10,2013-04-11,52.247984,-0.914612
69819,Swan & Helmet,5,0,0,0,2014-11-26,52.243172,-0.886403
69820,Sweet Sensations by Sara,5,5,0,0,2013-01-04,52.271471,-0.812211
69821,Sweet Temptation Brigadeiro Gourmet,4,5,5,10,2014-04-24,52.247218,-0.825221
69822,Sweet Toothed Dentist,4,5,5,10,2014-03-19,52.252586,-0.896993
69823,Sweet Treets,Exempt,nan,nan,nan,2005-03-02,52.236471,-0.899487
69824,Sweets And Treats,3,10,5,10,2010-11-17,52.245589,-0.812463
69825,SWT Creation,5,5,5,5,2014-10-14,52.243607,-0.933554
69826,Symphony House Nursing Home,5,5,5,5,2014-05-02,52.255278,-0.90034
69827,T & 2 Sugars,5,0,0,5,2009-10-23,52.263328,-0.899702
69828,T 2 Sugars,4,5,5,10,2014-11-12,52.243034,-0.873811
69829,T.J. Daycare,4,10,5,5,2014-03-27,52.252919,-0.913554
69830,TABS@42,5,0,0,0,2013-07-25,52.243003,-0.876155
69831,Talkington & Bates,4,5,10,5,2012-05-09,52.218255,-0.879356
69832,Tamarind Restaurant,4,5,5,10,2013-03-28,52.241692,-0.880084
69833,Tanners,2,15,5,10,2013-07-10,52.27481,-0.829979
69834,Taste of Spice,1,10,10,20,2013-08-29,52.243421,-0.944865
69835,TBA Caterers,5,5,5,5,2014-05-09,52.242618,-0.895424
69836,Tea Moments,4,5,5,10,2011-10-04,52.228918,-0.924872
69837,Tea Room,4,5,5,10,2014-09-02,52.243421,-0.944865
69838,TebbyDerry,4,10,5,5,2014-08-06,52.237414,-0.88025
69839,Templemore Residential Care Home,4,5,5,10,2014-03-14,52.247939,-0.926434
69840,Tennessee Express,3,10,10,10,2013-12-03,52.27093,-0.825489
69841,Tenpin Ltd,5,5,0,5,2013-08-20,52.240446,-0.91711
69842,Tesco Express,5,5,0,0,2013-07-23,52.250605,-0.942937
69843,Tesco Express,5,0,0,0,2013-09-09,52.275008,-0.912428
69844,Tesco Express,5,0,0,0,2013-09-10,52.253559,-0.962702
69845,Tesco Express,5,5,5,5,2014-04-07,52.205313,-0.885163
69846,Tesco Family Dining Ltd,5,5,5,5,2014-11-18,,
69847,Tesco Spinney Hill Express,5,5,5,5,2007-11-21,52.267814,-0.864522
69848,Tesco Stores Ltd,5,0,0,0,2010-02-25,52.27481,-0.829979
69849,Tesco Stores Ltd,5,0,0,0,2013-10-17,52.25375,-0.876499
69850,Tesco Stores Ltd,5,5,5,5,2012-07-19,52.241692,-0.880084
69851,Tesco Stores Ltd,4,5,5,10,2007-02-22,52.244982,-0.870627
69852,Tesco Stores Ltd,5,5,0,0,2014-10-21,52.241755,-0.880919
69853,Tesco Stores Ltd,5,0,0,5,2014-03-31,52.2343902588,-0.881200015545
69854,TGF Pizza,4,0,5,10,2014-03-31,52.250337,-0.897899
69855,Tgi Fridays,5,5,5,5,2013-10-07,52.234373,-0.938461
69856,Thai Emerald,4,5,10,5,2014-03-31,52.242485,-0.875553
69857,Thai Nam Tip,4,5,5,10,2014-06-23,52.236655,-0.901899
69858,That Cake Place,5,5,5,5,2008-12-24,52.224663,-0.910788
69859,The Abbey Centre,3,5,10,10,2010-05-12,52.210242,-0.898276
69860,The Abbey Tea Room,5,5,5,5,2014-05-15,52.225554,-0.88964
69861,The Abington Public House,5,5,0,5,2014-01-21,52.246505,-0.870032
69862,The Academy,4,10,5,5,2013-04-24,52.236947,-0.899504
69863,The Ambridge Room,5,5,5,5,2010-04-16,52.27481,-0.829979
69864,The Aran Hotel,3,10,5,10,2008-05-22,52.238672,-0.876455
69865,The Ark,4,5,5,10,2014-10-02,,
69866,The Auctioneers,5,0,5,0,2014-01-15,52.238119,-0.896957
69867,The Avenue Residential Home,5,5,5,5,2013-04-30,52.261967,-0.870738
69868,The Bantam,4,10,5,5,2014-03-17,52.240245,-0.888703
69869,The Banyan Tree,5,5,5,5,2011-02-01,52.251142,-0.869797
69870,The Banyan Tree,5,5,5,5,2014-12-11,52.253509,-0.885163
69871,The Bay Tree Catering Company,5,5,5,0,2007-07-02,52.249017,-0.852698
69872,The Bear,2,15,10,10,2013-11-13,52.239049,-0.898266
69873,The Bee Hive,5,5,5,5,2014-05-07,52.273112,-0.902845
69874,The Berkley,5,5,5,5,2013-07-25,52.249923,-0.897836
69875,The Bread and Butter Factory,5,5,5,5,2014-03-31,52.252755,-0.87774
69876,The Butchers Block,5,5,5,5,2013-03-19,52.270254,-0.813709
69877,The Cake Artisan,5,5,0,5,2013-10-16,52.24533,-0.875071
69878,The Cake Co,5,5,5,5,2007-09-10,52.218311,-0.836816
69879,The Cake Set,4,5,5,10,2012-07-24,52.268048,-0.874848
69880,The Candy Van,5,5,5,5,2011-11-29,52.252437,-0.822945
69881,The Charles Bradlaugh,5,0,0,5,2012-05-14,52.241583,-0.892448
69882,The Church Restaurant,5,5,5,5,2014-07-17,52.23425,-0.897624
69883,The Classic Cake Pop Factory,5,0,0,0,2014-03-13,52.2119,-0.909329
69884,The Clean Plate Club,5,5,5,5,2014-05-14,52.252444,-0.911734
69885,The Cock,4,10,5,5,2014-01-14,52.260533,-0.900782
69886,The Collingtree,5,5,5,0,2013-08-05,52.204719,-0.898896
69887,The Commercial Catering Co Ltd,1,10,5,20,2013-09-25,52.263406,-0.887933
69888,The Cooperative,4,5,5,10,2014-06-02,52.240692,-0.849939
69889,The Cooperative,5,0,0,0,2013-08-28,52.252755,-0.87774
69890,The Cordwainer,5,5,0,5,2014-05-13,52.237978,-0.892435
69891,The Cotswolds,4,5,10,5,2013-06-18,52.249515,-0.940648
69892,The County,5,5,5,5,2014-06-26,52.249409,-0.870075
69893,The Cranky Cobbler Brewery Ltd,Exempt,nan,nan,nan,2015-01-26,52.263406,-0.887933
69894,The Creole Kitchen,5,5,5,5,2013-04-09,52.271602,-0.906766
69895,The Cupcake Baker,5,5,5,5,2011-11-29,52.232495,-0.941595
69896,The Deers Leap,1,15,10,20,2014-05-09,52.25199,-0.813273
69897,The Devonshire Club,3,10,10,10,2013-07-31,52.240225,-0.915577
69898,The Dining Room,5,5,5,5,2014-12-16,52.235807,-0.891054
69899,The Dragon Inn,2,15,15,10,2014-10-02,52.256872,-0.874823
69900,The Event People Limited,5,5,5,5,2013-08-21,52.257025,-0.812436
69901,The Event People Ltd,4,5,10,5,2014-10-29,52.237143,-0.893481
69902,The Five Rivers Inn,3,10,5,10,2014-06-30,52.245682,-0.89715
69903,The Fox and Quill,5,5,5,5,2014-01-07,52.237143,-0.893481
69904,The Fuel Stop,2,15,10,10,2013-07-10,52.238708,-0.912905
69905,The Funky Cake Co Ltd,5,5,5,5,2006-10-30,52.260294,-0.893447
69906,The Gallery,3,10,5,10,2007-07-18,52.276117,-0.82818
69907,The Gardner's Arms,3,10,10,10,2014-03-31,52.241623,-0.878519
69908,The Garibaldi Hotel,3,5,10,10,2014-04-16,52.242952,-0.895548
69909,The Golden Fry,5,5,5,5,2014-02-26,52.240619,-0.90082
69910,The Good Food Emporium,4,10,5,5,2013-07-19,52.241755,-0.880919
69911,The Grove,5,5,5,5,2005-11-22,52.257196,-0.894901
69912,The Happy Little Cake Company,5,0,5,5,2011-04-06,52.259397,-0.822116
69913,The Hill Shop,3,5,10,10,2012-03-06,52.221389,-0.926342
69914,The Internet Cafe,5,5,5,5,2006-12-15,52.252755,-0.87774
69915,The Italian Shop Northampton,5,5,5,5,2014-10-01,52.249414,-0.875334
69916,The Kabin,1,10,15,20,2014-10-09,52.238943,-0.897551
69917,The Kindergarten,4,5,5,10,2015-01-20,52.24106,-0.898026
69918,The Krazy Kitchen,5,5,5,5,2014-05-14,52.26545,-0.897861
69919,The Lamplighter Ph,5,0,0,5,2012-05-15,52.241752,-0.890305
69920,The Limes,3,10,10,10,2008-08-18,52.240589,-0.924941
69921,The Little Shop,3,10,5,10,2006-08-09,52.24559021,-0.812462687492
69922,The Longboat,3,10,5,10,2013-07-10,52.250755,-0.947606
69923,The Lord Byron,5,5,5,5,2012-09-24,52.255456,-0.877174
69924,The Lumbertubs,4,10,5,5,2011-10-20,52.270715,-0.847551
69925,The Magic Bean Emporium,3,10,5,10,2014-07-01,52.237637,-0.89054
69926,The Mailcoach,3,10,5,10,2013-07-22,52.236852,-0.894162
69927,The Mall Cafe,4,10,5,5,2013-07-30,52.257039,-0.835496
69928,The Market Kitchen,5,5,5,5,2013-10-07,52.238119,-0.896957
69929,The Meating Place,1,10,10,20,2013-10-16,52.24559021,-0.812462687492
69930,The Meating Place,1,10,10,20,2014-03-31,52.244755,-0.808164
69931,The Moon On The Square,5,0,0,5,2012-05-15,52.23874,-0.897
69932,The Nannery,4,5,5,10,2014-03-26,52.249628,-0.894108
69933,The No.1 Food People,5,5,5,5,2013-03-26,52.199524,-0.888606
69934,The Northampton Marriot Hotel,5,5,5,5,2013-07-10,52.223247,-0.876742
69935,The Nosh Pit,4,5,5,10,2014-03-31,,
69936,The Oriental Pantry,4,5,5,10,2013-07-17,52.238943,-0.897551
69937,The Outpost,3,5,10,10,2013-08-20,52.233257,-0.880941
69938,The Park Cafe,5,5,5,5,2013-03-18,52.246167,-0.866657
69939,The Park Inn,5,5,0,0,2014-12-12,52.238729,-0.899622
69940,The Pavilion Pre School,5,5,5,5,2014-01-14,52.242709,-0.842052
69941,The Penny Whistle,5,5,5,5,2013-07-03,52.241809,-0.879144
69942,The Picturedrome,5,5,5,5,2013-09-10,52.246334,-0.882311
69943,The Pinnacle Climbing Centre,5,5,5,5,2014-04-01,52.22831,-0.908517
69944,The Polish Club,4,5,5,10,2011-04-07,52.244273,-0.892542
69945,The Punjabi Kitchen,3,10,5,10,2014-04-24,52.239908,-0.88833
69946,The Quays,5,5,5,5,2014-06-03,52.245589,-0.812463
69947,The Racehorse,4,10,5,5,2006-09-05,52.240245,-0.888703
69948,The Rani Indian Takeaway,5,5,5,5,2014-11-27,52.222754,-0.904716
69949,The Rec Centre,3,5,10,10,2011-07-05,52.226157,-0.904149
69950,The Restaurant,5,5,5,5,2014-10-02,52.240464,-0.922015
69951,The Richardson Mews,5,0,5,5,2014-11-04,52.260674,-0.897628
69952,The Richardson Partnership for Care,5,5,5,5,2014-11-04,52.258306,-0.898199
69953,The Rifle Drum,3,10,5,10,2013-08-01,52.23747,-0.896753
69954,The Rissa,3,10,10,10,2013-12-09,52.243397,-0.894116
69955,The Roadmender Ltd,3,10,5,10,2007-10-17,52.240227,-0.897373
69956,The Romany PH,3,10,5,10,2014-02-12,52.254647,-0.890511
69957,The Ruby,2,15,5,5,2013-07-10,52.229745,-0.89652
69958,The Salvation Army,5,5,5,5,2013-10-08,52.239985,-0.901275
69959,The Salvation Army,3,10,10,10,2014-03-31,52.27481,-0.829979
69960,The Seafood Cafe,4,10,5,5,2013-12-03,52.237746,-0.891621
69961,The Sevens,4,5,0,10,2013-10-16,52.241083,-0.921868
69962,The Soundhaus,4,10,5,5,2007-08-28,52.243274,-0.89056
69963,The Squirrels Public Hse,3,10,10,10,2011-07-04,52.243421,-0.944865
69964,The Standens Inn,4,5,5,10,2014-03-31,52.251883,-0.830489
69965,The Stuffed Olive,5,5,5,5,2013-11-18,52.241623,-0.878519
69966,The Sweet Bee Bakery,5,5,5,5,2013-07-12,52.193219,-0.904681
69967,The Trumpet,5,5,5,5,2014-07-18,52.252229,-0.846462
69968,The Veg Box,5,5,5,5,2011-06-15,52.228062,-0.900163
69969,The Venue,4,5,5,10,2013-11-29,52.24559021,-0.812462687492
69970,The Vineyard,1,15,15,20,2014-01-08,52.237038,-0.893806
69971,The Vintage Bluebell Bakery,5,5,5,5,2013-03-27,52.244126,-0.881795
69972,The Walter Tull,5,0,5,5,2015-01-12,52.237831,-0.932052
69973,The Wheatsheaf,3,10,10,10,2013-10-10,52.249471,-0.919922
69974,The Yellow Rose Bakery,5,5,5,5,2013-03-26,,
69975,Thera East Midlands,4,5,5,10,2014-02-06,52.246656,-0.956799
69976,Theresa Sweet Cakes,5,0,5,5,2011-07-13,52.269198,-0.873822
69977,Thomas A Beckett,5,5,5,5,2013-12-03,52.236912,-0.912143
69978,Thomas Franks Ltd,4,10,5,5,2013-08-07,52.257979,-0.942058
69979,Thomas Franks Ltd,5,5,5,5,2013-08-15,52.220684,-0.857922
69980,Thorntons,5,5,5,5,2008-01-21,52.237854,-0.894503
69981,Thorpedale House,4,5,5,10,2011-08-09,52.265036,-0.888127
69982,Thorplands Childrens Centre,5,5,5,5,2014-09-19,52.271938,-0.840162
69983,Thorplands Community Co-operative,4,5,5,10,2014-11-05,,
69984,Thorplands Southern,3,10,10,10,2013-07-10,52.271938,-0.840162
69985,Three Shires Hospital,5,5,0,5,2014-10-22,52.236153,-0.874337
69986,Through the Looking Glass Events Ltd,5,5,5,5,2013-02-25,52.225737,-0.899635
69987,Time 2 Eat,4,5,5,10,2014-02-27,52.280231,-0.841499
69988,Timsing Foods,4,5,5,10,2014-09-16,52.239357,-0.889882
69989,Tino's @ Screwfix Car Park,1,10,15,20,2014-03-19,52.254923,-0.915439
69990,TK Maxx,Exempt,nan,nan,nan,2007-10-12,52.234771,-0.89846
69991,TK Supermarket,4,5,5,10,2008-10-08,52.268495,-0.850363
69992,Toby Carvery,5,5,5,5,2013-09-25,52.209977,-0.893894
69993,Toby Carvery,5,5,5,5,2014-03-28,52.276658,-0.842897
69994,Todays General Store,5,5,5,5,2013-12-02,52.26383,-0.844974
69995,Tom Hewer Catering,4,0,5,10,2013-07-16,52.259289,-0.946848
69996,Tommy Flynns Public House,4,5,5,10,2013-10-16,52.237859,-0.893126
69997,Tong Wong,3,10,5,10,2013-08-30,52.245622,-0.874595
69998,Too Much Temptation,5,5,5,5,2013-11-05,52.263509,-0.804584
69999,Tooleys Health Foods,5,5,5,5,2008-11-17,52.227565,-0.92631
70000,Torch Trust for the Blind,3,10,10,10,2010-07-28,52.275004,-0.921837
70001,Touchwood Pharmacy,Exempt,nan,nan,nan,2014-01-21,52.262183,-0.901298
70002,Touchwood Pharmacy,Exempt,nan,nan,nan,2006-02-22,52.241885,-0.91624
70003,Touchwood Pharmacy,Exempt,nan,nan,nan,2013-09-13,52.247396,-0.934005
70004,Towcester Road Methodist Church,4,5,5,10,2006-07-05,52.226583,-0.901649
70005,Town Cafe,3,10,10,10,2013-07-17,52.260533,-0.900782
70006,"Toys ""R"" Us",5,5,0,5,2013-04-22,52.233939,-0.905744
70007,Tracscare,5,5,5,5,2014-10-23,52.251879,-0.885027
70008,Tracscare,5,0,5,5,2014-01-03,52.245272,-0.923861
70009,Tracscare 2005 Ltd,4,10,0,5,2014-01-03,52.252437,-0.822945
70010,Tracscare 'Spinney Hill',4,10,5,5,2014-05-01,52.26829,-0.871046
70011,Transylvania,4,5,5,10,2012-07-20,52.240169,-0.886405
70012,Transylvania Restaurant,3,10,10,10,2014-10-30,52.243034,-0.873811
70013,Travelodge,5,5,5,5,2014-04-01,,
70014,Travelodge,5,5,5,5,2007-06-12,52.24989,-0.942339
70015,Travelodge,5,0,0,5,2014-01-06,52.200461,-0.893514
70016,Travelodge Northampton,5,5,0,5,2014-01-03,52.276658,-0.842897
70017,Treasure Inn,5,5,5,5,2014-08-08,52.252428,-0.813921
70018,Truly Scrumptious,4,5,5,10,2006-09-27,52.242498,-0.89408
70019,Tuck In,3,10,5,10,2014-11-24,52.241692,-0.880084
70020,Tudor Manor Day Nursery,5,5,0,5,2014-02-11,52.245107,-0.949395
70021,Turk Jam,2,15,10,10,2014-12-19,52.244021,-0.874548
70022,Turn Furlong Specialist Care Centre,5,5,5,5,2014-05-07,52.271896,-0.912328
70023,Umbrella Fair Cafe,4,5,5,10,2012-11-06,52.253262,-0.874343
70024,Unidrugs Pharmacy,Exempt,nan,nan,nan,2008-02-18,52.204719,-0.898896
70025,Unidrugs Pharmacy,Exempt,nan,nan,nan,2006-03-28,52.221389,-0.926342
70026,Unique Preserves,4,5,5,10,2011-08-02,52.258009,-0.952548
70027,Unit 17 Dance & Performing Arts Ltd,5,5,5,5,2015-01-29,52.226454,-0.913013
70028,United Reform Church,5,5,5,5,2014-08-29,52.248797,-0.873753
70029,Up All Night Burger Joint,1,15,15,20,2013-09-26,52.236621,-0.899249
70030,Up All Night Ltd,3,10,10,10,2014-12-15,52.242138,-0.897912
70031,Upton Newsagent and Off Licence,4,5,5,10,2014-10-07,52.230896,-0.939686
70032,UR Local Express,3,10,5,10,2012-09-06,52.240779,-0.912254
70033,Urban Tiger,5,0,0,5,2014-05-16,52.239908,-0.88833
70034,Van Allen Foods,5,5,5,5,2013-01-08,52.25869,-0.93914
70035,Venus,5,5,5,5,2014-02-26,52.241152,-0.876304
70036,Vernon Terrace Community Centre,5,5,5,5,2007-04-04,52.238856,-0.879687
70037,Victoria Free House,3,10,5,10,2013-10-09,52.24552,-0.891295
70038,Victorian Bakes,4,5,5,10,2013-06-21,52.223789,-0.911586
70039,Village Stores c/o,3,10,10,10,2013-12-12,52.25425,-0.827995
70040,Vinnies Fish & Chip Shop,4,5,5,10,2012-07-16,52.24559021,-0.812462687492
70041,Vintage Retreat,3,10,5,10,2013-06-21,52.241509,-0.902775
70042,Virgin Active,4,10,5,5,2014-02-26,,
70043,Virgin Active,5,5,5,5,2014-03-12,52.242002,-0.833268
70044,Vocal & Instrumental Club,4,5,5,10,2006-06-09,52.257302,-0.842126
70045,Volunteer Inn,5,0,0,0,2013-08-27,52.240169,-0.886405
70046,VUE,5,0,5,0,2009-10-28,52.2343902588,-0.881200015545
70047,W H Smith Ltd,Exempt,nan,nan,nan,2013-09-02,52.239284,-0.894585
70048,Wah Kee,1,10,5,20,2013-07-18,52.242204,-0.928564
70049,Waitrose,5,0,0,5,2014-01-13,52.210019,-0.892691
70050,Waitrose Ltd,5,5,0,5,2014-06-05,52.262183,-0.901298
70051,Wallace Road Nursery,4,5,5,10,2013-03-26,52.257249,-0.875707
70052,Wallgreen,Exempt,nan,nan,nan,2007-05-14,52.251123,-0.943481
