,addressline1,addressline2,addressline3,addressline4,businessname,businesstype,businesstypeid,confidenceinmanagement,extractdate,fhrsid,hygiene,itemcount,latitude,localauthoritybusinessid,localauthoritycode,localauthorityemailaddress,localauthorityname,localauthoritywebsite,longitude,postcode,ratingdate,ratingkey,ratingvalue,returncode,schemetype,structural
77290,8-11 Corn Lane,Commercial Way,Wellingborough,Northamptonshire,99P  Stores,Retailers - other,4613,0,,165121,0,,52.30093400000000,PI/000007502,241,HealthProtection@wellingborough.gov.uk,Wellingborough,http://www.wellingborough.gov.uk,-0.69143000000000,NN8 1EZ,2013-08-16,fhrs_5_en-GB,5,,FHRS,0
77291,141 Westfield Road,Wellingborough,Northamptonshire,,A And B Johnson Limited,Retailers - other,4613,5,,171445,5,,52.30016700000000,PI/000020430,241,HealthProtection@wellingborough.gov.uk,Wellingborough,http://www.wellingborough.gov.uk,-0.70666000000000,NN8 3HR,2014-12-03,fhrs_4_en-GB,4,,FHRS,10
77292,9 Priory Road,Wellingborough,Northamptonshire,,A Bake A Day,Other catering premises,7841,5,,722283,5,,52.29577200000000,14/00121/COM,241,HealthProtection@wellingborough.gov.uk,Wellingborough,http://www.wellingborough.gov.uk,-0.69866400000000,NN8 2JS,2014-11-21,fhrs_5_en-GB,5,,FHRS,5
77293,141 Leyland Trading Estate,Irthlingborough Road,Wellingborough,Northamptonshire,A J's Diner,Other catering premises,7841,0,,174475,10,,52.30048200000000,PI/000029173,241,HealthProtection@wellingborough.gov.uk,Wellingborough,http://www.wellingborough.gov.uk,-0.66947400000000,NN8 1RT,2013-06-19,fhrs_4_en-GB,4,,FHRS,5
77294,15 - 17 Whitworth Way,Wellingborough,Northamptonshire,,A M F Bowling,Other catering premises,7841,5,,171502,10,,52.29032400000000,PI/000020593,241,HealthProtection@wellingborough.gov.uk,Wellingborough,http://www.wellingborough.gov.uk,-0.68649300000000,NN8 2EF,2013-10-28,fhrs_4_en-GB,4,,FHRS,5
77295,,,,,Affinity Sweet Bouquets,Retailers - other,4613,0,,715167,0,,,14/00162/COM,241,HealthProtection@wellingborough.gov.uk,Wellingborough,http://www.wellingborough.gov.uk,,,2014-10-07,fhrs_5_en-GB,5,,FHRS,0
77296,41 Albert Road,Wellingborough,Northamptonshire,,African Cousine,Other catering premises,7841,0,,172853,0,,52.30740500000000,PI/000024189,241,HealthProtection@wellingborough.gov.uk,Wellingborough,http://www.wellingborough.gov.uk,-0.68556300000000,NN8 1EL,2014-09-02,fhrs_5_en-GB,5,,FHRS,0
77297,Wellingborough Afro Caribbean Assoc,Area Youth Community Centre,27-29 Rock Street,Wellingborough,Afro Caribbean,Pub/bar/nightclub,7843,0,,170444,5,,52.30355800000000,PI/000017611,241,HealthProtection@wellingborough.gov.uk,Wellingborough,http://www.wellingborough.gov.uk,-0.70028400000000,NN8 4LW,2014-01-28,fhrs_4_en-GB,4,,FHRS,10
77298,74B Cannon Street,Wellingborough,Northamptonshire,,Afro Shop,Retailers - other,4613,20,,166043,15,,52.30393900000000,PI/000008895,241,HealthProtection@wellingborough.gov.uk,Wellingborough,http://www.wellingborough.gov.uk,-0.68997700000000,NN8 4DJ,2014-09-17,fhrs_1_en-GB,1,,FHRS,10
77299,6 High Street,Wellingborough,Northamptonshire,,Afroland Foods,Retailers - other,4613,10,,715168,10,,52.30213000000000,14/00170/COM,241,HealthProtection@wellingborough.gov.uk,Wellingborough,http://www.wellingborough.gov.uk,-0.69630800000000,NN8 4HR,2014-10-27,fhrs_3_en-GB,3,,FHRS,10
77300,Village Hall,52 Main Road,Grendon,Northampton,Age Concern Lunch Club,Other catering premises,7841,10,,174366,0,,52.23728100000000,PI/000028875,241,HealthProtection@wellingborough.gov.uk,Wellingborough,http://www.wellingborough.gov.uk,-0.71288200000000,NN7 1JW,2013-02-12,fhrs_4_en-GB,4,,FHRS,0
77301,36 Cambridge Street,Wellingborough,Northamptonshire,,Akash Tandoori,Other catering premises,7841,10,,165946,10,,52.30292900000000,PI/000008758,241,HealthProtection@wellingborough.gov.uk,Wellingborough,http://www.wellingborough.gov.uk,-0.69050600000000,NN8 1DW,2013-11-11,fhrs_3_en-GB,3,,FHRS,10
77302,170 Station Road,Irchester,Wellingborough,Northamptonshire,Alderwood LLA,Other catering premises,7841,0,,162877,0,,52.28175300000000,PI/000003823,241,HealthProtection@wellingborough.gov.uk,Wellingborough,http://www.wellingborough.gov.uk,-0.63778500000000,NN29 7EW,2013-03-12,fhrs_5_en-GB,5,,FHRS,0
77303,Aldi Foodstore Ltd Ideal Retail Cou,26-30 Victoria Road,Wellingborough,Northamptonshire,Aldi Stores Limited,Retailers - supermarkets/hypermarkets,7840,0,,171307,0,,52.30297900000000,PI/000020070,241,HealthProtection@wellingborough.gov.uk,Wellingborough,http://www.wellingborough.gov.uk,-0.68934600000000,NN8 1HH,2013-08-20,fhrs_5_en-GB,5,,FHRS,0
77304,33 Cambridge Street,Wellingborough,Northamptonshire,,Ali's Restaurant,Other catering premises,7841,20,,174133,15,,52.30292900000000,PI/000028109,241,HealthProtection@wellingborough.gov.uk,Wellingborough,http://www.wellingborough.gov.uk,-0.69050600000000,NN8 1DW,2014-02-10,fhrs_1_en-GB,1,,FHRS,10
77305,Church Street,Wellingborough,Northamptonshire,,All Hallows Church Hall,Other catering premises,7841,0,,166293,5,,,PI/000009306,241,HealthProtection@wellingborough.gov.uk,Wellingborough,http://www.wellingborough.gov.uk,,,2014-09-02,fhrs_5_en-GB,5,,FHRS,5
77306,All Saints (c Of E) Church,Midland Road,Wellingborough,Northamptonshire,All Saints Church Hall,Other catering premises,7841,5,,169261,0,,,PI/000014776,241,HealthProtection@wellingborough.gov.uk,Wellingborough,http://www.wellingborough.gov.uk,,,2013-03-12,fhrs_5_en-GB,5,,FHRS,0
77307,Church Hall,3 High Street,Earls Barton,Northampton,All Saints Church Hall,Other catering premises,7841,5,,161302,0,,52.26659500000000,PI/000001291,241,HealthProtection@wellingborough.gov.uk,Wellingborough,http://www.wellingborough.gov.uk,-0.75094000000000,NN6 0JG,2011-05-03,fhrs_5_en-GB,5,,FHRS,5
77308,31A Alma Street,Wellingborough,Northamptonshire,,Alma Fruit And Veg Limited,Retailers - other,4613,20,,173993,10,,52.30387700000000,PI/000027699,241,HealthProtection@wellingborough.gov.uk,Wellingborough,http://www.wellingborough.gov.uk,-0.69087400000000,NN8 4DH,2014-09-03,fhrs_1_en-GB,1,,FHRS,15
77309,Shop,56 Newcomen Road,Wellingborough,Northamptonshire,Ambika (UK) Limited T/A Shop Local,Retailers - other,4613,10,,174468,10,,52.30352600000000,PI/000029165,241,HealthProtection@wellingborough.gov.uk,Wellingborough,http://www.wellingborough.gov.uk,-0.68601500000000,NN8 1JT,2013-08-20,fhrs_4_en-GB,4,,FHRS,0
77310,20 Cannon Street,Wellingborough,Northamptonshire,,Ame's Regent Super Store,Retailers - other,4613,10,,605524,5,,52.30441600000000,PI/000030816,241,HealthProtection@wellingborough.gov.uk,Wellingborough,http://www.wellingborough.gov.uk,-0.68999200000000,NN8 4DN,2013-10-16,fhrs_3_en-GB,3,,FHRS,10
77311,"Bilton Court, Windermere Drive",Wellingborough,Northamptonshire,,Anchor Trust,Other catering premises,7841,5,,171536,0,,52.30578100000000,PI/000020658,241,HealthProtection@wellingborough.gov.uk,Wellingborough,http://www.wellingborough.gov.uk,-0.71686600000000,NN8 3FR,2013-09-26,fhrs_5_en-GB,5,,FHRS,0
77312,,,,,Andy The Cake Man,Other catering premises,7841,0,,581990,0,,,PI/000030739,241,HealthProtection@wellingborough.gov.uk,Wellingborough,http://www.wellingborough.gov.uk,,,2013-09-23,fhrs_5_en-GB,5,,FHRS,0
77313,26A The Square,Earls Barton,Northampton,Northamptonshire,Apothocoffee Shop,Other catering premises,7841,10,,161655,10,,52.26493400000000,PI/000001719,241,HealthProtection@wellingborough.gov.uk,Wellingborough,http://www.wellingborough.gov.uk,-0.75281900000000,NN6 0NA,2014-12-15,fhrs_3_en-GB,3,,FHRS,10
77314,15-23 Claudius Way,Irchester,Wellingborough,Northamptonshire,Aramark Catering,Other catering premises,7841,10,,173432,10,,52.29058500000000,PI/000025711,241,HealthProtection@wellingborough.gov.uk,Wellingborough,http://www.wellingborough.gov.uk,-0.66805500000000,NN8 2DH,2014-08-01,fhrs_3_en-GB,3,,FHRS,5
77315,32 Spring Lane,Sheep Street,Wellingborough,Northamptonshire,Argos,Retailers - other,4613,0,,165098,0,,52.30097500000000,PI/000007455,241,HealthProtection@wellingborough.gov.uk,Wellingborough,http://www.wellingborough.gov.uk,-0.69188300000000,NN8 1EY,2014-09-03,fhrs_5_en-GB,5,,FHRS,0
77316,12 Farm Road,Wellingborough,Northamptonshire,,Aroma,Takeaway/sandwich shop,7844,0,,172309,0,,52.31753900000000,PI/000022782,241,HealthProtection@wellingborough.gov.uk,Wellingborough,http://www.wellingborough.gov.uk,-0.70434900000000,NN8 4UF,2014-09-25,fhrs_5_en-GB,5,,FHRS,5
77317,108 Gold Street,Wellingborough,Northamptonshire,,Assura Pharmacy Limited,Retailers - other,4613,0,,167439,0,,52.30814700000000,PI/000011454,241,HealthProtection@wellingborough.gov.uk,Wellingborough,http://www.wellingborough.gov.uk,-0.69244900000000,NN8 4ES,2013-02-01,fhrs_5_en-GB,5,,FHRS,0
77318,4 Herriotts Lane,Wellingborough,Northamptonshire,,Assura Pharmacy Limited,Retailers - other,4613,0,,168009,0,,52.30356200000000,PI/000012430,241,HealthProtection@wellingborough.gov.uk,Wellingborough,http://www.wellingborough.gov.uk,-0.69406600000000,NN8 4PT,2014-10-07,fhrs_5_en-GB,5,,FHRS,0
77319,11 Cambridge Street,Wellingborough,Northamptonshire,,Baileys,Pub/bar/nightclub,7843,0,,174010,0,,52.30301500000000,PI/000027771,241,HealthProtection@wellingborough.gov.uk,Wellingborough,http://www.wellingborough.gov.uk,-0.69098700000000,NN8 1DJ,2012-01-17,fhrs_5_en-GB,5,,FHRS,0
77320,41 Bradshaw Way,Irchester,Wellingborough,Northamptonshire,Balloons By Sarah,Retailers - other,4613,0,,722284,0,,52.28053900000000,14/00143/COM,241,HealthProtection@wellingborough.gov.uk,Wellingborough,http://www.wellingborough.gov.uk,-0.65582300000000,NN29 7DN,2014-11-17,fhrs_5_en-GB,5,,FHRS,0
77321,54 High Street,Earls Barton,Northampton,Northamptonshire,Balti Aroma,Takeaway/sandwich shop,7844,10,,516452,15,,52.26659500000000,PI/000030360,241,HealthProtection@wellingborough.gov.uk,Wellingborough,http://www.wellingborough.gov.uk,-0.75094000000000,NN6 0JG,2014-10-20,fhrs_2_en-GB,2,,FHRS,15
77322,1-2 Wallis Close,Wellingborough,Northamptonshire,,Bannatynes Health Club,Other catering premises,7841,0,,171353,0,,52.30037200000000,PI/000020171,241,HealthProtection@wellingborough.gov.uk,Wellingborough,http://www.wellingborough.gov.uk,-0.73300800000000,NN8 6AG,2013-10-09,fhrs_5_en-GB,5,,FHRS,0
77323,24 Silver Street,Wellingborough,Northamptonshire,,Bar Fever,Pub/bar/nightclub,7843,0,,174083,5,,52.30145900000000,PI/000027989,241,HealthProtection@wellingborough.gov.uk,Wellingborough,http://www.wellingborough.gov.uk,-0.69415700000000,NN8 1AY,2012-05-10,fhrs_5_en-GB,5,,FHRS,5
77324,17-19 Midland Road,Wellingborough,Northamptonshire,,Bargain Booze,Retailers - other,4613,5,,172891,0,,52.30174500000000,PI/000024317,241,HealthProtection@wellingborough.gov.uk,Wellingborough,http://www.wellingborough.gov.uk,-0.69077500000000,NN8 1HA,2014-12-09,fhrs_5_en-GB,5,,FHRS,5
77325,17 - 19 Station Road,Earls Barton,Northampton,Northamptonshire,Barton Food And Wine,Retailers - other,4613,20,,161704,15,,52.26322800000000,PI/000001790,241,HealthProtection@wellingborough.gov.uk,Wellingborough,http://www.wellingborough.gov.uk,-0.75299900000000,NN6 0NT,2014-03-03,fhrs_1_en-GB,1,,FHRS,15
77326,2-20 Booth Drive,Wellingborough,Northamptonshire,,BB's Catering - Sloan Building,Restaurant/Cafe/Canteen,1,10,,715163,10,,52.30183300000000,14/00138/COM,241,HealthProtection@wellingborough.gov.uk,Wellingborough,http://www.wellingborough.gov.uk,-0.73343600000000,NN8 6GR,2014-10-08,fhrs_3_en-GB,3,,FHRS,5
77327,Mall Cafe,16-17 Spring Lane,Sheep Street,Wellingborough,BB's Coffee And Muffins,Other catering premises,7841,20,,165127,15,,52.30097500000000,PI/000007510,241,HealthProtection@wellingborough.gov.uk,Wellingborough,http://www.wellingborough.gov.uk,-0.69188300000000,NN8 1EY,2014-07-03,fhrs_1_en-GB,1,,FHRS,15
77328,120 - 140 Glebe Road,Mears Ashby,Northampton,Northamptonshire,Beckworth Limited,Retailers - other,4613,5,,173912,5,,52.29847200000000,PI/000027389,241,HealthProtection@wellingborough.gov.uk,Wellingborough,http://www.wellingborough.gov.uk,-0.78154300000000,NN6 0DL,2014-07-23,fhrs_5_en-GB,5,,FHRS,5
77329,32 Bell Hill,Finedon,Wellingborough,Northamptonshire,Bell Inn,Pub/bar/nightclub,7843,10,,171700,10,,52.33635400000000,PI/000021082,241,HealthProtection@wellingborough.gov.uk,Wellingborough,http://www.wellingborough.gov.uk,-0.65903400000000,NN9 5ND,2014-03-13,fhrs_3_en-GB,3,,FHRS,5
77330,124B Midland Road,Wellingborough,Northamptonshire,,Belview Lodge,Other catering premises,7841,5,,173048,5,,52.30174700000000,PI/000024782,241,HealthProtection@wellingborough.gov.uk,Wellingborough,http://www.wellingborough.gov.uk,-0.68209300000000,NN8 1NF,2012-07-02,fhrs_5_en-GB,5,,FHRS,5
77331,Benthorne Lodge Rest Home,48 Wellingborough Road,Finedon,Wellingborough,Benthorn Lodge,Other catering premises,7841,5,,172149,5,,52.33847600000000,PI/000022367,241,HealthProtection@wellingborough.gov.uk,Wellingborough,http://www.wellingborough.gov.uk,-0.65192400000000,NN9 5JS,2014-11-21,fhrs_5_en-GB,5,,FHRS,5
77332,2-3 Berrymoor Court,Wellingborough,Northamptonshire,,Berrymoor Dispensing Chemist,Retailers - other,4613,0,,165633,0,,52.29006900000000,PI/000008290,241,HealthProtection@wellingborough.gov.uk,Wellingborough,http://www.wellingborough.gov.uk,-0.70488700000000,NN8 2DL,2012-09-10,fhrs_5_en-GB,5,,FHRS,0
77333,5-6 Berrymoor Court,Wellingborough,Northamptonshire,,Berrymoor Stores,Retailers - other,4613,5,,165630,10,,52.29006900000000,PI/000008286,241,HealthProtection@wellingborough.gov.uk,Wellingborough,http://www.wellingborough.gov.uk,-0.70488700000000,NN8 2DL,2014-06-23,fhrs_4_en-GB,4,,FHRS,5
77334,9 Pebble Lane,Wellingborough,Northamptonshire,,Best Pol Delicatessen,Retailers - other,4613,5,,468143,10,,52.30228000000000,PI/000030180,241,HealthProtection@wellingborough.gov.uk,Wellingborough,http://www.wellingborough.gov.uk,-0.69276900000000,NN8 1AS,2014-12-17,fhrs_4_en-GB,4,,FHRS,5
77335,Grendon Lakes,Main Road,Grendon,Northampton,Bevington Inns Ltd,Other catering premises,7841,10,,162244,10,,52.23728100000000,PI/000002616,241,HealthProtection@wellingborough.gov.uk,Wellingborough,http://www.wellingborough.gov.uk,-0.71288200000000,NN7 1JW,2014-09-01,fhrs_3_en-GB,3,,FHRS,10
77336,52-62 Stewarts Road,Wellingborough,Northamptonshire,,Bevs Canteen - Truckeast Limited,Other catering premises,7841,5,,174337,5,,52.31927400000000,PI/000028772,241,HealthProtection@wellingborough.gov.uk,Wellingborough,http://www.wellingborough.gov.uk,-0.68639900000000,NN8 4RJ,2014-01-24,fhrs_4_en-GB,4,,FHRS,10
77337,28 Church Street,Wellingborough,Northamptonshire,,Bewiched,Other catering premises,7841,20,,174253,10,,52.30253400000000,PI/000028529,241,HealthProtection@wellingborough.gov.uk,Wellingborough,http://www.wellingborough.gov.uk,-0.69463800000000,NN8 4PA,2013-12-11,fhrs_1_en-GB,1,,FHRS,5
77338,147 Gold Street,Wellingborough,Northamptonshire,,Bitz And Bites Catering,Other catering premises,7841,5,,174476,0,,52.30898200000000,PI/000029174,241,HealthProtection@wellingborough.gov.uk,Wellingborough,http://www.wellingborough.gov.uk,-0.69154400000000,NN8 4EG,2013-01-30,fhrs_5_en-GB,5,,FHRS,0
77339,20 Swanspool Parade,Wellingborough,Northamptonshire,,Blossoms,Other catering premises,7841,0,,172685,0,,52.29781500000000,PI/000023753,241,HealthProtection@wellingborough.gov.uk,Wellingborough,http://www.wellingborough.gov.uk,-0.69067100000000,NN8 2BZ,2013-09-04,fhrs_5_en-GB,5,,FHRS,0
77340,127-129 Doddington Road,Wellingborough,Northamptonshire,,Blue Atlantic Fish And Chips,Takeaway/sandwich shop,7844,5,,458166,5,,52.29028000000000,PI/000030152,241,HealthProtection@wellingborough.gov.uk,Wellingborough,http://www.wellingborough.gov.uk,-0.69709500000000,NN8 2LW,2014-11-27,fhrs_5_en-GB,5,,FHRS,5
77341,4A Silver Street,Wellingborough,Northamptonshire,,Bobbys Convenience Store,Manufacturers/packers,7839,0,,698604,0,,52.30122900000000,14/00115/COM,241,HealthProtection@wellingborough.gov.uk,Wellingborough,http://www.wellingborough.gov.uk,-0.69453000000000,NN8 1BQ,2014-07-24,fhrs_5_en-GB,5,,FHRS,0
77342,4-5 Davy Close,Wellingborough,Northamptonshire,,Booker Limited,Other catering premises,7841,5,,166546,5,,52.30860100000000,PI/000009749,241,HealthProtection@wellingborough.gov.uk,Wellingborough,http://www.wellingborough.gov.uk,-0.73661600000000,NN8 6XX,2014-09-18,fhrs_5_en-GB,5,,FHRS,5
77343,Equity House,Irthlingborough Road,Wellingborough,Northamptonshire,Booker Staff Restaurant,Other catering premises,7841,10,,168229,15,,,PI/000012760,241,HealthProtection@wellingborough.gov.uk,Wellingborough,http://www.wellingborough.gov.uk,,NN8 1NZ,2014-12-10,fhrs_2_en-GB,2,,FHRS,5
77344,73-76 Corn Lane,Commercial Way,Wellingborough,Northamptonshire,Boots The Chemist,Retailers - other,4613,0,,165118,0,,52.30093400000000,PI/000007497,241,HealthProtection@wellingborough.gov.uk,Wellingborough,http://www.wellingborough.gov.uk,-0.69143000000000,NN8 1EZ,2014-12-03,fhrs_5_en-GB,5,,FHRS,0
77345,Independent Wesleyan Chapel,Dychurch Lane,Bozeat,Wellingborough,Bozeat Age Concern Lunch Club,Other catering premises,7841,10,,174397,0,,52.22140600000000,PI/000028986,241,HealthProtection@wellingborough.gov.uk,Wellingborough,http://www.wellingborough.gov.uk,-0.67096000000000,NN29 7JP,2013-10-02,fhrs_4_en-GB,4,,FHRS,0
77346,Bozeat Primary School,Harrold Road,Bozeat,Wellingborough,Bozeat Pre-School Playgroup,Other catering premises,7841,0,,173550,0,,52.22389900000000,PI/000026084,241,HealthProtection@wellingborough.gov.uk,Wellingborough,http://www.wellingborough.gov.uk,-0.67037300000000,NN29 7LP,2012-11-27,fhrs_5_en-GB,5,,FHRS,0
77347,Service Station,Higham Road,Irchester,Wellingborough,BP Garage - Snax 24,Retailers - other,4613,0,,163192,0,,52.28867400000000,PI/000004321,241,HealthProtection@wellingborough.gov.uk,Wellingborough,http://www.wellingborough.gov.uk,-0.67402100000000,NN8 2DU,2013-06-14,fhrs_5_en-GB,5,,FHRS,0
77348,103 Great Park Street,Wellingborough,Northamptonshire,,Brambles,Other catering premises,7841,0,,167590,0,,52.30650100000000,PI/000011758,241,HealthProtection@wellingborough.gov.uk,Wellingborough,http://www.wellingborough.gov.uk,-0.68994600000000,NN8 4EA,2013-09-04,fhrs_5_en-GB,5,,FHRS,5
77349,Diamond Learning Centre,Oakway,Wellingborough,Northamptonshire,Breakfast Club Diamond Learning Centre,School/college/university,7845,10,,174314,0,,52.31407700000000,PI/000028699,241,HealthProtection@wellingborough.gov.uk,Wellingborough,http://www.wellingborough.gov.uk,-0.69371200000000,NN8 4SD,2014-02-03,fhrs_4_en-GB,4,,FHRS,5
77350,Little Harrowden County Primary Sch,School Lane,Little Harrowden,Wellingborough,Breakfast Club Little Harrowden County Primary School,School/college/university,7845,0,,683422,0,,52.33653100000000,14/00063/COM,241,HealthProtection@wellingborough.gov.uk,Wellingborough,http://www.wellingborough.gov.uk,-0.72202400000000,NN9 5BN,2014-07-16,fhrs_5_en-GB,5,,FHRS,5
77351,Olympic School,Olympic Way,Wellingborough,Northamptonshire,Breakfast Club Olympic School,School/college/university,7845,5,,493141,0,,52.30527000000000,PI/000030278,241,HealthProtection@wellingborough.gov.uk,Wellingborough,http://www.wellingborough.gov.uk,-0.72205900000000,NN8 3QA,2013-03-13,fhrs_5_en-GB,5,,FHRS,0
77352,Our Ladys Roman Catholic Junior Sch,Henshaw Road,Wellingborough,Northamptonshire,Breakfast Club Our Ladys Roman Catholic Junior School,School/college/university,7845,0,,173639,0,,52.29506100000000,PI/000026448,241,HealthProtection@wellingborough.gov.uk,Wellingborough,http://www.wellingborough.gov.uk,-0.71005000000000,NN8 2BE,2014-01-30,fhrs_5_en-GB,5,,FHRS,0
77353,Park Junior School,Great Park Street,Wellingborough,Northamptonshire,Breakfast Club Park Junior School,School/college/university,7845,0,,173994,0,,52.30436000000000,PI/000027700,241,HealthProtection@wellingborough.gov.uk,Wellingborough,http://www.wellingborough.gov.uk,-0.69222300000000,NN8 4PH,2014-10-20,fhrs_5_en-GB,5,,FHRS,0
77354,Ruskin Infant School,Ruskin Avenue,Wellingborough,Northamptonshire,Breakfast Club Ruskin Infant School,School/college/university,7845,5,,683425,0,,52.29917200000000,14/00083/COM,241,HealthProtection@wellingborough.gov.uk,Wellingborough,http://www.wellingborough.gov.uk,-0.72267400000000,NN8 3EG,2014-05-07,fhrs_5_en-GB,5,,FHRS,0
77355,210 Brickhill Road,Wellingborough,Northamptonshire,,Brickhill Stores,Retailers - other,4613,5,,165600,5,,52.30208000000000,PI/000008244,241,HealthProtection@wellingborough.gov.uk,Wellingborough,http://www.wellingborough.gov.uk,-0.71308700000000,NN8 3JH,2013-02-12,fhrs_5_en-GB,5,,FHRS,0
77356,13 Oxford Street,Finedon,Wellingborough,Northamptonshire,Bridge Programme,Other catering premises,7841,10,,615384,10,,52.33933500000000,PI/000030835,241,HealthProtection@wellingborough.gov.uk,Wellingborough,http://www.wellingborough.gov.uk,-0.64288600000000,NN9 5EZ,2014-02-28,fhrs_3_en-GB,3,,FHRS,10
77357,British Rail,7 York Road,Wellingborough,Northamptonshire,British Rail Staff Club,Pub/bar/nightclub,7843,5,,171655,0,,52.30417600000000,PI/000020957,241,HealthProtection@wellingborough.gov.uk,Wellingborough,http://www.wellingborough.gov.uk,-0.68865000000000,NN8 1DS,2011-12-12,fhrs_5_en-GB,5,,FHRS,5
77358,42 Broad Green,Wellingborough,Northamptonshire,,Broad Green Stores,Retailers - other,4613,20,,165650,5,,52.30493800000000,PI/000008317,241,HealthProtection@wellingborough.gov.uk,Wellingborough,http://www.wellingborough.gov.uk,-0.69899700000000,NN8 4LH,2014-09-03,fhrs_1_en-GB,1,,FHRS,15
77359,Unit 1,Cringle Farm,Grendon Road,Wollaston,Browns Gourmet Sausages,Manufacturers/packers,7839,5,,174275,0,,52.25647500000000,PI/000028629,241,HealthProtection@wellingborough.gov.uk,Wellingborough,http://www.wellingborough.gov.uk,-0.69550700000000,NN29 7PT,2013-11-11,fhrs_5_en-GB,5,,FHRS,0
77360,Kingsway Centre (old Boys Club),130 Kingsway,Wellingborough,Northamptonshire,Bumble Bees Pre-School,Other catering premises,7841,,,168682,,,52.29222300000000,PI/000013630,241,HealthProtection@wellingborough.gov.uk,Wellingborough,http://www.wellingborough.gov.uk,-0.70541100000000,NN8 2EN,,fhrs_awaitinginspection_en-GB,AwaitingInspection,,FHRS,
77361,Enstone Court,Wellingborough,Northamptonshire,,Busy Bees Nursery,Other catering premises,7841,5,,167060,5,,52.28539900000000,PI/000010695,241,HealthProtection@wellingborough.gov.uk,Wellingborough,http://www.wellingborough.gov.uk,-0.71194300000000,NN8 2DR,2014-05-01,fhrs_5_en-GB,5,,FHRS,0
77362,Village Hall,52 High Street,Wollaston,Wellingborough,Busy Bees Pre-School Playgroup,Other catering premises,7841,5,,551501,5,,52.25589400000000,PI/000030505,241,HealthProtection@wellingborough.gov.uk,Wellingborough,http://www.wellingborough.gov.uk,-0.67249400000000,NN29 7QQ,2014-05-01,fhrs_5_en-GB,5,,FHRS,0
77363,22A Market Street,Wellingborough,Northamptonshire,,Cafe Aroma,Other catering premises,7841,10,,579103,5,,52.30227900000000,PI/000030711,241,HealthProtection@wellingborough.gov.uk,Wellingborough,http://www.wellingborough.gov.uk,-0.69190300000000,NN8 1AT,2013-10-10,fhrs_4_en-GB,4,,FHRS,5
77364,Cafe At Railway Station,Railway Station,Midland Road,Wellingborough,Cafe At The Station,Other catering premises,7841,10,,169270,15,,52.30385300000000,PI/000014792,241,HealthProtection@wellingborough.gov.uk,Wellingborough,http://www.wellingborough.gov.uk,-0.67660400000000,NN8 1NQ,2013-08-28,fhrs_2_en-GB,2,,FHRS,0
77365,St Marys Church Hall,Allens Hill,Bozeat,Wellingborough,Cafe Connections,Other catering premises,7841,0,,173997,0,,,PI/000027704,241,HealthProtection@wellingborough.gov.uk,Wellingborough,http://www.wellingborough.gov.uk,,,2014-03-06,fhrs_5_en-GB,5,,FHRS,0
77366,Units 8 And 9,Regent Park,37 Booth Drive,Wellingborough,Cafe Espress First Service,Other catering premises,7841,0,,173584,0,,52.30183300000000,PI/000026196,241,HealthProtection@wellingborough.gov.uk,Wellingborough,http://www.wellingborough.gov.uk,-0.73343600000000,NN8 6GR,2013-02-01,fhrs_5_en-GB,5,,FHRS,0
77367,20 London Road,Wellingborough,Northamptonshire,,Caffe Pausa,Other catering premises,7841,0,,542761,0,,52.29363300000000,PI/000030486,241,HealthProtection@wellingborough.gov.uk,Wellingborough,http://www.wellingborough.gov.uk,-0.68572100000000,NN8 2DP,2013-05-29,fhrs_5_en-GB,5,,FHRS,0
77368,,,,,Cake Anyone,Other catering premises,7841,5,,451613,5,,,PI/000030092,241,HealthProtection@wellingborough.gov.uk,Wellingborough,http://www.wellingborough.gov.uk,,,2012-12-06,fhrs_5_en-GB,5,,FHRS,5
77369,,,,,Cakelicious,Other catering premises,7841,10,,579101,0,,,PI/000030667,241,HealthProtection@wellingborough.gov.uk,Wellingborough,http://www.wellingborough.gov.uk,,,2013-08-21,fhrs_4_en-GB,4,,FHRS,0
77370,,,,,Cakexpert,Other catering premises,7841,5,,163167,5,,,PI/000004278,241,HealthProtection@wellingborough.gov.uk,Wellingborough,http://www.wellingborough.gov.uk,,,2013-09-04,fhrs_5_en-GB,5,,FHRS,0
77371,,,,,Calabash Carib Caterers,Mobile caterer,7846,5,,167654,0,,,PI/000011854,241,HealthProtection@wellingborough.gov.uk,Wellingborough,http://www.wellingborough.gov.uk,,,2013-10-11,fhrs_5_en-GB,5,,FHRS,0
77372,37A Cambridge Street,Wellingborough,Northamptonshire,,Cambridge Grill,Takeaway/sandwich shop,7844,10,,165954,10,,52.30292900000000,PI/000008763,241,HealthProtection@wellingborough.gov.uk,Wellingborough,http://www.wellingborough.gov.uk,-0.69050600000000,NN8 1DW,2014-02-03,fhrs_3_en-GB,3,,FHRS,10
77373,104-106 Midland Road,Wellingborough,Northamptonshire,,Canberra Guest House,Hotel/bed & breakfast/guest house,7842,5,,169166,5,,52.30097900000000,PI/000014597,241,HealthProtection@wellingborough.gov.uk,Wellingborough,http://www.wellingborough.gov.uk,-0.68497600000000,NN8 1NB,2013-01-08,fhrs_5_en-GB,5,,FHRS,0
77374,115 Priory Road,Wellingborough,Northamptonshire,,Caribbean Flava,Other catering premises,7841,10,,715166,10,,52.29411400000000,14/00159/COM,241,HealthProtection@wellingborough.gov.uk,Wellingborough,http://www.wellingborough.gov.uk,-0.70072200000000,NN8 2JT,2014-10-20,fhrs_3_en-GB,3,,FHRS,10
77375,48 Hardwick Road,Wellingborough,Northamptonshire,,Caring Kindergartens,Other catering premises,7841,0,,167701,5,,52.30553500000000,PI/000011946,241,HealthProtection@wellingborough.gov.uk,Wellingborough,http://www.wellingborough.gov.uk,-0.70670900000000,NN8 5AD,2013-07-25,fhrs_5_en-GB,5,,FHRS,0
77376,88 High Street,Irchester,Wellingborough,Northamptonshire,Carpenters Arms,Pub/bar/nightclub,7843,10,,162753,5,,52.28449800000000,PI/000003570,241,HealthProtection@wellingborough.gov.uk,Wellingborough,http://www.wellingborough.gov.uk,-0.64356500000000,NN29 7AB,2014-12-01,fhrs_3_en-GB,3,,FHRS,10
77377,1 - 19 Shaw Close,Wellingborough,Northamptonshire,,Catermasters - House Of Fraser NDC,Other catering premises,7841,0,,430265,0,,52.30844000000000,PI/000029929,241,HealthProtection@wellingborough.gov.uk,Wellingborough,http://www.wellingborough.gov.uk,-0.73003500000000,NN8 6BN,2012-09-06,fhrs_5_en-GB,5,,FHRS,5
77378,,,,,Cathys Cakes,Other catering premises,7841,0,,542759,0,,,PI/000030484,241,HealthProtection@wellingborough.gov.uk,Wellingborough,http://www.wellingborough.gov.uk,,,2013-05-30,fhrs_5_en-GB,5,,FHRS,0
77379,9 Cambridge Street,Wellingborough,Northamptonshire,,Centre Point,Takeaway/sandwich shop,7844,20,,173564,10,,52.30301500000000,PI/000026132,241,HealthProtection@wellingborough.gov.uk,Wellingborough,http://www.wellingborough.gov.uk,-0.69098700000000,NN8 1DJ,2015-01-06,fhrs_1_en-GB,1,,FHRS,10
77380,Wellingborough School,Irthlingborough Road,Wellingborough,Northamptonshire,Chartwells Catering,Other catering premises,7841,0,,168233,0,,52.29762900000000,PI/000012773,241,HealthProtection@wellingborough.gov.uk,Wellingborough,http://www.wellingborough.gov.uk,-0.68767000000000,NN8 2BX,2014-12-12,fhrs_5_en-GB,5,,FHRS,0
77381,34A Gold Street,Wellingborough,Northamptonshire,,Check-Mate,Retailers - other,4613,10,,167468,0,,52.30677200000000,PI/000011498,241,HealthProtection@wellingborough.gov.uk,Wellingborough,http://www.wellingborough.gov.uk,-0.69818100000000,NN8 4QY,2014-10-14,fhrs_4_en-GB,4,,FHRS,0
77382,5 Goodwin Close,Wellingborough,Northamptonshire,,Choco Kebab,Mobile caterer,7846,10,,551502,5,,52.31924100000000,PI/000030522,241,HealthProtection@wellingborough.gov.uk,Wellingborough,http://www.wellingborough.gov.uk,-0.69564300000000,NN8 4BS,2013-06-19,fhrs_4_en-GB,4,,FHRS,5
77383,12 High Street,Irchester,Wellingborough,Northamptonshire,Chop Suey House,Takeaway/sandwich shop,7844,5,,162725,5,,52.28449800000000,PI/000003514,241,HealthProtection@wellingborough.gov.uk,Wellingborough,http://www.wellingborough.gov.uk,-0.64356500000000,NN29 7AB,2013-08-12,fhrs_4_en-GB,4,,FHRS,10
77384,Tebbutts Yard,Earls Barton,Northampton,Northamptonshire,Claremont Day Nursery,Other catering premises,7841,5,,161789,0,,52.26721400000000,PI/000001884,241,HealthProtection@wellingborough.gov.uk,Wellingborough,http://www.wellingborough.gov.uk,-0.75164100000000,NN6 0JN,2014-03-27,fhrs_5_en-GB,5,,FHRS,5
77385,,,,,Clares Cakery,Other catering premises,7841,5,,174445,0,,,PI/000029100,241,HealthProtection@wellingborough.gov.uk,Wellingborough,http://www.wellingborough.gov.uk,,,2013-06-18,fhrs_5_en-GB,5,,FHRS,0
77386,21 Oxford Street,Finedon,Wellingborough,Northamptonshire,Cloverdale Catering,Other catering premises,7841,5,,171978,0,,52.33933500000000,PI/000021903,241,HealthProtection@wellingborough.gov.uk,Wellingborough,http://www.wellingborough.gov.uk,-0.64288600000000,NN9 5EZ,2012-11-20,fhrs_5_en-GB,5,,FHRS,0
77387,17 Oxford Street,Wellingborough,Northamptonshire,,Coach And Horses,Pub/bar/nightclub,7843,5,,169937,10,,52.30042700000000,PI/000016221,241,HealthProtection@wellingborough.gov.uk,Wellingborough,http://www.wellingborough.gov.uk,-0.69761900000000,NN8 4HY,2013-08-07,fhrs_4_en-GB,4,,FHRS,5
77388,19-31 Northampton Road,Wellingborough,Northamptonshire,,Columbia Hotel Limited,Hotel/bed & breakfast/guest house,7842,10,,169736,10,,52.29978400000000,PI/000015832,241,HealthProtection@wellingborough.gov.uk,Wellingborough,http://www.wellingborough.gov.uk,-0.70293200000000,NN8 3HG,2014-03-05,fhrs_3_en-GB,3,,FHRS,5
77389,Wollaston Hall,High Street,Wollaston,Wellingborough,Commonweath Centre,Other catering premises,7841,0,,164148,5,,52.25761400000000,PI/000005885,241,HealthProtection@wellingborough.gov.uk,Wellingborough,http://www.wellingborough.gov.uk,-0.67109400000000,NN29 7RJ,2014-12-08,fhrs_5_en-GB,5,,FHRS,0
77390,Garden Centre,2 Millers Lane,Wellingborough,Northamptonshire,Connies Coffee Shop,Other catering premises,7841,5,,169376,5,,52.28358700000000,PI/000014966,241,HealthProtection@wellingborough.gov.uk,Wellingborough,http://www.wellingborough.gov.uk,-0.70000400000000,NN8 2NF,2014-02-19,fhrs_5_en-GB,5,,FHRS,5
77391,31 Station Road,Earls Barton,Northampton,Northamptonshire,Cookies Bakery,Retailers - other,4613,5,,174364,5,,52.26322800000000,PI/000028862,241,HealthProtection@wellingborough.gov.uk,Wellingborough,http://www.wellingborough.gov.uk,-0.75299900000000,NN6 0NT,2014-12-17,fhrs_5_en-GB,5,,FHRS,5
77392,6 - 10 High Street,Earls Barton,Northampton,Northamptonshire,Co-Op Store,Retailers - supermarkets/hypermarkets,7840,0,,161301,5,,52.26659500000000,PI/000001290,241,HealthProtection@wellingborough.gov.uk,Wellingborough,http://www.wellingborough.gov.uk,-0.75094000000000,NN6 0JG,2014-03-06,fhrs_5_en-GB,5,,FHRS,0
77393,10 High Street,Irchester,Wellingborough,Northamptonshire,Co-Op Stores,Retailers - supermarkets/hypermarkets,7840,0,,162754,0,,52.28449800000000,PI/000003572,241,HealthProtection@wellingborough.gov.uk,Wellingborough,http://www.wellingborough.gov.uk,-0.64356500000000,NN29 7AB,2014-02-12,fhrs_5_en-GB,5,,FHRS,5
77394,97-99 Kingsway,Wellingborough,Northamptonshire,,Co-Op Stores,Retailers - supermarkets/hypermarkets,7840,0,,168677,5,,52.29182500000000,PI/000013621,241,HealthProtection@wellingborough.gov.uk,Wellingborough,http://www.wellingborough.gov.uk,-0.70438100000000,NN8 2EW,2012-05-14,fhrs_5_en-GB,5,,FHRS,0
77395,South Midlands Co-operative Society,23-25 Newton Road,Wollaston,Wellingborough,Co-Op Stores,Retailers - supermarkets/hypermarkets,7840,5,,164406,5,,52.25454400000000,PI/000006237,241,HealthProtection@wellingborough.gov.uk,Wellingborough,http://www.wellingborough.gov.uk,-0.67071700000000,NN29 7QN,2014-02-12,fhrs_5_en-GB,5,,FHRS,5
77396,10 Olympic Way,Wellingborough,Northamptonshire,,Co-Op Welcome,Retailers - other,4613,0,,172988,0,,52.30469400000000,PI/000024622,241,HealthProtection@wellingborough.gov.uk,Wellingborough,http://www.wellingborough.gov.uk,-0.71861400000000,NN8 3QE,2015-01-27,fhrs_5_en-GB,5,,FHRS,5
77397,5 Park Road,Wellingborough,Northamptonshire,,Coopers Snooker Club Limited,Pub/bar/nightclub,7843,10,,167484,5,,52.30368400000000,PI/000011536,241,HealthProtection@wellingborough.gov.uk,Wellingborough,http://www.wellingborough.gov.uk,-0.69214100000000,NN8 4PG,2013-12-06,fhrs_4_en-GB,4,,FHRS,5
77398,,,,,Cordon Bleu Catering,Other catering premises,7841,5,,174073,0,,,PI/000027958,241,HealthProtection@wellingborough.gov.uk,Wellingborough,http://www.wellingborough.gov.uk,,,2013-05-01,fhrs_5_en-GB,5,,FHRS,0
77399,27A Irthlingborough Road,Finedon,Wellingborough,Northamptonshire,Cost Cutter,Retailers - other,4613,5,,172989,0,,52.33915400000000,PI/000024624,241,HealthProtection@wellingborough.gov.uk,Wellingborough,http://www.wellingborough.gov.uk,-0.64751500000000,NN9 5EH,2013-05-02,fhrs_5_en-GB,5,,FHRS,0
77400,37 Market Street,Wellingborough,Northamptonshire,,Costa Coffee,Other catering premises,7841,5,,173354,5,,52.30116200000000,PI/000025516,241,HealthProtection@wellingborough.gov.uk,Wellingborough,http://www.wellingborough.gov.uk,-0.69249400000000,NN8 1AA,2013-05-30,fhrs_5_en-GB,5,,FHRS,0
77401,,,,,Crabtree Caterers,Other catering premises,7841,5,,354665,0,,,PI/000029704,241,HealthProtection@wellingborough.gov.uk,Wellingborough,http://www.wellingborough.gov.uk,,,2012-04-18,fhrs_5_en-GB,5,,FHRS,0
77402,,,,,Crepe Cheri,Other catering premises,7841,5,,715162,0,,,14/00106/COM,241,HealthProtection@wellingborough.gov.uk,Wellingborough,http://www.wellingborough.gov.uk,,,2014-10-09,fhrs_5_en-GB,5,,FHRS,5
77403,Croyland Nursery School,Croyland Road,Wellingborough,Northamptonshire,Croyland Childrens Centre,Other catering premises,7841,5,,166532,5,,52.29807300000000,PI/000009723,241,HealthProtection@wellingborough.gov.uk,Wellingborough,http://www.wellingborough.gov.uk,-0.70261500000000,NN8 2AX,2015-01-29,fhrs_5_en-GB,5,,FHRS,0
77404,69 Wellingborough Road,Finedon,Wellingborough,Northamptonshire,Crusty's Of Finedon,Retailers - other,4613,0,,172155,10,,52.33764500000000,PI/000022379,241,HealthProtection@wellingborough.gov.uk,Wellingborough,http://www.wellingborough.gov.uk,-0.65233100000000,NN9 5JT,2014-08-26,fhrs_4_en-GB,4,,FHRS,10
77405,40-44 Rutherford Drive,Wellingborough,Northamptonshire,,Cummins UK Staff Restaurant,Other catering premises,7841,5,,170506,0,,52.29933300000000,PI/000017766,241,HealthProtection@wellingborough.gov.uk,Wellingborough,http://www.wellingborough.gov.uk,-0.73677700000000,NN8 6AN,2013-03-08,fhrs_5_en-GB,5,,FHRS,5
77406,7 Park Road,Wellingborough,Northamptonshire,,Cutting Room,Pub/bar/nightclub,7843,10,,172549,0,,52.30289200000000,PI/000023408,241,HealthProtection@wellingborough.gov.uk,Wellingborough,http://www.wellingborough.gov.uk,-0.69533200000000,NN8 4PD,2014-09-17,fhrs_4_en-GB,4,,FHRS,10
77407,Bozeat Primary School,Harrold Road,Bozeat,Wellingborough,Cygnet Catering,School/college/university,7845,5,,579105,0,,52.22389900000000,PI/000030713,241,HealthProtection@wellingborough.gov.uk,Wellingborough,http://www.wellingborough.gov.uk,-0.67037300000000,NN29 7LP,2013-10-03,fhrs_5_en-GB,5,,FHRS,5
77408,Junior School Earls Barton,5 Broad Street,Earls Barton,Northampton,Cygnet Catering,School/college/university,7845,5,,174273,0,,52.26436400000000,PI/000028628,241,HealthProtection@wellingborough.gov.uk,Wellingborough,http://www.wellingborough.gov.uk,-0.75076900000000,NN6 0ND,2013-03-27,fhrs_5_en-GB,5,,FHRS,0
77409,,,,,D Harris Caterers,Other catering premises,7841,0,,171113,0,,,PI/000019563,241,HealthProtection@wellingborough.gov.uk,Wellingborough,http://www.wellingborough.gov.uk,,,2014-10-08,fhrs_5_en-GB,5,,FHRS,5
77410,44 Denington Road,Wellingborough,Northamptonshire,,Dairy Crest,Distributors/Transporters,7,5,,166640,5,,52.29272000000000,PI/000009930,241,HealthProtection@wellingborough.gov.uk,Wellingborough,http://www.wellingborough.gov.uk,-0.69011800000000,NN8 2QH,2014-07-25,fhrs_5_en-GB,5,,FHRS,5
77411,Ketnor House,350 Kettering Road,Orlingbury,Kettering,Daisy Daycare,Other catering premises,7841,5,,173691,5,,52.33872900000000,PI/000026611,241,HealthProtection@wellingborough.gov.uk,Wellingborough,http://www.wellingborough.gov.uk,-0.78547200000000,NN6 9TB,2014-05-16,fhrs_5_en-GB,5,,FHRS,5
77412,Langdale Court,151 Windermere Drive,Wellingborough,Northamptonshire,Dalisha Caterers Limited,Other catering premises,7841,0,,559291,5,,,PI/000030573,241,HealthProtection@wellingborough.gov.uk,Wellingborough,http://www.wellingborough.gov.uk,,,2014-06-17,fhrs_5_en-GB,5,,FHRS,5
77413,19 Cambridge Street,Wellingborough,Northamptonshire,,Daniels Fish Bar,Other catering premises,7841,5,,703252,5,,52.30301500000000,14/00077/COM,241,HealthProtection@wellingborough.gov.uk,Wellingborough,http://www.wellingborough.gov.uk,-0.69098700000000,NN8 1DJ,2014-09-10,fhrs_5_en-GB,5,,FHRS,5
77414,131 Mill Road,Wellingborough,Northamptonshire,,Darshana Popat,Retailers - other,4613,5,,169300,5,,52.30448500000000,PI/000014841,241,HealthProtection@wellingborough.gov.uk,Wellingborough,http://www.wellingborough.gov.uk,-0.68325800000000,NN8 1PH,2012-05-09,fhrs_5_en-GB,5,,FHRS,5
77415,23 Cedar Way,Wellingborough,Northamptonshire,,Dawns Little People Childcare Ltd,Other catering premises,7841,0,,174142,5,,52.31306000000000,PI/000028124,241,HealthProtection@wellingborough.gov.uk,Wellingborough,http://www.wellingborough.gov.uk,-0.69691100000000,NN8 4SL,2014-03-19,fhrs_5_en-GB,5,,FHRS,5
77416,The Queens Hall,8 High Street,Wellingborough,Northamptonshire,Daylight Centre Fellowship,Other catering premises,7841,10,,172808,5,,52.30295200000000,PI/000024055,241,HealthProtection@wellingborough.gov.uk,Wellingborough,http://www.wellingborough.gov.uk,-0.69747100000000,NN8 4JU,2014-06-25,fhrs_4_en-GB,4,,FHRS,5
77417,7 Debdale Road,Wellingborough,Northamptonshire,,Debdale Road Care Home,Other catering premises,7841,5,,166618,0,,52.30491900000000,PI/000009890,241,HealthProtection@wellingborough.gov.uk,Wellingborough,http://www.wellingborough.gov.uk,-0.70221000000000,NN8 5AA,2011-09-19,fhrs_4_en-GB,4,,FHRS,10
77418,1-3 Newton Close,Wellingborough,Northamptonshire,,Delos Community,Other catering premises,7841,10,,172797,0,,52.31146200000000,PI/000024021,241,HealthProtection@wellingborough.gov.uk,Wellingborough,http://www.wellingborough.gov.uk,-0.73264700000000,NN8 6UW,2014-10-20,fhrs_4_en-GB,4,,FHRS,5
77419,34 Park Road,Wellingborough,Northamptonshire,,Delos Community,Other catering premises,7841,0,,170062,0,,52.30435200000000,PI/000016516,241,HealthProtection@wellingborough.gov.uk,Wellingborough,http://www.wellingborough.gov.uk,-0.69314800000000,NN8 4PW,2014-07-22,fhrs_5_en-GB,5,,FHRS,0
77420,7 Poplar Street,Wellingborough,Northamptonshire,,Delos Community,Other catering premises,7841,0,,170156,0,,52.30562400000000,PI/000016782,241,HealthProtection@wellingborough.gov.uk,Wellingborough,http://www.wellingborough.gov.uk,-0.69195100000000,NN8 4PL,2014-12-03,fhrs_5_en-GB,5,,FHRS,0
77421,The Chestnuts,1 Poplar Street,Wellingborough,Northamptonshire,Delos Community,Other catering premises,7841,5,,174110,0,,52.30562400000000,PI/000028032,241,HealthProtection@wellingborough.gov.uk,Wellingborough,http://www.wellingborough.gov.uk,-0.69195100000000,NN8 4PL,2013-02-11,fhrs_5_en-GB,5,,FHRS,0
77422,109 Great Park Street,Wellingborough,Northamptonshire,,Delos Community Ltd,Other catering premises,7841,0,,167595,0,,52.30650100000000,PI/000011764,241,HealthProtection@wellingborough.gov.uk,Wellingborough,http://www.wellingborough.gov.uk,-0.68994600000000,NN8 4EA,2014-07-10,fhrs_5_en-GB,5,,FHRS,0
77423,34 Finedon Road,Wellingborough,Northamptonshire,,Delos Community Ltd,Other catering premises,7841,0,,167175,0,,52.30702100000000,PI/000010876,241,HealthProtection@wellingborough.gov.uk,Wellingborough,http://www.wellingborough.gov.uk,-0.68817000000000,NN8 4EB,2014-09-05,fhrs_5_en-GB,5,,FHRS,0
77424,Delos Community,28A Poplar Street,Wellingborough,Northamptonshire,Delos Community Ltd,Other catering premises,7841,5,,170152,5,,52.30562400000000,PI/000016773,241,HealthProtection@wellingborough.gov.uk,Wellingborough,http://www.wellingborough.gov.uk,-0.69195100000000,NN8 4PL,2014-07-09,fhrs_5_en-GB,5,,FHRS,5
77425,Lothersdale House,49-53 West Villa Road,Wellingborough,Northamptonshire,Department Of Social Security - Eurest Catering,Other catering premises,7841,10,,171409,10,,52.30094400000000,PI/000020339,241,HealthProtection@wellingborough.gov.uk,Wellingborough,http://www.wellingborough.gov.uk,-0.70041900000000,NN8 4JQ,2013-08-27,fhrs_3_en-GB,3,,FHRS,10
77426,109E Finedon Road,Wellingborough,Northamptonshire,,Dianas Health & Fitness,Other catering premises,7841,10,,167195,5,,52.31237600000000,PI/000010924,241,HealthProtection@wellingborough.gov.uk,Wellingborough,http://www.wellingborough.gov.uk,-0.67822700000000,NN8 4AL,2014-02-21,fhrs_4_en-GB,4,,FHRS,5
77427,18 Council Street,Wollaston,Wellingborough,Northamptonshire,Dickys Sweets,Retailers - other,4613,10,,482264,0,,52.25420400000000,PI/000030248,241,HealthProtection@wellingborough.gov.uk,Wellingborough,http://www.wellingborough.gov.uk,-0.67170900000000,NN29 7RE,2012-12-05,fhrs_4_en-GB,4,,FHRS,5
77428,440 Kettering Road,Orlingbury,Kettering,Northamptonshire,Dilsha Limited - Red House Garage,Retailers - other,4613,5,,164689,0,,52.34117300000000,PI/000006742,241,HealthProtection@wellingborough.gov.uk,Wellingborough,http://www.wellingborough.gov.uk,-0.74239600000000,NN14 1JF,2011-12-02,fhrs_5_en-GB,5,,FHRS,5
77429,Dog And Duck,63-71 London Road,Wellingborough,Northamptonshire,Dog & Duck,Pub/bar/nightclub,7843,0,,168893,5,,52.29363300000000,PI/000014068,241,HealthProtection@wellingborough.gov.uk,Wellingborough,http://www.wellingborough.gov.uk,-0.68572100000000,NN8 2DP,2013-07-01,fhrs_4_en-GB,4,,FHRS,10
77430,10 Farm Road,Wellingborough,Northamptonshire,,Domino Pizza,Takeaway/sandwich shop,7844,0,,172306,5,,52.31753900000000,PI/000022779,241,HealthProtection@wellingborough.gov.uk,Wellingborough,http://www.wellingborough.gov.uk,-0.70434900000000,NN8 4UF,2014-02-19,fhrs_5_en-GB,5,,FHRS,0
77431,Don Millers Hot Bread Kitchen,58 Cheese Lane,Market Street,Wellingborough,Don Millers,Retailers - other,4613,5,,165109,5,,52.30156300000000,PI/000007480,241,HealthProtection@wellingborough.gov.uk,Wellingborough,http://www.wellingborough.gov.uk,-0.69221800000000,NN8 1EX,2013-08-28,fhrs_5_en-GB,5,,FHRS,5
77432,12A Herriotts Lane,Wellingborough,Northamptonshire,,Don Peppi,Other catering premises,7841,10,,167997,10,,52.30402600000000,PI/000012416,241,HealthProtection@wellingborough.gov.uk,Wellingborough,http://www.wellingborough.gov.uk,-0.69460900000000,NN8 4PX,2014-03-14,fhrs_3_en-GB,3,,FHRS,5
77433,31 Priory Road,Wollaston,Wellingborough,Northamptonshire,Dooleys Sweets,Retailers - other,4613,0,,188833,0,,52.25906500000000,PI/000029527,241,HealthProtection@wellingborough.gov.uk,Wellingborough,http://www.wellingborough.gov.uk,-0.67464100000000,NN29 7PW,2014-11-04,fhrs_5_en-GB,5,,FHRS,0
77434,11B Silver Street,Wellingborough,Northamptonshire,,Dosa Chef,Takeaway/sandwich shop,7844,20,,446003,15,,52.30122800000000,PI/000029993,241,HealthProtection@wellingborough.gov.uk,Wellingborough,http://www.wellingborough.gov.uk,-0.69439800000000,NN8 1BQ,2014-07-23,fhrs_1_en-GB,1,,FHRS,15
77435,35 Cambridge Street,Wellingborough,Northamptonshire,,Dynasty Cantonese T.Away,Takeaway/sandwich shop,7844,5,,165942,5,,52.30292900000000,PI/000008754,241,HealthProtection@wellingborough.gov.uk,Wellingborough,http://www.wellingborough.gov.uk,-0.69050600000000,NN8 1DW,2013-08-05,fhrs_4_en-GB,4,,FHRS,10
77436,35 Croyland Road,Wellingborough,Northamptonshire,,E K Stores,Retailers - other,4613,5,,173685,5,,52.29715600000000,PI/000026578,241,HealthProtection@wellingborough.gov.uk,Wellingborough,http://www.wellingborough.gov.uk,-0.69528000000000,NN8 2LB,2014-11-20,fhrs_5_en-GB,5,,FHRS,5
77437,25 The Square,Earls Barton,Northampton,Northamptonshire,E Lee And Sons,Retailers - other,4613,5,,161653,5,,52.26493400000000,PI/000001717,241,HealthProtection@wellingborough.gov.uk,Wellingborough,http://www.wellingborough.gov.uk,-0.75281900000000,NN6 0NA,2015-01-21,fhrs_5_en-GB,5,,FHRS,5
77438,Units 7 To 8,57 High Street,Wollaston,Wellingborough,E Lee And Sons,Retailers - other,4613,5,,722285,5,,,14/00149/COM,241,HealthProtection@wellingborough.gov.uk,Wellingborough,http://www.wellingborough.gov.uk,,NN29 7QF,2014-11-17,fhrs_5_en-GB,5,,FHRS,5
77439,West Street,Earls Barton,Northampton,Northamptonshire,Earls Barton Baptist Church,Other catering premises,7841,0,,161907,0,,52.26575600000000,PI/000002002,241,HealthProtection@wellingborough.gov.uk,Wellingborough,http://www.wellingborough.gov.uk,-0.75578500000000,NN6 0EW,2011-12-02,fhrs_5_en-GB,5,,FHRS,5
77440,Earls Barton Bowling Club Ltd,London End,Earls Barton,Northampton,Earls Barton Bowling Club,Pub/bar/nightclub,7843,10,,162085,5,,52.26414800000000,PI/000002331,241,HealthProtection@wellingborough.gov.uk,Wellingborough,http://www.wellingborough.gov.uk,-0.75591800000000,NN6 0EZ,2013-09-09,fhrs_4_en-GB,4,,FHRS,5
77441,Earls Barton Sports Association Ltd,Northampton Road,Earls Barton,Northampton,Earls Barton Sports Association,Pub/bar/nightclub,7843,10,,161498,10,,52.27177600000000,PI/000001508,241,HealthProtection@wellingborough.gov.uk,Wellingborough,http://www.wellingborough.gov.uk,-0.75970600000000,NN6 0HF,2013-05-24,fhrs_3_en-GB,3,,FHRS,10
77442,United Working Mens Club,1 Queen Street,Earls Barton,Northampton,Earls Barton Working Mens Club,Pub/bar/nightclub,7843,10,,161598,10,,52.26871800000000,PI/000001627,241,HealthProtection@wellingborough.gov.uk,Wellingborough,http://www.wellingborough.gov.uk,-0.74852100000000,NN6 0LN,2014-07-22,fhrs_4_en-GB,4,,FHRS,0
77443,78 High Street,Ecton,Northampton,Northamptonshire,Ecton Village Hall/Cricket Club,Pub/bar/nightclub,7843,5,,162129,5,,52.26255500000000,PI/000002423,241,HealthProtection@wellingborough.gov.uk,Wellingborough,http://www.wellingborough.gov.uk,-0.78859400000000,NN6 0QB,2014-01-16,fhrs_5_en-GB,5,,FHRS,0
77444,98 Palk Road,Wellingborough,Northamptonshire,,Eddie's Diner,Other catering premises,7841,10,,715164,15,,52.30260500000000,14/00139/COM,241,HealthProtection@wellingborough.gov.uk,Wellingborough,http://www.wellingborough.gov.uk,-0.68239000000000,NN8 1HT,2014-10-15,fhrs_2_en-GB,2,,FHRS,5
77445,1 Midland Road,Wellingborough,Northamptonshire,,Education  & Youth Service,Other catering premises,7841,10,,468142,0,,52.30174500000000,PI/000027806,241,HealthProtection@wellingborough.gov.uk,Wellingborough,http://www.wellingborough.gov.uk,-0.69077500000000,NN8 1HA,2013-04-25,fhrs_4_en-GB,4,,FHRS,10
77446,The Embankment,Wellingborough,Northamptonshire,,Embankment Golf Club,Other catering premises,7841,5,,167025,0,,52.29626800000000,PI/000010631,241,HealthProtection@wellingborough.gov.uk,Wellingborough,http://www.wellingborough.gov.uk,-0.67614100000000,NN8 1LD,2013-02-21,fhrs_5_en-GB,5,,FHRS,0
77447,1 Station Road,Earls Barton,Northampton,Northamptonshire,Espresso,Other catering premises,7841,10,,173145,10,,52.26322800000000,PI/000025049,241,HealthProtection@wellingborough.gov.uk,Wellingborough,http://www.wellingborough.gov.uk,-0.75299900000000,NN6 0NT,2014-10-10,fhrs_3_en-GB,3,,FHRS,5
77448,71 Leyland Trading Estate,Irthlingborough Road,Wellingborough,Northamptonshire,Eureka,Distributors/Transporters,7,5,,715158,5,,52.29745500000000,14/00071/COM,241,HealthProtection@wellingborough.gov.uk,Wellingborough,http://www.wellingborough.gov.uk,-0.67211700000000,NN8 1RA,2014-11-07,fhrs_5_en-GB,5,,FHRS,5
77449,21 Cannon Street,Wellingborough,Northamptonshire,,Euro 1 Stop Cash & Carry,Retailers - other,4613,10,,172755,10,,52.30541900000000,PI/000023910,241,HealthProtection@wellingborough.gov.uk,Wellingborough,http://www.wellingborough.gov.uk,-0.68966900000000,NN8 4DS,2013-05-16,fhrs_3_en-GB,3,,FHRS,10
77450,Units 6 & & Belman Gate,Sywell Aerodrome,Sywell,Northampton,Euro Food Brands Limited,Distributors/Transporters,7,5,,173507,5,,52.30068300000000,PI/000025990,241,HealthProtection@wellingborough.gov.uk,Wellingborough,http://www.wellingborough.gov.uk,-0.79191000000000,NN6 0BN,2013-09-16,fhrs_5_en-GB,5,,FHRS,0
77451,90-92 Midland Road,Wellingborough,Northamptonshire,,Euro Hotel,Hotel/bed & breakfast/guest house,7842,0,,169256,0,,52.30097900000000,PI/000014769,241,HealthProtection@wellingborough.gov.uk,Wellingborough,http://www.wellingborough.gov.uk,-0.68497600000000,NN8 1NB,2013-07-01,fhrs_5_en-GB,5,,FHRS,0
77452,1 Church Street,Wellingborough,Northamptonshire,,Euro Market,Retailers - other,4613,20,,174340,20,,52.30253400000000,PI/000028784,241,HealthProtection@wellingborough.gov.uk,Wellingborough,http://www.wellingborough.gov.uk,-0.69463800000000,NN8 4PA,2014-11-25,fhrs_0_en-GB,0,,FHRS,15
77453,15 Wye Close,Wellingborough,Northamptonshire,,Executive Snacks,Mobile caterer,7846,0,,171637,0,,52.31035100000000,PI/000020909,241,HealthProtection@wellingborough.gov.uk,Wellingborough,http://www.wellingborough.gov.uk,-0.72462600000000,NN8 5WS,2014-06-20,fhrs_5_en-GB,5,,FHRS,0
77454,41A Cambridge Street,Wellingborough,Northamptonshire,,Express Food & Wine,Retailers - other,4613,10,,430216,0,,52.30292900000000,PI/000029848,241,HealthProtection@wellingborough.gov.uk,Wellingborough,http://www.wellingborough.gov.uk,-0.69050600000000,NN8 1DW,2014-02-20,fhrs_4_en-GB,4,,FHRS,0
77455,Rosewood Court,Irthlingborough Road,Wellingborough,Northamptonshire,Extracare Charitable Trust,Other catering premises,7841,5,,168231,5,,,PI/000012764,241,HealthProtection@wellingborough.gov.uk,Wellingborough,http://www.wellingborough.gov.uk,,,2014-04-14,fhrs_5_en-GB,5,,FHRS,0
77456,Unit 2,57 High Street,Wollaston,Wellingborough,Eye 2 Eye Fair Trade,Retailers - other,4613,5,,632874,0,,,PI/000030931,241,HealthProtection@wellingborough.gov.uk,Wellingborough,http://www.wellingborough.gov.uk,,NN29 7QF,2014-03-20,fhrs_5_en-GB,5,,FHRS,0
77457,132 Doddington Road,Earls Barton,Northampton,Northamptonshire,F C & C C Elderton,Retailers - other,4613,10,,174512,0,,52.26508500000000,PI/000029268,241,HealthProtection@wellingborough.gov.uk,Wellingborough,http://www.wellingborough.gov.uk,-0.73404300000000,NN6 0NS,2014-09-04,fhrs_4_en-GB,4,,FHRS,0
77458,Wellingborough Masonic Hall,7 Mill Road,Wellingborough,Northamptonshire,Fenner Catering Limited,Other catering premises,7841,5,,174550,5,,52.30352200000000,PI/000029409,241,HealthProtection@wellingborough.gov.uk,Wellingborough,http://www.wellingborough.gov.uk,-0.68800900000000,NN8 1PE,2013-10-15,fhrs_4_en-GB,4,,FHRS,10
77459,Finedon Community Sports And Leisur,71 Wellingborough Road,Finedon,Wellingborough,Finedon Bowls Club,Pub/bar/nightclub,7843,0,,172166,0,,52.33634700000000,PI/000022415,241,HealthProtection@wellingborough.gov.uk,Wellingborough,http://www.wellingborough.gov.uk,-0.65604000000000,NN9 5LG,2014-10-20,fhrs_5_en-GB,5,,FHRS,0
77460,Finedon Community Sports And Leisur,71 Wellingborough Road,Finedon,Wellingborough,Finedon Community Centre,Other catering premises,7841,5,,172162,5,,52.33634700000000,PI/000022407,241,HealthProtection@wellingborough.gov.uk,Wellingborough,http://www.wellingborough.gov.uk,-0.65604000000000,NN9 5LG,2015-01-27,fhrs_5_en-GB,5,,FHRS,5
77461,23 High Street,Finedon,Wellingborough,Northamptonshire,Finedon Convenience Store,Retailers - other,4613,5,,430263,0,,52.33892100000000,PI/000029924,241,HealthProtection@wellingborough.gov.uk,Wellingborough,http://www.wellingborough.gov.uk,-0.65468500000000,NN9 5JN,2012-08-10,fhrs_5_en-GB,5,,FHRS,0
77462,83 Wellingborough Road,Finedon,Wellingborough,Northamptonshire,Finedon Stores,Retailers - other,4613,10,,172157,10,,52.33634700000000,PI/000022387,241,HealthProtection@wellingborough.gov.uk,Wellingborough,http://www.wellingborough.gov.uk,-0.65604000000000,NN9 5LG,2013-09-11,fhrs_3_en-GB,3,,FHRS,10
77463,28 Wellingborough Road,Finedon,Wellingborough,Northamptonshire,Finedons Finest Fish & Chips,Takeaway/sandwich shop,7844,5,,172146,5,,52.33847600000000,PI/000022362,241,HealthProtection@wellingborough.gov.uk,Wellingborough,http://www.wellingborough.gov.uk,-0.65192400000000,NN9 5JS,2014-09-26,fhrs_4_en-GB,4,,FHRS,10
77464,112A Leyland Trading Estate,Irthlingborough Road,Wellingborough,Northamptonshire,Fish 4 You,Distributors/Transporters,7,10,,174383,0,,52.30048200000000,PI/000028938,241,HealthProtection@wellingborough.gov.uk,Wellingborough,http://www.wellingborough.gov.uk,-0.66947400000000,NN8 1RT,2013-02-27,fhrs_4_en-GB,4,,FHRS,0
77465,47 Midland Road,Wellingborough,Northamptonshire,,Flames Kebab And Pizza,Takeaway/sandwich shop,7844,10,,169224,10,,52.30158300000000,PI/000014704,241,HealthProtection@wellingborough.gov.uk,Wellingborough,http://www.wellingborough.gov.uk,-0.68912300000000,NN8 1HF,2014-10-27,fhrs_2_en-GB,2,,FHRS,15
77466,6 Salisbury Road,Wellingborough,Northamptonshire,,Flavia Bakes Cakes,Other catering premises,7841,5,,730896,0,,52.30421500000000,14/00212/COM,241,HealthProtection@wellingborough.gov.uk,Wellingborough,http://www.wellingborough.gov.uk,-0.67847000000000,NN8 1QF,2015-01-09,fhrs_5_en-GB,5,,FHRS,0
77467,,,,,Flowers & Ribbons Sugarcraft Company,Other catering premises,7841,5,,174048,0,,,PI/000027874,241,HealthProtection@wellingborough.gov.uk,Wellingborough,http://www.wellingborough.gov.uk,,,2012-11-19,fhrs_5_en-GB,5,,FHRS,0
77468,A45 Dual Carriageway Layby,Higham Road,Irchester,Wellingborough,Food Express,Mobile caterer,7846,10,,163280,10,,,PI/000004438,241,HealthProtection@wellingborough.gov.uk,Wellingborough,http://www.wellingborough.gov.uk,,,2014-10-09,fhrs_3_en-GB,3,,FHRS,10
77469,12A Daniels Road,Little Irchester,Wellingborough,Northamptonshire,Food Exspress,Mobile caterer,7846,5,,173942,0,,52.28822100000000,PI/000027516,241,HealthProtection@wellingborough.gov.uk,Wellingborough,http://www.wellingborough.gov.uk,-0.67844800000000,NN8 2EQ,2012-06-11,fhrs_5_en-GB,5,,FHRS,0
77470,Nene Wharf House,Turnells Mill Lane,Wellingborough,Northamptonshire,Food Glorious Food,Mobile caterer,7846,0,,171218,0,,52.28878600000000,PI/000019825,241,HealthProtection@wellingborough.gov.uk,Wellingborough,http://www.wellingborough.gov.uk,-0.68395800000000,NN8 2ED,2013-12-02,fhrs_5_en-GB,5,,FHRS,0
77471,85 Leyland Trading Estate,Irthlingborough Road,Wellingborough,Northamptonshire,Fresh Ideas,Distributors/Transporters,7,0,,168284,5,,52.30048200000000,PI/000012883,241,HealthProtection@wellingborough.gov.uk,Wellingborough,http://www.wellingborough.gov.uk,-0.66947400000000,NN8 1RT,2013-12-11,fhrs_5_en-GB,5,,FHRS,0
77472,23A Midland Road,Wellingborough,Northamptonshire,,Fungs Chinese,Takeaway/sandwich shop,7844,10,,173841,15,,52.30174500000000,PI/000027147,241,HealthProtection@wellingborough.gov.uk,Wellingborough,http://www.wellingborough.gov.uk,-0.69077500000000,NN8 1HA,2014-06-11,fhrs_2_en-GB,2,,FHRS,15
77473,31 Midland Road,Wellingborough,Northamptonshire,,Funky Spice,Other catering premises,7841,10,,174190,10,,52.30158300000000,PI/000028281,241,HealthProtection@wellingborough.gov.uk,Wellingborough,http://www.wellingborough.gov.uk,-0.68912300000000,NN8 1HF,2013-09-09,fhrs_3_en-GB,3,,FHRS,10
77474,21 Obelisk Road,Finedon,Wellingborough,Northamptonshire,Gaydens Bakery,Retailers - other,4613,5,,683423,0,,52.33886800000000,14/00074/COM,241,HealthProtection@wellingborough.gov.uk,Wellingborough,http://www.wellingborough.gov.uk,-0.64846300000000,NN9 5DW,2014-06-20,fhrs_5_en-GB,5,,FHRS,0
77475,35 Midland Road,Wellingborough,Northamptonshire,,Georgies Cafe Restaurant,Other catering premises,7841,10,,588680,10,,52.30158300000000,PI/000030760,241,HealthProtection@wellingborough.gov.uk,Wellingborough,http://www.wellingborough.gov.uk,-0.68912300000000,NN8 1HF,2013-09-20,fhrs_3_en-GB,3,,FHRS,10
77476,103 Wellingborough Road,Finedon,Wellingborough,Northamptonshire,Gladstone Working Mens Club,Pub/bar/nightclub,7843,0,,172136,0,,52.33634700000000,PI/000022333,241,HealthProtection@wellingborough.gov.uk,Wellingborough,http://www.wellingborough.gov.uk,-0.65604000000000,NN9 5LG,2012-06-13,fhrs_5_en-GB,5,,FHRS,0
77477,5 Stanton Close,Wellingborough,Northamptonshire,,Global Bounty Limited,Distributors/Transporters,7,10,,588681,0,,52.32158900000000,PI/000030773,241,HealthProtection@wellingborough.gov.uk,Wellingborough,http://www.wellingborough.gov.uk,-0.68760700000000,NN8 4HN,2013-11-28,fhrs_4_en-GB,4,,FHRS,0
77478,19 - 25 Church Street,Wellingborough,Northamptonshire,,Gloucester Public House,Pub/bar/nightclub,7843,0,,166284,5,,52.30328000000000,PI/000009296,241,HealthProtection@wellingborough.gov.uk,Wellingborough,http://www.wellingborough.gov.uk,-0.69298900000000,NN8 4PF,2012-03-30,fhrs_4_en-GB,4,,FHRS,10
77479,40 Gold Street,Wellingborough,Northamptonshire,,Gold Street Fish Bar,Takeaway/sandwich shop,7844,5,,542757,5,,52.30677200000000,PI/000030232,241,HealthProtection@wellingborough.gov.uk,Wellingborough,http://www.wellingborough.gov.uk,-0.69818100000000,NN8 4QY,2014-09-02,fhrs_5_en-GB,5,,FHRS,5
77480,44 Gold Street,Wellingborough,Northamptonshire,,Gold Street News,Retailers - other,4613,5,,167471,0,,52.30693400000000,PI/000011502,241,HealthProtection@wellingborough.gov.uk,Wellingborough,http://www.wellingborough.gov.uk,-0.69656300000000,NN8 4QT,2014-12-09,fhrs_5_en-GB,5,,FHRS,5
77481,3 Olympic Way,Wellingborough,Northamptonshire,,Golden House,Takeaway/sandwich shop,7844,20,,430261,15,,52.30469400000000,PI/000029922,241,HealthProtection@wellingborough.gov.uk,Wellingborough,http://www.wellingborough.gov.uk,-0.71861400000000,NN8 3QE,2014-02-19,fhrs_1_en-GB,1,,FHRS,15
77482,19 Sheep Street,Wellingborough,Northamptonshire,,Golden Lion,Pub/bar/nightclub,7843,10,,170694,10,,52.30052200000000,PI/000018324,241,HealthProtection@wellingborough.gov.uk,Wellingborough,http://www.wellingborough.gov.uk,-0.69232200000000,NN8 1BL,2014-12-08,fhrs_3_en-GB,3,,FHRS,10
77483,Grangefield Residential Home,60 Northampton Road,Earls Barton,Northampton,Grangefield Resid. Home,Other catering premises,7841,0,,161520,0,,52.26891500000000,PI/000001544,241,HealthProtection@wellingborough.gov.uk,Wellingborough,http://www.wellingborough.gov.uk,-0.75686900000000,NN6 0HE,2013-06-27,fhrs_5_en-GB,5,,FHRS,5
77484,2 Stanton Close,Wellingborough,Northamptonshire,,Granovita UK Limited,Distributors/Transporters,7,0,,173530,0,,52.32158900000000,PI/000026043,241,HealthProtection@wellingborough.gov.uk,Wellingborough,http://www.wellingborough.gov.uk,-0.68760700000000,NN8 4HN,2014-01-08,fhrs_5_en-GB,5,,FHRS,0
77485,41-43 Lower Street,Great Doddington,Wellingborough,Northamptonshire,Great Doddington Club,Pub/bar/nightclub,7843,10,,172995,10,,52.27352900000000,PI/000024640,241,HealthProtection@wellingborough.gov.uk,Wellingborough,http://www.wellingborough.gov.uk,-0.70849100000000,NN29 7TL,2013-08-09,fhrs_2_en-GB,2,,FHRS,15
77486,,,,,Great Doddington Honey & Preserves,Retailers - other,4613,5,,410311,0,,,PI/000029824,241,HealthProtection@wellingborough.gov.uk,Wellingborough,http://www.wellingborough.gov.uk,,,2012-06-27,fhrs_5_en-GB,5,,FHRS,0
77487,Memorial Hall,42B High Street,Great Doddington,Wellingborough,Great Doddington Memorial Hall,Other catering premises,7841,0,,160843,0,,52.27456200000000,PI/000000690,241,HealthProtection@wellingborough.gov.uk,Wellingborough,http://www.wellingborough.gov.uk,-0.70756700000000,NN29 7TQ,2013-10-17,fhrs_5_en-GB,5,,FHRS,0
77488,Great Glen Residential,151 Midland Road,Wellingborough,Northamptonshire,Great Glen Residential Home,Other catering premises,7841,5,,169184,0,,52.30097900000000,PI/000014632,241,HealthProtection@wellingborough.gov.uk,Wellingborough,http://www.wellingborough.gov.uk,-0.68497600000000,NN8 1NB,2013-06-19,fhrs_5_en-GB,5,,FHRS,0
77489,1 White House Industrial Estate,80 Main Road,Earls Barton,Northampton,Green Chilli,Takeaway/sandwich shop,7844,5,,161382,10,,52.27425800000000,PI/000001377,241,HealthProtection@wellingborough.gov.uk,Wellingborough,http://www.wellingborough.gov.uk,-0.75718900000000,NN6 0HJ,2013-11-14,fhrs_4_en-GB,4,,FHRS,5
77490,,,,,Green Tiffin,Other catering premises,7841,5,,542764,5,,,PI/000030490,241,HealthProtection@wellingborough.gov.uk,Wellingborough,http://www.wellingborough.gov.uk,,,2013-05-16,fhrs_5_en-GB,5,,FHRS,5
77491,47 Cheese Lane,Market Street,Wellingborough,Northamptonshire,Greggs,Retailers - other,4613,0,,172779,5,,52.30156300000000,PI/000023988,241,HealthProtection@wellingborough.gov.uk,Wellingborough,http://www.wellingborough.gov.uk,-0.69221800000000,NN8 1EX,2013-01-30,fhrs_5_en-GB,5,,FHRS,0
77492,67 Main Road,Grendon,Northampton,Northamptonshire,Grendon Hall,Other catering premises,7841,5,,162241,5,,52.23728100000000,PI/000002614,241,HealthProtection@wellingborough.gov.uk,Wellingborough,http://www.wellingborough.gov.uk,-0.71288200000000,NN7 1JW,2013-08-30,fhrs_5_en-GB,5,,FHRS,0
77493,Changing Rooms And Recreation Field,40 Yardley Road,Grendon,Northampton,Grendon Sapphires Football Club,Pub/bar/nightclub,7843,0,,559294,0,,,PI/000030588,241,HealthProtection@wellingborough.gov.uk,Wellingborough,http://www.wellingborough.gov.uk,,,2013-09-11,fhrs_5_en-GB,5,,FHRS,0
77494,10 High Street,Irchester,Wellingborough,Northamptonshire,GT's Grill,Takeaway/sandwich shop,7844,5,,430267,5,,52.28449800000000,PI/000029990,241,HealthProtection@wellingborough.gov.uk,Wellingborough,http://www.wellingborough.gov.uk,-0.64356500000000,NN29 7AB,2014-11-03,fhrs_5_en-GB,5,,FHRS,5
77495,28 Swinburne Road,Wellingborough,Northamptonshire,,Hakims,Takeaway/sandwich shop,7844,10,,174387,5,,52.29954900000000,PI/000028949,241,HealthProtection@wellingborough.gov.uk,Wellingborough,http://www.wellingborough.gov.uk,-0.72757600000000,NN8 3RW,2013-07-10,fhrs_4_en-GB,4,,FHRS,5
77496,Hallmark Cards,40 Spring Lane,Sheep Street,Wellingborough,Hallmark Cards/Thorntons,Retailers - other,4613,5,,165105,0,,52.30097500000000,PI/000007464,241,HealthProtection@wellingborough.gov.uk,Wellingborough,http://www.wellingborough.gov.uk,-0.69188300000000,NN8 1EY,2013-12-05,fhrs_5_en-GB,5,,FHRS,0
77497,Beckworth Ltd,120 - 140 Glebe Road,Mears Ashby,Northampton,Hambleton Farm Plc,Retailers - other,4613,5,,173913,5,,52.29847300000000,PI/000027390,241,HealthProtection@wellingborough.gov.uk,Wellingborough,http://www.wellingborough.gov.uk,-0.78154400000000,NN6 0DL,2014-07-23,fhrs_5_en-GB,5,,FHRS,5
77498,,,,,Hamiltons Cakes,Other catering premises,7841,5,,722282,5,,,14/00117/COM,241,HealthProtection@wellingborough.gov.uk,Wellingborough,http://www.wellingborough.gov.uk,,,2014-12-03,fhrs_4_en-GB,4,,FHRS,10
77499,,,,,Hanna's Cakes,Other catering premises,7841,5,,482265,0,,,PI/000030249,241,HealthProtection@wellingborough.gov.uk,Wellingborough,http://www.wellingborough.gov.uk,,,2013-01-14,fhrs_5_en-GB,5,,FHRS,0
77500,125-127 Midland Road,Wellingborough,Northamptonshire,,Harmony Care Limited,Other catering premises,7841,5,,174270,5,,52.30097900000000,PI/000028610,241,HealthProtection@wellingborough.gov.uk,Wellingborough,http://www.wellingborough.gov.uk,-0.68497600000000,NN8 1NB,2014-05-22,fhrs_5_en-GB,5,,FHRS,5
77501,Unit 20 To 21,Boiler House,29 The Embankment,Wellingborough,Hart Family Brewers,Retailers - other,4613,5,,430215,0,,52.29646000000000,PI/000029820,241,HealthProtection@wellingborough.gov.uk,Wellingborough,http://www.wellingborough.gov.uk,-0.67560700000000,NN8 1LD,2012-07-23,fhrs_5_en-GB,5,,FHRS,5
77502,2-20 Booth Drive,Wellingborough,Northamptonshire,,Harvest Kitchen At The Sloane Group,Other catering premises,7841,10,,174349,0,,52.30183300000000,PI/000028818,241,HealthProtection@wellingborough.gov.uk,Wellingborough,http://www.wellingborough.gov.uk,-0.73343600000000,NN8 6GR,2014-07-18,fhrs_4_en-GB,4,,FHRS,10
77503,23 Mulso Road,Finedon,Wellingborough,Northamptonshire,Hawkes Catering Service,Mobile caterer,7846,0,,171927,0,,52.33783400000000,PI/000021791,241,HealthProtection@wellingborough.gov.uk,Wellingborough,http://www.wellingborough.gov.uk,-0.64845000000000,NN9 5DP,2012-11-16,fhrs_5_en-GB,5,,FHRS,0
77504,32-32A Oxford Street,Wellingborough,Northamptonshire,,Heung Yang,Takeaway/sandwich shop,7844,5,,169951,5,,52.30006500000000,PI/000016250,241,HealthProtection@wellingborough.gov.uk,Wellingborough,http://www.wellingborough.gov.uk,-0.70069400000000,NN8 4JE,2013-08-19,fhrs_4_en-GB,4,,FHRS,10
77505,Higgins,23 Turnells Mill Lane,Wellingborough,Northamptonshire,Higgi Hut,Restaurant/Cafe/Canteen,1,5,,715152,5,,52.28895500000000,14/00050/COM,241,HealthProtection@wellingborough.gov.uk,Wellingborough,http://www.wellingborough.gov.uk,-0.68867400000000,NN8 2RN,2014-10-27,fhrs_5_en-GB,5,,FHRS,0
77506,156-158 Midland Road,Wellingborough,Northamptonshire,,Highview Hotel,Hotel/bed & breakfast/guest house,7842,10,,169188,5,,52.30221300000000,PI/000014639,241,HealthProtection@wellingborough.gov.uk,Wellingborough,http://www.wellingborough.gov.uk,-0.67945400000000,NN8 1NG,2012-10-22,fhrs_4_en-GB,4,,FHRS,0
77507,77 Harrowden Road,Wellingborough,Northamptonshire,,Hillcrest,Other catering premises,7841,0,,167731,0,,52.30972100000000,PI/000011998,241,HealthProtection@wellingborough.gov.uk,Wellingborough,http://www.wellingborough.gov.uk,-0.70064700000000,NN8 5BD,2013-08-15,fhrs_5_en-GB,5,,FHRS,0
77508,2 Denford Way,Wellingborough,Northamptonshire,,Hillside,Other catering premises,7841,0,,166558,0,,52.31597800000000,PI/000009769,241,HealthProtection@wellingborough.gov.uk,Wellingborough,http://www.wellingborough.gov.uk,-0.71451800000000,NN8 5UB,2013-06-17,fhrs_5_en-GB,5,,FHRS,0
77509,38 Sheep Street,Wellingborough,Northamptonshire,,Hind Hotel,Hotel/bed & breakfast/guest house,7842,10,,170711,10,,52.30100100000000,PI/000018373,241,HealthProtection@wellingborough.gov.uk,Wellingborough,http://www.wellingborough.gov.uk,-0.69339300000000,NN8 1BY,2013-10-24,fhrs_2_en-GB,2,,FHRS,15
77510,Highfield Leisure Centre,148 Highfield Road,Wellingborough,Northamptonshire,Hindu Community Centre,Other catering premises,7841,0,,168117,0,,52.30595200000000,PI/000012590,241,HealthProtection@wellingborough.gov.uk,Wellingborough,http://www.wellingborough.gov.uk,-0.68342000000000,NN8 1PL,2014-07-04,fhrs_5_en-GB,5,,FHRS,5
77511,69 Swans Lane,Swansgate,Wellingborough,Northamptonshire,Holland And Barrett,Retailers - other,4613,5,,173998,0,,52.30093400000000,PI/000027705,241,HealthProtection@wellingborough.gov.uk,Wellingborough,http://www.wellingborough.gov.uk,-0.69143000000000,NN8 1EZ,2012-09-17,fhrs_5_en-GB,5,,FHRS,0
77512,1-4 Corn Lane,Commercial Way,Wellingborough,Northamptonshire,Home Bargains,Retailers - other,4613,0,,174193,0,,52.30093400000000,PI/000028299,241,HealthProtection@wellingborough.gov.uk,Wellingborough,http://www.wellingborough.gov.uk,-0.69143000000000,NN8 1EZ,2013-07-09,fhrs_5_en-GB,5,,FHRS,0
77513,,,,,Home Made Delights,Other catering premises,7841,5,,174330,0,,,PI/000028759,241,HealthProtection@wellingborough.gov.uk,Wellingborough,http://www.wellingborough.gov.uk,,,2013-11-26,fhrs_5_en-GB,5,,FHRS,0
77514,1 - 3 Whitworth Way,Wellingborough,Northamptonshire,,Homebase Limited,Retailers - other,4613,0,,171501,0,,52.29032400000000,PI/000020591,241,HealthProtection@wellingborough.gov.uk,Wellingborough,http://www.wellingborough.gov.uk,-0.68649300000000,NN8 2EF,2013-11-13,fhrs_5_en-GB,5,,FHRS,0
77515,The Hope Centre,Guillemot Lane,Wellingborough,Northamptonshire,Hope Centre,Other catering premises,7841,5,,167684,0,,52.31403000000000,PI/000011905,241,HealthProtection@wellingborough.gov.uk,Wellingborough,http://www.wellingborough.gov.uk,-0.69188000000000,NN8 4UH,2013-03-11,fhrs_5_en-GB,5,,FHRS,5
77516,100 Main Road,Wilby,Wellingborough,Northamptonshire,Horseshoe Public House,Pub/bar/nightclub,7843,10,,163869,10,,52.28783200000000,PI/000005468,241,HealthProtection@wellingborough.gov.uk,Wellingborough,http://www.wellingborough.gov.uk,-0.72736900000000,NN8 2UE,2013-10-08,fhrs_3_en-GB,3,,FHRS,10
77517,1B Newton Road,Wollaston,Wellingborough,Northamptonshire,I J Panther Fish & Chips,Takeaway/sandwich shop,7844,20,,164398,15,,52.25454400000000,PI/000006218,241,HealthProtection@wellingborough.gov.uk,Wellingborough,http://www.wellingborough.gov.uk,-0.67071700000000,NN29 7QN,2015-01-07,fhrs_1_en-GB,1,,FHRS,15
77518,Enstone Court,Wellingborough,Northamptonshire,,Ibis Hotel,Hotel/bed & breakfast/guest house,7842,10,,167058,5,,52.28539900000000,PI/000010694,241,HealthProtection@wellingborough.gov.uk,Wellingborough,http://www.wellingborough.gov.uk,-0.71194300000000,NN8 2DR,2014-05-15,fhrs_3_en-GB,3,,FHRS,10
77519,Mobile Van - DK08 Ync,Wrenn School,Doddington Road,Wellingborough,Ice Cream Van - Mobile,Mobile caterer,7846,0,,166730,0,,52.29602300000000,PI/000010065,241,HealthProtection@wellingborough.gov.uk,Wellingborough,http://www.wellingborough.gov.uk,-0.69527000000000,NN8 2JJ,2013-12-31,fhrs_5_en-GB,5,,FHRS,0
77520,Ground Floor,50 Angel Lane,Wellingborough,Northamptonshire,Infuse Youth Cafe,Other catering premises,7841,0,,173600,0,,52.30186400000000,PI/000026279,241,HealthProtection@wellingborough.gov.uk,Wellingborough,http://www.wellingborough.gov.uk,-0.69498100000000,NN8 4LA,2013-06-19,fhrs_5_en-GB,5,,FHRS,5
77521,14 Victoria Road,Wellingborough,Northamptonshire,,International Supermarket,Retailers - other,4613,10,,173820,5,,52.30217900000000,PI/000027071,241,HealthProtection@wellingborough.gov.uk,Wellingborough,http://www.wellingborough.gov.uk,-0.68853300000000,NN8 1HN,2013-08-15,fhrs_4_en-GB,4,,FHRS,0
77522,Sports Club,110 High Street,Irchester,Wellingborough,Irchester Bowling Club,Pub/bar/nightclub,7843,10,,162755,10,,52.28449800000000,PI/000003577,241,HealthProtection@wellingborough.gov.uk,Wellingborough,http://www.wellingborough.gov.uk,-0.64356500000000,NN29 7AB,2014-09-02,fhrs_4_en-GB,4,,FHRS,0
77523,12 Wollaston Road,Irchester,Wellingborough,Northamptonshire,Irchester Fish Bar,Takeaway/sandwich shop,7844,10,,162914,10,,52.28064500000000,PI/000003912,241,HealthProtection@wellingborough.gov.uk,Wellingborough,http://www.wellingborough.gov.uk,-0.64778700000000,NN29 7DE,2014-09-29,fhrs_2_en-GB,2,,FHRS,15
77524,High Street,Irchester,Wellingborough,Northamptonshire,Irchester Methodist Church,Other catering premises,7841,5,,162759,5,,52.28449800000000,PI/000003579,241,HealthProtection@wellingborough.gov.uk,Wellingborough,http://www.wellingborough.gov.uk,-0.64356500000000,NN29 7AB,2014-01-27,fhrs_5_en-GB,5,,FHRS,5
77525,Post Office Counters Ltd,2 Wollaston Road,Irchester,Wellingborough,Irchester Post Office,Retailers - other,4613,5,,162943,5,,52.28064500000000,PI/000003955,241,HealthProtection@wellingborough.gov.uk,Wellingborough,http://www.wellingborough.gov.uk,-0.64778700000000,NN29 7DE,2012-08-20,fhrs_5_en-GB,5,,FHRS,5
77526,Alfred Street,Irchester,Wellingborough,Northamptonshire,Irchester Sports Association,Pub/bar/nightclub,7843,5,,162468,5,,52.28056200000000,PI/000002975,241,HealthProtection@wellingborough.gov.uk,Wellingborough,http://www.wellingborough.gov.uk,-0.65073600000000,NN29 7DR,2014-10-06,fhrs_5_en-GB,5,,FHRS,5
77527,36 School Road,Irchester,Wellingborough,Northamptonshire,Irchester Village Hall,Other catering premises,7841,10,,162865,0,,52.28220400000000,PI/000003789,241,HealthProtection@wellingborough.gov.uk,Wellingborough,http://www.wellingborough.gov.uk,-0.64574600000000,NN29 7AW,2014-09-03,fhrs_4_en-GB,4,,FHRS,0
77528,Working Mens Club,1-3 High Street,Irchester,Wellingborough,Irchester Working Mens Club,Pub/bar/nightclub,7843,10,,162733,0,,52.28308500000000,PI/000003533,241,HealthProtection@wellingborough.gov.uk,Wellingborough,http://www.wellingborough.gov.uk,-0.64415000000000,NN29 7AA,2014-07-24,fhrs_4_en-GB,4,,FHRS,0
77529,5 High Street,Wellingborough,Northamptonshire,,Irvins Tea And Coffee,Retailers - other,4613,0,,168083,0,,52.30213000000000,PI/000012543,241,HealthProtection@wellingborough.gov.uk,Wellingborough,http://www.wellingborough.gov.uk,-0.69630800000000,NN8 4HR,2012-10-17,fhrs_5_en-GB,5,,FHRS,0
77530,Irthlingborough Road,Wellingborough,Northamptonshire,,Isebrook Hospital,Other catering premises,7841,5,,168224,5,,52.29768000000000,PI/000012757,241,HealthProtection@wellingborough.gov.uk,Wellingborough,http://www.wellingborough.gov.uk,-0.68337200000000,NN8 1LP,2014-04-17,fhrs_5_en-GB,5,,FHRS,5
77531,225 Orlingbury Road,Isham,Kettering,Northamptonshire,Isham Cricket Club,Pub/bar/nightclub,7843,5,,163381,5,,52.35256300000000,PI/000004598,241,HealthProtection@wellingborough.gov.uk,Wellingborough,http://www.wellingborough.gov.uk,-0.71969700000000,NN14 1HW,2012-06-26,fhrs_5_en-GB,5,,FHRS,0
77532,4 Kettering Road,Isham,Kettering,Northamptonshire,Isham News And Wine,Retailers - other,4613,10,,163351,5,,52.35785200000000,PI/000004552,241,HealthProtection@wellingborough.gov.uk,Wellingborough,http://www.wellingborough.gov.uk,-0.70424300000000,NN14 1HQ,2014-12-16,fhrs_4_en-GB,4,,FHRS,5
77533,104 Mill Road,Wellingborough,Northamptonshire,,J & N News,Retailers - other,4613,10,,169283,0,,52.30402400000000,PI/000014812,241,HealthProtection@wellingborough.gov.uk,Wellingborough,http://www.wellingborough.gov.uk,-0.68469500000000,NN8 1PQ,2012-02-06,fhrs_4_en-GB,4,,FHRS,0
77534,,,,,J L R Baked Kreations,Other catering premises,7841,0,,715155,0,,,14/00061/COM,241,HealthProtection@wellingborough.gov.uk,Wellingborough,http://www.wellingborough.gov.uk,,,2014-10-07,fhrs_5_en-GB,5,,FHRS,5
77535,Sainsburys Store And Petrol,260 Northampton Road,Wellingborough,Northamptonshire,J Sainsbury Plc - Supermarket,Retailers - supermarkets/hypermarkets,7840,0,,169743,0,,52.29230000000000,PI/000015848,241,HealthProtection@wellingborough.gov.uk,Wellingborough,http://www.wellingborough.gov.uk,-0.72071600000000,NN8 3GZ,2014-11-19,fhrs_5_en-GB,5,,FHRS,5
77536,Victoria Mills,London Road,Little Irchester,Wellingborough,J Sainsbury Plc -Bakery Training CTR,Other catering premises,7841,0,,174357,0,,52.28582400000000,PI/000028838,241,HealthProtection@wellingborough.gov.uk,Wellingborough,http://www.wellingborough.gov.uk,-0.67803500000000,NN8 2EB,2014-03-05,fhrs_5_en-GB,5,,FHRS,0
77537,,,,,Jackies Create-A-Cake,Other catering premises,7841,0,,430266,0,,,PI/000029988,241,HealthProtection@wellingborough.gov.uk,Wellingborough,http://www.wellingborough.gov.uk,,,2012-10-17,fhrs_5_en-GB,5,,FHRS,0
77538,19 Newton Road,Wollaston,Wellingborough,Northamptonshire,Jade House,Takeaway/sandwich shop,7844,10,,164400,15,,52.25454400000000,PI/000006222,241,HealthProtection@wellingborough.gov.uk,Wellingborough,http://www.wellingborough.gov.uk,-0.67071700000000,NN29 7QN,2013-12-02,fhrs_2_en-GB,2,,FHRS,5
77539,119-121 Doddington Road,Wellingborough,Northamptonshire,,Jalaram Newsagents,Retailers - other,4613,5,,166662,0,,52.29028000000000,PI/000009975,241,HealthProtection@wellingborough.gov.uk,Wellingborough,http://www.wellingborough.gov.uk,-0.69709500000000,NN8 2LW,2014-12-03,fhrs_5_en-GB,5,,FHRS,5
77540,7 Edison Close,Wellingborough,Northamptonshire,,Jaspers,Other catering premises,7841,,,173417,,,52.31070400000000,PI/000025674,241,HealthProtection@wellingborough.gov.uk,Wellingborough,http://www.wellingborough.gov.uk,-0.73907900000000,NN8 6AH,2014-04-23,fhrs_4_en-GB,4,,FHRS,
77541,46-50 Rutherford Drive,Wellingborough,Northamptonshire,,Jaybeam Limited,Other catering premises,7841,0,,170508,5,,52.29893100000000,PI/000017767,241,HealthProtection@wellingborough.gov.uk,Wellingborough,http://www.wellingborough.gov.uk,-0.73454500000000,NN8 6AX,2014-02-12,fhrs_5_en-GB,5,,FHRS,0
77542,18 Silver Street,Wellingborough,Northamptonshire,,Jennys Restaurant,Other catering premises,7841,5,,172700,5,,52.30145900000000,PI/000023796,241,HealthProtection@wellingborough.gov.uk,Wellingborough,http://www.wellingborough.gov.uk,-0.69415700000000,NN8 1AY,2014-09-19,fhrs_5_en-GB,5,,FHRS,5
77543,27 The Square,Earls Barton,Northampton,Northamptonshire,Jeyes Chemist,Retailers - other,4613,5,,161658,5,,52.26493400000000,PI/000001720,241,HealthProtection@wellingborough.gov.uk,Wellingborough,http://www.wellingborough.gov.uk,-0.75281900000000,NN6 0NA,2013-09-27,fhrs_5_en-GB,5,,FHRS,0
77544,108 Elsden Road,Wellingborough,Northamptonshire,,Joasgn News/Off Licence,Retailers - other,4613,5,,166978,0,,52.30508400000000,PI/000010568,241,HealthProtection@wellingborough.gov.uk,Wellingborough,http://www.wellingborough.gov.uk,-0.67972000000000,NN8 1QE,2012-08-23,fhrs_5_en-GB,5,,FHRS,0
77545,30A Cambridge Street,Wellingborough,Northamptonshire,,Jodi's Jamrock Food,Other catering premises,7841,10,,632872,10,,52.30292900000000,PI/000030924,241,HealthProtection@wellingborough.gov.uk,Wellingborough,http://www.wellingborough.gov.uk,-0.69050600000000,NN8 1DW,2014-10-06,fhrs_2_en-GB,2,,FHRS,15
77546,6 Cannon Street,Wellingborough,Northamptonshire,,Joes Traditional Fish & Chips,Takeaway/sandwich shop,7844,10,,173883,10,,52.30393900000000,PI/000027287,241,HealthProtection@wellingborough.gov.uk,Wellingborough,http://www.wellingborough.gov.uk,-0.68997700000000,NN8 4DJ,2013-12-10,fhrs_3_en-GB,3,,FHRS,10
77547,,,,,John Adams Fish,Retailers - other,4613,5,,174406,0,,,PI/000029023,241,HealthProtection@wellingborough.gov.uk,Wellingborough,http://www.wellingborough.gov.uk,,,2013-03-04,fhrs_5_en-GB,5,,FHRS,0
77548,25A Midland Road,Wellingborough,Northamptonshire,,Just Pizza UK.Com,Takeaway/sandwich shop,7844,0,,169212,10,,52.30174500000000,PI/000014678,241,HealthProtection@wellingborough.gov.uk,Wellingborough,http://www.wellingborough.gov.uk,-0.69077500000000,NN8 1HA,2013-07-29,fhrs_4_en-GB,4,,FHRS,10
77549,109 Nest Farm Crescent,Wellingborough,Northamptonshire,,K D Supermarket,Retailers - other,4613,20,,169573,0,,52.31561300000000,PI/000015398,241,HealthProtection@wellingborough.gov.uk,Wellingborough,http://www.wellingborough.gov.uk,-0.68955900000000,NN8 4TU,2013-09-23,fhrs_1_en-GB,1,,FHRS,5
77550,263 Senwick Drive,Wellingborough,Northamptonshire,,Kandy Korner,Retailers - other,4613,5,,331854,0,,52.29897300000000,PI/000029637,241,HealthProtection@wellingborough.gov.uk,Wellingborough,http://www.wellingborough.gov.uk,-0.67520900000000,NN8 1SD,2012-04-11,fhrs_5_en-GB,5,,FHRS,5
77551,Street Record,The Square,Earls Barton,Northampton,Keiths Fresh Fish,Mobile caterer,7846,10,,173971,0,,,PI/000027602,241,HealthProtection@wellingborough.gov.uk,Wellingborough,http://www.wellingborough.gov.uk,,,2013-07-16,fhrs_4_en-GB,4,,FHRS,5
77552,5 Ridge Gardens,Great Doddington,Wellingborough,Northamptonshire,Kellybeans Coffee,Mobile caterer,7846,0,,615389,0,,52.27891400000000,PI/000030846,241,HealthProtection@wellingborough.gov.uk,Wellingborough,http://www.wellingborough.gov.uk,-0.70598900000000,NN29 7GD,2014-03-26,fhrs_5_en-GB,5,,FHRS,0
77553,Kennedys Bar And Tower Sports Groun,113 Irthlingborough Road,Finedon,Wellingborough,Kennedys Bar,Pub/bar/nightclub,7843,5,,171872,0,,52.33730900000000,PI/000021596,241,HealthProtection@wellingborough.gov.uk,Wellingborough,http://www.wellingborough.gov.uk,-0.64497300000000,NN9 5EJ,2013-07-09,fhrs_5_en-GB,5,,FHRS,0
77554,Kenroyal,19 Oxford Street,Wellingborough,Northamptonshire,Kenroyal Nursing Home,Other catering premises,7841,10,,169970,10,,52.30042700000000,PI/000016286,241,HealthProtection@wellingborough.gov.uk,Wellingborough,http://www.wellingborough.gov.uk,-0.69761900000000,NN8 4HY,2014-05-15,fhrs_3_en-GB,3,,FHRS,10
77555,25 Turnells Mill Lane,Wellingborough,Northamptonshire,,Kentucky Fried Chicken,Takeaway/sandwich shop,7844,5,,171216,10,,52.28842100000000,PI/000019823,241,HealthProtection@wellingborough.gov.uk,Wellingborough,http://www.wellingborough.gov.uk,-0.68917400000000,NN8 2RN,2013-08-23,fhrs_4_en-GB,4,,FHRS,5
77556,40 Cambridge Street,Wellingborough,Northamptonshire,,Kentucky Fried Chicken,Takeaway/sandwich shop,7844,0,,165966,0,,52.30292900000000,PI/000008777,241,HealthProtection@wellingborough.gov.uk,Wellingborough,http://www.wellingborough.gov.uk,-0.69050600000000,NN8 1DW,2012-11-28,fhrs_5_en-GB,5,,FHRS,5
77557,Day Nursery,22-24 Farm Road,Wellingborough,Northamptonshire,Kiddi Caru Day Nursery,Other catering premises,7841,0,,172312,0,,52.31753900000000,PI/000022785,241,HealthProtection@wellingborough.gov.uk,Wellingborough,http://www.wellingborough.gov.uk,-0.70434900000000,NN8 4UF,2013-07-26,fhrs_5_en-GB,5,,FHRS,0
77558,,,,,Kiers Kakes,Other catering premises,7841,0,,648884,0,,,PI/000030945,241,HealthProtection@wellingborough.gov.uk,Wellingborough,http://www.wellingborough.gov.uk,,,2014-03-03,fhrs_5_en-GB,5,,FHRS,0
77559,Olympic Way,Wellingborough,Northamptonshire,,Kingdom Hall,Other catering premises,7841,0,,169894,0,,52.30469400000000,PI/000016121,241,HealthProtection@wellingborough.gov.uk,Wellingborough,http://www.wellingborough.gov.uk,-0.71861400000000,NN8 3QE,2012-08-29,fhrs_5_en-GB,5,,FHRS,0
77560,The Kingfisher,40 High Street,Wellingborough,Northamptonshire,Kingfisher,Pub/bar/nightclub,7843,5,,174140,0,,52.30205100000000,PI/000028121,241,HealthProtection@wellingborough.gov.uk,Wellingborough,http://www.wellingborough.gov.uk,-0.69567900000000,NN8 4HL,2013-12-04,fhrs_5_en-GB,5,,FHRS,0
77561,19 Cannon Street,Wellingborough,Northamptonshire,,Kings Chinese Takeaway,Takeaway/sandwich shop,7844,20,,166021,15,,52.30445100000000,PI/000008853,241,HealthProtection@wellingborough.gov.uk,Wellingborough,http://www.wellingborough.gov.uk,-0.68996200000000,NN8 4DN,2014-05-20,fhrs_1_en-GB,1,,FHRS,15
77562,Rowangate Primary School,Finedon Road,Wellingborough,Northamptonshire,Kingswood Education Catering Ltd @ Rowangate,Other catering premises,7841,10,,722286,5,,52.30702100000000,14/00201/COM,241,HealthProtection@wellingborough.gov.uk,Wellingborough,http://www.wellingborough.gov.uk,-0.68817000000000,NN8 4EB,2014-11-12,fhrs_4_en-GB,4,,FHRS,5
77563,44 Croyland Road,Wellingborough,Northamptonshire,,Kinlochs Bakery,Retailers - other,4613,5,,166501,5,,52.29704100000000,PI/000009688,241,HealthProtection@wellingborough.gov.uk,Wellingborough,http://www.wellingborough.gov.uk,-0.69714600000000,NN8 2JR,2015-01-22,fhrs_5_en-GB,5,,FHRS,5
77564,260 Station Road,Irchester,Wellingborough,Northamptonshire,Knuston Hall,Other catering premises,7841,5,,162773,5,,52.28480200000000,PI/000003617,241,HealthProtection@wellingborough.gov.uk,Wellingborough,http://www.wellingborough.gov.uk,-0.62546400000000,NN29 7EU,2013-10-02,fhrs_5_en-GB,5,,FHRS,5
77565,37 Irthlingborough Road,Finedon,Wellingborough,Northamptonshire,Kohinoor,Other catering premises,7841,5,,482263,10,,52.33915400000000,PI/000030231,241,HealthProtection@wellingborough.gov.uk,Wellingborough,http://www.wellingborough.gov.uk,-0.64751500000000,NN9 5EH,2013-12-03,fhrs_4_en-GB,4,,FHRS,5
77566,5 Silver Street,Wellingborough,Northamptonshire,,Krumbs,Takeaway/sandwich shop,7844,10,,615392,10,,52.30122800000000,PI/000030854,241,HealthProtection@wellingborough.gov.uk,Wellingborough,http://www.wellingborough.gov.uk,-0.69439800000000,NN8 1BQ,2014-02-14,fhrs_4_en-GB,4,,FHRS,0
77567,26 Swinburne Road,Wellingborough,Northamptonshire,,Kun Yi House,Takeaway/sandwich shop,7844,5,,170998,10,,52.29954900000000,PI/000019233,241,HealthProtection@wellingborough.gov.uk,Wellingborough,http://www.wellingborough.gov.uk,-0.72757600000000,NN8 3RW,2013-10-10,fhrs_3_en-GB,3,,FHRS,10
77568,5 - 8 Burystead Place,Wellingborough,Northamptonshire,,La Rocca,Other catering premises,7841,10,,165854,10,,52.30077400000000,PI/000008612,241,HealthProtection@wellingborough.gov.uk,Wellingborough,http://www.wellingborough.gov.uk,-0.69398600000000,NN8 1AH,2015-01-19,fhrs_2_en-GB,2,,FHRS,15
77569,1-8 Bush Close,Wellingborough,Northamptonshire,,Lancum House,Other catering premises,7841,5,,167694,5,,52.30439600000000,PI/000011933,241,HealthProtection@wellingborough.gov.uk,Wellingborough,http://www.wellingborough.gov.uk,-0.70529000000000,NN8 3GL,2014-10-01,fhrs_5_en-GB,5,,FHRS,0
77570,30 Church Street,Wellingborough,Northamptonshire,,Laser Maze,Other catering premises,7841,5,,172496,0,,52.30289200000000,PI/000023292,241,HealthProtection@wellingborough.gov.uk,Wellingborough,http://www.wellingborough.gov.uk,-0.69533200000000,NN8 4PD,2013-06-26,fhrs_4_en-GB,4,,FHRS,10
77571,,,,,Laytons Catering,Other catering premises,7841,0,,410310,0,,,PI/000029823,241,HealthProtection@wellingborough.gov.uk,Wellingborough,http://www.wellingborough.gov.uk,,,2014-09-03,fhrs_5_en-GB,5,,FHRS,0
77572,,,,,Le Bon Cakes,Other catering premises,7841,5,,160454,0,,,PI/000000087,241,HealthProtection@wellingborough.gov.uk,Wellingborough,http://www.wellingborough.gov.uk,,,2013-07-02,fhrs_5_en-GB,5,,FHRS,0
77573,6-8 Farm Road,Wellingborough,Northamptonshire,,Le Spice Merchant,Other catering premises,7841,10,,188831,10,,52.31753900000000,PI/000029497,241,HealthProtection@wellingborough.gov.uk,Wellingborough,http://www.wellingborough.gov.uk,-0.70434900000000,NN8 4UF,2013-07-16,fhrs_3_en-GB,3,,FHRS,10
77574,,,,,Leonoras,Other catering premises,7841,5,,730895,0,,,14/00177/COM,241,HealthProtection@wellingborough.gov.uk,Wellingborough,http://www.wellingborough.gov.uk,,,2014-11-10,fhrs_5_en-GB,5,,FHRS,0
77575,116 Leyland Trading Estate,Irthlingborough Road,Wellingborough,Northamptonshire,Leyland Cafe,Other catering premises,7841,5,,579104,10,,52.30048200000000,PI/000030712,241,HealthProtection@wellingborough.gov.uk,Wellingborough,http://www.wellingborough.gov.uk,-0.66947400000000,NN8 1RT,2013-09-11,fhrs_4_en-GB,4,,FHRS,5
77576,159 Midland Road,Wellingborough,Northamptonshire,,Linden Manor,Other catering premises,7841,5,,169192,5,,52.30174700000000,PI/000014641,241,HealthProtection@wellingborough.gov.uk,Wellingborough,http://www.wellingborough.gov.uk,-0.68209300000000,NN8 1NF,2014-11-14,fhrs_5_en-GB,5,,FHRS,5
77577,41 St Johns Street,Wellingborough,Northamptonshire,,Little Champs Day Nursery,Other catering premises,7841,5,,170950,0,,52.30358100000000,PI/000019079,241,HealthProtection@wellingborough.gov.uk,Wellingborough,http://www.wellingborough.gov.uk,-0.69658800000000,NN8 4LG,2014-06-25,fhrs_5_en-GB,5,,FHRS,5
77578,15 Midland Road,Wellingborough,Northamptonshire,,Little Europe,Retailers - other,4613,10,,174451,0,,52.30174500000000,PI/000029109,241,HealthProtection@wellingborough.gov.uk,Wellingborough,http://www.wellingborough.gov.uk,-0.69077500000000,NN8 1HA,2013-04-22,fhrs_2_en-GB,2,,FHRS,15
77579,94 Main Street,Little Harrowden,Wellingborough,Northamptonshire,Little Harrowden Working Mens Club,Pub/bar/nightclub,7843,0,,162381,0,,52.33545100000000,PI/000002829,241,HealthProtection@wellingborough.gov.uk,Wellingborough,http://www.wellingborough.gov.uk,-0.72275900000000,NN9 5BB,2013-03-04,fhrs_4_en-GB,4,,FHRS,10
77580,39 The Square,Earls Barton,Northampton,Northamptonshire,Little India Restaurant,Other catering premises,7841,5,,172869,10,,52.26493400000000,PI/000024250,241,HealthProtection@wellingborough.gov.uk,Wellingborough,http://www.wellingborough.gov.uk,-0.75281900000000,NN6 0NA,2013-09-30,fhrs_3_en-GB,3,,FHRS,10
77581,The Horsa Hut,Jacksons Lane,Wellingborough,Northamptonshire,Littlestones Pre-School,Other catering premises,7841,10,,172604,5,,52.30333500000000,PI/000023542,241,HealthProtection@wellingborough.gov.uk,Wellingborough,http://www.wellingborough.gov.uk,-0.69879500000000,NN8 4LD,2014-01-27,fhrs_4_en-GB,4,,FHRS,0
77582,9 Farm Road,Wellingborough,Northamptonshire,,LJ's,Takeaway/sandwich shop,7844,5,,174494,5,,52.31753900000000,PI/000029204,241,HealthProtection@wellingborough.gov.uk,Wellingborough,http://www.wellingborough.gov.uk,-0.70434900000000,NN8 4UF,2014-01-29,fhrs_5_en-GB,5,,FHRS,5
77583,Low Farm,Easton Lane,Easton Maudit,Wellingborough,Lloyd T's,Mobile caterer,7846,10,,559293,0,,52.21797900000000,PI/000030583,241,HealthProtection@wellingborough.gov.uk,Wellingborough,http://www.wellingborough.gov.uk,-0.70073400000000,NN29 7NR,2013-06-24,fhrs_2_en-GB,2,,FHRS,15
77584,2 Stubbs Close,Wellingborough,Northamptonshire,,Lloyds Pharmacy,Retailers - other,4613,0,,170958,0,,52.31472000000000,PI/000019091,241,HealthProtection@wellingborough.gov.uk,Wellingborough,http://www.wellingborough.gov.uk,-0.70231900000000,NN8 4UQ,2014-07-22,fhrs_5_en-GB,5,,FHRS,0
77585,31 Thrush Lane,Wellingborough,Northamptonshire,,Lolas Cupcakes,Other catering premises,7841,5,,401658,0,,52.31117100000000,PI/000029702,241,HealthProtection@wellingborough.gov.uk,Wellingborough,http://www.wellingborough.gov.uk,-0.68866400000000,NN8 4TE,2012-05-08,fhrs_5_en-GB,5,,FHRS,0
77586,59A High Street,Finedon,Wellingborough,Northamptonshire,Lovejoys,Other catering premises,7841,0,,171829,0,,52.33892100000000,PI/000021488,241,HealthProtection@wellingborough.gov.uk,Wellingborough,http://www.wellingborough.gov.uk,-0.65468500000000,NN9 5JN,2013-01-24,fhrs_5_en-GB,5,,FHRS,0
77587,84B Albert Road,Wellingborough,Northamptonshire,,Lovely Pan,Other catering premises,7841,20,,615390,15,,52.30722000000000,PI/000030847,241,HealthProtection@wellingborough.gov.uk,Wellingborough,http://www.wellingborough.gov.uk,-0.68583200000000,NN8 1EJ,2014-01-24,fhrs_1_en-GB,1,,FHRS,15
77588,Our Ladys Roman Catholic Junior Sch,Henshaw Road,Wellingborough,Northamptonshire,Lydias After School Club,School/college/university,7845,5,,354664,5,,52.29506100000000,PI/000029699,241,HealthProtection@wellingborough.gov.uk,Wellingborough,http://www.wellingborough.gov.uk,-0.71005000000000,NN8 2BE,2014-06-23,fhrs_5_en-GB,5,,FHRS,0
77589,42 Doddington Road,Earls Barton,Northampton,Northamptonshire,M & B Newsagents,Retailers - other,4613,10,,161149,0,,52.26445500000000,PI/000001073,241,HealthProtection@wellingborough.gov.uk,Wellingborough,http://www.wellingborough.gov.uk,-0.74746900000000,NN6 0NF,2012-03-26,fhrs_4_en-GB,4,,FHRS,0
77590,25 Central Avenue,Wellingborough,Northamptonshire,,M & J Supplies,Mobile caterer,7846,5,,166159,0,,52.29067200000000,PI/000009076,241,HealthProtection@wellingborough.gov.uk,Wellingborough,http://www.wellingborough.gov.uk,-0.70740600000000,NN8 2HB,2013-07-11,fhrs_5_en-GB,5,,FHRS,0
77591,4 Cambridge Street,Wellingborough,Northamptonshire,,M J News,Retailers - other,4613,5,,165965,5,,52.30301500000000,PI/000008776,241,HealthProtection@wellingborough.gov.uk,Wellingborough,http://www.wellingborough.gov.uk,-0.69098700000000,NN8 1DJ,2012-06-22,fhrs_5_en-GB,5,,FHRS,0
77592,1 Dolben Square,Finedon,Wellingborough,Northamptonshire,M Wood Butchers,Retailers - other,4613,20,,171749,10,,52.33771200000000,PI/000021230,241,HealthProtection@wellingborough.gov.uk,Wellingborough,http://www.wellingborough.gov.uk,-0.65663000000000,NN9 5LY,2014-11-27,fhrs_1_en-GB,1,,FHRS,15
77593,Overstone Lakes Caravan Park,Ecton Lane,Sywell,Northampton,Mackies Cafe,Other catering premises,7841,10,,173868,0,,,PI/000027249,241,HealthProtection@wellingborough.gov.uk,Wellingborough,http://www.wellingborough.gov.uk,,,2014-05-22,fhrs_4_en-GB,4,,FHRS,5
77594,1A Church Street,Finedon,Wellingborough,Northamptonshire,Maison Verte,Other catering premises,7841,10,,605522,0,,52.33825000000000,PI/000030794,241,HealthProtection@wellingborough.gov.uk,Wellingborough,http://www.wellingborough.gov.uk,-0.65891800000000,NN9 5NA,2013-10-08,fhrs_4_en-GB,4,,FHRS,10
77595,44 High Street,Earls Barton,Northampton,Northamptonshire,Mandarin House,Takeaway/sandwich shop,7844,5,,161272,5,,52.26659500000000,PI/000001265,241,HealthProtection@wellingborough.gov.uk,Wellingborough,http://www.wellingborough.gov.uk,-0.75094000000000,NN6 0JG,2013-08-02,fhrs_4_en-GB,4,,FHRS,10
77596,Manor Farm,Hardwick Village,Hardwick,Wellingborough,Manor Farm Hardwick,Mobile caterer,7846,10,,542766,5,,52.32107300000000,PI/000030492,241,HealthProtection@wellingborough.gov.uk,Wellingborough,http://www.wellingborough.gov.uk,-0.75199000000000,NN9 5AL,2013-05-08,fhrs_4_en-GB,4,,FHRS,5
77597,22 London Road,Wellingborough,Northamptonshire,,Marks And Spencer Simply Food,Retailers - other,4613,0,,401661,0,,52.29363300000000,PI/000029817,241,HealthProtection@wellingborough.gov.uk,Wellingborough,http://www.wellingborough.gov.uk,-0.68572100000000,NN8 2DP,2012-05-30,fhrs_5_en-GB,5,,FHRS,0
77598,25 Midland Road,Wellingborough,Northamptonshire,,Marmaras BBQ House,Takeaway/sandwich shop,7844,10,,169214,10,,52.30174500000000,PI/000014679,241,HealthProtection@wellingborough.gov.uk,Wellingborough,http://www.wellingborough.gov.uk,-0.69077500000000,NN8 1HA,2013-10-31,fhrs_3_en-GB,3,,FHRS,10
77599,2 Pebble Lane,Wellingborough,Northamptonshire,,Maxim,Retailers - other,4613,10,,570315,5,,52.30228000000000,PI/000030627,241,HealthProtection@wellingborough.gov.uk,Wellingborough,http://www.wellingborough.gov.uk,-0.69276900000000,NN8 1AS,2013-06-28,fhrs_3_en-GB,3,,FHRS,10
77600,Mcdonalds Restaurants Ltd,Enstone Court,Wellingborough,Northamptonshire,McDonalds,Restaurant/Cafe/Canteen,1,0,,165266,0,,52.28539900000000,PI/000007726,241,HealthProtection@wellingborough.gov.uk,Wellingborough,http://www.wellingborough.gov.uk,-0.71194300000000,NN8 2DR,2013-07-30,fhrs_5_en-GB,5,,FHRS,0
77601,1-2 Market Street,Wellingborough,Northamptonshire,,McDonalds Restaurant,Restaurant/Cafe/Canteen,1,0,,169005,5,,52.30186900000000,PI/000014280,241,HealthProtection@wellingborough.gov.uk,Wellingborough,http://www.wellingborough.gov.uk,-0.69307400000000,NN8 1AN,2014-11-13,fhrs_5_en-GB,5,,FHRS,5
77602,4A Cannon Street,Wellingborough,Northamptonshire,,Megna  Tandoori,Takeaway/sandwich shop,7844,10,,166031,10,,52.30393900000000,PI/000008874,241,HealthProtection@wellingborough.gov.uk,Wellingborough,http://www.wellingborough.gov.uk,-0.68997700000000,NN8 4DJ,2014-07-16,fhrs_3_en-GB,3,,FHRS,5
77603,55 Penrith Drive,Wellingborough,Northamptonshire,,Mencap Homes,Other catering premises,7841,0,,164761,5,,52.30794500000000,PI/000006852,241,HealthProtection@wellingborough.gov.uk,Wellingborough,http://www.wellingborough.gov.uk,-0.71586500000000,NN8 3XH,2012-01-31,fhrs_4_en-GB,4,,FHRS,10
77604,12 - 16 High Street,Earls Barton,Northampton,Northamptonshire,Meraz,Takeaway/sandwich shop,7844,5,,161257,10,,52.26659500000000,PI/000001242,241,HealthProtection@wellingborough.gov.uk,Wellingborough,http://www.wellingborough.gov.uk,-0.75094000000000,NN6 0JG,2014-01-06,fhrs_3_en-GB,3,,FHRS,10
77605,Wollaston Methodist Church,College Street,Wollaston,Wellingborough,Methodist Schoolroom,Other catering premises,7841,10,,163991,10,,52.25632400000000,PI/000005689,241,HealthProtection@wellingborough.gov.uk,Wellingborough,http://www.wellingborough.gov.uk,-0.67155800000000,NN29 7SF,2013-05-30,fhrs_4_en-GB,4,,FHRS,0
77606,,,,,Michelle Forbes,Other catering premises,7841,5,,605521,5,,,PI/000030786,241,HealthProtection@wellingborough.gov.uk,Wellingborough,http://www.wellingborough.gov.uk,,,2013-11-13,fhrs_5_en-GB,5,,FHRS,0
77607,Mill Road Baptist Church Between 9,Mill Road,Wellingborough,Northamptonshire,Mill Road Baptist Church  And Hall,Other catering premises,7841,10,,169372,5,,,PI/000014956,241,HealthProtection@wellingborough.gov.uk,Wellingborough,http://www.wellingborough.gov.uk,,,2011-12-22,fhrs_4_en-GB,4,,FHRS,5
77608,38A Mill Road,Wellingborough,Northamptonshire,,Mill Road Supermarket,Retailers - other,4613,10,,174312,0,,52.30375800000000,PI/000028697,241,HealthProtection@wellingborough.gov.uk,Wellingborough,http://www.wellingborough.gov.uk,-0.68659500000000,NN8 1PF,2013-12-02,fhrs_4_en-GB,4,,FHRS,0
77609,39-41 Midland Road,Wellingborough,Northamptonshire,,Millennium Pizzas,Takeaway/sandwich shop,7844,5,,169220,5,,52.30158300000000,PI/000014693,241,HealthProtection@wellingborough.gov.uk,Wellingborough,http://www.wellingborough.gov.uk,-0.68912300000000,NN8 1HF,2013-08-05,fhrs_5_en-GB,5,,FHRS,5
77610,3 Bridle Close,Wellingborough,Northamptonshire,,Millies Cafe,Other catering premises,7841,0,,173784,5,,52.32225500000000,PI/000026938,241,HealthProtection@wellingborough.gov.uk,Wellingborough,http://www.wellingborough.gov.uk,-0.69091800000000,NN8 4RN,2013-06-07,fhrs_5_en-GB,5,,FHRS,5
77611,28C Burton Road,Finedon,Wellingborough,Northamptonshire,Milligans Kitchen,Other catering premises,7841,5,,683420,5,,52.34184500000000,14/00054/COM,241,HealthProtection@wellingborough.gov.uk,Wellingborough,http://www.wellingborough.gov.uk,-0.65089700000000,NN9 5HX,2014-06-18,fhrs_5_en-GB,5,,FHRS,5
77612,15 Dale Close,Wellingborough,Northamptonshire,,Mobile Barista Limited,Mobile caterer,7846,5,,173658,0,,52.30656000000000,PI/000026502,241,HealthProtection@wellingborough.gov.uk,Wellingborough,http://www.wellingborough.gov.uk,-0.72406000000000,NN8 3UR,2012-11-05,fhrs_5_en-GB,5,,FHRS,0
77613,The Monk And Minstrel,5 Kettering Road,Isham,Kettering,Monk & Minstrel,Pub/bar/nightclub,7843,5,,173835,5,,52.35785200000000,PI/000027097,241,HealthProtection@wellingborough.gov.uk,Wellingborough,http://www.wellingborough.gov.uk,-0.70424300000000,NN14 1HQ,2014-06-11,fhrs_5_en-GB,5,,FHRS,5
77614,7-11 Claudius Way,Irchester,Wellingborough,Northamptonshire,Monsoon Accessorize,Other catering premises,7841,5,,173419,10,,52.29058500000000,PI/000025679,241,HealthProtection@wellingborough.gov.uk,Wellingborough,http://www.wellingborough.gov.uk,-0.66805500000000,NN8 2DH,2013-08-07,fhrs_4_en-GB,4,,FHRS,5
77615,South Lodge,100 Wellingborough Road,Ecton,Northampton,Mr Beesley - South Lodge Farm,Manufacturers/packers,7839,0,,162171,5,,,PI/000002501,241,HealthProtection@wellingborough.gov.uk,Wellingborough,http://www.wellingborough.gov.uk,,,2014-10-15,fhrs_5_en-GB,5,,FHRS,5
77616,Market Square,Orient Way,Wellingborough,Northamptonshire,Mr D Marriott - Market Stall,Retailers - other,4613,5,,169038,0,,,PI/000014346,241,HealthProtection@wellingborough.gov.uk,Wellingborough,http://www.wellingborough.gov.uk,,,2013-02-01,fhrs_5_en-GB,5,,FHRS,0
77617,43 Windermere Drive,Wellingborough,Northamptonshire,,Mrs J's Snacks,Mobile caterer,7846,5,,171530,10,,52.30765400000000,PI/000020645,241,HealthProtection@wellingborough.gov.uk,Wellingborough,http://www.wellingborough.gov.uk,-0.72216600000000,NN8 3XQ,2014-10-15,fhrs_4_en-GB,4,,FHRS,5
77618,8 High Street,Irchester,Wellingborough,Northamptonshire,Mums Crumbs,Other catering premises,7841,5,,174533,5,,52.28449800000000,PI/000029331,241,HealthProtection@wellingborough.gov.uk,Wellingborough,http://www.wellingborough.gov.uk,-0.64356500000000,NN29 7AB,2013-08-30,fhrs_5_en-GB,5,,FHRS,0
77619,11-17 Booth Drive,Wellingborough,Northamptonshire,,Musgrave Retail Partners,Distributors/Transporters,7,0,,165396,0,,52.30183300000000,PI/000007951,241,HealthProtection@wellingborough.gov.uk,Wellingborough,http://www.wellingborough.gov.uk,-0.73343600000000,NN8 6GR,2012-10-15,fhrs_5_en-GB,5,,FHRS,5
77620,11-17 Booth Drive,Wellingborough,Northamptonshire,,Musgrave Retail Partners GB Ltd,Distributors/Transporters,7,0,,165393,0,,52.30183300000000,PI/000007947,241,HealthProtection@wellingborough.gov.uk,Wellingborough,http://www.wellingborough.gov.uk,-0.73343600000000,NN8 6GR,2012-10-15,fhrs_5_en-GB,5,,FHRS,5
77621,4 Heath Rise,Wellingborough,Northamptonshire,,National Autistic Society,Hospitals/Childcare/Caring Premises,5,5,,682141,0,,52.31199900000000,PI/000012275,241,HealthProtection@wellingborough.gov.uk,Wellingborough,http://www.wellingborough.gov.uk,-0.71576200000000,NN8 5QN,2013-10-03,fhrs_5_en-GB,5,,FHRS,5
77622,97 Gillitts Road,Wellingborough,Northamptonshire,,National Autistic Society Co Ltd,Other catering premises,7841,10,,167412,10,,52.29620300000000,PI/000011391,241,HealthProtection@wellingborough.gov.uk,Wellingborough,http://www.wellingborough.gov.uk,-0.70837400000000,NN8 2HX,2014-04-28,fhrs_3_en-GB,3,,FHRS,5
77623,31A Oxford Street,Wellingborough,Northamptonshire,,Nemo's Fish Bar,Takeaway/sandwich shop,7844,10,,169950,10,,52.30006500000000,PI/000016248,241,HealthProtection@wellingborough.gov.uk,Wellingborough,http://www.wellingborough.gov.uk,-0.70069400000000,NN8 4JE,2014-09-19,fhrs_3_en-GB,3,,FHRS,10
77624,Service Station Northbound,A45 Nene Valley Way,Ecton,Northampton,Nene Valley Service Station (North),Retailers - other,4613,0,,169569,0,,,PI/000015389,241,HealthProtection@wellingborough.gov.uk,Wellingborough,http://www.wellingborough.gov.uk,,,2014-07-24,fhrs_5_en-GB,5,,FHRS,0
77625,Service Station Southbound,A45 Nene Valley Way,Ecton,Northampton,Nene Valley Services (South),Retailers - other,4613,5,,169570,0,,,PI/000015390,241,HealthProtection@wellingborough.gov.uk,Wellingborough,http://www.wellingborough.gov.uk,,,2015-01-27,fhrs_5_en-GB,5,,FHRS,0
77626,Pre School Playgroup,Wellingborough Bowling Club,Hatton Street,Wellingborough,New Avenue Pre-School,Other catering premises,7841,10,,410307,5,,52.30671500000000,PI/000029728,241,HealthProtection@wellingborough.gov.uk,Wellingborough,http://www.wellingborough.gov.uk,-0.70035300000000,NN8 5AS,2012-06-29,fhrs_4_en-GB,4,,FHRS,5
