,businessname,ratingvalue,structural,hygiene,confidenceinmanagement,ratingdate,latitude,longitude
371081,1882 Cafe And Bistro,5,5,5,5,2014-02-11,54.339204,-1.434393
371082,3 Croft Heads,5,0,0,0,2012-06-28,54.2264862061,-1.34434580803
371083,A Matter Of Taste,Exempt,nan,nan,nan,2014-07-18,,
371084,A Suggitt Ltd.,5,5,5,5,2013-08-09,54.489143,-1.135996
371085,A V Fawcett And Sons,5,0,0,0,2014-08-20,54.449968,-1.103986
371086,Abbeyfield (Thirsk & Sowerby) Society,5,0,0,5,2013-08-09,54.233644,-1.343419
371087,Acorn Preserves,5,5,5,5,2013-10-17,54.208669,-1.214318
371088,Adams Pizza,5,5,5,5,2013-12-16,54.340127,-1.434026
371089,Ainderby Social Club,4,10,5,5,2013-06-28,54.333854,-1.445647
371090,Ainderby Steeple C Of E Primary School,5,0,0,0,2013-06-06,54.323659,-1.498135
371091,Aiskew Leeming Bar C Of E School,5,5,5,5,2004-10-11,54.303523,-1.559281
371092,Alders Shop,5,5,5,5,2012-08-09,54.081975,-1.241934
371093,Aldwark Arms,5,0,5,5,2014-05-16,54.066901,-1.28866
371094,Aldwark Manor Golf & Spa,5,5,5,5,2013-10-04,54.062039,-1.284236
371095,All Saints Parish Church Annexe,Exempt,nan,nan,nan,2004-07-02,54.4240493774,-1.52812027931
371096,All Saints RC Primary School,5,5,5,5,2010-07-19,54.227644,-1.345631
371097,Allerton Court Hotel,5,5,5,5,2014-03-06,54.347546,-1.442693
371098,Allertonshire School (West),5,0,0,0,2014-01-09,54.345694,-1.432812
371099,Alne CP School,5,5,0,5,2014-03-03,54.082715,-1.245222
371100,Alne Hall,5,0,0,0,2013-11-12,54.080221,-1.241599
371101,Alne Pre-School Playgroup,5,0,5,0,2014-12-18,54.082715,-1.245222
371102,Alverton CP School  Key Stage 2,5,0,0,0,2013-06-07,54.344798,-1.42201
371103,Angel Inn,4,10,5,5,2014-02-28,54.122109,-1.192653
371104,APB Convenience Foods - Staff Canteen,Exempt,nan,nan,nan,2014-08-14,54.305661,-1.563915
371105,Applegarth County Primary School,5,5,5,5,2014-12-05,54.338205,-1.437975
371106,Appleton Wiske CP School,5,5,0,0,2009-01-15,54.435691,-1.39921
371107,Appleton Wiske Playgroup,5,5,5,5,2012-09-20,54.435433,-1.399722
371108,Arabica,5,5,0,0,2014-09-23,54.233067,-1.341357
371109,Archers Jersey Ice-cream (Northallerton) Ltd,5,5,5,5,2013-05-30,54.340206,-1.433549
371110,Aroma,5,5,5,5,2013-08-19,54.338937,-1.433166
371111,Asda Supermarket Northallerton,5,0,0,0,2013-12-10,54.342207,-1.432798
371112,Askquiths Butchers,5,0,0,0,2014-02-10,54.289053,-1.592294
371113,Aytons Traditional Yorkshire Fish And Chips,5,5,0,0,2014-10-21,54.488506,-1.133616
371114,B & T Kitson Butchers,Exempt,nan,nan,nan,2013-11-14,54.450595,-1.281194
371115,Bagby Airfield Club,5,5,5,5,2014-10-10,54.2167854309,-1.29265081882
371116,Bagby Inn,5,5,5,5,2014-01-24,54.2188262939,-1.28680348396
371117,Bangla Fusion,4,10,5,5,2013-08-20,54.341043,-1.433676
371118,Barbe Q - Rocx,5,5,0,0,2014-07-17,54.121823,-1.191557
371119,Bassletons Fish Bar,5,0,5,5,2014-11-07,54.46968,-1.195055
371120,BATA Country Store And Easingwold Garden Store,Exempt,nan,nan,nan,2003-07-07,54.121987,-1.206763
371121,Bed & Breakfast,Exempt,nan,nan,nan,2008-08-26,54.335021,-1.451137
371122,Bedale Day Nursery,5,5,0,0,2014-11-21,54.306365,-1.567196
371123,Bedale Grange Nursing Home,5,5,0,5,2014-08-04,54.285797,-1.594216
371124,Bedale Hall,Exempt,nan,nan,nan,2006-01-19,54.29021,-1.594295
371125,Bedale High School,5,0,0,0,2013-06-04,54.284007,-1.590962
371126,Bedale Primary School,4,10,0,0,2014-10-16,54.285739,-1.593141
371127,Bedale Under 5's,5,5,5,5,2006-01-20,54.29021,-1.594295
371128,Bedale Youth Centre,Exempt,nan,nan,nan,2002-02-06,54.284007,-1.590962
371129,Beechwood Nursing Home,5,5,0,0,2014-02-11,54.336367,-1.440922
371130,Beeswing Inn,5,5,5,5,2013-05-17,54.4229049683,-1.5276556015
371131,Bellina,5,5,5,5,2006-02-24,54.339593,-1.434972
371132,Beningbrough Hall Restaurant,5,0,0,0,2013-06-25,54.020692,-1.210476
371133,Benkhill Lodge Residential Home,5,0,5,0,2014-01-29,54.285785,-1.590698
371134,Bentley Of York,5,0,5,5,2013-01-18,54.090954,-1.231955
371135,Bettys Cafe/Tearooms,5,0,5,0,2013-11-13,54.339286,-1.43473
371136,Bexters Tea Room,5,0,0,0,2013-06-06,54.467366,-1.21343
371137,Bexters Tea Room,5,0,0,0,2013-06-06,54.470856,-1.190804
371138,Big D's BBQ,5,5,0,0,2014-06-12,54.462023,-1.180302
371139,Big Sheep/ Little Cow Farm Attraction,3,10,5,10,2014-01-24,54.287995,-1.585285
371140,Bite Size Bakes,5,0,0,0,2013-10-30,,
371141,Black Bull,5,5,0,5,2014-11-11,54.233225,-1.342321
371142,Black Bull Inn,5,0,0,0,2012-08-21,54.434106,-1.465538
371143,Black Horse Inn,2,10,15,10,2014-03-13,54.070272,-1.215083
371144,Black Swan,5,0,0,0,2013-04-30,54.236311,-1.346277
371145,Blackwell Ox,3,10,10,5,2013-11-22,54.074655,-1.113613
371146,Bliss Cafe & Patisserie,4,5,5,10,2014-12-03,54.233513,-1.342317
371147,Borrowby Nursery School,5,5,5,0,2014-02-04,54.28872,-1.340178
371148,Borrowby Nursery School,5,5,5,5,2010-02-24,54.347342,-1.346317
371149,Botanic Centre Middlesbrough Ltd,Exempt,nan,nan,nan,2012-09-20,54.466462,-1.184256
371150,Brafferton C Of E Primary School,5,5,5,5,2005-09-21,54.126151,-1.331623
371151,Brambly Hedge Day Nursery,5,5,5,5,2015-01-27,54.336342,-1.427942
371152,Branwen Farbrother,4,5,5,10,2012-04-19,54.0211,-1.157993
371153,Bread Actually,4,10,5,5,2014-03-13,54.287995,-1.585285
371154,Breckenbrough School,4,5,5,10,2014-12-12,54.24296,-1.410344
371155,Bright Beginnings(2007),5,5,0,0,2014-08-11,54.284102,-1.587274
371156,Broadacres Rivendale,5,5,5,5,2015-01-27,54.336793,-1.422537
371157,"Broadacres, The Orchards",2,15,10,10,2014-10-07,54.360503,-1.428653
371158,Brompton Convenience Store,5,0,0,0,2011-07-28,54.360188,-1.426672
371159,Brompton CP School,5,0,5,5,2015-01-07,54.362187,-1.423613
371160,Broomfield Cp School,5,5,0,5,2014-11-04,54.330616,-1.435264
371161,Buck Hotel,5,5,5,5,2013-10-22,54.488202,-1.142638
371162,Buck Inn,4,10,0,5,2014-12-11,54.389761,-1.140995
371163,Burn Hall Hotel,2,15,5,10,2014-09-26,54.081742,-1.16982
371164,Burneston C Of E Primary School,5,0,0,0,2013-09-09,54.260253,-1.529239
371165,Burneston Post Office,Exempt,nan,nan,nan,2009-02-10,54.261459,-1.529655
371166,Busby Stoop Garage Ltd,5,0,5,0,2014-05-23,54.221153,-1.415241
371167,Buttylicious,5,0,0,5,2013-05-22,54.350202,-1.597628
371168,Bytheway Stores,4,0,10,5,2014-03-07,54.233997,-1.333948
371169,Cafe Bar Plus,5,0,0,5,2013-04-04,54.342636,-1.430393
371170,Cafe Gourmet,5,5,0,5,2013-07-09,54.463726,-1.178402
371171,Cafe L'Antico,4,5,5,10,2015-01-27,54.350239,-1.447765
371172,Cafe Natural,5,0,0,0,2013-05-22,54.338304,-1.434251
371173,Caffe Nero,5,5,0,0,2014-11-04,54.232341,-1.341737
371174,Caffe Nero,3,10,10,5,2014-06-13,54.340127,-1.434026
371175,Cake Creations,Exempt,nan,nan,nan,2014-10-23,,
371176,Cakes And Treats Just For You,5,5,5,5,2014-03-27,54.235686,-1.330699
371177,Camilles Pizzeria,4,5,5,10,2012-11-08,54.133977,-1.247474
371178,Camp Hill Ltd (Orangery),3,5,10,10,2010-06-10,54.237314,-1.523931
371179,Carlton And Faceby C Of E Primary School,5,0,0,5,2013-03-05,54.43123,-1.217914
371180,Carlton Miniott County Primary School,5,5,5,5,2014-12-12,54.22341,-1.395362
371181,Carlton Outdoor Education Centre,5,5,0,0,2010-11-04,54.432195,-1.21435
371182,Carlton Stores,5,0,5,5,2013-08-07,54.22798,-1.376872
371183,Carricks Fish Ltd,5,0,0,5,2014-02-28,54.254449,-1.594232
371184,Casa Rustica,5,0,0,0,2013-08-21,54.339593,-1.434972
371185,Casey's (Great Ayton) Ltd,5,5,5,5,2013-07-04,54.488506,-1.133616
371186,Cash Stores,Exempt,nan,nan,nan,2011-08-24,54.1694793701,-1.20424640179
371187,Caterplus,4,0,10,5,2014-08-14,54.336194,-1.438494
371188,Centrepoint,5,0,5,5,2009-03-09,54.337556,-1.430001
371189,"Chapters Deli, Bistro And Wine Bar",1,15,15,20,2014-10-07,54.469781,-1.192615
371190,Chapters Restaurant,5,5,5,0,2015-01-22,54.469622,-1.191785
371191,Chef's,4,5,10,5,2013-08-14,54.322814,-1.498145
371192,Childrens Resource Centre,5,0,0,0,2004-10-21,54.323648,-1.499827
371193,Chip And Dale,5,0,0,0,2014-06-13,54.189446,-1.365667
371194,Chips And Things,5,0,0,0,2013-06-27,54.1334648132,-1.31587803364
371195,Choosi Chilli,5,0,0,0,2011-03-15,54.06511,-1.229956
371196,Chuck Wagon,4,5,0,10,2014-03-03,54.071541,-1.194872
371197,Chung's,5,5,5,5,2013-06-17,54.232858,-1.34423
371198,Chunk,4,5,5,10,2010-07-22,54.474082,-1.18537
371199,Church House,Exempt,nan,nan,nan,2012-11-15,54.366604,-1.298622
371200,Clarks Bakers,0,20,15,20,2014-11-20,54.118714,-1.191679
371201,Clarks Bakers,2,15,5,10,2014-11-20,54.121792,-1.192353
371202,Classic Diner,5,0,5,5,2014-03-21,54.18072,-1.345591
371203,Cleveland Tontine,5,0,0,0,2013-09-04,54.387348,-1.317809
371204,Cloud Cupcake Land,5,0,0,0,2014-05-22,,
371205,Club Amadeus,5,0,5,0,2009-02-18,54.340736,-1.433449
371206,Co Operative,4,10,5,5,2014-09-12,54.347839,-1.439874
371207,Cocosmith,5,0,0,0,2014-03-04,,
371208,Coco-Vanilla,5,5,0,5,2013-06-21,54.170684,-1.301326
371209,College Pizzas,1,15,10,20,2014-11-26,54.470856,-1.190804
371210,Collingwood Catering Ltd,Exempt,nan,nan,nan,2014-01-29,54.346755,-1.575064
371211,Convenience Store United Co-op,5,0,0,0,2013-06-18,54.470124,-1.192886
371212,Cooks Fisheries,1,10,10,20,2014-08-14,54.12072,-1.195955
371213,Co-operative,3,10,10,5,2009-10-09,54.288866,-1.592941
371214,Co-operative Food,5,0,0,0,2013-06-18,54.472071,-1.188419
371215,Co-operative Food,5,0,0,0,2014-11-06,54.333854,-1.445647
371216,Cooplands,5,5,0,0,2013-05-01,54.339204,-1.434393
371217,Cooplands,5,0,0,0,2013-10-29,54.470124,-1.192886
371218,Corner House Hotel Ltd,4,0,10,5,2013-07-28,54.305387,-1.560122
371219,Cost Cutter,5,5,5,5,2014-05-15,54.118714,-1.191679
371220,Costa,5,0,0,0,2014-03-10,54.469622,-1.191785
371221,Costa,5,5,5,5,2014-12-11,54.338437,-1.432004
371222,Costa Coffee,5,5,5,5,2014-10-06,54.338304,-1.434251
371223,Costa Coffee,5,0,0,0,2013-11-15,54.339708,-1.436524
371224,Cote Ghyll Mill (YHA),5,0,0,0,2013-03-19,54.37644,-1.291696
371225,Countrymarkets And Winnies Yorkshire Delights,5,5,5,5,2013-01-31,,
371226,Coxwold Tea Rooms,4,10,5,5,2014-10-10,54.187695,-1.182411
371227,Crakehall CE Primary School,5,0,0,0,2014-10-16,54.305164,-1.627558
371228,Crathorne Arms,5,5,5,5,2014-01-15,54.4613494873,-1.32103812695
371229,Crathorne Hall Hotel,5,0,0,0,2013-07-30,54.470857,-1.316175
371230,Crathorne Post Office,Exempt,nan,nan,nan,2006-12-01,54.461349,-1.321038
371231,Craven Gilpin & Sons (1982) Ltd. At Thirsk Racecourse,5,5,5,0,2014-06-17,54.231319,-1.35059
371232,Crayke C Of E Primary School,5,0,0,0,2014-02-14,54.1263,-1.1461
371233,Crayke Sports And Recreational Club,3,10,5,10,2013-07-11,54.1263,-1.1461
371234,Croft Kitchen,5,0,5,5,2014-03-06,54.074903,-1.105905
371235,Crofters Foods Ltd,5,0,0,0,2013-08-29,54.232518,-1.329845
371236,Cross Keys Inn,4,5,5,10,2009-02-04,54.233652,-1.344815
371237,Crown And Anchor,4,5,5,10,2014-10-06,54.222117,-1.337437
371238,Cupcake Creations By Heidi,5,0,5,5,2012-08-08,54.238368,-1.337821
371239,Cupcake Dreams,5,0,0,5,2014-09-29,54.288499,-1.590518
371240,Cupcake Dreams,5,5,0,5,2012-05-18,54.288572,-1.590993
371241,Cuzins,5,5,5,5,2013-10-10,54.1334648132,-1.31587803364
371242,CWC Malings Ltd,4,0,5,10,2014-12-15,54.287469,-1.594414
371243,D Petch,5,5,5,5,2014-10-21,54.488506,-1.133616
371244,Dalepak,Exempt,nan,nan,nan,2014-08-14,54.305661,-1.563915
371245,Dalton Diner,3,10,10,10,2014-03-27,54.172589,-1.362937
371246,Dalton Post Office,Exempt,nan,nan,nan,2008-09-10,54.180706,-1.341393
371247,Darrowby Cakes,Exempt,nan,nan,nan,2013-07-12,,
371248,Dexters Caterers,5,0,0,0,2013-10-29,54.462023,-1.180302
371249,Diner 168,5,5,0,5,2013-07-26,54.189446,-1.365667
371250,Dinky Deli,5,5,5,5,2015-01-29,54.452104,-1.28251
371251,Dog And Gun,5,5,5,0,2014-03-27,54.286196,-1.333982
371252,Dooley's,4,5,10,5,2014-10-16,54.120401,-1.192625
371253,Dough,1,5,10,20,2015-01-14,54.119184,-1.192113
371254,Duncan Cullen's,5,5,5,5,2013-11-25,54.339895,-1.424816
371255,Dutch House,5,5,5,5,2014-05-15,54.137882,-1.129361
371256,E Clark Catering,4,0,0,10,2014-03-07,54.1334648132,-1.31587803364
371257,Easby Hogs (catering Trailer),5,0,0,0,2013-12-18,54.454795,-1.107659
371258,Easingwold Country Market,Exempt,nan,nan,nan,2008-11-23,54.09076,-1.076469
371259,Easingwold County Primary School,5,0,0,0,2014-03-03,54.125293,-1.201114
371260,Easingwold Golf Club - Bar,Exempt,nan,nan,nan,2014-09-29,54.114797,-1.181215
371261,Easingwold Golf Club Catering,3,10,10,10,2014-09-29,54.114797,-1.181215
371262,Easingwold School,2,15,5,10,2014-09-24,54.11433,-1.191948
371263,East Cowton C Of E Primary School,5,5,0,0,2013-11-13,54.422906,-1.527656
371264,Eastern Spice,1,15,15,20,2014-11-26,54.470124,-1.192886
371265,EDCCA Meals On Wheels,5,0,5,5,2014-12-11,54.122648,-1.198029
371266,Emily's Lunch Box,5,5,0,5,2014-03-03,54.119967,-1.193567
371267,Emma Kerfoot's Ladybirds,5,0,0,0,2014-10-01,54.350671,-1.438251
371268,Emmazing Cakes,5,0,5,0,2014-03-21,,
371269,Emmy Jayne's Nursery School Ltd,5,0,5,5,2014-09-10,54.337797,-1.425753
371270,Euro Pizza,1,15,15,20,2014-07-17,54.233458,-1.342241
371271,Exelby Services Ltd,Exempt,nan,nan,nan,2007-07-10,54.415339,-1.318609
371272,Falconry UK Ltd,4,5,0,10,2012-03-13,54.252812,-1.435145
371273,Fantinos,5,5,5,5,2014-11-08,54.22609,-1.340855
371274,Farm House Bed & Breakfast,4,0,0,10,2012-10-31,54.188024,-1.391495
371275,Farmhouse Bakery,5,5,5,5,2014-02-03,54.289053,-1.592294
371276,Farmway,Exempt,nan,nan,nan,2008-03-03,54.231982,-1.32878
371277,Farmway Trading Ltd,5,0,0,0,2014-04-03,54.460281,-1.18063
371278,Fatso's Filling Station,5,5,0,0,2014-01-07,54.337168,-1.433421
371279,Fatso's Filling Station,5,5,5,5,2013-12-12,54.46923,-1.193598
371280,Fauconberg Arms,5,5,5,5,2013-07-07,54.1876945496,-1.18241155148
371281,Figs Catering Co,5,0,0,0,2013-06-26,54.1334648132,-1.31587803364
371282,First Floor Restaurant,5,0,0,0,2014-06-05,54.339791,-1.435154
371283,First Steps Day Nursery And Big Steps Out Of School Club,5,5,5,5,2014-07-18,54.227777,-1.379314
371284,Flance Acres Cafe,3,10,10,5,2013-08-20,54.355646,-1.328228
371285,Fleece,4,10,5,5,2013-07-05,54.340127,-1.434026
371286,Fletchers Farm Coffee Shop,5,0,0,0,2013-06-18,54.484458,-1.120628
371287,Food For Thought,Exempt,nan,nan,nan,2013-11-08,54.279058,-1.702603
371288,Food N Go,5,5,0,0,2014-10-16,54.293353,-1.580468
371289,Four Seasons,5,5,0,0,2014-12-18,54.303523,-1.559281
371290,Fox And Hounds,5,5,5,5,2013-11-06,54.2489700317,-1.52861559391
371291,Foxy's Food Stop,5,5,5,5,2013-08-27,,
371292,Frank Foy,5,0,0,0,2014-07-03,54.423415,-1.350517
371293,Friarage Hospital,4,10,0,0,2012-04-17,54.342636,-1.430393
371294,Friarage Hospital Regeneration Room,5,0,0,0,2013-12-10,54.342636,-1.430393
371295,Friends Of Applegarth  - (School PTA),5,0,5,5,2014-09-18,54.338205,-1.437975
371296,Garth Cottage Herbs,4,5,0,10,2012-08-21,54.285396,-1.438156
371297,Garthway Tea Rooms,3,10,5,10,2014-10-06,54.340701,-1.435695
371298,Gavel Cafe And Bar,5,5,5,5,2014-09-26,54.224581,-1.326384
371299,Generation Cakes,5,0,0,0,2014-02-28,,
371300,Ginny's Place,3,10,5,10,2014-10-08,54.340701,-1.435695
371301,Glebe Cottage Tea Rooms,5,5,0,0,2013-08-19,54.477192,-1.066121
371302,Gold Cup Inn,5,5,0,5,2014-02-04,54.324775,-1.299902
371303,Goosewood Caravan Park Bar Complex,5,5,5,5,2013-12-13,54.059302,-1.094094
371304,Goulton Grange Day Nursery,4,5,5,10,2014-03-13,54.430929,-1.265907
371305,Gourmet Kitchen,5,5,5,5,2014-09-16,54.232955,-1.340623
371306,Great Ayton Day Centre,5,5,5,5,2006-02-16,54.490061,-1.136146
371307,Great Ayton Methodist Church Community Network Group,5,0,0,0,2013-05-21,54.489143,-1.135996
371308,Great Ayton News,5,5,5,5,2013-10-22,54.489144,-1.139917
371309,Great Smeaton Academy Primary School,5,5,0,0,2013-11-13,54.433349,-1.464993
371310,Green Dragon,3,10,10,10,2014-11-20,54.278117,-1.549677
371311,Greenwell House Nursing Home,5,0,0,0,2014-08-04,54.287469,-1.594415
371312,Greggs Of Yorkshire,5,0,0,0,2013-11-05,54.232341,-1.341737
371313,Greggs.,5,0,0,5,2015-01-08,54.339204,-1.434393
371314,Gullivers Fish Shop,5,5,5,5,2012-11-13,54.492818,-1.132012
371315,Gulshan Tandoori,2,10,15,10,2014-12-04,54.102994,-1.107595
371316,H E Hudson,5,5,5,5,2014-10-10,54.233458,-1.342241
371317,H. Lee & Sons,5,5,0,0,2014-09-23,54.231744,-1.344324
371318,H. Lee And Sons,5,0,0,0,2014-09-23,54.232061,-1.343092
371319,Hackforth & Hornby C Of E Primary School,5,0,0,0,2014-11-24,54.333352,-1.625997
371320,Hambleton Grange,5,0,0,0,2014-02-05,54.229251,-1.360501
371321,HARCAS,5,0,0,0,2012-05-03,54.335701,-1.434902
371322,Hawkswell Milk Products,Exempt,nan,nan,nan,2014-09-10,54.282785,-1.654547
371323,Haynes Arms,3,10,10,10,2014-10-02,54.346835,-1.330987
371324,Henna The Spice Lounge,2,10,15,10,2014-08-07,54.233513,-1.342317
371325,Heron Foods,5,0,0,0,2014-12-16,54.233225,-1.342321
371326,High Moors Fine Foods Of Yorkshire,5,5,0,5,2014-03-03,54.120575,-1.195774
371327,High Paradise Farm Tea Room,5,0,0,0,2014-08-27,54.292039,-1.228465
371328,Hillside House Bed & Breakfast,5,0,0,5,2014-01-27,54.247974,-1.530929
371329,Hog Roast Yorkshire,5,0,0,0,2014-04-14,54.246047,-1.379086
371330,Holly Cottage Farm,5,0,0,5,2013-07-26,54.072236,-1.220013
371331,Holly Tree Cottage,Exempt,nan,nan,nan,2011-03-25,54.1311035156,-1.04387795925
371332,Home Farm Beningbrough,5,5,5,5,2014-10-09,54.021397,-1.208341
371333,Homemade By Gingers,5,0,0,0,2014-07-11,54.493437,-1.130671
371334,Honeywell Bakes,5,5,5,5,2013-01-23,54.082707,-1.264222
371335,Horse Shoe Inn,4,5,5,10,2012-07-19,54.118714,-1.191679
371336,Horseshoe Inn,5,5,5,5,2013-11-08,54.426161,-1.363282
371337,Howards,5,5,0,5,2014-07-22,54.470856,-1.190804
371338,Huby C Of E Primary School,5,0,0,0,2013-12-13,54.080433,-1.143296
371339,Huby Fisheries,5,5,5,5,2005-03-07,54.083114,-1.134925
371340,Hummingbirds Private Day Nursery,5,5,0,5,2012-03-13,54.225204,-1.341559
371341,Hung Moey Restaurant,5,5,5,5,2013-07-09,54.232706,-1.341118
371342,Husthwaite Cof E Primary School,5,0,0,0,2013-11-12,54.168904,-1.20971
371343,Hutton Rudby CP School,5,5,0,0,2013-10-23,54.448166,-1.282286
371344,Hutton Rudby Playgroup & Preschool,5,5,5,5,2000-03-13,54.448166,-1.282286
371345,Ian Lancaster (Meat Sales),0,20,25,30,2013-05-01,54.248009,-1.530698
371346,Incy Wincy's Ltd,4,5,10,5,2014-12-15,54.28997,-1.595158
371347,Ingleby Arncliffe C Of E Primary School,5,0,0,0,2014-11-13,54.400825,-1.315429
371348,Ingleby Greenhow C Of E Primary School,4,10,5,5,2008-03-04,54.449968,-1.103986
371349,Interserve (Facilities Management) Ltd,5,0,0,0,2013-03-22,54.282132,-1.439798
371350,ISS Coffee Shop,5,0,0,0,2011-09-27,54.291667,-1.523366
371351,Itzumna,Exempt,nan,nan,nan,2013-09-04,,
371352,J. Thompson Butcher,5,5,0,0,2013-10-04,54.338129,-1.433331
371353,J.M & Son Greengrocers,Exempt,nan,nan,nan,2008-08-01,54.338129,-1.433331
371354,Jack & Jill's Nursery School,5,5,5,0,2013-07-19,54.233094,-1.331585
371355,Jackie At Turnbulls,5,0,5,5,2014-06-24,54.337154,-1.438205
371356,Jaipur Spice,4,10,5,5,2012-05-16,54.223258,-1.465948
371357,Jaipur Spice Resaurant,3,10,10,10,2013-07-17,54.221153,-1.415241
371358,Jakes Plaice,1,15,10,20,2015-01-14,54.290125,-1.593174
371359,Jans Truckstop,4,5,5,10,2013-07-09,54.418587,-1.317645
371360,JB Cockburn & Sons,5,5,0,0,2014-02-10,54.288605,-1.592621
371361,Jen's Hog Roast,5,5,0,0,2013-10-28,54.424293,-1.341872
371362,JH Hutchinson & Son,Exempt,nan,nan,nan,2006-01-19,54.393241,-1.320422
371363,Jo Jacobs,4,0,5,10,2014-10-17,,
371364,Joe Cornish - Gallery Cafe,5,0,0,0,2013-06-26,54.338783,-1.432784
371365,Johnsons Of Thirsk,5,5,0,0,2014-09-24,54.232568,-1.343759
371366,Joplins Restaurant,5,0,0,0,2014-09-10,54.489144,-1.139917
371367,Jubilee Chop Suey House,4,10,5,5,2013-10-30,54.34003,-1.419216
371368,Julies Cakes And Treats,5,0,0,0,2014-02-27,,
371369,Katie's Cafe (Thirsk Fabrications),5,5,5,5,2013-08-29,54.232569,-1.329261
371370,Kiddlywinks Nursery School,5,5,5,5,2014-09-18,54.337442,-1.436309
371371,Kidzplay Centres Ltd,5,5,5,5,2013-12-11,54.349268,-1.449778
371372,Kingfisher,5,5,5,0,2014-08-26,54.337355,-1.433049
371373,Kings Arms,1,15,15,20,2014-02-20,54.232247,-1.414056
371374,Kings Arms Shop,1,15,15,20,2014-02-20,54.232247,-1.414056
371375,Kings Head Hutton Rudby,5,5,0,5,2013-12-06,54.451008,-1.278103
371376,Kiplin Hall,5,0,0,0,2014-02-11,54.374236,-1.579937
371377,Kirkby And Great Broughton C Of E Primary School,5,0,0,0,2014-06-12,54.446611,-1.168705
371378,Kirkby Fleetham C Of E Primary School,5,5,5,5,2002-01-28,54.344727,-1.563471
371379,Kirkby Fleetham Village Store And Post Office,5,5,5,5,2015-02-03,54.344727,-1.56347
371380,Kitson's,4,10,5,5,2013-12-10,54.338304,-1.434251
371381,Knayton C Of E Primary School,5,0,0,0,2013-06-13,54.28872,-1.340178
371382,Kwong Tung,4,5,10,5,2013-11-21,54.340701,-1.435695
371383,Lady Grays,5,0,5,0,2012-02-22,54.137882,-1.129361
371384,Lambert Memorial Hospital,5,0,0,0,2013-11-05,54.231707,-1.342422
371385,Land And Sea Fisheries,5,0,0,5,2013-10-16,54.225204,-1.341559
371386,Langthornes Buffalo Produce,4,5,5,10,2014-07-11,54.373258,-1.436773
371387,Langthornes Buffalo Produce,3,10,10,5,2014-09-24,54.373258,-1.436773
371388,Leeming & Londonderry County Primary School,5,0,5,5,2002-02-06,54.298842,-1.549773
371389,Leeming Garth Care Centre - HC-One,5,5,0,0,2014-01-29,54.302325,-1.553669
371390,Lewis & Cooper Ltd,5,0,0,0,2015-01-13,54.351246,-1.438228
371391,Lewis & Cooper Ltd.,5,0,0,0,2014-07-29,54.340377,-1.433654
371392,Lidl Uk GmbH,5,0,0,0,2013-04-11,54.231997,-1.34791
371393,Linton On Ouse County Primary School,5,5,0,5,2014-03-03,54.040207,-1.231653
371394,Lion Of Asia,5,5,5,5,2014-10-07,54.340064,-1.433858
371395,Lisa's Sandwich And Snack Bar,5,5,5,0,2013-07-23,54.34395,-1.438404
371396,Little 3,5,5,5,0,2014-03-18,54.232955,-1.340623
371397,Little Bear Pre-School Sessional Care Nursery,4,10,5,5,2014-09-10,54.494287,-1.127581
371398,Live Wires OO5 Club Ltd,3,10,5,10,2014-05-15,54.125293,-1.201114
371399,Liz's Celebration Cakes,Exempt,nan,nan,nan,2014-03-04,,
371400,Lloyd Fraser Bulk Liquids,Exempt,nan,nan,nan,2013-04-10,54.172589,-1.362937
371401,Lollies,4,5,5,10,2014-09-16,54.233458,-1.342241
371402,Long Street Fisheries,5,5,0,0,2013-04-26,54.235806,-1.339319
371403,Looby Loo's Nursery,4,5,10,5,2014-09-18,54.344049,-1.442479
371404,Lord Nelson Inn,5,0,0,0,2014-01-10,54.436791,-1.399795
371405,Lord Stones Cafe,5,0,0,0,2013-10-07,54.419772,-1.193397
371406,Lotti's,5,5,5,5,2014-12-22,54.469521,-1.194024
371407,Low Leases Organic Farm,5,0,0,5,2013-08-19,54.321273,-1.564119
371408,Luckys Play Barn,5,0,0,5,2014-04-03,54.462023,-1.180302
371409,Lynne's Pantry,3,10,10,10,2011-05-11,54.405696,-1.325085
371410,M K Phalp,5,0,0,0,2013-08-19,54.488,-1.13074
371411,Mama G's Baps,5,5,5,5,2013-10-30,54.343357,-1.425107
371412,Margarets Diner A19 South Bound,3,10,10,5,2013-10-30,54.355646,-1.328228
371413,Martins,Exempt,nan,nan,nan,2011-12-02,54.233033,-1.34346
371414,McBretney Associates,5,0,0,0,2012-07-27,54.387353,-1.539228
371415,McColl's,5,0,0,0,2014-03-18,54.488506,-1.133616
371416,McDonalds,5,0,0,0,2014-02-24,54.299064,-1.566243
371417,McMahons,4,10,5,5,2010-11-18,54.470124,-1.192886
371418,Meadowcroft B & B,5,0,0,0,2013-11-19,54.223655,-1.349176
371419,Mencap,5,5,5,5,2014-05-14,54.1173,-1.189917
371420,MENCAP,5,5,5,5,2014-05-14,54.1173,-1.189917
371421,Middlesbrough Hot Sausage,5,5,0,0,2010-06-14,54.45441,-1.443974
371422,Milano,5,5,0,0,2014-08-01,54.233458,-1.342241
371423,Mill Hill County Primary School,5,5,0,5,2014-03-06,54.336342,-1.427942
371424,Millbry Hill,Exempt,nan,nan,nan,2014-09-24,54.468511,-1.193658
371425,Mini Explorers Nursery Ltd,5,0,5,0,2014-07-15,54.337051,-1.602155
371426,Miss Daisy's,3,10,5,10,2014-03-06,,
371427,Moat Farm Granary,Exempt,nan,nan,nan,2014-06-09,,
371428,Moto Services Leeming Bar,5,5,0,0,2014-08-06,54.299064,-1.566243
371429,Mount Vale Care Home,5,5,0,0,2014-08-05,54.346048,-1.445206
371430,Mouseman Visitor Centre,5,5,5,5,2012-06-15,54.209419,-1.213675
371431,Mowbray School,5,5,5,5,2014-12-15,54.281934,-1.599998
371432,Munchkins,5,5,5,5,2014-11-06,54.074903,-1.105905
371433,My Asia,1,15,15,20,2014-11-26,54.337482,-1.433278
371434,Nags Head Catering,5,0,0,0,2014-11-24,54.337168,-1.433421
371435,Natalias Shop,5,0,5,5,2014-03-26,54.232858,-1.34423
371436,New Inn,5,0,0,5,2013-05-16,54.333508,-1.506658
371437,New Inn Motel,5,0,0,0,2013-01-31,54.083336,-1.135731
371438,New Life Baptist Church,5,0,0,5,2014-09-26,54.342383,-1.435903
371439,New Yans Place Takeaway,5,5,5,5,2014-03-28,54.122954,-1.191398
371440,Newboulds,5,5,0,0,2014-08-26,54.470124,-1.192886
371441,Newsham Grange Farm,5,0,0,0,2013-05-01,54.2572,-1.418645
371442,Niche Nosh Ltd,2,15,10,10,2013-08-20,54.203861,-1.589346
371443,Nisa Thirsk,1,10,15,20,2015-01-13,54.235842,-1.339349
371444,North Eastern Co-operative,4,5,10,5,2009-02-04,54.488506,-1.133616
371445,North Yorkshire County Caterers,5,0,0,0,2014-03-28,54.020288,-1.160085
371446,North Yorkshire County Caterers,5,5,5,0,2013-06-07,54.333857,-1.438495
371447,North Yorkshire Youth Ltd - Carlton Lodge,5,5,5,5,2014-02-05,54.22341,-1.395362
371448,Northallerton & District Abbeyfield Society Ltd,5,0,0,0,2014-02-17,54.335701,-1.434902
371449,Northallerton Bowling Club,5,0,0,0,2013-09-02,54.335701,-1.434902
371450,Northallerton College,5,0,0,0,2013-06-21,54.335976,-1.430269
371451,Northallerton Equestrian Centre,4,10,5,5,2014-10-03,54.3375396729,-1.4929831028
371452,Northallerton Pizza Shop,5,5,0,0,2014-09-19,54.34003,-1.419216
371453,Northallerton Rugby Club,5,5,0,0,2014-11-05,54.352879,-1.433713
371454,Northallerton Town Council,Exempt,nan,nan,nan,2004-03-23,54.340552,-1.434544
371455,Northdale Horticulture,Exempt,nan,nan,nan,2008-08-01,54.344363,-1.462057
371456,Number 5 Coffee House,5,5,5,0,2014-11-07,54.488768,-1.132546
371457,NYCC Allertonshire School,5,5,0,0,2014-01-09,54.345694,-1.432812
371458,Oak Trees Care Home,5,5,0,0,2014-01-17,54.083479,-1.239415
371459,Oakleaf Bacon,5,5,5,5,2014-08-14,54.065157,-1.092286
371460,Odana Cafe And Take Away,5,5,5,5,2013-08-16,54.341043,-1.433676
371461,Old Black Swan,5,5,5,5,2013-08-12,54.289053,-1.592294
371462,Old Oak Tree,4,5,10,5,2013-08-09,54.250056,-1.348515
371463,Olivia's,5,5,5,5,2013-11-21,54.233067,-1.341357
371464,Olivia's Artisan Bakery & Cafe,5,5,5,5,2013-11-14,54.338129,-1.433331
371465,Olivia's Artisan Bakery & Cafe,3,10,10,10,2014-05-06,54.469622,-1.191785
371466,Osmotherley Boot And Coffee Shop,5,0,0,0,2012-05-02,54.368849,-1.301446
371467,Osmotherley County Primary School,5,0,0,0,2013-09-10,54.367815,-1.299833
371468,Osmotherley Fish & Chip Shop,5,0,0,0,2013-10-28,54.36841,-1.300161
371469,Osmotherley Muesli Company,5,0,5,5,2014-11-20,54.368393,-1.311228
371470,Oxfam,Exempt,nan,nan,nan,2007-05-24,54.233225,-1.342321
371471,Oxfam,5,0,0,0,2014-09-16,54.340127,-1.434026
371472,Pampas Argentinian Steakhouse,3,5,10,10,2014-09-11,54.060748,-1.11698
371473,Panda Restaurant,5,5,5,5,2013-10-22,54.46923,-1.193598
371474,Panetti Bistro Restaurant,5,5,5,5,2014-03-15,54.29026,-1.593143
371475,Park House Bed & Breakfast,5,0,0,0,2013-03-19,54.389096,-1.304367
371476,Park House Farm B & B,Exempt,nan,nan,nan,2013-11-28,,
371477,Patchwork,5,0,5,5,2014-10-09,54.078023,-1.126854
371478,Peacock's Desserts Ltd,5,5,0,0,2011-10-28,54.308704,-1.334556
371479,Peg 53 Cafe,5,5,0,0,2015-01-22,54.344363,-1.462057
371480,Pete's Pantry,1,15,15,20,2014-06-26,54.338435,-1.427698
371481,Photobooths4hire,5,0,0,5,2014-10-20,54.235125,-1.333224
371482,Piccolo,5,0,5,5,2013-10-16,54.232706,-1.341118
371483,Pit Stoop,4,10,5,5,2014-05-23,54.221153,-1.415241
371484,Pizza Express,4,5,10,5,2014-01-24,54.337168,-1.433421
371485,Pizza Loco,4,5,5,10,2014-03-29,54.300965,-1.324739
371486,Pizza Village,3,10,10,10,2014-03-28,54.469793,-1.194482
371487,Poppi's Vintage Pop Up Tea Rooms,5,5,0,5,2014-07-28,54.497803,-1.167466
371488,Poppyfields Day Nursery,5,5,5,5,2010-07-20,54.460842,-1.178537
371489,Post Office,3,10,10,10,2008-04-02,54.435691,-1.39921
371490,Prestons Of Potto,Exempt,nan,nan,nan,2006-12-06,54.434228,-1.273464
371491,Proper Tasty,5,0,0,0,2014-11-24,54.337355,-1.433049
371492,Proper Tasty,4,0,10,10,2014-05-21,54.350295,-1.450272
371493,Prospect Place Childrens Home,4,10,0,5,2014-03-06,54.36549,-1.45367
371494,Purdy's Newsagent,Exempt,nan,nan,nan,2004-03-22,54.119184,-1.192113
371495,Quattro Ragazzi,4,0,0,10,2014-10-07,54.341043,-1.433676
371496,Queens Head,5,5,0,5,2015-01-15,54.469622,-1.191785
371497,R & R Ice Cream Ltd,5,5,5,5,2012-05-28,54.305661,-1.563915
371498,R White Family  Butchers,5,5,5,5,2014-10-14,54.321921,-1.5016
371499,Raskelf Country Kitchen,5,5,0,5,2014-03-28,54.131717,-1.251081
371500,Red Chilli,5,5,5,5,2014-09-08,54.343058,-1.437924
371501,Regency Pizza,5,5,0,0,2014-10-01,54.337355,-1.433049
371502,Regency Pizza,5,5,5,5,2014-04-23,54.232518,-1.329845
371503,Regency Pizza Ltd,4,5,10,5,2014-10-05,54.305313,-1.559646
371504,Richard Adams,5,0,0,0,2013-07-11,54.471147,-1.199454
371505,Roche Catering,5,0,0,0,2014-01-22,54.460281,-1.18063
371506,Romanby Chinese And English Takeaway,3,10,10,10,2012-04-18,54.337154,-1.438205
371507,Romanby CP School,4,10,5,5,2014-12-11,54.329854,-1.449299
371508,Romanby Golf & Country Club,5,5,0,5,2013-06-04,54.341119,-1.456208
371509,Romanby Preschool And Cabin Crew,5,0,0,5,2013-09-04,54.329916,-1.449236
371510,Romeo Pizzas,1,10,15,20,2015-01-20,54.337354,-1.433049
371511,Roots Farmshop,5,0,0,0,2014-11-12,54.424381,-1.341531
371512,Rose And Crown,5,5,5,5,2013-07-10,54.074903,-1.105905
371513,Roseberry Catering,5,0,0,0,2013-07-23,54.448008,-1.156231
371514,Roseberry CP School,5,0,0,0,2013-07-02,54.494287,-1.127581
371515,Rudby Hall Limited,5,0,0,0,2014-10-21,54.456847,-1.255433
371516,Rumbling Tums Ltd - Platform 1,2,10,15,10,2014-09-12,54.333034,-1.441306
371517,Rural Arts North Yorkshire,5,0,0,5,2013-06-12,54.231033,-1.344151
371518,S And J Quality Butchers,5,5,0,0,2014-03-20,54.120401,-1.192625
371519,S J & A Taylor,5,0,0,0,2013-11-08,54.426161,-1.363282
371520,Sacred Heart Roman Catholic Primary School,5,0,0,5,2014-11-04,54.33029,-1.436714
371521,Saffron Spice,1,15,15,20,2014-11-21,54.040792,-1.247493
371522,Sainsbury's Supermarket Ltd,5,0,0,0,2013-07-24,54.34395,-1.438404
371523,Sam Turner & Sons Ltd,5,0,0,0,2014-04-23,54.348371,-1.44019
371524,Sams Home Bakery,4,10,5,5,2014-03-13,54.48943,-1.132115
371525,Sarah's Cakes,4,5,5,10,2014-10-16,,
371526,Save The Children,Exempt,nan,nan,nan,2007-05-24,54.338304,-1.434251
371527,Seaves Farming Company Ltd,4,10,5,5,2014-05-20,54.136051,-1.105232
371528,Serco,5,5,5,5,2014-10-08,54.102602,-1.181486
371529,Sessay C Of E Primary School,5,5,0,0,2013-06-16,54.16655,-1.290705
371530,Seven Seas,4,5,5,10,2013-07-30,54.231154,-1.344901
371531,Shell Gristhwaite,5,0,0,5,2013-04-11,54.197977,-1.362685
371532,Skybluepink Home & Gifts,5,0,0,0,2012-08-22,54.46923,-1.193598
371533,Slice Sandwich Bar,2,15,10,10,2014-02-13,54.340552,-1.434544
371534,Snape County Primary School,5,0,0,0,2012-06-14,54.253924,-1.587775
371535,Somerset House Farm,5,0,0,0,2014-02-04,,
371536,Soup And A Roll,Exempt,nan,nan,nan,2014-04-30,54.338304,-1.434251
371537,South Kilvington C Of E Primary School,5,5,5,5,2006-06-26,54.251902,-1.349146
371538,Southwoods Nursing Home,5,5,0,0,2014-08-06,54.333935,-1.434004
371539,Sowerby County Primary School,5,5,0,5,2014-12-12,54.225255,-1.347632
371540,Sowerby House Care Home,5,0,5,5,2014-09-26,54.222365,-1.336804
371541,Spar,5,5,5,5,2014-03-15,54.289053,-1.592294
371542,Spice Of Bengal,3,10,10,10,2013-08-20,54.288605,-1.592621
371543,Spread Eagle,5,5,0,5,2014-11-26,54.469622,-1.191785
371544,Spring House Farm Shop,4,5,5,10,2015-01-07,54.31252,-1.537866
371545,Springhill Cafe,3,10,10,10,2014-09-29,54.123918,-1.191639
371546,St Catherine's Care Home,5,0,0,5,2014-09-25,54.023396,-1.153459
371547,St Monicas Hospital,5,0,0,0,2013-11-12,54.118402,-1.189314
371548,Stable Door,4,10,0,0,2013-08-07,54.269227,-1.419014
371549,Stamps Coffee Shop,5,0,0,0,2013-06-13,54.488506,-1.133616
371550,Station Hotel,5,5,0,0,2014-08-14,54.333034,-1.441306
371551,Stepping Stones,5,0,0,0,2015-01-09,54.290951,-1.542516
371552,Stillington CP School,4,5,5,10,2011-12-07,54.102994,-1.107595
371553,Stillington Fisheries,5,0,0,0,2014-06-06,54.103899,-1.104792
371554,Stock And Cauldron,5,0,0,0,2013-08-14,54.362166,-1.426845
371555,Stokesley Butchers,1,10,15,20,2014-08-22,54.470124,-1.192886
371556,Stokesley Butchers,5,5,0,0,2014-08-22,54.489143,-1.135996
371557,Stokesley Country Markets,Exempt,nan,nan,nan,2013-09-03,54.470124,-1.192886
371558,Stokesley County Primary School,4,10,0,0,2013-10-23,54.472134,-1.189652
371559,Stokesley County Secondary School (No 1),5,5,0,0,2011-07-19,54.46755,-1.183
371560,Stokesley Fish And Chip Shop,5,5,5,5,2013-11-06,54.470124,-1.192886
371561,Stokesley Golf Range,5,0,0,0,2009-03-27,54.4682540894,-1.18232262135
371562,Stokesley Sports Club,5,0,0,0,2011-10-13,54.46891,-1.179455
371563,Sue's Gaf In Simply Dutch,4,10,5,0,2013-10-11,54.30467,-1.560667
371564,Sugar Mouse Luxury Confectionery Ltd,5,5,5,5,2013-03-15,54.121792,-1.192353
371565,Sunflowers Day Nursery,5,5,5,5,2014-09-12,54.346882,-1.444887
371566,Supreme Catering,3,5,10,10,2010-06-29,54.341275,-1.437302
371567,Sutton On The Forest C Of E Primary School,5,5,0,0,2013-12-13,54.075024,-1.106422
371568,Swainby Village Store,5,0,0,0,2014-08-19,54.41076,-1.265605
371569,Sweet Dreams,Exempt,nan,nan,nan,2014-05-15,54.223036,-1.356195
371570,Swift Stores,3,10,10,10,2008-02-09,54.040114,-1.243902
371571,T E D Trading Ltd - Deep Blue Fisheries,5,5,5,5,2014-07-18,54.227399,-1.350176
371572,T K Catering,5,0,0,0,2013-07-08,54.462023,-1.180302
371573,T S Hartley & Sons Ltd,5,0,5,0,2013-02-08,54.096178,-1.278847
371574,T S Hartley And Sons,5,0,5,0,2013-02-08,54.123907,-1.330435
371575,TA Services,Exempt,nan,nan,nan,2012-06-25,54.350671,-1.438251
371576,Teehee Cheesemonger & Espresso Bar,5,5,5,5,2012-07-19,54.121792,-1.192353
371577,Terrys Mobile Catering,5,5,0,5,2011-11-08,54.260253,-1.529239
371578,Tesco,5,0,0,0,2013-12-10,54.338437,-1.432004
371579,Tesco,5,5,5,5,2014-12-12,54.230445,-1.350128
371580,Tesco,5,0,0,0,2013-09-02,54.288605,-1.592621
371581,Tesco Family Dining Ltd,3,10,10,5,2014-11-07,54.230445,-1.350128
371582,The Angel At Topcliffe Ltd,5,0,0,0,2014-02-24,54.178475,-1.385262
371583,The Banyan Tree,5,5,5,5,2013-07-24,54.122109,-1.192653
371584,The Bay Horse,5,5,0,0,2014-07-28,54.445512,-1.154093
371585,The Bay Horse,1,15,5,20,2014-11-07,54.451008,-1.278103
371586,The Bay Horse Inn,5,0,5,0,2013-02-25,54.305164,-1.627558
371587,The Bay Tree,4,5,5,10,2014-03-21,54.102684,-1.107097
371588,The Black Horse Inn,5,5,5,5,2013-05-21,54.413311,-1.266885
371589,The Black Horse Inn,3,5,10,10,2014-03-23,54.225819,-1.512544
371590,The Black Lion,4,10,0,5,2014-02-05,54.23208,-1.343245
371591,The Black Swan,5,5,5,5,2014-08-20,54.445728,-1.172239
371592,The Blacksmith Arms,5,0,0,0,2014-07-22,54.413381,-1.269534
371593,The Blacksmith Arms,3,10,10,10,2005-03-04,54.100938,-1.061868
371594,The Blacksmiths Arms,5,5,5,5,2014-05-14,54.233067,-1.341357
371595,The Blacksmiths Arms,5,5,5,5,2014-08-07,54.031407,-1.22035
371596,The Blackwell Ox,1,5,15,20,2014-11-13,54.433117,-1.219327
371597,The Blue Bell,2,15,5,10,2014-03-28,54.398828,-1.30887
371598,The Blue Bell Inn,5,5,5,5,2014-03-13,54.082485,-1.242964
371599,The Breakfast Box,5,5,5,5,2013-04-23,54.304496,-1.572441
371600,The Bridge Cafe,5,0,0,0,2013-12-02,54.289816,-1.589322
371601,The Bruce Arms,4,10,5,5,2014-04-04,54.204378,-1.593588
371602,The Buck Inn,3,10,10,10,2009-03-31,54.341358,-1.435825
371603,The Buck Inn,2,15,5,10,2014-10-30,54.265324,-1.639662
371604,The Buck Inn,5,5,5,5,2014-11-12,54.272165,-1.461538
371605,The Carlton Inn,5,5,5,5,2014-02-15,54.1843528748,-1.23592555523
371606,The Carpenters Arms,5,5,5,5,2013-06-20,54.255489,-1.28436
371607,The Castle Arms Inn,5,5,5,5,2014-03-25,54.254521,-1.591392
371608,The Cat And Bagpipes,5,0,0,0,2013-11-07,54.391377,-1.352563
371609,The Central Coffee House,5,0,0,0,2013-04-23,54.341358,-1.435825
371610,The Cheesey Grin Company,5,5,5,5,2012-10-17,54.350295,-1.450272
371611,The China Wok,5,0,0,0,2014-11-19,54.46968,-1.195055
371612,The Coffee Pot,5,0,0,0,2013-07-22,54.369418,-1.298866
371613,The Commercial,3,10,10,10,2014-09-30,54.122249,-1.193462
371614,The Co-Operative Food,5,5,0,0,2014-01-24,54.232061,-1.343092
371615,The Co-operative Food,5,0,0,0,2013-07-26,54.34844,-1.431928
371616,"The Co-Operative Food, Easingwold",5,0,0,0,2014-01-24,54.118714,-1.191679
371617,The Co-operative Group,4,5,5,10,2014-02-14,54.32977,-1.444717
371618,The Co-operative Group,3,10,10,10,2008-02-26,54.120965,-1.192308
371619,The Co-Operative Pharmacy,Exempt,nan,nan,nan,2008-09-24,54.32977,-1.444717
371620,The Coore Arms,5,0,0,0,2013-07-05,54.324632,-1.539314
371621,The Corner Cupboard,3,10,5,10,2014-10-08,54.1766433716,-1.25668895245
371622,The Corner Shop,4,5,0,10,2012-06-14,54.229436,-1.346339
371623,The County Arms,3,10,10,10,2008-03-17,54.340484,-1.435298
371624,The Crosby,5,5,5,5,2013-05-14,54.308304,-1.389923
371625,The Crown Inn,5,5,5,5,2009-03-24,54.362187,-1.423613
371626,The Curious Table,3,10,10,10,2014-01-30,54.120965,-1.192308
371627,The Dales School,5,0,0,0,2013-06-06,54.3234786987,-1.49632310867
371628,The Darrowby Inn,4,10,0,5,2011-06-28,54.233033,-1.34346
371629,The Dawnay Arms,5,5,5,5,2014-05-22,54.0211,-1.157993
371630,The Dawnay Arms,5,0,5,5,2014-07-25,54.0341148376,-1.22190225124
371631,The Divine Souvlaki,4,5,5,10,2014-05-14,54.167497,-1.206138
371632,The Dog & Gun,5,5,0,0,2014-10-21,54.42608,-1.27105
371633,The Dragon Inn,4,5,5,10,2014-03-18,54.120853,-1.195631
371634,The Drink Stop,5,0,0,0,2014-08-19,,
371635,The Dudley Arms Inn,5,5,5,5,2013-09-05,54.449968,-1.103986
371636,The Duke Of Wellington,5,5,5,5,2013-04-11,54.4155654907,-1.3896112442
371637,The Durham Ox,4,10,5,5,2014-09-23,54.336973,-1.434039
371638,The Durham Ox,5,5,5,5,2015-01-30,54.126762,-1.1428
371639,The Egg Basket,5,0,0,0,2013-06-17,54.103659,-1.101632
371640,The Food Weighouse,Exempt,nan,nan,nan,2006-10-23,54.288605,-1.592621
371641,The Forresters Arms Hotel,3,10,10,10,2013-07-07,54.209419,-1.213675
371642,The Four Tea's,5,0,0,0,2014-03-17,54.288605,-1.592621
371643,The Fox And Hounds,3,10,10,5,2015-01-07,54.341657,-1.391829
371644,The Frankland Arms,5,0,0,0,2014-10-11,54.233298,-1.337687
371645,The Freemasons Arms,4,5,5,10,2014-03-23,54.219164,-1.575668
371646,The Fudge Station,Exempt,nan,nan,nan,2015-01-22,,
371647,The Garden Deli,5,5,0,0,2014-12-11,54.125293,-1.201114
371648,The George Hotel,5,5,5,5,2013-07-03,54.121823,-1.191557
371649,The Golden Fleece Hotel,5,5,5,5,2014-10-06,54.23219,-1.342062
371650,The Golden Lion,4,5,5,10,2011-01-31,54.333854,-1.445647
371651,The Golden Lion Hotel,5,5,5,5,2013-08-13,54.340127,-1.434026
371652,The Golden Lion Inn,1,15,10,20,2014-10-08,54.123907,-1.330435
371653,The Golden Lion Inn,3,10,10,10,2014-10-23,54.368849,-1.301446
371654,The Granary At Morton,4,0,0,10,2014-10-10,,
371655,The Grange Arms,2,15,15,10,2014-03-29,54.444857,-1.44014
371656,The Green Dragon,5,5,0,0,2014-11-24,54.288605,-1.592621
371657,The Green Tree Inn,4,5,10,5,2013-10-23,54.360731,-1.416216
371658,The Greengrocer,4,0,10,10,2012-04-20,54.23208,-1.343245
371659,The Greyhound Inn,5,5,5,5,2013-08-08,54.333361,-1.628857
371660,The Grill Bar,5,5,5,5,2010-09-30,54.33959,-1.423052
371661,The Hambleton Inn,3,10,10,10,2013-01-31,54.240365,-1.198909
371662,The Horsebreakers Arms,5,0,0,0,2011-11-02,54.178867,-1.273273
371663,The House Of Fondant,5,5,5,5,2013-09-06,,
371664,The Jet Miners Inn,5,5,0,0,2014-08-19,54.448008,-1.156231
371665,The Jolly Minister,3,10,5,10,2014-09-18,54.338089,-1.424903
371666,The Kings Head Hotel,Exempt,nan,nan,nan,2004-11-23,54.485541,-1.233503
371667,The Limes,5,5,0,0,2013-07-22,54.229134,-1.343736
371668,The Little Shop & Post Office,3,10,10,5,2005-10-21,54.447489,-1.15652
371669,The Little Streat BBQ,5,0,0,0,2014-09-23,54.236689,-1.338047
371670,The Lock House,5,5,5,5,2014-08-19,54.034833,-1.238928
371671,The Lord Nelson,4,10,5,5,2014-10-01,54.235213,-1.340986
371672,The Masons Arms,5,0,0,5,2013-06-03,54.342554,-1.435947
371673,The Mended Drum,1,10,20,20,2014-03-20,54.080305,-1.139202
371674,The Mill,5,5,0,0,2014-07-22,54.472071,-1.188419
371675,The Millbank Arms,5,5,5,5,2014-10-30,54.233379,-1.593211
371676,The Millings Residential Home,5,0,5,5,2014-12-15,54.29026,-1.593143
371677,The Moor & Pheasant Ltd,4,5,5,10,2015-01-11,54.1334648132,-1.31587803364
371678,The Nags Head Country Inn,5,5,5,5,2015-01-22,54.24485,-1.471071
371679,The New Inn,4,10,5,5,2013-10-04,54.095066,-1.27619
371680,The New Inn,5,0,5,5,2014-03-20,54.083336,-1.135731
371681,The New Inn At Easingwold Ltd,4,0,5,10,2014-10-08,54.120853,-1.195631
371682,The Oak Tree Inn,5,5,5,5,2015-01-30,54.125223,-1.329587
371683,The Oaks Lakes,5,5,5,5,2014-11-21,54.177482,-1.306696
371684,The Old Barn Coffee Shop,5,5,5,5,2012-03-23,54.221003,-1.27215
371685,The Old Black Bull Inn,4,5,10,5,2014-03-04,54.133977,-1.247474
371686,The Old Red House,2,10,15,10,2015-01-09,54.228209,-1.372574
371687,The Otterington Shorthorn,5,5,0,0,2014-10-11,54.2823486328,-1.42692351341
371688,The Pantry,5,0,0,0,2013-05-23,54.29026,-1.593143
371689,The Park Restaurant,3,10,5,10,2014-03-06,,
371690,The Purple Partridge,4,5,5,10,2014-09-30,54.133977,-1.247474
371691,The Queen Catherine,1,10,15,20,2014-10-23,54.36841,-1.300161
371692,The Raj Of India,5,5,5,5,2013-08-21,54.235842,-1.339349
371693,The Right Choice,4,5,5,10,2015-01-15,54.29026,-1.593143
371694,The Rowans Coffee House,5,5,0,0,2014-03-12,54.122109,-1.192653
371695,The Royal Oak Hotel,4,10,0,0,2014-08-12,54.488506,-1.133616
371696,The Ship Inn,4,5,10,5,2014-08-20,54.483217,-1.390642
371697,The Shorthorn Inn,5,0,0,5,2014-01-10,54.437618,-1.396237
371698,The Sidings Mediterranean,4,10,5,5,2013-10-21,54.018639,-1.163354
371699,The Standard,5,5,5,5,2014-03-06,54.344135,-1.437756
371700,The Station Hotel,5,0,0,0,2013-06-13,54.460525,-1.350886
371701,The Station Inn,3,10,10,10,2013-12-13,54.072976,-1.216225
371702,The Sutton Arms,1,5,15,20,2014-11-23,54.420374,-1.236229
371703,The Swainbees Nursery,Exempt,nan,nan,nan,2013-11-06,54.42608,-1.27105
371704,The T Junction,3,10,10,10,2014-11-13,54.221455,-1.344671
371705,The Taste Of India,4,10,5,5,2014-06-17,54.288605,-1.592621
371706,The Terrace Cafe,5,5,5,5,2014-02-14,54.340784,-1.434033
371707,The Three Tuns Inn,5,0,5,0,2009-03-27,54.367891,-1.299062
371708,The Tickle Toby Inn,3,5,10,10,2014-02-05,54.338304,-1.434251
371709,The Top Shop,4,10,5,5,2014-09-10,54.369418,-1.298866
371710,The Topiary Coffee Shop,4,10,5,5,2014-09-24,54.477798,-1.180635
371711,The Topiary Coffee Shop,5,0,0,0,2013-10-11,54.1334648132,-1.31587803364
371712,The Treebridge Hotel,5,5,0,5,2015-01-15,54.50286,-1.16307
371713,The Village Bakery,Exempt,nan,nan,nan,2013-11-01,,
371714,The Village Inn,5,5,5,5,2013-07-25,54.362697,-1.417573
371715,The Village Store,5,5,0,5,2012-06-14,54.321921,-1.5016
371716,The Wainstones Hotel,5,0,0,5,2013-12-12,54.450924,-1.158161
371717,The Watermill,0,20,15,20,2014-07-03,54.22341,-1.395362
371718,The Wellington Heifer,4,5,5,10,2014-03-06,54.322993,-1.487396
371719,The Wheatsheaf Inn,4,5,5,10,2013-08-18,54.294521,-1.342667
371720,The Whistle Stop Cafe,5,5,5,0,2013-10-30,54.287995,-1.585285
371721,The White Bear,1,10,15,20,2014-12-04,54.102684,-1.107097
371722,The White Horse Cafe,5,0,0,5,2013-06-12,54.233225,-1.342321
371723,The White Horse Cafe,5,5,0,5,2013-06-06,54.341358,-1.435825
371724,The White Swan,5,5,0,0,2012-06-28,54.46779,-1.195925
371725,The White Swan,5,5,0,0,2014-01-07,54.381687,-1.482678
371726,The Whitestonecliffe Inn,3,10,10,10,2013-07-09,54.1334648132,-1.31587803364
371727,The York,5,0,0,0,2013-03-14,54.121823,-1.191557
371728,Thimbleby Shooting Ground,4,5,0,10,2014-10-20,,
371729,Thirsk And Northallerton Golf Club Committee,5,5,5,5,2014-10-11,54.254698,-1.357759
371730,Thirsk Clock,5,0,0,5,2014-10-20,54.235213,-1.340986
371731,Thirsk County Primary School,5,0,0,0,2013-11-05,54.236642,-1.336099
371732,Thirsk Filling Station,5,5,5,5,2012-06-19,54.236669,-1.341085
371733,Thirsk Food Logistics,5,5,5,5,2013-09-11,54.307998,-1.566441
371734,Thirsk Garden Centre,5,0,5,5,2014-12-04,54.224581,-1.326384
371735,Thirsk Racecourse Ltd,4,5,5,10,2010-05-24,54.231319,-1.35059
371736,Thirsk School,5,5,5,0,2013-11-13,54.223921,-1.346933
371737,Thisuldo Snax,5,5,5,5,2013-12-11,54.33959,-1.423052
371738,Thomas Of York,5,0,5,5,2013-11-08,54.123095,-1.190982
371739,Thomas The Baker,5,5,0,0,2014-11-24,54.338304,-1.434251
371740,Thomas The Baker,5,5,0,0,2011-02-02,54.23208,-1.343245
371741,Thomas The Baker,5,5,0,0,2014-08-11,54.289053,-1.592294
371742,Thorntons Butchers,1,20,5,5,2014-03-20,54.120965,-1.192308
371743,Thorp Perrow Tea Rooms,5,0,5,5,2013-07-10,54.265276,-1.598563
371744,Three Tuns Hotel,5,0,0,0,2013-08-20,54.232341,-1.341737
371745,Tithe Bar,2,10,15,10,2014-11-26,54.341043,-1.433676
371746,Toll Bar Garage,3,10,5,10,2005-11-09,54.445316,-1.478608
371747,Tollerton Stores,1,10,15,20,2014-12-18,54.071377,-1.219112
371748,Topcliffe Post Office,4,5,10,5,2013-11-19,54.177836,-1.388642
371749,Tophams,Exempt,nan,nan,nan,2015-01-16,54.291973,-1.584062
371750,Towlers Ltd.,5,0,0,5,2011-12-13,54.232706,-1.341118
371751,Town Close,4,10,5,5,2014-10-21,54.471682,-1.193395
371752,Tree View Cafe,5,5,0,0,2014-09-24,54.343704,-1.441607
371753,Truefitt's Tap,5,0,0,5,2014-12-05,54.341358,-1.435825
371754,Truffles By Jodi,4,5,5,10,2014-03-27,54.222976,-1.344969
371755,Truly Scrumptious,5,5,5,5,2010-05-20,54.470124,-1.192886
371756,Twiggy's Play Ltd,5,0,0,0,2011-01-27,54.233094,-1.331585
371757,Twilight Tearoom,1,5,15,20,2015-01-27,54.232568,-1.343759
371758,Two Bee's Treat Boutique,4,10,0,5,2014-09-16,54.232858,-1.34423
371759,United Cooperatives Limited,5,0,0,0,2014-11-13,54.343073,-1.426003
371760,Uno Momento Ltd,5,0,0,5,2014-08-12,54.470124,-1.192886
371761,Uppleby Cakes,Exempt,nan,nan,nan,2013-04-24,,
371762,Upstairs Downstairs Deli,5,5,5,5,2014-09-16,54.232568,-1.343759
371763,Urra Estates,5,0,0,0,2013-08-12,54.408043,-1.166866
371764,Vale Of Mowbray Ltd,Exempt,nan,nan,nan,2014-09-16,54.306338,-1.559773
371765,Vale Of York,4,10,0,0,2013-08-07,54.22798,-1.376872
371766,Victoria Fish Shop,4,10,5,5,2013-05-08,54.343058,-1.437924
371767,View Point Snacks,4,10,5,5,2014-07-11,54.226839,-1.325122
371768,Village Bakery,Exempt,nan,nan,nan,2013-11-01,,
371769,Village Farm  Dairy,Exempt,nan,nan,nan,2009-05-15,54.345544,-1.565693
371770,Village Store,5,5,5,5,2012-09-20,54.082411,-1.137111
371771,Waggon And Horses,5,0,0,0,2014-12-03,54.288605,-1.592621
371772,Wensleydale Railway PLC,5,0,0,0,2013-06-06,54.305263,-1.560738
371773,West Green Deli,5,5,5,5,2013-07-09,54.468693,-1.195321
371774,West Tanfield Primary School,5,5,0,0,2012-06-01,54.206185,-1.591056
371775,West Tanfield Village Store & Post Office,5,5,5,5,2014-10-30,54.205079,-1.588276
371776,Westfield Day Nursery,5,0,5,5,2014-09-24,54.121977,-1.202571
371777,Wheatsheaf Inn,4,10,5,5,2013-10-29,54.450739,-1.275254
371778,Whinstone View Country Club,5,5,5,5,2013-08-02,54.502088,-1.14522
371779,Whistle Stop,4,0,0,10,2012-08-20,54.333034,-1.441306
371780,White Horse View,5,0,0,0,2012-06-28,54.127294,-1.187136
371781,White Rose Book Cafe,5,5,0,0,2014-03-27,54.233067,-1.341357
371782,Will And Freddies Ltd,4,0,10,10,2014-03-13,54.034671,-1.164284
371783,WM Morrison Supermarkets PLC,5,0,0,0,2011-08-19,54.340484,-1.435298
371784,Wooden Horse Kindergarten And Nursery School,4,10,0,5,2014-03-28,54.120247,-1.192429
371785,Woodland Coffee Shop,5,0,0,0,2014-06-12,54.498141,-1.200224
371786,Woodland Lakes Lodges,5,0,0,5,2014-08-27,54.22341,-1.395362
371787,Woodlands Farm,Exempt,nan,nan,nan,2014-11-19,,
371788,Woodman Inn,4,5,5,10,2015-01-14,54.260253,-1.529239
371789,Woodside Cafe,5,5,5,0,2015-01-08,54.284348,-1.34117
371790,Woodys Restaurant (Black Swan),4,10,5,5,2014-02-26,54.286953,-1.401222
371791,Woody's Tea Room,3,10,10,10,2013-10-17,54.204378,-1.593588
371792,World Of James Herriot Ltd,Exempt,nan,nan,nan,2013-10-18,54.233652,-1.344815
371793,Woundales Classic Dexter Beef,5,0,0,0,2014-06-12,54.303983,-1.332466
371794,WRVS,5,5,0,0,2012-04-18,54.307998,-1.566441
371795,Yatton House Society,Exempt,nan,nan,nan,2013-09-05,54.495058,-1.134867
371796,Ye Jolly Farmers,3,10,10,10,2014-11-20,54.1807060242,-1.3413926363
371797,York Bird Of Prey Centre,4,5,5,10,2014-03-21,54.081742,-1.16982
371798,Yorks Tea Rooms,5,0,0,0,2013-11-13,54.232867,-1.34268
371799,Yorkshiredales Cheese Company,5,0,5,5,2014-11-21,54.308096,-1.561368
371800,Yorky Bar,5,5,5,5,2013-05-16,54.307858,-1.562447
371801,Y'Thai,5,0,0,0,2013-08-21,54.470124,-1.192886
371802,Yummy Connie's Cakes,5,0,0,0,2012-04-18,54.329346,-1.444308
