,addressline1,addressline2,addressline3,addressline4,businessname,businesstype,businesstypeid,confidenceinmanagement,extractdate,fhrsid,hygiene,itemcount,latitude,localauthoritybusinessid,localauthoritycode,localauthorityemailaddress,localauthorityname,localauthoritywebsite,longitude,postcode,ratingdate,ratingkey,ratingvalue,returncode,schemetype,structural
371081,1882  Cafe And Bistro,197 High Street,Northallerton,North Yorkshire,1882 Cafe And Bistro,Restaurant/Cafe/Canteen,1,5,,633891,5,,54.33920400000000,13/00100/MIXED,251,fhrs@hambleton.gov.uk,Hambleton,http://www.hambleton.gov.uk/,-1.43439300000000,DL7 8LF,2014-02-11,fhrs_5_en-GB,5,,FHRS,5
371082,Sowerby,North Yorkshire,,,3 Croft Heads,Other catering premises,7841,0,,415121,0,,54.22648620605470,12/00107/FOOD,251,fhrs@hambleton.gov.uk,Hambleton,http://www.hambleton.gov.uk/,-1.34434580802917,YO7 1ND,2012-06-28,fhrs_5_en-GB,5,,FHRS,0
371083,,,,,A Matter Of Taste,Other catering premises,7841,,,687816,,,,14/00054/FOOD,251,fhrs@hambleton.gov.uk,Hambleton,http://www.hambleton.gov.uk/,,,2014-07-18,fhrs_exempt_en-GB,Exempt,,FHRS,
371084,93 High Street,Great Ayton,North Yorkshire,,A Suggitt Ltd.,Retailers - other,4613,5,,10871,5,,54.48914300000000,04/00344/MIXED,251,fhrs@hambleton.gov.uk,Hambleton,http://www.hambleton.gov.uk/,-1.13599600000000,TS9 6NF,2013-08-09,fhrs_5_en-GB,5,,FHRS,5
371085,A V Fawcett & Sons,Butchers Shop,Ingleby Greenhow,North Yorkshire,A V Fawcett And Sons,Retailers - other,4613,0,,11627,0,,54.44996800000000,04/00768/MIXED,251,fhrs@hambleton.gov.uk,Hambleton,http://www.hambleton.gov.uk/,-1.10398600000000,TS9 6LL,2014-08-20,fhrs_5_en-GB,5,,FHRS,0
371086,Abbeyfield Society,Mitchell House,Gillings Court,Thirsk,Abbeyfield (Thirsk & Sowerby) Society,Hospitals/Childcare/Caring Premises,5,5,,11456,0,,54.23364400000000,04/00664/MIXED,251,fhrs@hambleton.gov.uk,Hambleton,http://www.hambleton.gov.uk/,-1.34341900000000,YO7 1SZ,2013-08-09,fhrs_5_en-GB,5,,FHRS,0
371087,Silverwood,Carr Lane,Kilburn,North Yorkshire,Acorn Preserves,Retailers - other,4613,5,,47757,5,,54.20866900000000,11/00166/FOOD,251,fhrs@hambleton.gov.uk,Hambleton,http://www.hambleton.gov.uk/,-1.21431800000000,YO61 4AG,2013-10-17,fhrs_5_en-GB,5,,FHRS,5
371088,105A High Street,Northallerton,North Yorkshire,,Adams Pizza,Takeaway/sandwich shop,7844,5,,628098,5,,54.34012700000000,13/00193/MIXED,251,fhrs@hambleton.gov.uk,Hambleton,http://www.hambleton.gov.uk/,-1.43402600000000,DL7 8PP,2013-12-16,fhrs_5_en-GB,5,,FHRS,5
371089,Northallerton Town Football Club,The New Ainderby,Ainderby Road,Northallerton,Ainderby Social Club,Pub/bar/nightclub,7843,5,,565671,5,,54.33385400000000,13/00139/MIXED,251,fhrs@hambleton.gov.uk,Hambleton,http://www.hambleton.gov.uk/,-1.44564700000000,DL7 8HA,2013-06-28,fhrs_4_en-GB,4,,FHRS,10
371090,Ainderby Steeple Church Of England,Station Lane,Morton On Swale,North Yorkshire,Ainderby Steeple C Of E Primary School,School/college/university,7845,0,,11142,0,,54.32365900000000,04/00463/FOOD,251,fhrs@hambleton.gov.uk,Hambleton,http://www.hambleton.gov.uk/,-1.49813500000000,DL7 9QR,2013-06-06,fhrs_5_en-GB,5,,FHRS,0
371091,Aiskew Leeming Bar Church Of Englan,2 Leeming Lane,Leeming Bar,North Yorkshire,Aiskew Leeming Bar C Of E School,School/college/university,7845,5,,11087,5,,54.30352300000000,04/00439/FOOD,251,fhrs@hambleton.gov.uk,Hambleton,http://www.hambleton.gov.uk/,-1.55928100000000,DL7 9AU,2004-10-11,fhrs_5_en-GB,5,,FHRS,5
371092,The Alders Caravan Park,Home Farm,Monk Green,Alne,Alders Shop,Retailers - other,4613,5,,34683,5,,54.08197500000000,10/00142/MIXED,251,fhrs@hambleton.gov.uk,Hambleton,http://www.hambleton.gov.uk/,-1.24193400000000,YO61 1RY,2012-08-09,fhrs_5_en-GB,5,,FHRS,5
371093,Aldwark,North Yorkshire,,,Aldwark Arms,Pub/bar/nightclub,7843,5,,664603,5,,54.06690100000000,13/00266/MIXED,251,fhrs@hambleton.gov.uk,Hambleton,http://www.hambleton.gov.uk/,-1.28866000000000,YO61 1UB,2014-05-16,fhrs_5_en-GB,5,,FHRS,0
371094,Aldwark Manor Hotel,Aldwark,North Yorkshire,,Aldwark Manor Golf & Spa,Hotel/bed & breakfast/guest house,7842,5,,590199,5,,54.06203900000000,13/00215/MIXED,251,fhrs@hambleton.gov.uk,Hambleton,http://www.hambleton.gov.uk/,-1.28423600000000,YO61 1UF,2013-10-04,fhrs_5_en-GB,5,,FHRS,5
371095,All Saints Parish Church,East Cowton,North Yorkshire,,All Saints Parish Church Annexe,Other catering premises,7841,,,209261,,,54.42404937744141,04/00332/MIXED,251,fhrs@hambleton.gov.uk,Hambleton,http://www.hambleton.gov.uk/,-1.52812027931213,DL7 0BL,2004-07-02,fhrs_exempt_en-GB,Exempt,,FHRS,
371096,All Saints Roman Catholic Primary S,Green Lane East,Sowerby,North Yorkshire,All Saints RC Primary School,School/college/university,7845,5,,11457,5,,54.22764400000000,04/00665/FOOD,251,fhrs@hambleton.gov.uk,Hambleton,http://www.hambleton.gov.uk/,-1.34563100000000,YO7 1NB,2010-07-19,fhrs_5_en-GB,5,,FHRS,5
371097,Darlington Road,Northallerton,North Yorkshire,,Allerton Court Hotel,Hotel/bed & breakfast/guest house,7842,5,,10149,5,,54.34754600000000,04/00132/MIXED,251,fhrs@hambleton.gov.uk,Hambleton,http://www.hambleton.gov.uk/,-1.44269300000000,DL6 2XF,2014-03-06,fhrs_5_en-GB,5,,FHRS,5
371098,Allertonshire School,Brompton Road,Northallerton,North Yorkshire,Allertonshire School (West),School/college/university,7845,0,,15391,0,,54.34569400000000,05/00202/FOOD,251,fhrs@hambleton.gov.uk,Hambleton,http://www.hambleton.gov.uk/,-1.43281200000000,DL6 1ED,2014-01-09,fhrs_5_en-GB,5,,FHRS,0
371099,Alne Primary School,Alne,North Yorkshire,,Alne CP School,School/college/university,7845,5,,10544,0,,54.08271500000000,04/00229/FOOD,251,fhrs@hambleton.gov.uk,Hambleton,http://www.hambleton.gov.uk/,-1.24522200000000,YO61 1RT,2014-03-03,fhrs_5_en-GB,5,,FHRS,5
371100,Alne Hall Cheshire Home,Alne Hall,Alne,North Yorkshire,Alne Hall,Hospitals/Childcare/Caring Premises,5,0,,510535,0,,54.08022100000000,04/00231/FOOD,251,fhrs@hambleton.gov.uk,Hambleton,http://www.hambleton.gov.uk/,-1.24159900000000,YO61 1SA,2013-11-12,fhrs_5_en-GB,5,,FHRS,0
371101,Alne Preschool And Playgroup,Alne Primary School,Alne,North Yorkshire,Alne Pre-School Playgroup,Hospitals/Childcare/Caring Premises,5,0,,551073,5,,54.08271500000000,13/00055/MIXED,251,fhrs@hambleton.gov.uk,Hambleton,http://www.hambleton.gov.uk/,-1.24522200000000,YO61 1RT,2014-12-18,fhrs_5_en-GB,5,,FHRS,0
371102,Alverton Community Primary School,Alverton Infant And Nursery School,Mount Road,Northallerton,Alverton CP School  Key Stage 2,School/college/university,7845,0,,559471,0,,54.34479800000000,13/00117/FOOD,251,fhrs@hambleton.gov.uk,Hambleton,http://www.hambleton.gov.uk/,-1.42201000000000,DL6 1RB,2013-06-07,fhrs_5_en-GB,5,,FHRS,0
371103,Angel Hotel,Market Place,Easingwold,North Yorkshire,Angel Inn,Pub/bar/nightclub,7843,5,,18301,5,,54.12210900000000,06/00100/MIXED,251,fhrs@hambleton.gov.uk,Hambleton,http://www.hambleton.gov.uk/,-1.19265300000000,YO61 3AA,2014-02-28,fhrs_4_en-GB,4,,FHRS,10
371104,Wessex Foods,Wessex House,Plews Way,Leeming Bar Industrial Estate,APB Convenience Foods - Staff Canteen,Restaurant/Cafe/Canteen,1,,,693485,,,54.30566100000000,14/00044/FOOD,251,fhrs@hambleton.gov.uk,Hambleton,http://www.hambleton.gov.uk/,-1.56391500000000,DL7 9UL,2014-08-14,fhrs_exempt_en-GB,Exempt,,FHRS,
371105,Applegarth Primary School,Upwell Road,Northallerton,North Yorkshire,Applegarth County Primary School,School/college/university,7845,5,,9913,5,,54.33820500000000,04/00086/FOOD,251,fhrs@hambleton.gov.uk,Hambleton,http://www.hambleton.gov.uk/,-1.43797500000000,DL7 8QF,2014-12-05,fhrs_5_en-GB,5,,FHRS,5
371106,Appleton Wiske Community Primary Sc,Front Street,Appleton Wiske,North Yorkshire,Appleton Wiske CP School,School/college/university,7845,0,,10568,0,,54.43569100000000,04/00237/FOOD,251,fhrs@hambleton.gov.uk,Hambleton,http://www.hambleton.gov.uk/,-1.39921000000000,DL6 2AA,2009-01-15,fhrs_5_en-GB,5,,FHRS,5
371107,Village Hall,Front Street,Appleton Wiske,North Yorkshire,Appleton Wiske Playgroup,Hospitals/Childcare/Caring Premises,5,5,,11492,5,,54.43543300000000,04/00693/MIXED,251,fhrs@hambleton.gov.uk,Hambleton,http://www.hambleton.gov.uk/,-1.39972200000000,DL6 2AB,2012-09-20,fhrs_5_en-GB,5,,FHRS,5
371108,Coffee Shop And Cafe,87 Market Place,Thirsk,North Yorkshire,Arabica,Restaurant/Cafe/Canteen,1,0,,9625,0,,54.23306700000000,04/00036/MIXED,251,fhrs@hambleton.gov.uk,Hambleton,http://www.hambleton.gov.uk/,-1.34135700000000,YO7 1ET,2014-09-23,fhrs_5_en-GB,5,,FHRS,5
371109,Archers Icecream Parlour,6 Central Arcade,Northallerton,North Yorkshire,Archers Jersey Ice-cream (Northallerton) Ltd,Manufacturers/packers,7839,5,,355570,5,,54.34020600000000,12/00048/MIXED,251,fhrs@hambleton.gov.uk,Hambleton,http://www.hambleton.gov.uk/,-1.43354900000000,DL7 8PY,2013-05-30,fhrs_5_en-GB,5,,FHRS,5
371110,Aroma Bar And Restaurant,1 Zetland Street,Northallerton,North Yorkshire,Aroma,Restaurant/Cafe/Canteen,1,5,,579653,5,,54.33893700000000,13/00188/MIXED,251,fhrs@hambleton.gov.uk,Hambleton,http://www.hambleton.gov.uk/,-1.43316600000000,DL6 1NB,2013-08-19,fhrs_5_en-GB,5,,FHRS,5
371111,Asda,Brompton Road,Northallerton,North Yorkshire,Asda Supermarket Northallerton,Retailers - supermarkets/hypermarkets,7840,0,,246471,0,,54.34220700000000,11/00312/MIXED,251,fhrs@hambleton.gov.uk,Hambleton,http://www.hambleton.gov.uk/,-1.43279800000000,DL6 1DT,2013-12-10,fhrs_5_en-GB,5,,FHRS,0
371112,Asquiths Butchers,13 Market Place,Bedale,North Yorkshire,Askquiths Butchers,Retailers - other,4613,0,,10384,0,,54.28905300000000,04/00183/MIXED,251,fhrs@hambleton.gov.uk,Hambleton,http://www.hambleton.gov.uk/,-1.59229400000000,DL8 1ED,2014-02-10,fhrs_5_en-GB,5,,FHRS,0
371113,109 - 111 High Street,Great Ayton,North Yorkshire,,Aytons Traditional Yorkshire Fish And Chips,Takeaway/sandwich shop,7844,0,,47826,0,,54.48850600000000,11/00174/MIXED,251,fhrs@hambleton.gov.uk,Hambleton,http://www.hambleton.gov.uk/,-1.13361600000000,TS9 6BW,2014-10-21,fhrs_5_en-GB,5,,FHRS,5
371114,1 Elwick Terrace,North End,Hutton Rudby,North Yorkshire,B & T Kitson Butchers,Retailers - other,4613,,,11003,,,54.45059500000000,04/00402/MIXED,251,fhrs@hambleton.gov.uk,Hambleton,http://www.hambleton.gov.uk/,-1.28119400000000,TS15 0DH,2013-11-14,fhrs_exempt_en-GB,Exempt,,FHRS,
371115,The Airfield,Bagby,North Yorkshire,,Bagby Airfield Club,Restaurant/Cafe/Canteen,1,5,,708432,5,,54.21678543090820,14/00065/MIXED,251,fhrs@hambleton.gov.uk,Hambleton,http://www.hambleton.gov.uk/,-1.29265081882477,YO7 2PH,2014-10-10,fhrs_5_en-GB,5,,FHRS,5
371116,Bagby,North Yorkshire,,,Bagby Inn,Pub/bar/nightclub,7843,5,,628099,5,,54.21882629394531,13/00258/MIXED,251,fhrs@hambleton.gov.uk,Hambleton,http://www.hambleton.gov.uk/,-1.28680348396301,YO7 2PF,2014-01-24,fhrs_5_en-GB,5,,FHRS,5
371117,1A Friarage Street,Northallerton,North Yorkshire,,Bangla Fusion,Restaurant/Cafe/Canteen,1,5,,48463,5,,54.34104300000000,11/00301/MIXED,251,fhrs@hambleton.gov.uk,Hambleton,http://www.hambleton.gov.uk/,-1.43367600000000,DL6 1DP,2013-08-20,fhrs_4_en-GB,4,,FHRS,10
371118,Barbe Q Limited,Market Place,Easingwold,North Yorkshire,Barbe Q - Rocx,Takeaway/sandwich shop,7844,0,,10779,0,,54.12182300000000,04/00304/MIXED,251,fhrs@hambleton.gov.uk,Hambleton,http://www.hambleton.gov.uk/,-1.19155700000000,YO61 3AD,2014-07-17,fhrs_5_en-GB,5,,FHRS,5
371119,Trotters Cafe,64 High Street,Stokesley,North Yorkshire,Bassletons Fish Bar,Takeaway/sandwich shop,7844,5,,716288,5,,54.46968000000000,14/00108/MIXED,251,fhrs@hambleton.gov.uk,Hambleton,http://www.hambleton.gov.uk/,-1.19505500000000,TS9 5BA,2014-11-07,fhrs_5_en-GB,5,,FHRS,0
371120,BATA Limited,Country Store And Easingwold Garden,Raskelf Road,Easingwold,BATA Country Store And Easingwold Garden Store,Restaurant/Cafe/Canteen,1,,,209410,,,54.12198700000000,04/00325/MIXED,251,fhrs@hambleton.gov.uk,Hambleton,http://www.hambleton.gov.uk/,-1.20676300000000,YO61 3LA,2003-07-07,fhrs_exempt_en-GB,Exempt,,FHRS,
371121,159 Chantry Road,Romanby,North Yorkshire,,Bed & Breakfast,Hotel/bed & breakfast/guest house,7842,,,209447,,,54.33502100000000,04/00508/FOOD,251,fhrs@hambleton.gov.uk,Hambleton,http://www.hambleton.gov.uk/,-1.45113700000000,DL7 8JJ,2008-08-26,fhrs_exempt_en-GB,Exempt,,FHRS,
371122,Tutin Road,Leeming Bar Industrial Estate,Leeming Bar,North Yorkshire,Bedale Day Nursery,Hospitals/Childcare/Caring Premises,5,0,,18343,0,,54.30636500000000,06/00109/MIXED,251,fhrs@hambleton.gov.uk,Hambleton,http://www.hambleton.gov.uk/,-1.56719600000000,DL7 9UJ,2014-11-21,fhrs_5_en-GB,5,,FHRS,5
371123,28 Firby Road,Bedale,North Yorkshire,,Bedale Grange Nursing Home,Hospitals/Childcare/Caring Premises,5,5,,10430,0,,54.28579700000000,04/00196/FOOD,251,fhrs@hambleton.gov.uk,Hambleton,http://www.hambleton.gov.uk/,-1.59421600000000,DL8 2AS,2014-08-04,fhrs_5_en-GB,5,,FHRS,5
371124,Bedale Hall Management Committee,Bedale Hall,2 North End,Bedale,Bedale Hall,Other catering premises,7841,,,209258,,,54.29021000000000,04/00210/MIXED,251,fhrs@hambleton.gov.uk,Hambleton,http://www.hambleton.gov.uk/,-1.59429500000000,DL8 1AA,2006-01-19,fhrs_exempt_en-GB,Exempt,,FHRS,
371125,Fitzalan Road,Bedale,North Yorkshire,,Bedale High School,School/college/university,7845,0,,11482,0,,54.28400700000000,04/00686/FOOD,251,fhrs@hambleton.gov.uk,Hambleton,http://www.hambleton.gov.uk/,-1.59096200000000,DL8 2EQ,2013-06-04,fhrs_5_en-GB,5,,FHRS,0
371126,Bedale Church Of England Primary Sc,Firby Road,Bedale,North Yorkshire,Bedale Primary School,School/college/university,7845,0,,10446,0,,54.28573900000000,04/00202/FOOD,251,fhrs@hambleton.gov.uk,Hambleton,http://www.hambleton.gov.uk/,-1.59314100000000,DL8 2AT,2014-10-16,fhrs_4_en-GB,4,,FHRS,10
371127,Room 5,Bedale Hall,2 North End,Bedale,Bedale Under 5's,Hospitals/Childcare/Caring Premises,5,5,,209334,5,,54.29021000000000,04/00218/MIXED,251,fhrs@hambleton.gov.uk,Hambleton,http://www.hambleton.gov.uk/,-1.59429500000000,DL8 1AA,2006-01-20,fhrs_5_en-GB,5,,FHRS,5
371128,Bedale High School,Fitzalan Road,Bedale,North Yorkshire,Bedale Youth Centre,Hospitals/Childcare/Caring Premises,5,,,209423,,,54.28400700000000,04/00192/FOOD,251,fhrs@hambleton.gov.uk,Hambleton,http://www.hambleton.gov.uk/,-1.59096200000000,DL8 2EQ,2002-02-06,fhrs_exempt_en-GB,Exempt,,FHRS,
371129,Romanby Road,Northallerton,North Yorkshire,,Beechwood Nursing Home,Hospitals/Childcare/Caring Premises,5,0,,510537,0,,54.33636700000000,04/00817/FOOD,251,fhrs@hambleton.gov.uk,Hambleton,http://www.hambleton.gov.uk/,-1.44092200000000,DL7 8FH,2014-02-11,fhrs_5_en-GB,5,,FHRS,5
371130,East Cowton,North Yorkshire,,,Beeswing Inn,Pub/bar/nightclub,7843,5,,552356,5,,54.42290496826172,13/00108/MIXED,251,fhrs@hambleton.gov.uk,Hambleton,http://www.hambleton.gov.uk/,-1.52765560150146,DL7 0BD,2013-05-17,fhrs_5_en-GB,5,,FHRS,5
371131,4 Market Row,Northallerton,North Yorkshire,,Bellina,Retailers - other,4613,5,,209254,5,,54.33959300000000,04/00115/MIXED,251,fhrs@hambleton.gov.uk,Hambleton,http://www.hambleton.gov.uk/,-1.43497200000000,DL7 8LN,2006-02-24,fhrs_5_en-GB,5,,FHRS,5
371132,Beningbrough Hall,Beningbrough Park,Beningbrough,North Yorkshire,Beningbrough Hall Restaurant,Restaurant/Cafe/Canteen,1,0,,11712,0,,54.02069200000000,04/00808/MIXED,251,fhrs@hambleton.gov.uk,Hambleton,http://www.hambleton.gov.uk/,-1.21047600000000,YO30 1DD,2013-06-25,fhrs_5_en-GB,5,,FHRS,0
371133,38 Benkhill Drive,Bedale,North Yorkshire,,Benkhill Lodge Residential Home,Hospitals/Childcare/Caring Premises,5,0,,11596,5,,54.28578500000000,04/00747/FOOD,251,fhrs@hambleton.gov.uk,Hambleton,http://www.hambleton.gov.uk/,-1.59069800000000,DL8 2ED,2014-01-29,fhrs_5_en-GB,5,,FHRS,0
371134,Chute House,Station Road,Alne,North Yorkshire,Bentley Of York,Restaurant/Cafe/Canteen,1,5,,504983,5,,54.09095400000000,12/00158/FOOD,251,fhrs@hambleton.gov.uk,Hambleton,http://www.hambleton.gov.uk/,-1.23195500000000,YO61 1TP,2013-01-18,fhrs_5_en-GB,5,,FHRS,0
371135,Bettys Cafe Tea Rooms,189A High Street,Northallerton,North Yorkshire,Bettys Cafe/Tearooms,Restaurant/Cafe/Canteen,1,0,,11475,5,,54.33928600000000,04/00681/MIXED,251,fhrs@hambleton.gov.uk,Hambleton,http://www.hambleton.gov.uk/,-1.43473000000000,DL7 8LF,2013-11-13,fhrs_5_en-GB,5,,FHRS,0
371136,Rowans,Seamer,North Yorkshire,,Bexters Tea Room,Other catering premises,7841,0,,554725,0,,54.46736600000000,13/00091/FOOD,251,fhrs@hambleton.gov.uk,Hambleton,http://www.hambleton.gov.uk/,-1.21343000000000,TS9 5LG,2013-06-06,fhrs_5_en-GB,5,,FHRS,0
371137,Unit 4,Church House,30 College Square,Stokesley,Bexters Tea Room,Restaurant/Cafe/Canteen,1,0,,554724,0,,54.47085600000000,13/00054/MIXED,251,fhrs@hambleton.gov.uk,Hambleton,http://www.hambleton.gov.uk/,-1.19080400000000,TS9 5DN,2013-06-06,fhrs_5_en-GB,5,,FHRS,0
371138,Big Ds BBQ,Unit 10,Terry Dicken Industrial Estate,Station Road,Big D's BBQ,Restaurant/Cafe/Canteen,1,0,,668760,0,,54.46202300000000,14/00093/MIXED,251,fhrs@hambleton.gov.uk,Hambleton,http://www.hambleton.gov.uk/,-1.18030200000000,TS9 7AE,2014-06-12,fhrs_5_en-GB,5,,FHRS,5
371139,Aiskew Farm,The Bridge,Aiskew Bank,Aiskew,Big Sheep/ Little Cow Farm Attraction,Restaurant/Cafe/Canteen,1,10,,10522,5,,54.28799500000000,04/00223/MIXED,251,fhrs@hambleton.gov.uk,Hambleton,http://www.hambleton.gov.uk/,-1.58528500000000,DL8 1AW,2014-01-24,fhrs_3_en-GB,3,,FHRS,10
371140,,,,,Bite Size Bakes,Retailers - other,4613,0,,607733,0,,,13/00207/FOOD,251,fhrs@hambleton.gov.uk,Hambleton,http://www.hambleton.gov.uk/,,,2013-10-30,fhrs_5_en-GB,5,,FHRS,0
371141,75 Market Place,Thirsk,North Yorkshire,,Black Bull,Pub/bar/nightclub,7843,5,,716290,0,,54.23322500000000,14/00129/MIXED,251,fhrs@hambleton.gov.uk,Hambleton,http://www.hambleton.gov.uk/,-1.34232100000000,YO7 1EY,2014-11-11,fhrs_5_en-GB,5,,FHRS,5
371142,Great Smeaton,North Yorkshire,,,Black Bull Inn,Pub/bar/nightclub,7843,0,,21419,0,,54.43410600000000,07/00020/MIXED,251,fhrs@hambleton.gov.uk,Hambleton,http://www.hambleton.gov.uk/,-1.46553800000000,DL6 2EH,2012-08-21,fhrs_5_en-GB,5,,FHRS,0
371143,The Black Horse Inn,Newton Road,Tollerton,North Yorkshire,Black Horse Inn,Pub/bar/nightclub,7843,10,,638105,15,,54.07027200000000,14/00048/MIXED,251,fhrs@hambleton.gov.uk,Hambleton,http://www.hambleton.gov.uk/,-1.21508300000000,YO61 1QT,2014-03-13,fhrs_2_en-GB,2,,FHRS,10
371144,Black Swan Inn,9 Front Street,Norby,North Yorkshire,Black Swan,Pub/bar/nightclub,7843,0,,544685,0,,54.23631100000000,12/00150/MIXED,251,fhrs@hambleton.gov.uk,Hambleton,http://www.hambleton.gov.uk/,-1.34627700000000,YO7 1BG,2013-04-30,fhrs_5_en-GB,5,,FHRS,0
371145,Huby Road,Sutton On The Forest,North Yorkshire,,Blackwell Ox,Pub/bar/nightclub,7843,5,,623711,10,,54.07465500000000,14/00003/MIXED,251,fhrs@hambleton.gov.uk,Hambleton,http://www.hambleton.gov.uk/,-1.11361300000000,YO61 1DT,2013-11-22,fhrs_3_en-GB,3,,FHRS,10
371146,Bliss Cafe And Patisserie,12 Millgate,Thirsk,North Yorkshire,Bliss Cafe & Patisserie,Restaurant/Cafe/Canteen,1,10,,559468,5,,54.23351300000000,13/00080/MIXED,251,fhrs@hambleton.gov.uk,Hambleton,http://www.hambleton.gov.uk/,-1.34231700000000,YO7 1AA,2014-12-03,fhrs_4_en-GB,4,,FHRS,5
371147,Knayton Church Of England VC Primar,Oaktree Bank,Knayton,North Yorkshire,Borrowby Nursery School,Hospitals/Childcare/Caring Premises,5,0,,18368,5,,54.28872000000000,06/00114/MIXED,251,fhrs@hambleton.gov.uk,Hambleton,http://www.hambleton.gov.uk/,-1.34017800000000,YO7 4AN,2014-02-04,fhrs_5_en-GB,5,,FHRS,5
371148,West View,High Lane,Kirby Sigston,North Yorkshire,Borrowby Nursery School,Other catering premises,7841,5,,33548,5,,54.34734200000000,10/00050/FOOD,251,fhrs@hambleton.gov.uk,Hambleton,http://www.hambleton.gov.uk/,-1.34631700000000,DL6 3TE,2010-02-24,fhrs_5_en-GB,5,,FHRS,5
371149,22 Station Road,Stokesley,Middlesbrough,North Yorkshire,Botanic Centre Middlesbrough Ltd,Other catering premises,7841,,,449080,,,54.46646200000000,12/00148/FOOD,251,fhrs@hambleton.gov.uk,Hambleton,http://www.hambleton.gov.uk/,-1.18425600000000,TS9 5AJ,2012-09-20,fhrs_exempt_en-GB,Exempt,,FHRS,
371150,St Peters Brafferton Church Of Engl,School Terrace,Brafferton,North Yorkshire,Brafferton C Of E Primary School,School/college/university,7845,5,,11489,5,,54.12615100000000,04/00692/FOOD,251,fhrs@hambleton.gov.uk,Hambleton,http://www.hambleton.gov.uk/,-1.33162300000000,YO61 2PA,2005-09-21,fhrs_5_en-GB,5,,FHRS,5
371151,Bramley Hedge Day Nursery,Richards House,Crosby Road,Northallerton,Brambly Hedge Day Nursery,Hospitals/Childcare/Caring Premises,5,5,,21331,5,,54.33634200000000,07/00009/MIXED,251,fhrs@hambleton.gov.uk,Hambleton,http://www.hambleton.gov.uk/,-1.42794200000000,DL6 1AE,2015-01-27,fhrs_5_en-GB,5,,FHRS,5
371152,Ivy House,Main Street,Shipton By Beningbrough,North Yorkshire,Branwen Farbrother,Hotel/bed & breakfast/guest house,7842,10,,338113,5,,54.02110000000000,11/00330/FOOD,251,fhrs@hambleton.gov.uk,Hambleton,http://www.hambleton.gov.uk/,-1.15799300000000,YO30 1AB,2012-04-19,fhrs_4_en-GB,4,,FHRS,5
371153,Oakwood Enterprises,Big Sheep And Little Cow,The Bridge,Aiskew Bank,Bread Actually,Other catering premises,7841,5,,693486,5,,54.28799500000000,14/00123/MIXED,251,fhrs@hambleton.gov.uk,Hambleton,http://www.hambleton.gov.uk/,-1.58528500000000,DL8 1AW,2014-03-13,fhrs_4_en-GB,4,,FHRS,10
371154,Breckenbrough,North Yorkshire,,,Breckenbrough School,School/college/university,7845,10,,11566,5,,54.24296000000000,04/00732/FOOD,251,fhrs@hambleton.gov.uk,Hambleton,http://www.hambleton.gov.uk/,-1.41034400000000,YO7 4EN,2014-12-12,fhrs_4_en-GB,4,,FHRS,5
371155,Bright Beginnings Day Care 2007 Lim,School Bungalow,Fitzalan Road,Bedale,Bright Beginnings(2007),Hospitals/Childcare/Caring Premises,5,0,,11595,0,,54.28410200000000,04/00746/MIXED,251,fhrs@hambleton.gov.uk,Hambleton,http://www.hambleton.gov.uk/,-1.58727400000000,DL8 2DU,2014-08-11,fhrs_5_en-GB,5,,FHRS,5
371156,Rivendale,227 Bankhead Road,Northallerton,North Yorkshire,Broadacres Rivendale,Hospitals/Childcare/Caring Premises,5,5,,708434,5,,54.33679300000000,14/00083/MIXED,251,fhrs@hambleton.gov.uk,Hambleton,http://www.hambleton.gov.uk/,-1.42253700000000,DL6 1HN,2015-01-27,fhrs_5_en-GB,5,,FHRS,5
371157,The Orchards,Orchard Grove,Brompton,North Yorkshire,"Broadacres, The Orchards",Hospitals/Childcare/Caring Premises,5,10,,707033,10,,54.36050300000000,14/00084/MIXED,251,fhrs@hambleton.gov.uk,Hambleton,http://www.hambleton.gov.uk/,-1.42865300000000,DL6 2RB,2014-10-07,fhrs_2_en-GB,2,,FHRS,15
371158,2 Northallerton Road,Brompton,North Yorkshire,,Brompton Convenience Store,Retailers - other,4613,0,,10589,0,,54.36018800000000,04/00244/MIXED,251,fhrs@hambleton.gov.uk,Hambleton,http://www.hambleton.gov.uk/,-1.42667200000000,DL6 2QN,2011-07-28,fhrs_5_en-GB,5,,FHRS,0
371159,Brompton Community Primary School,Station Road,Brompton,North Yorkshire,Brompton CP School,School/college/university,7845,5,,10618,5,,54.36218700000000,04/00252/FOOD,251,fhrs@hambleton.gov.uk,Hambleton,http://www.hambleton.gov.uk/,-1.42361300000000,DL6 2RE,2015-01-07,fhrs_5_en-GB,5,,FHRS,0
371160,Broomfield School,Broomfield Avenue,Northallerton,North Yorkshire,Broomfield Cp School,School/college/university,7845,5,,11238,0,,54.33061600000000,04/00515/FOOD,251,fhrs@hambleton.gov.uk,Hambleton,http://www.hambleton.gov.uk/,-1.43526400000000,DL7 8RG,2014-11-04,fhrs_5_en-GB,5,,FHRS,5
371161,1 West Terrace,Great Ayton,North Yorkshire,,Buck Hotel,Hotel/bed & breakfast/guest house,7842,5,,606038,5,,54.48820200000000,13/00230/MIXED,251,fhrs@hambleton.gov.uk,Hambleton,http://www.hambleton.gov.uk/,-1.14263800000000,TS9 6PA,2013-10-22,fhrs_5_en-GB,5,,FHRS,5
371162,Chop Gate,North Yorkshire,,,Buck Inn,Pub/bar/nightclub,7843,5,,371048,0,,54.38976100000000,11/00182/MIXED,251,fhrs@hambleton.gov.uk,Hambleton,http://www.hambleton.gov.uk/,-1.14099500000000,TS9 7JL,2014-12-11,fhrs_4_en-GB,4,,FHRS,10
371163,Tulip Inn York,Burn Hall,Tollerton Road,Huby,Burn Hall Hotel,Hotel/bed & breakfast/guest house,7842,10,,705774,5,,54.08174200000000,14/00104/MIXED,251,fhrs@hambleton.gov.uk,Hambleton,http://www.hambleton.gov.uk/,-1.16982000000000,YO61 1JB,2014-09-26,fhrs_2_en-GB,2,,FHRS,15
371164,Burneston Church Of England Va Prim,Burneston,North Yorkshire,,Burneston C Of E Primary School,School/college/university,7845,0,,10624,0,,54.26025300000000,04/00254/FOOD,251,fhrs@hambleton.gov.uk,Hambleton,http://www.hambleton.gov.uk/,-1.52923900000000,DL8 2HX,2013-09-09,fhrs_5_en-GB,5,,FHRS,0
371165,Post Office,Burneston,North Yorkshire,,Burneston Post Office,Retailers - other,4613,,,209312,,,54.26145900000000,04/00259/MIXED,251,fhrs@hambleton.gov.uk,Hambleton,http://www.hambleton.gov.uk/,-1.52965500000000,DL8 2HT,2009-02-10,fhrs_exempt_en-GB,Exempt,,FHRS,
371166,Impex Motor Company,Busby Stoop Garage,Station Road,Topcliffe,Busby Stoop Garage Ltd,Retailers - other,4613,0,,467628,5,,54.22115300000000,11/00165/FOOD,251,fhrs@hambleton.gov.uk,Hambleton,http://www.hambleton.gov.uk/,-1.41524100000000,YO7 4EQ,2014-05-23,fhrs_5_en-GB,5,,FHRS,0
371167,Glebe Farm,Low Street,Kirkby Fleetham,North Yorkshire,Buttylicious,Mobile caterer,7846,5,,557588,0,,54.35020200000000,13/00017/MIXED,251,fhrs@hambleton.gov.uk,Hambleton,http://www.hambleton.gov.uk/,-1.59762800000000,DL7 0SP,2013-05-22,fhrs_5_en-GB,5,,FHRS,0
371168,10 Sutton Road,Thirsk,North Yorkshire,,Bytheway Stores,Retailers - other,4613,5,,638095,10,,54.23399700000000,13/00251/MIXED,251,fhrs@hambleton.gov.uk,Hambleton,http://www.hambleton.gov.uk/,-1.33394800000000,YO7 1DJ,2014-03-07,fhrs_4_en-GB,4,,FHRS,0
371169,Friarage Hospital,Friarage Hospital Access Road,Northallerton,North Yorkshire,Cafe Bar Plus,Restaurant/Cafe/Canteen,1,5,,534446,0,,54.34263600000000,13/00045/FOOD,251,fhrs@hambleton.gov.uk,Hambleton,http://www.hambleton.gov.uk/,-1.43039300000000,DL6 1JG,2013-04-04,fhrs_5_en-GB,5,,FHRS,0
371170,IT IS International,3 Wainstones Court,Stokesley Business Park,Stokesley,Cafe Gourmet,Mobile caterer,7846,5,,569220,0,,54.46372600000000,13/00133/MIXED,251,fhrs@hambleton.gov.uk,Hambleton,http://www.hambleton.gov.uk/,-1.17840200000000,TS9 5JY,2013-07-09,fhrs_5_en-GB,5,,FHRS,5
371171,CB Furnishings,28 Standard Way,Standard Way Business Park,Northallerton,Cafe L'Antico,Restaurant/Cafe/Canteen,1,10,,25564,5,,54.35023900000000,08/00100/MIXED,251,fhrs@hambleton.gov.uk,Hambleton,http://www.hambleton.gov.uk/,-1.44776500000000,DL6 2XA,2015-01-27,fhrs_4_en-GB,4,,FHRS,5
371172,First And Second Floor,182 High Street,Northallerton,North Yorkshire,Cafe Natural,Restaurant/Cafe/Canteen,1,0,,552354,0,,54.33830400000000,12/00160/MIXED,251,fhrs@hambleton.gov.uk,Hambleton,http://www.hambleton.gov.uk/,-1.43425100000000,DL7 8JZ,2013-05-22,fhrs_5_en-GB,5,,FHRS,0
371173,36 Market Place,Thirsk,North Yorkshire,,Caffe Nero,Restaurant/Cafe/Canteen,1,0,,714983,0,,54.23234100000000,14/00135/MIXED,251,fhrs@hambleton.gov.uk,Hambleton,http://www.hambleton.gov.uk/,-1.34173700000000,YO7 1LH,2014-11-04,fhrs_5_en-GB,5,,FHRS,5
371174,93 - 94 High Street,Northallerton,North Yorkshire,,Caffe Nero,Restaurant/Cafe/Canteen,1,5,,47614,10,,54.34012700000000,11/00151/MIXED,251,fhrs@hambleton.gov.uk,Hambleton,http://www.hambleton.gov.uk/,-1.43402600000000,DL7 8PP,2014-06-13,fhrs_3_en-GB,3,,FHRS,10
371175,,,,,Cake Creations,Retailers - other,4613,,,710071,,,,14/00087/FOOD,251,fhrs@hambleton.gov.uk,Hambleton,http://www.hambleton.gov.uk/,,,2014-10-23,fhrs_exempt_en-GB,Exempt,,FHRS,
371176,5 Hambleton Avenue,Thirsk,North Yorkshire,,Cakes And Treats Just For You,Retailers - other,4613,5,,648890,5,,54.23568600000000,13/00211/FOOD,251,fhrs@hambleton.gov.uk,Hambleton,http://www.hambleton.gov.uk/,-1.33069900000000,YO7 1EE,2014-03-27,fhrs_5_en-GB,5,,FHRS,5
371177,Three Tuns Inn,Raskelf,North Yorkshire,,Camilles Pizzeria,Restaurant/Cafe/Canteen,1,10,,35804,5,,54.13397700000000,10/00350/MIXED,251,fhrs@hambleton.gov.uk,Hambleton,http://www.hambleton.gov.uk/,-1.24747400000000,YO61 3LF,2012-11-08,fhrs_4_en-GB,4,,FHRS,5
371178,Camphill Ltd,Camp Hill,Kirklington,North Yorkshire,Camp Hill Ltd (Orangery),Restaurant/Cafe/Canteen,1,10,,28918,10,,54.23731400000000,09/00036/MIXED,251,fhrs@hambleton.gov.uk,Hambleton,http://www.hambleton.gov.uk/,-1.52393100000000,DL8 2LS,2010-06-10,fhrs_3_en-GB,3,,FHRS,5
371179,Carlton And Faceby Church Of Englan,Carlton In Cleveland,North Yorkshire,,Carlton And Faceby C Of E Primary School,School/college/university,7845,5,,10654,0,,54.43123000000000,04/00263/FOOD,251,fhrs@hambleton.gov.uk,Hambleton,http://www.hambleton.gov.uk/,-1.21791400000000,TS9 7BB,2013-03-05,fhrs_5_en-GB,5,,FHRS,0
371180,Carlton Miniott Community Primary S,Carlton Road,Carlton Miniott,North Yorkshire,Carlton Miniott County Primary School,School/college/university,7845,5,,11656,5,,54.22341000000000,04/00781/FOOD,251,fhrs@hambleton.gov.uk,Hambleton,http://www.hambleton.gov.uk/,-1.39536200000000,YO7 4NJ,2014-12-12,fhrs_5_en-GB,5,,FHRS,5
371181,Carlton In Cleveland,North Yorkshire,,,Carlton Outdoor Education Centre,School/college/university,7845,0,,10647,0,,54.43219500000000,04/00261/FOOD,251,fhrs@hambleton.gov.uk,Hambleton,http://www.hambleton.gov.uk/,-1.21435000000000,TS9 7BD,2010-11-04,fhrs_5_en-GB,5,,FHRS,5
371182,Post Office,Carlton Road,Carlton Miniott,North Yorkshire,Carlton Stores,Retailers - other,4613,5,,10679,5,,54.22798000000000,04/00270/MIXED,251,fhrs@hambleton.gov.uk,Hambleton,http://www.hambleton.gov.uk/,-1.37687200000000,YO7 4LX,2013-08-07,fhrs_5_en-GB,5,,FHRS,0
371183,Yew Tree House,Meadow Lane,Snape,North Yorkshire,Carricks Fish Ltd,Manufacturers/packers,7839,5,,15229,0,,54.25444900000000,05/00138/MIXED,251,fhrs@hambleton.gov.uk,Hambleton,http://www.hambleton.gov.uk/,-1.59423200000000,DL8 2TJ,2014-02-28,fhrs_5_en-GB,5,,FHRS,0
371184,9 Market Row,Northallerton,North Yorkshire,,Casa Rustica,Restaurant/Cafe/Canteen,1,0,,579650,0,,54.33959300000000,13/00140/MIXED,251,fhrs@hambleton.gov.uk,Hambleton,http://www.hambleton.gov.uk/,-1.43497200000000,DL7 8LN,2013-08-21,fhrs_5_en-GB,5,,FHRS,0
371185,Caseys Brasserie,113A High Street,Great Ayton,North Yorkshire,Casey's (Great Ayton) Ltd,Restaurant/Cafe/Canteen,1,5,,28510,5,,54.48850600000000,09/00004/MIXED,251,fhrs@hambleton.gov.uk,Hambleton,http://www.hambleton.gov.uk/,-1.13361600000000,TS9 6BW,2013-07-04,fhrs_5_en-GB,5,,FHRS,5
371186,Husthwaite,North Yorkshire,,,Cash Stores,Retailers - other,4613,,,209262,,,54.16947937011719,04/00394/MIXED,251,fhrs@hambleton.gov.uk,Hambleton,http://www.hambleton.gov.uk/,-1.20424640178680,YO61 4PX,2011-08-24,fhrs_exempt_en-GB,Exempt,,FHRS,
371187,Office At,Malpas Court,Northallerton,North Yorkshire,Caterplus,Restaurant/Cafe/Canteen,1,5,,47785,10,,54.33619400000000,11/00169/MIXED,251,fhrs@hambleton.gov.uk,Hambleton,http://www.hambleton.gov.uk/,-1.43849400000000,DL7 8TG,2014-08-14,fhrs_4_en-GB,4,,FHRS,0
371188,Mental Health Support In Hambleton,2 The Link,Northallerton,North Yorkshire,Centrepoint,Other catering premises,7841,5,,9954,5,,54.33755600000000,04/00092/MIXED,251,fhrs@hambleton.gov.uk,Hambleton,http://www.hambleton.gov.uk/,-1.43000100000000,DL6 1DG,2009-03-09,fhrs_5_en-GB,5,,FHRS,0
371189,Chapters Deli And Cafe,High Street,Stokesley,North Yorkshire,"Chapters Deli, Bistro And Wine Bar",Restaurant/Cafe/Canteen,1,20,,467629,15,,54.46978100000000,11/00231/MIXED,251,fhrs@hambleton.gov.uk,Hambleton,http://www.hambleton.gov.uk/,-1.19261500000000,TS9 5DG,2014-10-07,fhrs_1_en-GB,1,,FHRS,15
371190,Chapters,27 High Street,Stokesley,North Yorkshire,Chapters Restaurant,Restaurant/Cafe/Canteen,1,0,,577509,5,,54.46962200000000,04/00578/MIXED,251,fhrs@hambleton.gov.uk,Hambleton,http://www.hambleton.gov.uk/,-1.19178500000000,TS9 5AD,2015-01-22,fhrs_5_en-GB,5,,FHRS,5
371191,Royal George Inn,Morton On Swale,North Yorkshire,,Chef's,Pub/bar/nightclub,7843,5,,17979,10,,54.32281400000000,06/00054/MIXED,251,fhrs@hambleton.gov.uk,Hambleton,http://www.hambleton.gov.uk/,-1.49814500000000,DL7 9QS,2013-08-14,fhrs_4_en-GB,4,,FHRS,5
371192,6 St Helens Close,Morton On Swale,North Yorkshire,,Childrens Resource Centre,Hospitals/Childcare/Caring Premises,5,0,,11153,0,,54.32364800000000,04/00469/FOOD,251,fhrs@hambleton.gov.uk,Hambleton,http://www.hambleton.gov.uk/,-1.49982700000000,DL7 9TD,2004-10-21,fhrs_5_en-GB,5,,FHRS,0
371193,Ashtree Dairy Farm,Topcliffe,North Yorkshire,,Chip And Dale,Mobile caterer,7846,0,,35489,0,,54.18944600000000,10/00248/MIXED,251,fhrs@hambleton.gov.uk,Hambleton,http://www.hambleton.gov.uk/,-1.36566700000000,YO7 3HW,2014-06-13,fhrs_5_en-GB,5,,FHRS,0
371194,Inglenook,Skutterskelfe,North Yorkshire,,Chips And Things,Mobile caterer,7846,0,,11527,0,,54.13346481323242,04/00711/MIXED,251,fhrs@hambleton.gov.uk,Hambleton,http://www.hambleton.gov.uk/,-1.31587803363800,TS15 0JP,2013-06-27,fhrs_5_en-GB,5,,FHRS,0
371195,Youlton Lodge Farm,Youlton,North Yorkshire,,Choosi Chilli,Other catering premises,7841,0,,29960,0,,54.06511000000000,09/00129/FOOD,251,fhrs@hambleton.gov.uk,Hambleton,http://www.hambleton.gov.uk/,-1.22995600000000,YO61 1QJ,2011-03-15,fhrs_5_en-GB,5,,FHRS,0
371196,Brickyard Farm,Tollerton,North Yorkshire,,Chuck Wagon,Mobile caterer,7846,10,,194557,0,,54.07154100000000,11/00267/MIXED,251,fhrs@hambleton.gov.uk,Hambleton,http://www.hambleton.gov.uk/,-1.19487200000000,YO61 1RA,2014-03-03,fhrs_4_en-GB,4,,FHRS,5
371197,Chungs,3 Kirkgate,Thirsk,North Yorkshire,Chung's,Takeaway/sandwich shop,7844,5,,21473,5,,54.23285800000000,07/00027/MIXED,251,fhrs@hambleton.gov.uk,Hambleton,http://www.hambleton.gov.uk/,-1.34423000000000,YO7 1PQ,2013-06-17,fhrs_5_en-GB,5,,FHRS,5
371198,2 Queens Drive,Stokesley,North Yorkshire,,Chunk,Retailers - other,4613,10,,34928,5,,54.47408200000000,10/00169/FOOD,251,fhrs@hambleton.gov.uk,Hambleton,http://www.hambleton.gov.uk/,-1.18537000000000,TS9 5HA,2010-07-22,fhrs_4_en-GB,4,,FHRS,5
371199,St Peters Church,School Lane,Osmotherley,North Yorkshire,Church House,Other catering premises,7841,,,209366,,,54.36660400000000,04/00484/MIXED,251,fhrs@hambleton.gov.uk,Hambleton,http://www.hambleton.gov.uk/,-1.29862200000000,DL6 3BL,2012-11-15,fhrs_exempt_en-GB,Exempt,,FHRS,
371200,Clarks Bakery,195 Long Street,Easingwold,North Yorkshire,Clarks Bakers,Retailers - other,4613,20,,10793,15,,54.11871400000000,04/00309/MIXED,251,fhrs@hambleton.gov.uk,Hambleton,http://www.hambleton.gov.uk/,-1.19167900000000,YO61 3JB,2014-11-20,fhrs_0_en-GB,0,,FHRS,20
371201,Clarks Bakery,Market Place,Easingwold,North Yorkshire,Clarks Bakers,Restaurant/Cafe/Canteen,1,10,,11798,5,,54.12179200000000,04/00855/MIXED,251,fhrs@hambleton.gov.uk,Hambleton,http://www.hambleton.gov.uk/,-1.19235300000000,YO61 3AB,2014-11-20,fhrs_2_en-GB,2,,FHRS,15
371202,Amusement Depot Caravan 1,Dalton Saw Mill,Dalton Lane,Dalton,Classic Diner,Mobile caterer,7846,5,,24757,5,,54.18072000000000,08/00010/MIXED,251,fhrs@hambleton.gov.uk,Hambleton,http://www.hambleton.gov.uk/,-1.34559100000000,YO7 3HS,2014-03-21,fhrs_5_en-GB,5,,FHRS,0
371203,Cleveland Tontine Inn,Staddle Bridge,North Yorkshire,,Cleveland Tontine,Restaurant/Cafe/Canteen,1,0,,583058,0,,54.38734800000000,13/00170/MIXED,251,fhrs@hambleton.gov.uk,Hambleton,http://www.hambleton.gov.uk/,-1.31780900000000,DL6 3JB,2013-09-04,fhrs_5_en-GB,5,,FHRS,0
371204,,,,,Cloud Cupcake Land,Other catering premises,7841,0,,664604,0,,,14/00028/FOOD,251,fhrs@hambleton.gov.uk,Hambleton,http://www.hambleton.gov.uk/,,,2014-05-22,fhrs_5_en-GB,5,,FHRS,0
371205,Club Amadeus And Troubadour,Elder Road,Northallerton,North Yorkshire,Club Amadeus,Pub/bar/nightclub,7843,0,,10039,5,,54.34073600000000,04/00112/MIXED,251,fhrs@hambleton.gov.uk,Hambleton,http://www.hambleton.gov.uk/,-1.43344900000000,DL6 1NH,2009-02-18,fhrs_5_en-GB,5,,FHRS,0
371206,The Co Operative Food Petrol,Low Gates Service Station,Darlington Road,Northallerton,Co Operative,Retailers - other,4613,5,,32847,5,,54.34783900000000,10/00008/MIXED,251,fhrs@hambleton.gov.uk,Hambleton,http://www.hambleton.gov.uk/,-1.43987400000000,DL6 2NH,2014-09-12,fhrs_4_en-GB,4,,FHRS,10
371207,,,,,Cocosmith,Other catering premises,7841,0,,638097,0,,,13/00253/FOOD,251,fhrs@hambleton.gov.uk,Hambleton,http://www.hambleton.gov.uk/,,,2014-03-04,fhrs_5_en-GB,5,,FHRS,0
371208,3 Oval View,Main Street,Sessay,North Yorkshire,Coco-Vanilla,Other catering premises,7841,5,,48343,0,,54.17068400000000,11/00264/FOOD,251,fhrs@hambleton.gov.uk,Hambleton,http://www.hambleton.gov.uk/,-1.30132600000000,YO7 3NQ,2013-06-21,fhrs_5_en-GB,5,,FHRS,5
371209,29 College Square,Stokesley,North Yorkshire,,College Pizzas,Takeaway/sandwich shop,7844,20,,29570,10,,54.47085600000000,09/00091/MIXED,251,fhrs@hambleton.gov.uk,Hambleton,http://www.hambleton.gov.uk/,-1.19080400000000,TS9 5DN,2014-11-26,fhrs_1_en-GB,1,,FHRS,15
371210,Collingwood Catering,Part Of Unit 1,High Garth,Lumley Lane,Collingwood Catering Ltd,Importers/Exporters,14,,,26136,,,54.34675500000000,08/00206/MIXED,251,fhrs@hambleton.gov.uk,Hambleton,http://www.hambleton.gov.uk/,-1.57506400000000,DL7 0SL,2014-01-29,fhrs_exempt_en-GB,Exempt,,FHRS,
371211,The Co Operative Food,44 High Street,Stokesley,North Yorkshire,Convenience Store United Co-op,Retailers - other,4613,0,,559466,0,,54.47012400000000,04/00563/MIXED,251,fhrs@hambleton.gov.uk,Hambleton,http://www.hambleton.gov.uk/,-1.19288600000000,TS9 5DQ,2013-06-18,fhrs_5_en-GB,5,,FHRS,0
371212,Jakes Plaice Fish And Chips,65 Long Street,Easingwold,North Yorkshire,Cooks Fisheries,Takeaway/sandwich shop,7844,20,,10379,10,,54.12072000000000,04/00181/MIXED,251,fhrs@hambleton.gov.uk,Hambleton,http://www.hambleton.gov.uk/,-1.19595500000000,YO61 3HY,2014-08-14,fhrs_1_en-GB,1,,FHRS,10
371213,Nickery Nook,3 Market Court,Market Place,Bedale,Co-operative,Retailers - other,4613,5,,10435,10,,54.28886600000000,04/00197/MIXED,251,fhrs@hambleton.gov.uk,Hambleton,http://www.hambleton.gov.uk/,-1.59294100000000,DL8 1YA,2009-10-09,fhrs_3_en-GB,3,,FHRS,10
371214,The Co Operative Food,Springfield,Stokesley,North Yorkshire,Co-operative Food,Retailers - other,4613,0,,15323,0,,54.47207100000000,05/00176/MIXED,251,fhrs@hambleton.gov.uk,Hambleton,http://www.hambleton.gov.uk/,-1.18841900000000,TS9 5ER,2013-06-18,fhrs_5_en-GB,5,,FHRS,0
371215,The Co Operative Food,11A Ainderby Road,Northallerton,North Yorkshire,Co-operative Food,Retailers - other,4613,0,,673173,0,,54.33385400000000,14/00015/MIXED,251,fhrs@hambleton.gov.uk,Hambleton,http://www.hambleton.gov.uk/,-1.44564700000000,DL7 8HA,2014-11-06,fhrs_5_en-GB,5,,FHRS,0
371216,Coopland And Son,188 High Street,Northallerton,North Yorkshire,Cooplands,Retailers - other,4613,0,,11474,0,,54.33920400000000,04/00680/MIXED,251,fhrs@hambleton.gov.uk,Hambleton,http://www.hambleton.gov.uk/,-1.43439300000000,DL7 8LF,2013-05-01,fhrs_5_en-GB,5,,FHRS,5
371217,Cooplands And Son (Scarborough) Lim,32 High Street,Stokesley,North Yorkshire,Cooplands,Retailers - other,4613,0,,11341,0,,54.47012400000000,04/00577/MIXED,251,fhrs@hambleton.gov.uk,Hambleton,http://www.hambleton.gov.uk/,-1.19288600000000,TS9 5DQ,2013-10-29,fhrs_5_en-GB,5,,FHRS,0
371218,Corner House Hotel,2 Leases Road,Leeming Bar,North Yorkshire,Corner House Hotel Ltd,Hotel/bed & breakfast/guest house,7842,5,,576142,10,,54.30538700000000,13/00093/MIXED,251,fhrs@hambleton.gov.uk,Hambleton,http://www.hambleton.gov.uk/,-1.56012200000000,DL7 9AN,2013-07-28,fhrs_4_en-GB,4,,FHRS,0
371219,Cost Cutters,131 Long Street,Easingwold,North Yorkshire,Cost Cutter,Retailers - other,4613,5,,199518,5,,54.11871400000000,11/00265/MIXED,251,fhrs@hambleton.gov.uk,Hambleton,http://www.hambleton.gov.uk/,-1.19167900000000,YO61 3JB,2014-05-15,fhrs_5_en-GB,5,,FHRS,5
371220,Costa Coffee,The Roseberry,43 High Street,Stokesley,Costa,Restaurant/Cafe/Canteen,1,0,,188559,0,,54.46962200000000,11/00327/MIXED,251,fhrs@hambleton.gov.uk,Hambleton,http://www.hambleton.gov.uk/,-1.19178500000000,TS9 5AD,2014-03-10,fhrs_5_en-GB,5,,FHRS,0
371221,Tesco Stores Ltd,East Road,Northallerton,North Yorkshire,Costa,Restaurant/Cafe/Canteen,1,5,,24987,5,,54.33843700000000,08/00032/MIXED,251,fhrs@hambleton.gov.uk,Hambleton,http://www.hambleton.gov.uk/,-1.43200400000000,DL6 1NP,2014-12-11,fhrs_5_en-GB,5,,FHRS,5
371222,176 High Street,Northallerton,North Yorkshire,,Costa Coffee,Restaurant/Cafe/Canteen,1,5,,15295,5,,54.33830400000000,05/00162/MIXED,251,fhrs@hambleton.gov.uk,Hambleton,http://www.hambleton.gov.uk/,-1.43425100000000,DL7 8JZ,2014-10-06,fhrs_5_en-GB,5,,FHRS,5
371223,Public Convenience,Applegarth,Northallerton,North Yorkshire,Costa Coffee,Restaurant/Cafe/Canteen,1,0,,615795,0,,54.33970800000000,13/00182/MIXED,251,fhrs@hambleton.gov.uk,Hambleton,http://www.hambleton.gov.uk/,-1.43652400000000,DL7 8LZ,2013-11-15,fhrs_5_en-GB,5,,FHRS,0
371224,Cote Ghyll Mill YHA,Youth Hostel,Cote Ghyll,Osmotherley,Cote Ghyll Mill (YHA),Hotel/bed & breakfast/guest house,7842,0,,528263,0,,54.37644000000000,13/00060/MIXED,251,fhrs@hambleton.gov.uk,Hambleton,http://www.hambleton.gov.uk/,-1.29169600000000,DL6 3AH,2013-03-19,fhrs_5_en-GB,5,,FHRS,0
371225,,,,,Countrymarkets And Winnies Yorkshire Delights,Other catering premises,7841,5,,34627,5,,,10/00135/FOOD,251,fhrs@hambleton.gov.uk,Hambleton,http://www.hambleton.gov.uk/,,,2013-01-31,fhrs_5_en-GB,5,,FHRS,5
371226,Coxwold Tearooms,Old School House,Coxwold,North Yorkshire,Coxwold Tea Rooms,Restaurant/Cafe/Canteen,1,5,,10708,5,,54.18769500000000,04/00279/MIXED,251,fhrs@hambleton.gov.uk,Hambleton,http://www.hambleton.gov.uk/,-1.18241100000000,YO61 4AD,2014-10-10,fhrs_4_en-GB,4,,FHRS,10
371227,Crakehall Church Of England Primary,The Green,Crakehall,North Yorkshire,Crakehall CE Primary School,School/college/university,7845,0,,10712,0,,54.30516400000000,04/00281/FOOD,251,fhrs@hambleton.gov.uk,Hambleton,http://www.hambleton.gov.uk/,-1.62755800000000,DL8 1HP,2014-10-16,fhrs_5_en-GB,5,,FHRS,0
371228,Crathorne,North Yorkshire,,,Crathorne Arms,Hotel/bed & breakfast/guest house,7842,5,,632470,5,,54.46134948730469,13/00247/MIXED,251,fhrs@hambleton.gov.uk,Hambleton,http://www.hambleton.gov.uk/,-1.32103812694550,TS15 0BA,2014-01-15,fhrs_5_en-GB,5,,FHRS,5
371229,Crathorne Hall,Crathorne,North Yorkshire,,Crathorne Hall Hotel,Hotel/bed & breakfast/guest house,7842,0,,10715,0,,54.47085700000000,04/00282/MIXED,251,fhrs@hambleton.gov.uk,Hambleton,http://www.hambleton.gov.uk/,-1.31617500000000,TS15 0AR,2013-07-30,fhrs_5_en-GB,5,,FHRS,0
371230,Post Office,Crathorne,North Yorkshire,,Crathorne Post Office,Retailers - other,4613,,,209442,,,54.46134900000000,04/00285/MIXED,251,fhrs@hambleton.gov.uk,Hambleton,http://www.hambleton.gov.uk/,-1.32103800000000,TS15 0BA,2006-12-01,fhrs_exempt_en-GB,Exempt,,FHRS,
371231,Thirsk Racecourse,Station Road,Thirsk,North Yorkshire,Craven Gilpin & Sons (1982) Ltd. At Thirsk Racecourse,Restaurant/Cafe/Canteen,1,0,,9618,5,,54.23131900000000,04/00035/MIXED,251,fhrs@hambleton.gov.uk,Hambleton,http://www.hambleton.gov.uk/,-1.35059000000000,YO7 1QL,2014-06-17,fhrs_5_en-GB,5,,FHRS,5
371232,Crayke Church Of England VC Primary,Easingwold Road,Crayke,North Yorkshire,Crayke C Of E Primary School,School/college/university,7845,0,,10727,0,,54.12630000000000,04/00287/FOOD,251,fhrs@hambleton.gov.uk,Hambleton,http://www.hambleton.gov.uk/,-1.14610000000000,YO61 4TZ,2014-02-14,fhrs_5_en-GB,5,,FHRS,0
371233,Crayke Sports Club,Sports Ground And Pavilion,Easingwold Road,Crayke,Crayke Sports And Recreational Club,Pub/bar/nightclub,7843,10,,570694,5,,54.12630000000000,13/00028/MIXED,251,fhrs@hambleton.gov.uk,Hambleton,http://www.hambleton.gov.uk/,-1.14610000000000,YO61 4TZ,2013-07-11,fhrs_3_en-GB,3,,FHRS,10
371234,Croft Cottage,Main Street,Sutton On The Forest,North Yorkshire,Croft Kitchen,Other catering premises,7841,5,,15289,5,,54.07490300000000,05/00161/FOOD,251,fhrs@hambleton.gov.uk,Hambleton,http://www.hambleton.gov.uk/,-1.10590500000000,YO61 1DP,2014-03-06,fhrs_5_en-GB,5,,FHRS,0
371235,Crofters Foods Limited,Unit 4,Woodstock Way,Thirsk Industrial Park,Crofters Foods Ltd,Distributors/Transporters,7,0,,581496,0,,54.23251800000000,13/00113/MIXED,251,fhrs@hambleton.gov.uk,Hambleton,http://www.hambleton.gov.uk/,-1.32984500000000,YO7 3TF,2013-08-29,fhrs_5_en-GB,5,,FHRS,0
371236,30 - 32 Kirkgate,Thirsk,North Yorkshire,,Cross Keys Inn,Pub/bar/nightclub,7843,10,,9471,5,,54.23365200000000,04/00016/MIXED,251,fhrs@hambleton.gov.uk,Hambleton,http://www.hambleton.gov.uk/,-1.34481500000000,YO7 1PL,2009-02-04,fhrs_4_en-GB,4,,FHRS,5
371237,138 Front Street,Sowerby,North Yorkshire,,Crown And Anchor,Pub/bar/nightclub,7843,10,,707032,5,,54.22211700000000,14/00061/MIXED,251,fhrs@hambleton.gov.uk,Hambleton,http://www.hambleton.gov.uk/,-1.33743700000000,YO7 1JN,2014-10-06,fhrs_4_en-GB,4,,FHRS,5
371238,45 St Marys Walk,Thirsk,North Yorkshire,,Cupcake Creations By Heidi,Other catering premises,7841,5,,433931,5,,54.23836800000000,12/00124/FOOD,251,fhrs@hambleton.gov.uk,Hambleton,http://www.hambleton.gov.uk/,-1.33782100000000,YO7 1BR,2012-08-08,fhrs_5_en-GB,5,,FHRS,0
371239,4C Bridge Street,Bedale,North Yorkshire,,Cupcake Dreams,Retailers - other,4613,5,,714981,0,,54.28849900000000,14/00078/MIXED,251,fhrs@hambleton.gov.uk,Hambleton,http://www.hambleton.gov.uk/,-1.59051800000000,DL8 2AD,2014-09-29,fhrs_5_en-GB,5,,FHRS,0
371240,Cup Cake Dream,Units 1 To 2,Enterprise House,Bridge Street,Cupcake Dreams,Retailers - other,4613,5,,372404,0,,54.28857200000000,12/00082/MIXED,251,fhrs@hambleton.gov.uk,Hambleton,http://www.hambleton.gov.uk/,-1.59099300000000,DL8 2AD,2012-05-18,fhrs_5_en-GB,5,,FHRS,5
371241,Bedale Golf Club,Bedale,North Yorkshire,,Cuzins,Restaurant/Cafe/Canteen,1,5,,591536,5,,54.13346481323242,13/00216/MIXED,251,fhrs@hambleton.gov.uk,Hambleton,http://www.hambleton.gov.uk/,-1.31587803363800,DL8 1EZ,2013-10-10,fhrs_5_en-GB,5,,FHRS,5
371242,Dales Day Care Centre,13 Wycar,Bedale,North Yorkshire,CWC Malings Ltd,Hospitals/Childcare/Caring Premises,5,10,,729174,5,,54.28746900000000,14/00171/MIXED,251,fhrs@hambleton.gov.uk,Hambleton,http://www.hambleton.gov.uk/,-1.59441400000000,DL8 1ER,2014-12-15,fhrs_4_en-GB,4,,FHRS,0
371243,D Petch Butchers,121 High Street,Great Ayton,North Yorkshire,D Petch,Retailers - other,4613,5,,10888,5,,54.48850600000000,04/00351/MIXED,251,fhrs@hambleton.gov.uk,Hambleton,http://www.hambleton.gov.uk/,-1.13361600000000,TS9 6BW,2014-10-21,fhrs_5_en-GB,5,,FHRS,5
371244,Wessex Foods,Wessex House,Plews Way,Leeming Bar Industrial Estate,Dalepak,Manufacturers/packers,7839,,,17475,,,54.30566100000000,06/00001/FOOD,251,fhrs@hambleton.gov.uk,Hambleton,http://www.hambleton.gov.uk/,-1.56391500000000,DL7 9UL,2014-08-14,fhrs_exempt_en-GB,Exempt,,FHRS,
371245,Unit F,Dalton Old Airfield Industrial Esta,Dalton,North Yorkshire,Dalton Diner,Mobile caterer,7846,10,,648894,10,,54.17258900000000,13/00250/MIXED,251,fhrs@hambleton.gov.uk,Hambleton,http://www.hambleton.gov.uk/,-1.36293700000000,YO7 3HE,2014-03-27,fhrs_3_en-GB,3,,FHRS,10
371246,Post Office,Dalton,North Yorkshire,,Dalton Post Office,Retailers - other,4613,,,209313,,,54.18070600000000,04/00290/MIXED,251,fhrs@hambleton.gov.uk,Hambleton,http://www.hambleton.gov.uk/,-1.34139300000000,YO7 3HY,2008-09-10,fhrs_exempt_en-GB,Exempt,,FHRS,
371247,,,,,Darrowby Cakes,Other catering premises,7841,,,569217,,,,13/00075/FOOD,251,fhrs@hambleton.gov.uk,Hambleton,http://www.hambleton.gov.uk/,,,2013-07-12,fhrs_exempt_en-GB,Exempt,,FHRS,
371248,Units 17 And 18,Terry Dicken Industrial Estate,Station Road,Stokesley,Dexters Caterers,Restaurant/Cafe/Canteen,1,0,,9807,0,,54.46202300000000,04/00067/MIXED,251,fhrs@hambleton.gov.uk,Hambleton,http://www.hambleton.gov.uk/,-1.18030200000000,TS9 7AE,2013-10-29,fhrs_5_en-GB,5,,FHRS,0
371249,Topcliffe,North Yorkshire,,,Diner 168,Restaurant/Cafe/Canteen,1,5,,209465,0,,54.18944600000000,04/00629/MIXED,251,fhrs@hambleton.gov.uk,Hambleton,http://www.hambleton.gov.uk/,-1.36566700000000,YO7 3HW,2013-07-26,fhrs_5_en-GB,5,,FHRS,5
371250,1 Codlin Road,Hutton Rudby,North Yorkshire,,Dinky Deli,Other catering premises,7841,5,,18173,5,,54.45210400000000,06/00082/FOOD,251,fhrs@hambleton.gov.uk,Hambleton,http://www.hambleton.gov.uk/,-1.28251000000000,TS15 0LB,2015-01-29,fhrs_5_en-GB,5,,FHRS,5
371251,The Dog And Gun,Knayton,North Yorkshire,,Dog And Gun,Pub/bar/nightclub,7843,0,,648892,5,,54.28619600000000,13/00218/MIXED,251,fhrs@hambleton.gov.uk,Hambleton,http://www.hambleton.gov.uk/,-1.33398200000000,YO7 4AZ,2014-03-27,fhrs_5_en-GB,5,,FHRS,5
371252,Dooleys,Chapel Street,Easingwold,North Yorkshire,Dooley's,Retailers - other,4613,5,,10808,10,,54.12040100000000,04/00316/MIXED,251,fhrs@hambleton.gov.uk,Hambleton,http://www.hambleton.gov.uk/,-1.19262500000000,YO61 3AF,2014-10-16,fhrs_4_en-GB,4,,FHRS,5
371253,136 Long Street,Easingwold,North Yorkshire,,Dough,Retailers - other,4613,20,,557589,10,,54.11918400000000,13/00064/MIXED,251,fhrs@hambleton.gov.uk,Hambleton,http://www.hambleton.gov.uk/,-1.19211300000000,YO61 3JA,2015-01-14,fhrs_1_en-GB,1,,FHRS,5
371254,66 The Crescent,Northallerton,North Yorkshire,,Duncan Cullen's,Takeaway/sandwich shop,7844,5,,615796,5,,54.33989500000000,13/00235/MIXED,251,fhrs@hambleton.gov.uk,Hambleton,http://www.hambleton.gov.uk/,-1.42481600000000,DL6 1EY,2013-11-25,fhrs_5_en-GB,5,,FHRS,5
371255,Tea Rooms At,Mill Green Farm,Crayke,North Yorkshire,Dutch House,Restaurant/Cafe/Canteen,1,5,,34716,5,,54.13788200000000,10/00145/MIXED,251,fhrs@hambleton.gov.uk,Hambleton,http://www.hambleton.gov.uk/,-1.12936100000000,YO61 4TT,2014-05-15,fhrs_5_en-GB,5,,FHRS,5
371256,Yorkshire Gliding Club (P T Y) Ltd,Sutton Bank,Thirsk,North Yorkshire,E Clark Catering,Restaurant/Cafe/Canteen,1,10,,638104,0,,54.13346481323242,14/00045/MIXED,251,fhrs@hambleton.gov.uk,Hambleton,http://www.hambleton.gov.uk/,-1.31587803363800,YO7 2EY,2014-03-07,fhrs_4_en-GB,4,,FHRS,0
371257,Ingleby Lane Farm,Ingleby Greenhow,North Yorkshire,,Easby Hogs (catering Trailer),Mobile caterer,7846,0,,621044,0,,54.45479500000000,13/00240/MIXED,251,fhrs@hambleton.gov.uk,Hambleton,http://www.hambleton.gov.uk/,-1.10765900000000,TS9 6LJ,2013-12-18,fhrs_5_en-GB,5,,FHRS,0
371258,Woodside Farm,Farlington,North Yorkshire,,Easingwold Country Market,Other catering premises,7841,,,209232,,,54.09076000000000,04/00339/FOOD,251,fhrs@hambleton.gov.uk,Hambleton,http://www.hambleton.gov.uk/,-1.07646900000000,YO61 1NA,2008-11-23,fhrs_exempt_en-GB,Exempt,,FHRS,
371259,Easingwold Community Primary School,Thirsk Road,Easingwold,North Yorkshire,Easingwold County Primary School,School/college/university,7845,0,,11512,0,,54.12529300000000,04/00704/FOOD,251,fhrs@hambleton.gov.uk,Hambleton,http://www.hambleton.gov.uk/,-1.20111400000000,YO61 3HJ,2014-03-03,fhrs_5_en-GB,5,,FHRS,0
371260,Easingwold Golf Club,Stillington Road,Easingwold,North Yorkshire,Easingwold Golf Club - Bar,Other catering premises,7841,,,21758,,,54.11479700000000,07/00063/MIXED,251,fhrs@hambleton.gov.uk,Hambleton,http://www.hambleton.gov.uk/,-1.18121500000000,YO61 3ET,2014-09-29,fhrs_exempt_en-GB,Exempt,,FHRS,
371261,Easingwold Golf Club,Stillington Road,Easingwold,North Yorkshire,Easingwold Golf Club Catering,Other catering premises,7841,10,,705773,10,,54.11479700000000,14/00075/MIXED,251,fhrs@hambleton.gov.uk,Hambleton,http://www.hambleton.gov.uk/,-1.18121500000000,YO61 3ET,2014-09-29,fhrs_3_en-GB,3,,FHRS,10
371262,York Road,Easingwold,North Yorkshire,,Easingwold School,School/college/university,7845,10,,11625,5,,54.11433000000000,04/00767/FOOD,251,fhrs@hambleton.gov.uk,Hambleton,http://www.hambleton.gov.uk/,-1.19194800000000,YO61 3EF,2014-09-24,fhrs_2_en-GB,2,,FHRS,15
371263,East Cowton Church Of England Prima,East Cowton,North Yorkshire,,East Cowton C Of E Primary School,School/college/university,7845,0,,10843,0,,54.42290600000000,04/00333/FOOD,251,fhrs@hambleton.gov.uk,Hambleton,http://www.hambleton.gov.uk/,-1.52765600000000,DL7 0BD,2013-11-13,fhrs_5_en-GB,5,,FHRS,5
371264,46 High Street,Stokesley,North Yorkshire,,Eastern Spice,Restaurant/Cafe/Canteen,1,20,,11327,15,,54.47012400000000,04/00570/MIXED,251,fhrs@hambleton.gov.uk,Hambleton,http://www.hambleton.gov.uk/,-1.19288600000000,TS9 5DQ,2014-11-26,fhrs_1_en-GB,1,,FHRS,15
371265,Community Care,Police Station,Church Hill,Easingwold,EDCCA Meals On Wheels,Other catering premises,7841,5,,726755,5,,54.12264800000000,14/00125/FOOD,251,fhrs@hambleton.gov.uk,Hambleton,http://www.hambleton.gov.uk/,-1.19802900000000,YO61 3JX,2014-12-11,fhrs_5_en-GB,5,,FHRS,0
371266,Emilys Lunch Box,110 Long Street,Easingwold,North Yorkshire,Emily's Lunch Box,Takeaway/sandwich shop,7844,5,,445033,0,,54.11996700000000,12/00115/MIXED,251,fhrs@hambleton.gov.uk,Hambleton,http://www.hambleton.gov.uk/,-1.19356700000000,YO61 3HX,2014-03-03,fhrs_5_en-GB,5,,FHRS,5
371267,Unit 8,Omega Business Village,Northallerton Business Park,Thurston Road,Emma Kerfoot's Ladybirds,Hospitals/Childcare/Caring Premises,5,0,,705778,0,,54.35067100000000,14/00144/MIXED,251,fhrs@hambleton.gov.uk,Hambleton,http://www.hambleton.gov.uk/,-1.43825100000000,DL6 2NJ,2014-10-01,fhrs_5_en-GB,5,,FHRS,0
371268,,,,,Emmazing Cakes,Other catering premises,7841,0,,293383,5,,,11/00286/FOOD,251,fhrs@hambleton.gov.uk,Hambleton,http://www.hambleton.gov.uk/,,,2014-03-21,fhrs_5_en-GB,5,,FHRS,0
371269,Emmy Jaynes Nursery,Former Baptist Church,Valley Road,Northallerton,Emmy Jayne's Nursery School Ltd,Hospitals/Childcare/Caring Premises,5,5,,18091,5,,54.33779700000000,06/00068/MIXED,251,fhrs@hambleton.gov.uk,Hambleton,http://www.hambleton.gov.uk/,-1.42575300000000,DL6 1HY,2014-09-10,fhrs_5_en-GB,5,,FHRS,0
371270,9 Millgate,Thirsk,North Yorkshire,,Euro Pizza,Takeaway/sandwich shop,7844,20,,687815,15,,54.23345800000000,14/00039/MIXED,251,fhrs@hambleton.gov.uk,Hambleton,http://www.hambleton.gov.uk/,-1.34224100000000,YO7 1AA,2014-07-17,fhrs_1_en-GB,1,,FHRS,15
371271,Exelby Services Limited,Filling Station,A19 Southbound Services,Ingleby Arncliffe,Exelby Services Ltd,Retailers - other,4613,,,209336,,,54.41533900000000,04/00414/MIXED,251,fhrs@hambleton.gov.uk,Hambleton,http://www.hambleton.gov.uk/,-1.31860900000000,DL6 3LG,2007-07-10,fhrs_exempt_en-GB,Exempt,,FHRS,
371272,Sion Hill Hall,Kirby Wiske,North Yorkshire,,Falconry UK Ltd,Restaurant/Cafe/Canteen,1,10,,18016,0,,54.25281200000000,06/00058/MIXED,251,fhrs@hambleton.gov.uk,Hambleton,http://www.hambleton.gov.uk/,-1.43514500000000,YO7 4EU,2012-03-13,fhrs_4_en-GB,4,,FHRS,5
371273,Church Farm,Front Street,Sowerby,North Yorkshire,Fantinos,Hotel/bed & breakfast/guest house,7842,5,,716289,5,,54.22609000000000,14/00116/MIXED,251,fhrs@hambleton.gov.uk,Hambleton,http://www.hambleton.gov.uk/,-1.34085500000000,YO7 1JF,2014-11-08,fhrs_5_en-GB,5,,FHRS,5
371274,Topcliffe Parks,Station Road,Topcliffe,North Yorkshire,Farm House Bed & Breakfast,Other catering premises,7841,10,,467633,0,,54.18802400000000,12/00133/MIXED,251,fhrs@hambleton.gov.uk,Hambleton,http://www.hambleton.gov.uk/,-1.39149500000000,YO7 3SD,2012-10-31,fhrs_4_en-GB,4,,FHRS,0
371275,15 Market Place,Bedale,North Yorkshire,,Farmhouse Bakery,Restaurant/Cafe/Canteen,1,5,,10504,5,,54.28905300000000,04/00216/MIXED,251,fhrs@hambleton.gov.uk,Hambleton,http://www.hambleton.gov.uk/,-1.59229400000000,DL8 1ED,2014-02-03,fhrs_5_en-GB,5,,FHRS,5
371276,Mole Vally Farmers Limited,Farmway Country Store,Thirsk Industrial Park,Thirsk,Farmway,Retailers - other,4613,,,17568,,,54.23198200000000,06/00009/MIXED,251,fhrs@hambleton.gov.uk,Hambleton,http://www.hambleton.gov.uk/,-1.32878000000000,YO7 3BX,2008-03-03,fhrs_exempt_en-GB,Exempt,,FHRS,
371277,Farmway Ltd,Station Road,Stokesley,North Yorkshire,Farmway Trading Ltd,Retailers - other,4613,0,,648888,0,,54.46028100000000,13/00180/MIXED,251,fhrs@hambleton.gov.uk,Hambleton,http://www.hambleton.gov.uk/,-1.18063000000000,TS9 7AB,2014-04-03,fhrs_5_en-GB,5,,FHRS,0
371278,Fatsos,138 High Street,Northallerton,North Yorkshire,Fatso's Filling Station,Takeaway/sandwich shop,7844,0,,9934,0,,54.33716800000000,04/00089/MIXED,251,fhrs@hambleton.gov.uk,Hambleton,http://www.hambleton.gov.uk/,-1.43342100000000,DL7 8PE,2014-01-07,fhrs_5_en-GB,5,,FHRS,5
371279,Fatsos Filling Station,4 Bridge Road,Stokesley,North Yorkshire,Fatso's Filling Station,Restaurant/Cafe/Canteen,1,5,,9798,5,,54.46923000000000,04/00065/MIXED,251,fhrs@hambleton.gov.uk,Hambleton,http://www.hambleton.gov.uk/,-1.19359800000000,TS9 5AA,2013-12-12,fhrs_5_en-GB,5,,FHRS,5
371280,Coxwold,North Yorkshire,,,Fauconberg Arms,Pub/bar/nightclub,7843,5,,34694,5,,54.18769454956050,10/00143/MIXED,251,fhrs@hambleton.gov.uk,Hambleton,http://www.hambleton.gov.uk/,-1.18241155147552,YO61 4AD,2013-07-07,fhrs_5_en-GB,5,,FHRS,5
371281,Dabs Bank,West Rounton,North Yorkshire,,Figs Catering Co,Mobile caterer,7846,0,,48503,0,,54.13346481323242,11/00315/FOOD,251,fhrs@hambleton.gov.uk,Hambleton,http://www.hambleton.gov.uk/,-1.31587803363800,DL6 2LL,2013-06-26,fhrs_5_en-GB,5,,FHRS,0
371282,Barkers (Northallerton) Ltd,198 - 202 High Street,Northallerton,North Yorkshire,First Floor Restaurant,Restaurant/Cafe/Canteen,1,0,,10200,0,,54.33979100000000,04/00143/MIXED,251,fhrs@hambleton.gov.uk,Hambleton,http://www.hambleton.gov.uk/,-1.43515400000000,DL7 8LP,2014-06-05,fhrs_5_en-GB,5,,FHRS,0
371283,First Steps Day Nursery,Unit 2,Carlton Miniott Business Park,Carlton Road,First Steps Day Nursery And Big Steps Out Of School Club,Hospitals/Childcare/Caring Premises,5,5,,10682,5,,54.22777700000000,04/00272/MIXED,251,fhrs@hambleton.gov.uk,Hambleton,http://www.hambleton.gov.uk/,-1.37931400000000,YO7 4NF,2014-07-18,fhrs_5_en-GB,5,,FHRS,5
371284,Flances Acre Cafe,Thimbleby Layby,Kirby Sigston,North Yorkshire,Flance Acres Cafe,Mobile caterer,7846,5,,11554,10,,54.35564600000000,04/00726/MIXED,251,fhrs@hambleton.gov.uk,Hambleton,http://www.hambleton.gov.uk/,-1.32822800000000,DL6 3PT,2013-08-20,fhrs_3_en-GB,3,,FHRS,10
371285,The Fleece Inn,89 High Street,Northallerton,North Yorkshire,Fleece,Pub/bar/nightclub,7843,5,,569216,5,,54.34012700000000,13/00047/MIXED,251,fhrs@hambleton.gov.uk,Hambleton,http://www.hambleton.gov.uk/,-1.43402600000000,DL7 8PP,2013-07-05,fhrs_4_en-GB,4,,FHRS,10
371286,Woodhouse Farm,Great Ayton,North Yorkshire,,Fletchers Farm Coffee Shop,Restaurant/Cafe/Canteen,1,0,,25547,0,,54.48445800000000,08/00098/MIXED,251,fhrs@hambleton.gov.uk,Hambleton,http://www.hambleton.gov.uk/,-1.12062800000000,TS9 6HZ,2013-06-18,fhrs_5_en-GB,5,,FHRS,0
371287,High Marriforth,Marriforth Lane,Rookwith,North Yorkshire,Food For Thought,Other catering premises,7841,,,607728,,,54.27905800000000,11/00255/FOOD,251,fhrs@hambleton.gov.uk,Hambleton,http://www.hambleton.gov.uk/,-1.70260300000000,HG4 4BH,2013-11-08,fhrs_exempt_en-GB,Exempt,,FHRS,
371288,James Hall And Co Limited,Aiskew Garage,74 Bedale Road,Aiskew,Food N Go,Retailers - other,4613,0,,708428,0,,54.29335300000000,13/00248/MIXED,251,fhrs@hambleton.gov.uk,Hambleton,http://www.hambleton.gov.uk/,-1.58046800000000,DL8 1DD,2014-10-16,fhrs_5_en-GB,5,,FHRS,5
371289,Leeming Bar Grange,2A Leeming Lane,Leeming Bar,North Yorkshire,Four Seasons,Hospitals/Childcare/Caring Premises,5,0,,565672,0,,54.30352300000000,13/00143/MIXED,251,fhrs@hambleton.gov.uk,Hambleton,http://www.hambleton.gov.uk/,-1.55928100000000,DL7 9AU,2014-12-18,fhrs_5_en-GB,5,,FHRS,5
371290,Carthorpe,North Yorkshire,,,Fox And Hounds,Pub/bar/nightclub,7843,5,,15333,5,,54.24897003173828,05/00180/MIXED,251,fhrs@hambleton.gov.uk,Hambleton,http://www.hambleton.gov.uk/,-1.52861559391022,DL8 2LG,2013-11-06,fhrs_5_en-GB,5,,FHRS,5
371291,Smeaton Bridge,Smeaton Bridge Layby,Little Smeaton,North Yorkshire,Foxy's Food Stop,Mobile caterer,7846,5,,581501,5,,,13/00179/MIXED,251,fhrs@hambleton.gov.uk,Hambleton,http://www.hambleton.gov.uk/,,,2013-08-27,fhrs_5_en-GB,5,,FHRS,5
371292,4 The Square,East Rounton,North Yorkshire,,Frank Foy,Mobile caterer,7846,0,,680824,0,,54.42341500000000,13/00128/MIXED,251,fhrs@hambleton.gov.uk,Hambleton,http://www.hambleton.gov.uk/,-1.35051700000000,DL6 2LB,2014-07-03,fhrs_5_en-GB,5,,FHRS,0
371293,Friarage Hospital Access Road,Northallerton,North Yorkshire,,Friarage Hospital,Hospitals/Childcare/Caring Premises,5,0,,10228,0,,54.34263600000000,04/00150/FOOD,251,fhrs@hambleton.gov.uk,Hambleton,http://www.hambleton.gov.uk/,-1.43039300000000,DL6 1JG,2012-04-17,fhrs_4_en-GB,4,,FHRS,10
371294,Friarage Hospital,Friarage Hospital Access Road,Northallerton,North Yorkshire,Friarage Hospital Regeneration Room,Hospitals/Childcare/Caring Premises,5,0,,338117,0,,54.34263600000000,12/00080/FOOD,251,fhrs@hambleton.gov.uk,Hambleton,http://www.hambleton.gov.uk/,-1.43039300000000,DL6 1JG,2013-12-10,fhrs_5_en-GB,5,,FHRS,0
371295,Applegarth Primary School,Upwell Road,Northallerton,North Yorkshire,Friends Of Applegarth  - (School PTA),School/college/university,7845,5,,704290,5,,54.33820500000000,14/00095/MIXED,251,fhrs@hambleton.gov.uk,Hambleton,http://www.hambleton.gov.uk/,-1.43797500000000,DL7 8QF,2014-09-18,fhrs_5_en-GB,5,,FHRS,0
371296,Garth Cottage,Newby Wiske,North Yorkshire,,Garth Cottage Herbs,Manufacturers/packers,7839,10,,11805,0,,54.28539600000000,04/00858/FOOD,251,fhrs@hambleton.gov.uk,Hambleton,http://www.hambleton.gov.uk/,-1.43815600000000,DL7 9ET,2012-08-21,fhrs_4_en-GB,4,,FHRS,5
371297,Garthway Tearooms,3 Garthway Arcade,Northallerton,North Yorkshire,Garthway Tea Rooms,Restaurant/Cafe/Canteen,1,10,,10125,5,,54.34070100000000,04/00128/MIXED,251,fhrs@hambleton.gov.uk,Hambleton,http://www.hambleton.gov.uk/,-1.43569500000000,DL7 8NS,2014-10-06,fhrs_3_en-GB,3,,FHRS,10
371298,Gavel Inn And Restaurant,Unit H,Thirsk Rural Business Centre,Blakey Lane,Gavel Cafe And Bar,Restaurant/Cafe/Canteen,1,5,,704291,5,,54.22458100000000,14/00099/MIXED,251,fhrs@hambleton.gov.uk,Hambleton,http://www.hambleton.gov.uk/,-1.32638400000000,YO7 3AB,2014-09-26,fhrs_5_en-GB,5,,FHRS,5
371299,,,,,Generation Cakes,Other catering premises,7841,0,,638094,0,,,13/00246/FOOD,251,fhrs@hambleton.gov.uk,Hambleton,http://www.hambleton.gov.uk/,,,2014-02-28,fhrs_5_en-GB,5,,FHRS,0
371300,Garthway Gourmet Sandwich Bar,6 Garthway Arcade,Northallerton,North Yorkshire,Ginny's Place,Restaurant/Cafe/Canteen,1,10,,707040,5,,54.34070100000000,14/00153/MIXED,251,fhrs@hambleton.gov.uk,Hambleton,http://www.hambleton.gov.uk/,-1.43569500000000,DL7 8NS,2014-10-08,fhrs_3_en-GB,3,,FHRS,10
371301,Glebe Cottage,Station Road,Kildale,North Yorkshire,Glebe Cottage Tea Rooms,Restaurant/Cafe/Canteen,1,0,,11055,0,,54.47719200000000,04/00422/MIXED,251,fhrs@hambleton.gov.uk,Hambleton,http://www.hambleton.gov.uk/,-1.06612100000000,YO21 2RH,2013-08-19,fhrs_5_en-GB,5,,FHRS,5
371302,Lead Lane,Nether Silton,North Yorkshire,,Gold Cup Inn,Pub/bar/nightclub,7843,5,,48524,0,,54.32477500000000,11/00322/MIXED,251,fhrs@hambleton.gov.uk,Hambleton,http://www.hambleton.gov.uk/,-1.29990200000000,YO7 2JZ,2014-02-04,fhrs_5_en-GB,5,,FHRS,5
371303,Goosewood Caravan Park,Goose Lane,Sutton On The Forest,North Yorkshire,Goosewood Caravan Park Bar Complex,Restaurant/Cafe/Canteen,1,5,,621043,5,,54.05930200000000,13/00122/MIXED,251,fhrs@hambleton.gov.uk,Hambleton,http://www.hambleton.gov.uk/,-1.09409400000000,YO61 1ET,2013-12-13,fhrs_5_en-GB,5,,FHRS,5
371304,Goulton Grange Farm,Potto,North Yorkshire,,Goulton Grange Day Nursery,Hospitals/Childcare/Caring Premises,5,10,,11786,5,,54.43092900000000,04/00849/MIXED,251,fhrs@hambleton.gov.uk,Hambleton,http://www.hambleton.gov.uk/,-1.26590700000000,DL6 3HP,2014-03-13,fhrs_4_en-GB,4,,FHRS,5
371305,3 Finkle Street,Thirsk,North Yorkshire,,Gourmet Kitchen,Takeaway/sandwich shop,7844,5,,704295,5,,54.23295500000000,14/00122/MIXED,251,fhrs@hambleton.gov.uk,Hambleton,http://www.hambleton.gov.uk/,-1.34062300000000,YO7 1DA,2014-09-16,fhrs_5_en-GB,5,,FHRS,5
371306,The Exchange,24A Addison Road,Great Ayton,North Yorkshire,Great Ayton Day Centre,Hospitals/Childcare/Caring Premises,5,5,,10884,5,,54.49006100000000,04/00349/MIXED,251,fhrs@hambleton.gov.uk,Hambleton,http://www.hambleton.gov.uk/,-1.13614600000000,TS9 6AW,2006-02-16,fhrs_5_en-GB,5,,FHRS,5
371307,Great Ayton Methodist Church,High Street,Great Ayton,North Yorkshire,Great Ayton Methodist Church Community Network Group,Restaurant/Cafe/Canteen,1,0,,34906,0,,54.48914300000000,10/00167/MIXED,251,fhrs@hambleton.gov.uk,Hambleton,http://www.hambleton.gov.uk/,-1.13599600000000,TS9 6NF,2013-05-21,fhrs_5_en-GB,5,,FHRS,0
371308,1 High Street,Great Ayton,North Yorkshire,,Great Ayton News,Retailers - other,4613,5,,595883,5,,54.48914400000000,13/00169/MIXED,251,fhrs@hambleton.gov.uk,Hambleton,http://www.hambleton.gov.uk/,-1.13991700000000,TS9 6NH,2013-10-22,fhrs_5_en-GB,5,,FHRS,5
371309,Great Smeaton Community Primary Sch,Great Smeaton,North Yorkshire,,Great Smeaton Academy Primary School,School/college/university,7845,0,,10949,0,,54.43334900000000,04/00373/FOOD,251,fhrs@hambleton.gov.uk,Hambleton,http://www.hambleton.gov.uk/,-1.46499300000000,DL6 2EQ,2013-11-13,fhrs_5_en-GB,5,,FHRS,5
371310,Green Dragon Inn,High Row,Exelby,North Yorkshire,Green Dragon,Restaurant/Cafe/Canteen,1,10,,719501,10,,54.27811700000000,14/00040/MIXED,251,fhrs@hambleton.gov.uk,Hambleton,http://www.hambleton.gov.uk/,-1.54967700000000,DL8 2HA,2014-11-20,fhrs_3_en-GB,3,,FHRS,10
371311,7 - 9 Wycar,Bedale,North Yorkshire,,Greenwell House Nursing Home,Hospitals/Childcare/Caring Premises,5,0,,10404,0,,54.28746900000000,04/00190/FOOD,251,fhrs@hambleton.gov.uk,Hambleton,http://www.hambleton.gov.uk/,-1.59441500000000,DL8 1ER,2014-08-04,fhrs_5_en-GB,5,,FHRS,0
371312,Greggs,38 - 40 Market Place,Thirsk,North Yorkshire,Greggs Of Yorkshire,Restaurant/Cafe/Canteen,1,0,,9683,0,,54.23234100000000,04/00046/MIXED,251,fhrs@hambleton.gov.uk,Hambleton,http://www.hambleton.gov.uk/,-1.34173700000000,YO7 1LH,2013-11-05,fhrs_5_en-GB,5,,FHRS,0
371313,Greggs,185 High Street,Northallerton,North Yorkshire,Greggs.,Retailers - other,4613,5,,9999,0,,54.33920400000000,04/00103/MIXED,251,fhrs@hambleton.gov.uk,Hambleton,http://www.hambleton.gov.uk/,-1.43439300000000,DL7 8LF,2015-01-08,fhrs_5_en-GB,5,,FHRS,0
371314,Gullivers Fish Shop Limited,66 Newton Road,Great Ayton,North Yorkshire,Gullivers Fish Shop,Takeaway/sandwich shop,7844,5,,467631,5,,54.49281800000000,12/00120/MIXED,251,fhrs@hambleton.gov.uk,Hambleton,http://www.hambleton.gov.uk/,-1.13201200000000,TS9 6EA,2012-11-13,fhrs_5_en-GB,5,,FHRS,5
371315,The White Dog Inn,Main Street,Stillington,North Yorkshire,Gulshan Tandoori,Restaurant/Cafe/Canteen,1,10,,11695,15,,54.10299400000000,04/00799/MIXED,251,fhrs@hambleton.gov.uk,Hambleton,http://www.hambleton.gov.uk/,-1.10759500000000,YO61 1LA,2014-12-04,fhrs_2_en-GB,2,,FHRS,10
371316,Hudsons,11 Millgate,Thirsk,North Yorkshire,H E Hudson,Retailers - other,4613,5,,11462,5,,54.23345800000000,04/00669/MIXED,251,fhrs@hambleton.gov.uk,Hambleton,http://www.hambleton.gov.uk/,-1.34224100000000,YO7 1AA,2014-10-10,fhrs_5_en-GB,5,,FHRS,5
371317,H Lee And Sons,7 Castlegate,Thirsk,North Yorkshire,H. Lee & Sons,Retailers - other,4613,0,,9561,0,,54.23174400000000,04/00028/MIXED,251,fhrs@hambleton.gov.uk,Hambleton,http://www.hambleton.gov.uk/,-1.34432400000000,YO7 1HL,2014-09-23,fhrs_5_en-GB,5,,FHRS,5
371318,Lees Pork Butchers,12 Market Place,Thirsk,North Yorkshire,H. Lee And Sons,Retailers - other,4613,0,,9611,0,,54.23206100000000,04/00034/MIXED,251,fhrs@hambleton.gov.uk,Hambleton,http://www.hambleton.gov.uk/,-1.34309200000000,YO7 1LB,2014-09-23,fhrs_5_en-GB,5,,FHRS,0
371319,Hackforth And Hornby Church Of Engl,Hackforth,North Yorkshire,,Hackforth & Hornby C Of E Primary School,School/college/university,7845,0,,10964,0,,54.33335200000000,04/00382/FOOD,251,fhrs@hambleton.gov.uk,Hambleton,http://www.hambleton.gov.uk/,-1.62599700000000,DL8 1PE,2014-11-24,fhrs_5_en-GB,5,,FHRS,0
371320,Station Road,Thirsk,North Yorkshire,,Hambleton Grange,Hospitals/Childcare/Caring Premises,5,0,,632471,0,,54.22925100000000,13/00261/MIXED,251,fhrs@hambleton.gov.uk,Hambleton,http://www.hambleton.gov.uk/,-1.36050100000000,YO7 1QH,2014-02-05,fhrs_5_en-GB,5,,FHRS,0
371321,Hambleton And Richmondshire Communi,85 South Parade,Northallerton,North Yorkshire,HARCAS,Other catering premises,7841,0,,11892,0,,54.33570100000000,04/00920/MIXED,251,fhrs@hambleton.gov.uk,Hambleton,http://www.hambleton.gov.uk/,-1.43490200000000,DL7 8SJ,2012-05-03,fhrs_5_en-GB,5,,FHRS,0
371322,Low Pond House,High Lane,Burrill,North Yorkshire,Hawkswell Milk Products,Manufacturers/packers,7839,,,11560,,,54.28278500000000,04/00729/FOOD,251,fhrs@hambleton.gov.uk,Hambleton,http://www.hambleton.gov.uk/,-1.65454700000000,DL8 1RP,2014-09-10,fhrs_exempt_en-GB,Exempt,,FHRS,
371323,Jeator Houses,Kirby Sigston,North Yorkshire,,Haynes Arms,Pub/bar/nightclub,7843,10,,508015,10,,54.34683500000000,13/00027/MIXED,251,fhrs@hambleton.gov.uk,Hambleton,http://www.hambleton.gov.uk/,-1.33098700000000,DL6 3TD,2014-10-02,fhrs_3_en-GB,3,,FHRS,10
371324,5 - 7 Millgate,Thirsk,North Yorkshire,,Henna The Spice Lounge,Takeaway/sandwich shop,7844,10,,492571,15,,54.23351300000000,12/00165/MIXED,251,fhrs@hambleton.gov.uk,Hambleton,http://www.hambleton.gov.uk/,-1.34231700000000,YO7 1AA,2014-08-07,fhrs_2_en-GB,2,,FHRS,10
371325,67 Market Place,Thirsk,North Yorkshire,,Heron Foods,Retailers - other,4613,0,,723832,0,,54.23322500000000,14/00117/MIXED,251,fhrs@hambleton.gov.uk,Hambleton,http://www.hambleton.gov.uk/,-1.34232100000000,YO7 1EY,2014-12-16,fhrs_5_en-GB,5,,FHRS,0
371326,Burdon House,107 Long Street,Easingwold,North Yorkshire,High Moors Fine Foods Of Yorkshire,Retailers - other,4613,5,,15359,0,,54.12057500000000,05/00191/MIXED,251,fhrs@hambleton.gov.uk,Hambleton,http://www.hambleton.gov.uk/,-1.19577400000000,YO61 3HY,2014-03-03,fhrs_5_en-GB,5,,FHRS,5
371327,High Paradise Farm,Paradise Road,Boltby,North Yorkshire,High Paradise Farm Tea Room,Restaurant/Cafe/Canteen,1,0,,700646,0,,54.29203900000000,14/00111/MIXED,251,fhrs@hambleton.gov.uk,Hambleton,http://www.hambleton.gov.uk/,-1.22846500000000,YO7 2HT,2014-08-27,fhrs_5_en-GB,5,,FHRS,0
371328,Hillside House,Carthorpe,North Yorkshire,,Hillside House Bed & Breakfast,Hotel/bed & breakfast/guest house,7842,5,,628097,0,,54.24797400000000,13/00057/FOOD,251,fhrs@hambleton.gov.uk,Hambleton,http://www.hambleton.gov.uk/,-1.53092900000000,DL8 2LH,2014-01-27,fhrs_5_en-GB,5,,FHRS,0
371329,Manor Farm,Moor Lane,Thirsk,North Yorkshire,Hog Roast Yorkshire,Other catering premises,7841,0,,246469,0,,54.24604700000000,11/00331/FOOD,251,fhrs@hambleton.gov.uk,Hambleton,http://www.hambleton.gov.uk/,-1.37908600000000,YO7 4DB,2014-04-14,fhrs_5_en-GB,5,,FHRS,0
371330,Holly Cottage,Alne Road,Tollerton,North Yorkshire,Holly Cottage Farm,Other catering premises,7841,5,,576140,0,,54.07223600000000,13/00089/FOOD,251,fhrs@hambleton.gov.uk,Hambleton,http://www.hambleton.gov.uk/,-1.22001300000000,YO61 1QA,2013-07-26,fhrs_5_en-GB,5,,FHRS,0
371331,Skewsby,North Yorkshire,,,Holly Tree Cottage,Manufacturers/packers,7839,,,209357,,,54.13110351562500,11/00177/FOOD,251,fhrs@hambleton.gov.uk,Hambleton,http://www.hambleton.gov.uk/,-1.04387795925140,YO61 4SG,2011-03-25,fhrs_exempt_en-GB,Exempt,,FHRS,
371332,Home Farm,Beningbrough Park,Beningbrough,North Yorkshire,Home Farm Beningbrough,Retailers - other,4613,5,,372402,5,,54.02139700000000,07/00083/MIXED,251,fhrs@hambleton.gov.uk,Hambleton,http://www.hambleton.gov.uk/,-1.20834100000000,YO30 1DB,2014-10-09,fhrs_5_en-GB,5,,FHRS,5
371333,16 Wheatlands,Great Ayton,North Yorkshire,,Homemade By Gingers,Other catering premises,7841,0,,682394,0,,54.49343700000000,14/00076/FOOD,251,fhrs@hambleton.gov.uk,Hambleton,http://www.hambleton.gov.uk/,-1.13067100000000,TS9 6ED,2014-07-11,fhrs_5_en-GB,5,,FHRS,0
371334,Holly Cottage,Flawith,North Yorkshire,,Honeywell Bakes,Other catering premises,7841,5,,504984,5,,54.08270700000000,12/00162/FOOD,251,fhrs@hambleton.gov.uk,Hambleton,http://www.hambleton.gov.uk/,-1.26422200000000,YO61 1SF,2013-01-23,fhrs_5_en-GB,5,,FHRS,5
371335,Long Street,Easingwold,North Yorkshire,,Horse Shoe Inn,Pub/bar/nightclub,7843,10,,427346,5,,54.11871400000000,12/00123/MIXED,251,fhrs@hambleton.gov.uk,Hambleton,http://www.hambleton.gov.uk/,-1.19167900000000,YO61 3JB,2012-07-19,fhrs_4_en-GB,4,,FHRS,5
371336,West Rounton,North Yorkshire,,,Horseshoe Inn,Other catering premises,7841,5,,609575,5,,54.42616100000000,13/00236/FOOD,251,fhrs@hambleton.gov.uk,Hambleton,http://www.hambleton.gov.uk/,-1.36328200000000,DL6 2LL,2013-11-08,fhrs_5_en-GB,5,,FHRS,5
371337,Church House,30 College Square,Stokesley,North Yorkshire,Howards,Restaurant/Cafe/Canteen,1,5,,28733,0,,54.47085600000000,09/00021/MIXED,251,fhrs@hambleton.gov.uk,Hambleton,http://www.hambleton.gov.uk/,-1.19080400000000,TS9 5DN,2014-07-22,fhrs_5_en-GB,5,,FHRS,5
371338,Huby Church Of England VC Primary S,Tollerton Road,Huby,North Yorkshire,Huby C Of E Primary School,School/college/university,7845,0,,10968,0,,54.08043300000000,04/00385/FOOD,251,fhrs@hambleton.gov.uk,Hambleton,http://www.hambleton.gov.uk/,-1.14329600000000,YO61 1HX,2013-12-13,fhrs_5_en-GB,5,,FHRS,0
371339,Fish Shop,Main Street,Huby,North Yorkshire,Huby Fisheries,Takeaway/sandwich shop,7844,5,,209263,5,,54.08311400000000,04/00397/MIXED,251,fhrs@hambleton.gov.uk,Hambleton,http://www.hambleton.gov.uk/,-1.13492500000000,YO61 1HS,2005-03-07,fhrs_5_en-GB,5,,FHRS,5
371340,Humming Birds Nursery,1 Back Lane,Sowerby,North Yorkshire,Hummingbirds Private Day Nursery,Hospitals/Childcare/Caring Premises,5,5,,25522,0,,54.22520400000000,08/00094/MIXED,251,fhrs@hambleton.gov.uk,Hambleton,http://www.hambleton.gov.uk/,-1.34155900000000,YO7 1NQ,2012-03-13,fhrs_5_en-GB,5,,FHRS,5
371341,60 Market Place,Thirsk,North Yorkshire,,Hung Moey Restaurant,Restaurant/Cafe/Canteen,1,5,,9373,5,,54.23270600000000,04/00004/MIXED,251,fhrs@hambleton.gov.uk,Hambleton,http://www.hambleton.gov.uk/,-1.34111800000000,YO7 1LW,2013-07-09,fhrs_5_en-GB,5,,FHRS,5
371342,Husthwaite Church Of England VC Pri,Low Street,Husthwaite,North Yorkshire,Husthwaite Cof E Primary School,School/college/university,7845,0,,10979,0,,54.16890400000000,04/00391/FOOD,251,fhrs@hambleton.gov.uk,Hambleton,http://www.hambleton.gov.uk/,-1.20971000000000,YO61 4QA,2013-11-12,fhrs_5_en-GB,5,,FHRS,0
371343,Doctors Lane,Hutton Rudby,North Yorkshire,,Hutton Rudby CP School,School/college/university,7845,0,,10996,0,,54.44816600000000,04/00398/FOOD,251,fhrs@hambleton.gov.uk,Hambleton,http://www.hambleton.gov.uk/,-1.28228600000000,TS15 0EQ,2013-10-23,fhrs_5_en-GB,5,,FHRS,5
371344,Playgroup And Preschool,Doctors Lane,Hutton Rudby,North Yorkshire,Hutton Rudby Playgroup & Preschool,Hospitals/Childcare/Caring Premises,5,5,,209264,5,,54.44816600000000,04/00408/MIXED,251,fhrs@hambleton.gov.uk,Hambleton,http://www.hambleton.gov.uk/,-1.28228600000000,TS15 0EQ,2000-03-13,fhrs_5_en-GB,5,,FHRS,5
371345,Ian Lancaster Meatsales,Rosedene,Carthorpe,North Yorkshire,Ian Lancaster (Meat Sales),Retailers - other,4613,30,,10672,25,,54.24800900000000,04/00268/MIXED,251,fhrs@hambleton.gov.uk,Hambleton,http://www.hambleton.gov.uk/,-1.53069800000000,DL8 2LH,2013-05-01,fhrs_0_en-GB,0,,FHRS,20
371346,Incy Wincys Ltd,Amen House,North End,Bedale,Incy Wincy's Ltd,Hospitals/Childcare/Caring Premises,5,5,,609578,10,,54.28997000000000,13/00241/MIXED,251,fhrs@hambleton.gov.uk,Hambleton,http://www.hambleton.gov.uk/,-1.59515800000000,DL8 1XA,2014-12-15,fhrs_4_en-GB,4,,FHRS,5
371347,Ingleby Arncliffe Church Of England,Ingleby Arncliffe,North Yorkshire,,Ingleby Arncliffe C Of E Primary School,School/college/university,7845,0,,11537,0,,54.40082500000000,04/00717/FOOD,251,fhrs@hambleton.gov.uk,Hambleton,http://www.hambleton.gov.uk/,-1.31542900000000,DL6 3NA,2014-11-13,fhrs_5_en-GB,5,,FHRS,0
371348,Ingleby Greenhow Church Of England,Ingleby Greenhow,North Yorkshire,,Ingleby Greenhow C Of E Primary School,School/college/university,7845,5,,11038,5,,54.44996800000000,04/00418/FOOD,251,fhrs@hambleton.gov.uk,Hambleton,http://www.hambleton.gov.uk/,-1.10398600000000,TS9 6LL,2008-03-04,fhrs_4_en-GB,4,,FHRS,10
371349,North Yorkshire Police,Training Centre,Newby Wiske Hall,Newby Wiske,Interserve (Facilities Management) Ltd,Restaurant/Cafe/Canteen,1,0,,528261,0,,54.28213200000000,12/00077/MIXED,251,fhrs@hambleton.gov.uk,Hambleton,http://www.hambleton.gov.uk/,-1.43979800000000,DL7 9HA,2013-03-22,fhrs_5_en-GB,5,,FHRS,0
371350,Station Headquarters,RAF Leeming,RAF Leeming,North Yorkshire,ISS Coffee Shop,Restaurant/Cafe/Canteen,1,0,,48376,0,,54.29166700000000,11/00273/MIXED,251,fhrs@hambleton.gov.uk,Hambleton,http://www.hambleton.gov.uk/,-1.52336600000000,DL7 9NJ,2011-09-27,fhrs_5_en-GB,5,,FHRS,0
371351,,,,,Itzumna,Retailers - other,4613,,,583055,,,,13/00082/FOOD,251,fhrs@hambleton.gov.uk,Hambleton,http://www.hambleton.gov.uk/,,,2013-09-04,fhrs_exempt_en-GB,Exempt,,FHRS,
371352,Thompsons Butchers,125 High Street,Northallerton,North Yorkshire,J. Thompson Butcher,Retailers - other,4613,0,,9930,0,,54.33812900000000,04/00088/MIXED,251,fhrs@hambleton.gov.uk,Hambleton,http://www.hambleton.gov.uk/,-1.43333100000000,DL7 8PQ,2013-10-04,fhrs_5_en-GB,5,,FHRS,5
371353,J M & S Greengrocers,133 High Street,Northallerton,North Yorkshire,J.M & Son Greengrocers,Retailers - other,4613,,,209217,,,54.33812900000000,04/00138/MIXED,251,fhrs@hambleton.gov.uk,Hambleton,http://www.hambleton.gov.uk/,-1.43333100000000,DL7 8PQ,2008-08-01,fhrs_exempt_en-GB,Exempt,,FHRS,
371354,Jack And Jills Nursery,Unit 1,Concept Business Court,Allendale Road,Jack & Jill's Nursery School,Hospitals/Childcare/Caring Premises,5,0,,18292,5,,54.23309400000000,06/00099/MIXED,251,fhrs@hambleton.gov.uk,Hambleton,http://www.hambleton.gov.uk/,-1.33158500000000,YO7 3NY,2013-07-19,fhrs_5_en-GB,5,,FHRS,5
371355,Turnbulls Fish And Chips,20 Malpas Road,Northallerton,North Yorkshire,Jackie At Turnbulls,Takeaway/sandwich shop,7844,5,,636075,5,,54.33715400000000,13/00181/MIXED,251,fhrs@hambleton.gov.uk,Hambleton,http://www.hambleton.gov.uk/,-1.43820500000000,DL7 8TH,2014-06-24,fhrs_5_en-GB,5,,FHRS,0
371356,Lavender Cottage,Ainderby Quernhow,North Yorkshire,,Jaipur Spice,Restaurant/Cafe/Canteen,1,5,,47655,5,,54.22325800000000,11/00156/MIXED,251,fhrs@hambleton.gov.uk,Hambleton,http://www.hambleton.gov.uk/,-1.46594800000000,YO7 4HX,2012-05-16,fhrs_4_en-GB,4,,FHRS,10
371357,Jaipur Spice,Busby Stoop Inn,Carlton Road,Carlton Miniott,Jaipur Spice Resaurant,Other catering premises,7841,10,,570696,10,,54.22115300000000,13/00107/MIXED,251,fhrs@hambleton.gov.uk,Hambleton,http://www.hambleton.gov.uk/,-1.41524100000000,YO7 4EQ,2013-07-17,fhrs_3_en-GB,3,,FHRS,10
371358,Flat Above,29 North End,Bedale,North Yorkshire,Jakes Plaice,Takeaway/sandwich shop,7844,20,,10418,10,,54.29012500000000,04/00193/MIXED,251,fhrs@hambleton.gov.uk,Hambleton,http://www.hambleton.gov.uk/,-1.59317400000000,DL8 1AF,2015-01-14,fhrs_1_en-GB,1,,FHRS,15
371359,Trenholme Farm,Ingleby Arncliffe,North Yorkshire,,Jans Truckstop,Restaurant/Cafe/Canteen,1,10,,11026,5,,54.41858700000000,04/00413/MIXED,251,fhrs@hambleton.gov.uk,Hambleton,http://www.hambleton.gov.uk/,-1.31764500000000,DL6 3JX,2013-07-09,fhrs_4_en-GB,4,,FHRS,5
371360,Cockburns Butchers,12 Market Place,Bedale,North Yorkshire,JB Cockburn & Sons,Retailers - other,4613,0,,10464,0,,54.28860500000000,04/00206/MIXED,251,fhrs@hambleton.gov.uk,Hambleton,http://www.hambleton.gov.uk/,-1.59262100000000,DL8 1EQ,2014-02-10,fhrs_5_en-GB,5,,FHRS,5
371361,4 Home Farm Cottages,East Rounton,North Yorkshire,,Jen's Hog Roast,Other catering premises,7841,0,,606037,0,,54.42429300000000,13/00198/FOOD,251,fhrs@hambleton.gov.uk,Hambleton,http://www.hambleton.gov.uk/,-1.34187200000000,DL6 2LF,2013-10-28,fhrs_5_en-GB,5,,FHRS,5
371362,Cockbush Hall Farm,Ingleby Arncliffe,North Yorkshire,,JH Hutchinson & Son,Retailers - other,4613,,,209398,,,54.39324100000000,04/00417/MIXED,251,fhrs@hambleton.gov.uk,Hambleton,http://www.hambleton.gov.uk/,-1.32042200000000,DL6 3JN,2006-01-19,fhrs_exempt_en-GB,Exempt,,FHRS,
371363,,,,,Jo Jacobs,Other catering premises,7841,10,,708430,5,,,14/00030/FOOD,251,fhrs@hambleton.gov.uk,Hambleton,http://www.hambleton.gov.uk/,,,2014-10-17,fhrs_4_en-GB,4,,FHRS,0
371364,Joe Graphic Limited,Register House,Zetland Street,Northallerton,Joe Cornish - Gallery Cafe,Restaurant/Cafe/Canteen,1,0,,565667,0,,54.33878300000000,13/00069/MIXED,251,fhrs@hambleton.gov.uk,Hambleton,http://www.hambleton.gov.uk/,-1.43278400000000,DL6 1NA,2013-06-26,fhrs_5_en-GB,5,,FHRS,0
371365,35 Market Place,Thirsk,North Yorkshire,,Johnsons Of Thirsk,Retailers - other,4613,0,,11655,0,,54.23256800000000,04/00780/MIXED,251,fhrs@hambleton.gov.uk,Hambleton,http://www.hambleton.gov.uk/,-1.34375900000000,YO7 1HD,2014-09-24,fhrs_5_en-GB,5,,FHRS,5
371366,Joblins Restaurant,45 High Street,Great Ayton,North Yorkshire,Joplins Restaurant,Restaurant/Cafe/Canteen,1,0,,10910,0,,54.48914400000000,04/00359/MIXED,251,fhrs@hambleton.gov.uk,Hambleton,http://www.hambleton.gov.uk/,-1.13991700000000,TS9 6NH,2014-09-10,fhrs_5_en-GB,5,,FHRS,0
371367,70 Bankhead Road,Northallerton,North Yorkshire,,Jubilee Chop Suey House,Takeaway/sandwich shop,7844,5,,409844,5,,54.34003000000000,12/00118/MIXED,251,fhrs@hambleton.gov.uk,Hambleton,http://www.hambleton.gov.uk/,-1.41921600000000,DL6 1HQ,2013-10-30,fhrs_4_en-GB,4,,FHRS,10
371368,,,,,Julies Cakes And Treats,Other catering premises,7841,0,,638090,0,,,13/00099/FOOD,251,fhrs@hambleton.gov.uk,Hambleton,http://www.hambleton.gov.uk/,,,2014-02-27,fhrs_5_en-GB,5,,FHRS,0
371369,Thirsk Fabrication,Thirsk Industrial Park,Thirsk,North Yorkshire,Katie's Cafe (Thirsk Fabrications),Mobile caterer,7846,5,,9419,5,,54.23256900000000,04/00009/MIXED,251,fhrs@hambleton.gov.uk,Hambleton,http://www.hambleton.gov.uk/,-1.32926100000000,YO7 3BX,2013-08-29,fhrs_5_en-GB,5,,FHRS,5
371370,The Nursery School,31 Romanby Road,Northallerton,North Yorkshire,Kiddlywinks Nursery School,Hospitals/Childcare/Caring Premises,5,5,,10026,5,,54.33744200000000,04/00109/MIXED,251,fhrs@hambleton.gov.uk,Hambleton,http://www.hambleton.gov.uk/,-1.43630900000000,DL7 8NE,2014-09-18,fhrs_5_en-GB,5,,FHRS,5
371371,Funky Farm,2 Standard Court,Standard Way,Standard Way Business Park,Kidzplay Centres Ltd,Restaurant/Cafe/Canteen,1,5,,35704,5,,54.34926800000000,10/00304/MIXED,251,fhrs@hambleton.gov.uk,Hambleton,http://www.hambleton.gov.uk/,-1.44977800000000,DL6 2XH,2013-12-11,fhrs_5_en-GB,5,,FHRS,5
371372,5A Regency Mews,Northallerton,North Yorkshire,,Kingfisher,Takeaway/sandwich shop,7844,0,,697024,5,,54.33735500000000,14/00055/MIXED,251,fhrs@hambleton.gov.uk,Hambleton,http://www.hambleton.gov.uk/,-1.43304900000000,DL7 8PD,2014-08-26,fhrs_5_en-GB,5,,FHRS,5
371373,Sandhutton,North Yorkshire,,,Kings Arms,Pub/bar/nightclub,7843,20,,18237,15,,54.23224700000000,06/00091/MIXED,251,fhrs@hambleton.gov.uk,Hambleton,http://www.hambleton.gov.uk/,-1.41405600000000,YO7 4RW,2014-02-20,fhrs_1_en-GB,1,,FHRS,15
371374,Kings Arms,Sandhutton,North Yorkshire,,Kings Arms Shop,Pub/bar/nightclub,7843,20,,35436,15,,54.23224700000000,10/00241/MIXED,251,fhrs@hambleton.gov.uk,Hambleton,http://www.hambleton.gov.uk/,-1.41405600000000,YO7 4RW,2014-02-20,fhrs_1_en-GB,1,,FHRS,15
371375,Kings Head Inn,36 North Side,Hutton Rudby,North Yorkshire,Kings Head Hutton Rudby,Pub/bar/nightclub,7843,5,,189982,0,,54.45100800000000,12/00011/MIXED,251,fhrs@hambleton.gov.uk,Hambleton,http://www.hambleton.gov.uk/,-1.27810300000000,TS15 0DA,2013-12-06,fhrs_5_en-GB,5,,FHRS,5
371376,Kiplin,North Yorkshire,,,Kiplin Hall,Restaurant/Cafe/Canteen,1,0,,11530,0,,54.37423600000000,04/00714/MIXED,251,fhrs@hambleton.gov.uk,Hambleton,http://www.hambleton.gov.uk/,-1.57993700000000,DL10 6AT,2014-02-11,fhrs_5_en-GB,5,,FHRS,0
371377,Kirkby And Great Broughton Church O,Kirkby Lane,Great Broughton,North Yorkshire,Kirkby And Great Broughton C Of E Primary School,School/college/university,7845,0,,11070,0,,54.44661100000000,04/00431/FOOD,251,fhrs@hambleton.gov.uk,Hambleton,http://www.hambleton.gov.uk/,-1.16870500000000,TS9 7AL,2014-06-12,fhrs_5_en-GB,5,,FHRS,0
371378,Kirkby Fleetham Church Of England P,35 Forge Lane,Kirkby Fleetham,North Yorkshire,Kirkby Fleetham C Of E Primary School,School/college/university,7845,5,,11059,5,,54.34472700000000,04/00425/FOOD,251,fhrs@hambleton.gov.uk,Hambleton,http://www.hambleton.gov.uk/,-1.56347100000000,DL7 0SA,2002-01-28,fhrs_5_en-GB,5,,FHRS,5
371379,3 Forge Lane,Kirkby Fleetham,North Yorkshire,,Kirkby Fleetham Village Store And Post Office,Retailers - other,4613,5,,11066,5,,54.34472700000000,04/00428/MIXED,251,fhrs@hambleton.gov.uk,Hambleton,http://www.hambleton.gov.uk/,-1.56347000000000,DL7 0SA,2015-02-03,fhrs_5_en-GB,5,,FHRS,5
371380,Kitsons Butchers,178 High Street,Northallerton,North Yorkshire,Kitson's,Retailers - other,4613,5,,48237,5,,54.33830400000000,11/00236/MIXED,251,fhrs@hambleton.gov.uk,Hambleton,http://www.hambleton.gov.uk/,-1.43425100000000,DL7 8JZ,2013-12-10,fhrs_4_en-GB,4,,FHRS,10
371381,Knayton Church Of England VC Primar,Oaktree Bank,Knayton,North Yorkshire,Knayton C Of E Primary School,School/college/university,7845,0,,11077,0,,54.28872000000000,04/00434/FOOD,251,fhrs@hambleton.gov.uk,Hambleton,http://www.hambleton.gov.uk/,-1.34017800000000,YO7 4AN,2013-06-13,fhrs_5_en-GB,5,,FHRS,0
371382,Kwung Tung,11 Garthway Arcade,Northallerton,North Yorkshire,Kwong Tung,Takeaway/sandwich shop,7844,5,,611275,10,,54.34070100000000,13/00219/MIXED,251,fhrs@hambleton.gov.uk,Hambleton,http://www.hambleton.gov.uk/,-1.43569500000000,DL7 8NS,2013-11-21,fhrs_4_en-GB,4,,FHRS,5
371383,Mill Farm,Crayke,North Yorkshire,,Lady Grays,Other catering premises,7841,0,,209221,5,,54.13788200000000,11/00239/FOOD,251,fhrs@hambleton.gov.uk,Hambleton,http://www.hambleton.gov.uk/,-1.12936100000000,YO61 4TT,2012-02-22,fhrs_5_en-GB,5,,FHRS,0
371384,Chapel Street,Thirsk,North Yorkshire,,Lambert Memorial Hospital,Hospitals/Childcare/Caring Premises,5,0,,607735,0,,54.23170700000000,13/00233/FOOD,251,fhrs@hambleton.gov.uk,Hambleton,http://www.hambleton.gov.uk/,-1.34242200000000,YO7 1LU,2013-11-05,fhrs_5_en-GB,5,,FHRS,0
371385,3 Back Lane,Sowerby,North Yorkshire,,Land And Sea Fisheries,Restaurant/Cafe/Canteen,1,5,,557591,0,,54.22520400000000,13/00121/MIXED,251,fhrs@hambleton.gov.uk,Hambleton,http://www.hambleton.gov.uk/,-1.34155900000000,YO7 1NQ,2013-10-16,fhrs_5_en-GB,5,,FHRS,0
371386,Crawford Grange,Brompton,North Yorkshire,,Langthornes Buffalo Produce,Mobile caterer,7846,10,,11368,5,,54.37325800000000,04/00595/MIXED,251,fhrs@hambleton.gov.uk,Hambleton,http://www.hambleton.gov.uk/,-1.43677300000000,DL6 2PD,2014-07-11,fhrs_4_en-GB,4,,FHRS,5
371387,Crawford Grange,Brompton,North Yorkshire,,Langthornes Buffalo Produce,Mobile caterer,7846,5,,707038,10,,54.37325800000000,14/00149/MIXED,251,fhrs@hambleton.gov.uk,Hambleton,http://www.hambleton.gov.uk/,-1.43677300000000,DL6 2PD,2014-09-24,fhrs_3_en-GB,3,,FHRS,10
371388,Leeming And Londonderry Community P,18 Roman Road,Leeming,North Yorkshire,Leeming & Londonderry County Primary School,School/college/university,7845,5,,11099,5,,54.29884200000000,04/00444/FOOD,251,fhrs@hambleton.gov.uk,Hambleton,http://www.hambleton.gov.uk/,-1.54977300000000,DL7 9SG,2002-02-06,fhrs_5_en-GB,5,,FHRS,0
371389,Leeming Garth Nursing Home,4 Leeming Lane,Leeming Bar,North Yorkshire,Leeming Garth Care Centre - HC-One,Hospitals/Childcare/Caring Premises,5,0,,194556,0,,54.30232500000000,12/00001/MIXED,251,fhrs@hambleton.gov.uk,Hambleton,http://www.hambleton.gov.uk/,-1.55366900000000,DL7 9RT,2014-01-29,fhrs_5_en-GB,5,,FHRS,5
371390,Lewis And Cooper Limited,Unit 3,Moxon Court,Northallerton Business Park,Lewis & Cooper Ltd,Manufacturers/packers,7839,0,,18449,0,,54.35124600000000,06/00130/MIXED,251,fhrs@hambleton.gov.uk,Hambleton,http://www.hambleton.gov.uk/,-1.43822800000000,DL6 2NG,2015-01-13,fhrs_5_en-GB,5,,FHRS,0
371391,Lewis & Coopers,92 High Street,Northallerton,North Yorkshire,Lewis & Cooper Ltd.,Retailers - other,4613,0,,10076,0,,54.34037700000000,04/00118/MIXED,251,fhrs@hambleton.gov.uk,Hambleton,http://www.hambleton.gov.uk/,-1.43365400000000,DL7 8PT,2014-07-29,fhrs_5_en-GB,5,,FHRS,0
371392,Lidl UK GMBH,Station Road Store,Station Road,Thirsk,Lidl Uk GmbH,Retailers - supermarkets/hypermarkets,7840,0,,536083,0,,54.23199700000000,09/00047/MIXED,251,fhrs@hambleton.gov.uk,Hambleton,http://www.hambleton.gov.uk/,-1.34791000000000,YO7 1TQ,2013-04-11,fhrs_5_en-GB,5,,FHRS,0
371393,Linton On Ouse Primary School,Linton Woods,Linton On Ouse,North Yorkshire,Linton On Ouse County Primary School,School/college/university,7845,5,,11118,0,,54.04020700000000,04/00452/FOOD,251,fhrs@hambleton.gov.uk,Hambleton,http://www.hambleton.gov.uk/,-1.23165300000000,YO30 2BD,2014-03-03,fhrs_5_en-GB,5,,FHRS,5
371394,88A High Street,Northallerton,North Yorkshire,,Lion Of Asia,Restaurant/Cafe/Canteen,1,5,,25763,5,,54.34006400000000,08/00129/MIXED,251,fhrs@hambleton.gov.uk,Hambleton,http://www.hambleton.gov.uk/,-1.43385800000000,DL7 8PP,2014-10-07,fhrs_5_en-GB,5,,FHRS,5
371395,301 High Street,Northallerton,North Yorkshire,,Lisa's Sandwich And Snack Bar,Restaurant/Cafe/Canteen,1,0,,48542,5,,54.34395000000000,11/00329/MIXED,251,fhrs@hambleton.gov.uk,Hambleton,http://www.hambleton.gov.uk/,-1.43840400000000,DL7 8EA,2013-07-23,fhrs_5_en-GB,5,,FHRS,5
371396,13 Finkle Street,Thirsk,North Yorkshire,,Little 3,Pub/bar/nightclub,7843,0,,638099,5,,54.23295500000000,14/00001/MIXED,251,fhrs@hambleton.gov.uk,Hambleton,http://www.hambleton.gov.uk/,-1.34062300000000,YO7 1DA,2014-03-18,fhrs_5_en-GB,5,,FHRS,5
371397,Roseberry Community Primary School,Roseberry Crescent,Great Ayton,North Yorkshire,Little Bear Pre-School Sessional Care Nursery,School/college/university,7845,5,,408190,5,,54.49428700000000,12/00111/FOOD,251,fhrs@hambleton.gov.uk,Hambleton,http://www.hambleton.gov.uk/,-1.12758100000000,TS9 6EP,2014-09-10,fhrs_4_en-GB,4,,FHRS,10
371398,Easingwold Community Primary School,Thirsk Road,Easingwold,North Yorkshire,Live Wires OO5 Club Ltd,Hospitals/Childcare/Caring Premises,5,10,,664599,5,,54.12529300000000,13/00031/MIXED,251,fhrs@hambleton.gov.uk,Hambleton,http://www.hambleton.gov.uk/,-1.20111400000000,YO61 3HJ,2014-05-15,fhrs_3_en-GB,3,,FHRS,10
371399,,,,,Liz's Celebration Cakes,Other catering premises,7841,,,638096,,,,13/00252/FOOD,251,fhrs@hambleton.gov.uk,Hambleton,http://www.hambleton.gov.uk/,,,2014-03-04,fhrs_exempt_en-GB,Exempt,,FHRS,
371400,Lloyd Fraser (bulk Liquids) Ltd,Dalton Old Airfield Industrial Esta,Dalton,North Yorkshire,Lloyd Fraser Bulk Liquids,Distributors/Transporters,7,,,536084,,,54.17258900000000,12/00144/MIXED,251,fhrs@hambleton.gov.uk,Hambleton,http://www.hambleton.gov.uk/,-1.36293700000000,YO7 3HE,2013-04-10,fhrs_exempt_en-GB,Exempt,,FHRS,
371401,21 Millgate,Thirsk,North Yorkshire,,Lollies,Retailers - other,4613,10,,704287,5,,54.23345800000000,13/00205/MIXED,251,fhrs@hambleton.gov.uk,Hambleton,http://www.hambleton.gov.uk/,-1.34224100000000,YO7 1AA,2014-09-16,fhrs_4_en-GB,4,,FHRS,5
371402,62A Long Street,Thirsk,North Yorkshire,,Long Street Fisheries,Takeaway/sandwich shop,7844,0,,35387,0,,54.23580600000000,10/00231/MIXED,251,fhrs@hambleton.gov.uk,Hambleton,http://www.hambleton.gov.uk/,-1.33931900000000,YO7 1AU,2013-04-26,fhrs_5_en-GB,5,,FHRS,5
371403,Looby Loos Day Nursery,Finkills Way,Northallerton,North Yorkshire,Looby Loo's Nursery,Hospitals/Childcare/Caring Premises,5,5,,704296,10,,54.34404900000000,14/00141/MIXED,251,fhrs@hambleton.gov.uk,Hambleton,http://www.hambleton.gov.uk/,-1.44247900000000,DL7 8UQ,2014-09-18,fhrs_4_en-GB,4,,FHRS,5
371404,Front Street,Appleton Wiske,North Yorkshire,,Lord Nelson Inn,Pub/bar/nightclub,7843,0,,18280,0,,54.43679100000000,06/00097/MIXED,251,fhrs@hambleton.gov.uk,Hambleton,http://www.hambleton.gov.uk/,-1.39979500000000,DL6 2AD,2014-01-10,fhrs_5_en-GB,5,,FHRS,0
371405,Lord Stones,Lord Stones Country Park,Raisdale Road,Chop Gate,Lord Stones Cafe,Restaurant/Cafe/Canteen,1,0,,590198,0,,54.41977200000000,13/00214/MIXED,251,fhrs@hambleton.gov.uk,Hambleton,http://www.hambleton.gov.uk/,-1.19339700000000,TS9 7JH,2013-10-07,fhrs_5_en-GB,5,,FHRS,0
371406,Mint Leaf,59 - 61 High Street,Stokesley,North Yorkshire,Lotti's,Restaurant/Cafe/Canteen,1,5,,726753,5,,54.46952100000000,14/00071/MIXED,251,fhrs@hambleton.gov.uk,Hambleton,http://www.hambleton.gov.uk/,-1.19402400000000,TS9 5AB,2014-12-22,fhrs_5_en-GB,5,,FHRS,5
371407,Low Leases Farm,Low Street,Leeming Bar,North Yorkshire,Low Leases Organic Farm,Retailers - other,4613,5,,17798,0,,54.32127300000000,06/00033/MIXED,251,fhrs@hambleton.gov.uk,Hambleton,http://www.hambleton.gov.uk/,-1.56411900000000,DL7 9LU,2013-08-19,fhrs_5_en-GB,5,,FHRS,0
371408,Unit 1,Terry Dicken Industrial Estate,Station Road,Stokesley,Luckys Play Barn,Restaurant/Cafe/Canteen,1,5,,648887,0,,54.46202300000000,13/00173/MIXED,251,fhrs@hambleton.gov.uk,Hambleton,http://www.hambleton.gov.uk/,-1.18030200000000,TS9 7AE,2014-04-03,fhrs_5_en-GB,5,,FHRS,0
371409,Exelby Services Ltd,A19 Northbound Services,Ingleby Arncliffe,North Yorkshire,Lynne's Pantry,Restaurant/Cafe/Canteen,1,10,,11021,10,,54.40569600000000,04/00410/MIXED,251,fhrs@hambleton.gov.uk,Hambleton,http://www.hambleton.gov.uk/,-1.32508500000000,DL6 3JS,2011-05-11,fhrs_3_en-GB,3,,FHRS,10
371410,School Farm,17 Station Road,Great Ayton,North Yorkshire,M K Phalp,Retailers - other,4613,0,,579651,0,,54.48800000000000,13/00157/MIXED,251,fhrs@hambleton.gov.uk,Hambleton,http://www.hambleton.gov.uk/,-1.13074000000000,TS9 6HA,2013-08-19,fhrs_5_en-GB,5,,FHRS,0
371411,62 Turker Close,Northallerton,North Yorkshire,,Mama G's Baps,Mobile caterer,7846,5,,606036,5,,54.34335700000000,13/00160/MIXED,251,fhrs@hambleton.gov.uk,Hambleton,http://www.hambleton.gov.uk/,-1.42510700000000,DL6 1LA,2013-10-30,fhrs_5_en-GB,5,,FHRS,5
371412,Margarets Diner,Ox Bank Layby,Kirby Sigston,North Yorkshire,Margarets Diner A19 South Bound,Other catering premises,7841,5,,415115,10,,54.35564600000000,11/00259/MIXED,251,fhrs@hambleton.gov.uk,Hambleton,http://www.hambleton.gov.uk/,-1.32822800000000,DL6 3PT,2013-10-30,fhrs_3_en-GB,3,,FHRS,10
371413,Martins Newsagent,55 Market Place,Thirsk,North Yorkshire,Martins,Retailers - other,4613,,,9530,,,54.23303300000000,04/00024/MIXED,251,fhrs@hambleton.gov.uk,Hambleton,http://www.hambleton.gov.uk/,-1.34346000000000,YO7 1HA,2011-12-02,fhrs_exempt_en-GB,Exempt,,FHRS,
371414,Rawcar Farm,Great Langton,North Yorkshire,,McBretney Associates,Other catering premises,7841,0,,35073,0,,54.38735300000000,10/00184/FOOD,251,fhrs@hambleton.gov.uk,Hambleton,http://www.hambleton.gov.uk/,-1.53922800000000,DL7 0AL,2012-07-27,fhrs_5_en-GB,5,,FHRS,0
371415,McColls Off Licence,115 High Street,Great Ayton,North Yorkshire,McColl's,Retailers - other,4613,0,,638100,0,,54.48850600000000,14/00002/MIXED,251,fhrs@hambleton.gov.uk,Hambleton,http://www.hambleton.gov.uk/,-1.13361600000000,TS9 6BW,2014-03-18,fhrs_5_en-GB,5,,FHRS,0
371416,McDonalds Resturant Ltd,Motel Leeming Services,92 Bedale Road,Aiskew,McDonalds,Restaurant/Cafe/Canteen,1,0,,15760,0,,54.29906400000000,05/01293/MIXED,251,fhrs@hambleton.gov.uk,Hambleton,http://www.hambleton.gov.uk/,-1.56624300000000,DL8 1DT,2014-02-24,fhrs_5_en-GB,5,,FHRS,0
371417,McMahons (Grocers),20 High Street,Stokesley,North Yorkshire,McMahons,Retailers - other,4613,5,,11687,5,,54.47012400000000,04/00796/MIXED,251,fhrs@hambleton.gov.uk,Hambleton,http://www.hambleton.gov.uk/,-1.19288600000000,TS9 5DQ,2010-11-18,fhrs_4_en-GB,4,,FHRS,10
371418,Meadowcroft,86 Topcliffe Road,Sowerby,North Yorkshire,Meadowcroft B & B,Hotel/bed & breakfast/guest house,7842,0,,48397,0,,54.22365500000000,11/00278/FOOD,251,fhrs@hambleton.gov.uk,Hambleton,http://www.hambleton.gov.uk/,-1.34917600000000,YO7 1RY,2013-11-19,fhrs_5_en-GB,5,,FHRS,0
371419,1 Conroy Close,Easingwold,North Yorkshire,,Mencap,Hospitals/Childcare/Caring Premises,5,5,,17745,5,,54.11730000000000,06/00026/MIXED,251,fhrs@hambleton.gov.uk,Hambleton,http://www.hambleton.gov.uk/,-1.18991700000000,YO61 3NS,2014-05-14,fhrs_5_en-GB,5,,FHRS,5
371420,2 Conroy Close,Easingwold,North Yorkshire,,MENCAP,Hospitals/Childcare/Caring Premises,5,5,,10765,5,,54.11730000000000,04/00299/MIXED,251,fhrs@hambleton.gov.uk,Hambleton,http://www.hambleton.gov.uk/,-1.18991700000000,YO61 3NS,2014-05-14,fhrs_5_en-GB,5,,FHRS,5
371421,Glebe Farm,Hornby,North Yorkshire,,Middlesbrough Hot Sausage,Mobile caterer,7846,0,,34660,0,,54.45441000000000,10/00139/MIXED,251,fhrs@hambleton.gov.uk,Hambleton,http://www.hambleton.gov.uk/,-1.44397400000000,DL6 2JE,2010-06-14,fhrs_5_en-GB,5,,FHRS,5
371422,13 Millgate,Thirsk,North Yorkshire,,Milano,Takeaway/sandwich shop,7844,0,,421567,0,,54.23345800000000,12/00085/MIXED,251,fhrs@hambleton.gov.uk,Hambleton,http://www.hambleton.gov.uk/,-1.34224100000000,YO7 1AA,2014-08-01,fhrs_5_en-GB,5,,FHRS,5
371423,Mill Hill Community Primary School,Crosby Road,Northallerton,North Yorkshire,Mill Hill County Primary School,School/college/university,7845,5,,9991,0,,54.33634200000000,04/00101/FOOD,251,fhrs@hambleton.gov.uk,Hambleton,http://www.hambleton.gov.uk/,-1.42794200000000,DL6 1AE,2014-03-06,fhrs_5_en-GB,5,,FHRS,5
371424,Armstrong Richardson & Co,47 Levenside,Stokesley,North Yorkshire,Millbry Hill,Retailers - other,4613,,,705772,,,54.46851100000000,14/00059/MIXED,251,fhrs@hambleton.gov.uk,Hambleton,http://www.hambleton.gov.uk/,-1.19365800000000,TS9 5BH,2014-09-24,fhrs_exempt_en-GB,Exempt,,FHRS,
371425,Mini Explorers Crabtree Limited,The Pepper Pot,Crabtree Hall Business Centre,Little Holtby,Mini Explorers Nursery Ltd,Hospitals/Childcare/Caring Premises,5,0,,492570,5,,54.33705100000000,12/00154/MIXED,251,fhrs@hambleton.gov.uk,Hambleton,http://www.hambleton.gov.uk/,-1.60215500000000,DL7 9NY,2014-07-15,fhrs_5_en-GB,5,,FHRS,0
371426,The Park Restaurant And Miss Daisys,Tea Room,Sutton Park,Main Street,Miss Daisy's,Restaurant/Cafe/Canteen,1,10,,433928,5,,,04/00599/MIXED,251,fhrs@hambleton.gov.uk,Hambleton,http://www.hambleton.gov.uk/,,YO30 1DP,2014-03-06,fhrs_3_en-GB,3,,FHRS,10
371427,,,,,Moat Farm Granary,Other catering premises,7841,,,668757,,,,13/00043/FOOD,251,fhrs@hambleton.gov.uk,Hambleton,http://www.hambleton.gov.uk/,,,2014-06-09,fhrs_exempt_en-GB,Exempt,,FHRS,
371428,Motel Leeming,A1 Trunk Road Aiskew CP,Aiskew,North Yorkshire,Moto Services Leeming Bar,Hotel/bed & breakfast/guest house,7842,0,,690503,0,,54.29906400000000,14/00024/MIXED,251,fhrs@hambleton.gov.uk,Hambleton,http://www.hambleton.gov.uk/,-1.56624300000000,DL8 1DT,2014-08-06,fhrs_5_en-GB,5,,FHRS,5
371429,The Mount,Yafforth Road,Northallerton,North Yorkshire,Mount Vale Care Home,Hospitals/Childcare/Caring Premises,5,0,,28601,0,,54.34604800000000,09/00011/MIXED,251,fhrs@hambleton.gov.uk,Hambleton,http://www.hambleton.gov.uk/,-1.44520600000000,DL7 8UE,2014-08-05,fhrs_5_en-GB,5,,FHRS,5
371430,Thompsons Craftsmen Ltd,Mousemans Workshop And Showroom,Kilburn,North Yorkshire,Mouseman Visitor Centre,Restaurant/Cafe/Canteen,1,5,,21977,5,,54.20941900000000,07/00099/MIXED,251,fhrs@hambleton.gov.uk,Hambleton,http://www.hambleton.gov.uk/,-1.21367500000000,YO61 4AH,2012-06-15,fhrs_5_en-GB,5,,FHRS,5
371431,Masham Road,Bedale,North Yorkshire,,Mowbray School,School/college/university,7845,5,,209277,5,,54.28193400000000,04/00209/FOOD,251,fhrs@hambleton.gov.uk,Hambleton,http://www.hambleton.gov.uk/,-1.59999800000000,DL8 2SD,2014-12-15,fhrs_5_en-GB,5,,FHRS,5
371432,Rose Gardens,Main Street,Sutton On The Forest,North Yorkshire,Munchkins,Mobile caterer,7846,5,,714980,5,,54.07490300000000,14/00072/MIXED,251,fhrs@hambleton.gov.uk,Hambleton,http://www.hambleton.gov.uk/,-1.10590500000000,YO61 1DP,2014-11-06,fhrs_5_en-GB,5,,FHRS,5
371433,Romanby Court,High Street,Northallerton,North Yorkshire,My Asia,Restaurant/Cafe/Canteen,1,20,,719500,15,,54.33748200000000,14/00033/MIXED,251,fhrs@hambleton.gov.uk,Hambleton,http://www.hambleton.gov.uk/,-1.43327800000000,DL7 8PG,2014-11-26,fhrs_1_en-GB,1,,FHRS,15
371434,Nags Head,144 High Street,Northallerton,North Yorkshire,Nags Head Catering,Pub/bar/nightclub,7843,0,,718194,0,,54.33716800000000,14/00139/MIXED,251,fhrs@hambleton.gov.uk,Hambleton,http://www.hambleton.gov.uk/,-1.43342100000000,DL7 8PE,2014-11-24,fhrs_5_en-GB,5,,FHRS,0
371435,Chambers Of Thirsk,2 Kirkgate,Thirsk,North Yorkshire,Natalias Shop,Retailers - other,4613,5,,648893,5,,54.23285800000000,13/00243/MIXED,251,fhrs@hambleton.gov.uk,Hambleton,http://www.hambleton.gov.uk/,-1.34423000000000,YO7 1PQ,2014-03-26,fhrs_5_en-GB,5,,FHRS,0
371436,Thrintoft Moor Lane,Thrintoft,North Yorkshire,,New Inn,Pub/bar/nightclub,7843,5,,552355,0,,54.33350800000000,13/00049/MIXED,251,fhrs@hambleton.gov.uk,Hambleton,http://www.hambleton.gov.uk/,-1.50665800000000,DL7 0PN,2013-05-16,fhrs_5_en-GB,5,,FHRS,0
371437,Main Street,Huby,North Yorkshire,,New Inn Motel,Hotel/bed & breakfast/guest house,7842,0,,504985,0,,54.08333600000000,12/00169/MIXED,251,fhrs@hambleton.gov.uk,Hambleton,http://www.hambleton.gov.uk/,-1.13573100000000,YO61 1HQ,2013-01-31,fhrs_5_en-GB,5,,FHRS,0
371438,52 - 54 High Street,Northallerton,North Yorkshire,,New Life Baptist Church,Other catering premises,7841,5,,705779,0,,54.34238300000000,14/00145/MIXED,251,fhrs@hambleton.gov.uk,Hambleton,http://www.hambleton.gov.uk/,-1.43590300000000,DL7 8EG,2014-09-26,fhrs_5_en-GB,5,,FHRS,0
