,businessname,ratingvalue,structural,hygiene,confidenceinmanagement,ratingdate,latitude,longitude
390910,12 Sandfield Terrace,5,0,0,5,2014-03-11,,
390911,16 Peppermint Way,5,5,5,5,2012-07-10,53.7844581604,-1.0876994133
390912,3 Dorts Crescent,5,0,5,5,2012-10-16,53.837099,-1.2072
390913,4 1949 Cottages,4,5,5,10,2014-10-22,,
390914,4 Every Occasion Cakes & Cupcakes,5,5,5,0,2012-07-27,53.842649,-1.092272
390915,45 Copperfield Close,5,0,0,0,2013-12-18,,
390916,A Tavola,1,10,10,20,2014-10-08,53.784905,-1.069583
390917,Aagrah Restaurant,4,10,5,0,2013-07-15,53.899975,-1.201004
390918,Abbey  Fisheries,5,5,0,0,2013-04-26,53.783573,-1.071737
390919,Abbey Cafe,4,5,5,10,2014-01-21,53.805142,-1.040481
390920,Abbey Fields Day Care Nursery,5,0,0,0,2013-07-22,53.769881,-1.065515
390921,Abbey Lea Care Home,5,5,5,5,2014-11-21,53.803307,-1.039232
390922,Abbey Place Day Nursery,4,10,5,5,2014-09-02,53.781577,-1.010865
390923,Abbey Vaults,4,10,0,5,2014-04-09,53.782937,-1.068534
390924,Acorn Montessori Nursery,5,5,5,5,2014-07-24,53.725314,-1.020156
390925,Albion Vaults,2,15,0,10,2014-03-17,53.783843,-1.065918
390926,Alcotraz,3,10,5,10,2013-05-30,53.778949,-1.052824
390927,Aldi Stores Ltd,5,0,0,0,2014-03-31,53.769881,-1.065515
390928,Alliance Pharmacy,Exempt,nan,nan,nan,2012-08-31,53.783312,-1.06939
390929,Alpaca Cream Tea's,4,0,5,10,2013-09-04,53.806756,-1.173985
390930,Angel & White Horse,5,5,0,0,2013-07-22,53.884224,-1.260758
390931,Anytime Cakes,5,0,5,5,2013-05-07,53.682303,-1.109939
390932,Appleton Roebuck School,3,10,10,10,2014-05-13,53.874261,-1.157705
390933,Arc Pharmacy,Exempt,nan,nan,nan,2012-03-09,53.785144,-1.07489
390934,Archway Diner,4,0,0,10,2013-08-29,53.905247,-1.364514
390935,Ash Tree Inn,3,10,10,5,2014-02-06,53.817287,-1.258853
390936,Athelstan C P School,5,5,0,0,2015-01-15,53.788744,-1.252146
390937,B&M Homestores,5,5,5,0,2013-03-08,53.769881,-1.065515
390938,Bamforths,5,0,0,5,2013-07-25,53.825421,-1.22752
390939,Barkston Ash R C School,5,5,0,0,2013-04-02,53.819898,-1.258123
390940,Barkston Ash Village Hall,5,5,5,5,2014-11-05,,
390941,Barlby Bridge CP School,5,0,5,0,2014-04-29,53.786338,-1.062023
390942,Barlby C P School,5,5,0,0,2013-10-21,53.797803,-1.044429
390943,Barlby High School,5,5,0,0,2013-10-21,53.781577,-1.010865
390944,Barlby House Day Nursery,5,0,5,5,2014-12-18,53.803307,-1.039232
390945,Barlby Village Store,5,0,5,5,2014-01-06,53.802378,-1.036581
390946,Barlow C E P School,5,0,0,0,2014-02-25,53.751341,-1.026405
390947,Barwick Parade CP School,5,5,0,0,2014-05-13,53.777323,-1.057535
390948,Bay Horse Hotel,3,10,5,10,2014-03-03,53.885832,-1.259132
390949,Bay Horse Inn,3,10,5,10,2014-09-05,53.78536,-1.06807
390950,Bay Horse Inn,3,5,10,10,2014-07-16,,
390951,Bay Horse Inn,4,10,0,5,2012-01-12,53.800193,-1.040943
390952,Beal Village Hall,5,5,5,5,2014-11-05,,
390953,Bean In,5,5,5,0,2014-09-10,53.793389,-1.227775
390954,Belly Busters,1,10,10,20,2014-01-21,,
390955,Best One Convenience Store,3,10,10,5,2014-10-03,53.767668,-1.127297
390956,Betta Butties,2,15,10,10,2013-10-23,53.780128,-1.058701
390957,Big Sizzle,5,0,5,5,2012-07-10,53.700332,-1.125479
390958,Bilbrough Filling Station,4,0,10,10,2014-12-08,53.906809,-1.185424
390959,Black Swan Inn,4,5,10,5,2013-11-14,53.813647,-1.102315
390960,Blacksmiths Arms,3,10,10,5,2013-11-26,53.806756,-1.173985
390961,Blackwood Hall,4,0,10,10,2014-03-27,53.824329,-0.984394
390962,Blue Lagoon Cafe,5,0,0,0,2013-07-29,53.675609,-1.210189
390963,Bodibitz,Exempt,nan,nan,nan,2012-08-31,53.78536,-1.06807
390964,Bon Apetit,5,0,0,5,2013-01-14,53.722373,-1.189749
390965,Boo Boo's Day Nursery,4,5,5,10,2014-09-04,53.783824,-1.06346
390966,Boot & Shoe Inn,2,15,15,10,2014-02-13,53.818406,-1.256661
390967,Bouncing Hogs n Bars,5,0,0,0,2014-06-16,53.824329,-0.984394
390968,Brayton C of E Primary School,4,10,5,0,2014-05-23,53.768766,-1.088904
390969,Brayton Headstart Playgroup,Exempt,nan,nan,nan,2012-03-16,53.774282,-1.083793
390970,Brayton High School,5,5,0,0,2014-03-25,53.774282,-1.083793
390971,Brayton Junior School,5,5,0,0,2014-05-23,53.768766,-1.088904
390972,Brayton News,4,0,0,10,2012-08-13,53.767493,-1.092801
390973,Bridge Street News,3,10,5,10,2014-09-02,53.884224,-1.260758
390974,Bridge View Tearoom,5,5,5,5,2013-08-12,53.784829,-1.065654
390975,Bright Start Nursery,4,5,10,5,2014-06-13,,
390976,Britannia Inn,4,10,0,5,2013-11-12,53.885936,-1.258568
390977,British Gypsum Limited,4,0,10,5,2014-02-20,53.801514,-1.229068
390978,Brook Street Deli,4,10,0,5,2013-10-14,53.781778,-1.074433
390979,Brotherton & Byram C P School,5,0,5,0,2013-10-24,53.723589,-1.269821
390980,Buckles Catering Ltd,5,5,5,5,2014-06-20,53.796548,-1.031371
390981,Burger Co Express,5,5,5,5,2012-04-27,53.776128,-1.078396
390982,Burger King,5,0,5,0,2014-07-10,53.90282,-1.197738
390983,Burton Salmon CP School,5,0,5,5,2014-05-15,53.741396,-1.258293
390984,Butterfly's Day Nursery Ltd,4,10,5,5,2014-12-16,53.769881,-1.065515
390985,Byram Fisheries,5,5,5,5,2014-12-01,53.723379,-1.2649
390986,Byram Park Social Club & Institiute,1,0,5,20,2014-12-23,53.723526,-1.258138
390987,Byram Park Stores,4,5,5,10,2014-09-29,53.724409,-1.259986
390988,Byram Post Office,3,10,10,5,2013-09-25,53.723971,-1.263268
390989,C Dawson + Sons Ltd,4,10,5,5,2014-04-14,,
390990,C E Wetherell & Sons Ltd,4,5,10,0,2014-09-05,53.783482,-1.068036
390991,Cable's Butchers,4,5,5,10,2014-12-09,,
390992,Cake My Day,5,0,0,0,2012-02-28,53.753512,-1.22705
390993,Cake My Day,5,5,0,0,2012-02-28,53.753402,-1.230783
390994,Cake The Moment,5,0,0,0,2012-04-04,53.76928,-1.085571
390995,Cakes 4 You,4,0,0,10,2012-10-15,53.796117,-1.241115
390996,Cakes by Beverley Anne,5,0,0,0,2014-03-10,,
390997,Cakes by French Critter,5,0,5,5,2013-05-09,53.801867,-1.037868
390998,Camblesforth Church,Exempt,nan,nan,nan,2012-04-19,53.783568,-1.071009
390999,Camblesforth CP School,5,0,0,0,2014-01-07,53.725314,-1.020156
391000,Camblesforth Fisheries,5,5,0,5,2013-09-04,53.726935,-1.016177
391001,Camblesforth Mini Market,5,0,5,0,2014-02-25,53.770735,-1.165468
391002,Candy Convenience Store,5,5,0,0,2014-10-07,,
391003,Canton Star,5,5,5,0,2013-11-13,53.786338,-1.062023
391004,Capri Restaurant,4,5,5,10,2014-12-17,53.781577,-1.010865
391005,Card Factory,Exempt,nan,nan,nan,2012-04-05,53.783925,-1.071851
391006,Carentan House Residential Home,5,5,0,0,2014-04-29,,
391007,Carlton Holy Family High School,5,5,0,5,2014-02-25,53.713548,-1.019096
391008,Carlton in Snaith Primary School,4,10,5,5,2014-07-04,53.712166,-1.017219
391009,Carlton Supermarket and Post Office,4,5,10,5,2014-06-11,53.70962,-1.020156
391010,Castle Inn,2,15,5,10,2014-10-30,,
391011,Castle Takeaway,5,5,5,0,2013-10-21,53.784531,-1.068847
391012,Cawood C E Primary School,5,5,0,5,2015-01-29,53.829531,-1.128108
391013,Chapel Haddlesey Primary School,5,5,0,0,2014-02-25,,
391014,Cherished Cake Creations,4,5,5,10,2013-04-30,,
391015,Cherry Tree Stores,5,0,5,0,2015-02-09,53.780936,-0.99646
391016,China Palace Restaurant,5,5,5,5,2014-02-25,53.773442,-1.24867
391017,China Palace Restaurant,5,5,5,0,2013-11-28,54.1334648132,-1.31587803364
391018,Choo Chews Cafe,5,0,5,5,2014-05-12,53.783374,-1.063394
391019,Church Fenton Post Office,5,5,5,0,2015-01-26,53.827745,-1.215794
391020,Church Hill Guesthouse,5,0,0,5,2012-08-24,53.79477,-1.260161
391021,CJ'S Cafe,5,5,5,5,2014-04-08,,
391022,Claires Cakes,5,0,5,5,2013-04-30,53.772492,-1.061497
391023,Cliffe C P School,5,5,5,5,2014-05-19,53.778495,-0.997004
391024,Coach & Horses,4,10,5,5,2014-09-02,53.885936,-1.258568
391025,Coffee Galore,5,0,0,0,2013-10-18,53.819077,-1.254735
391026,Community Centre,5,5,5,5,2014-02-12,,
391027,Compass,3,5,10,10,2013-08-21,,
391028,Comus Inn,4,5,0,10,2014-07-28,53.725336,-1.021822
391029,Co-op,4,10,0,0,2015-01-13,53.785949,-1.076724
391030,Co-Operative Group Ltd,5,5,0,0,2013-04-08,53.798963,-1.252131
391031,Cooplands,5,5,0,0,2013-04-02,,
391032,Costcutter,2,15,5,10,2014-03-27,53.885936,-1.258568
391033,Costcutter,3,10,10,5,2014-05-08,53.877784,-1.273314
391034,Costcutter,4,5,5,10,2013-12-10,53.781577,-1.010865
391035,Cottage of India,3,10,5,10,2013-07-22,53.884628,-1.262151
391036,Cranswick County Foods,Exempt,nan,nan,nan,2014-02-18,53.792855,-1.221621
391037,Creative Icing,3,10,5,10,2013-11-18,53.78536,-1.06807
391038,Cricketers Arms,3,10,10,5,2014-05-06,53.783654,-1.069337
391039,Crooked Billet,2,15,10,10,2014-04-15,53.824552,-1.296598
391040,Cross Keys,3,10,5,10,2013-06-12,53.858928,-1.098503
391041,Crown Garden Centre,5,5,5,5,2014-04-09,,
391042,Crown Inn,5,0,5,0,2013-05-13,53.864575,-1.193558
391043,Crown Inn,4,5,5,10,2014-06-27,53.768799,-0.979181
391044,Crumbs,5,0,5,0,2014-06-19,53.705887,-1.148027
391045,Crustys,4,5,5,10,2014-10-13,53.796701,-1.251139
391046,Cumin Lounge,3,10,10,5,2013-10-29,53.777564,-1.248141
391047,Cute N Creepy,5,5,5,5,2012-08-14,53.661781,-1.142999
391048,D D Services,3,10,10,10,2015-01-05,53.626555,-1.237415
391049,D W Sports Fitness,5,5,5,5,2013-10-30,,
391050,Dairymans Cottage,5,0,0,0,2014-10-22,53.833665,-1.06244
391051,Delilah's,5,5,5,5,2014-07-24,,
391052,Denison House Nursing Home,3,10,5,10,2014-05-30,53.779438,-1.057867
391053,Devaney's Fish & Chip Shop,5,5,0,0,2013-02-19,53.875844,-1.271964
391054,Devine Meats,4,5,10,5,2013-12-17,53.884503,-1.260875
391055,Dine Contract Catering,3,10,10,10,2014-01-20,53.670785,-1.234286
391056,Dine Limited,5,5,0,0,2014-01-07,53.790922,-1.041488
391057,Dinky Donuts,5,0,0,0,2014-05-15,,
391058,Dintingdale Restaurant,4,10,5,0,2014-01-23,53.822028,-1.253772
391059,Dixie Chicken,5,5,0,5,2013-10-14,53.783573,-1.071737
391060,Doubtfires Icecream,5,5,0,0,2013-06-28,53.769667,-0.976626
391061,Doubtfires Icecream,4,10,0,0,2013-06-28,53.782683,-1.067097
391062,D'Oyly's Tearoom,4,5,10,5,2014-08-29,53.866584,-1.192927
391063,Drax CP School,5,0,0,0,2015-01-26,,
391064,Drax Sports & Social Club,5,5,0,5,2014-12-12,53.730595,-0.994688
391065,East Common Post Office,5,5,5,0,2014-03-17,53.776267,-1.058014
391066,EAT,4,0,5,10,2012-08-21,53.79891,-1.247942
391067,Eggborough Club,4,10,5,5,2014-05-20,53.713441,-1.129828
391068,Eggborough Fisheries,4,10,5,5,2014-05-13,53.706005,-1.150706
391069,Eggborough Village Stores,3,5,10,10,2014-09-09,53.703807,-1.15131
391070,Elmete Social Club,5,5,5,0,2013-01-24,53.797233,-1.251433
391071,Emma's,5,0,0,5,2012-02-02,53.704851,-1.155258
391072,Enam Tandoori,3,10,10,5,2014-07-16,53.798963,-1.252131
391073,Escrick & Deighton Club,4,5,0,10,2013-06-04,53.878028,-1.043864
391074,Escrick C of E Primary School,5,5,0,0,2013-12-10,53.912588,-1.033171
391075,Escrick General Store,5,0,0,0,2013-01-24,53.878028,-1.043864
391076,Escrick Village Hall,5,5,5,5,2014-04-25,,
391077,European Food and Drink,5,5,5,5,2012-07-16,53.783573,-1.071737
391078,Fairburn Community Centre,Exempt,nan,nan,nan,2012-04-16,53.743489,-1.283244
391079,Fairburn CP School,4,5,10,0,2013-07-15,53.744246,-1.28355
391080,Fenton Flyer,3,10,5,10,2014-01-17,53.826312,-1.216596
391081,Ferry Boat Inn,5,0,0,5,2012-03-29,53.875917,-0.94019
391082,Field Lane Sports Centre,5,5,0,5,2012-09-14,53.767668,-1.127297
391083,Fieldside Day Nursery,5,5,5,0,2014-12-01,,
391084,Firth House,3,5,10,10,2014-06-14,53.781577,-1.010865
391085,Flaxley Road News,3,10,10,5,2014-02-18,,
391086,Foresters Arms,4,10,0,10,2012-10-29,53.797271,-1.254606
391087,Forget me not,4,0,0,10,2013-05-10,53.853154,-1.284747
391088,Fox & Hounds,4,10,5,0,2014-03-27,53.882441,-1.266129
391089,Fox Lane Stores,5,0,0,0,2013-04-16,53.771101,-1.124874
391090,Frankie & Benny's,5,0,0,0,2013-04-08,53.772869,-1.064933
391091,Fresh 4 You,4,10,5,0,2014-01-29,53.784569,-1.069196
391092,Frying Nemo,5,5,5,0,2013-11-12,53.70962,-1.020156
391093,Fungry,5,5,5,5,2014-07-29,53.788182,-1.071377
391094,G E Ward & Sons,4,10,5,5,2014-04-25,53.887848,-1.255232
391095,G F Senior & Sons,4,10,5,5,2014-09-11,53.776727,-0.994027
391096,Gatehouse Coffee Shop,4,5,10,5,2014-09-29,53.721783,-1.261108
391097,George & Dragon,4,10,0,5,2013-08-13,53.732927,-1.144706
391098,George & Dragon Inn,4,10,5,5,2014-12-01,,
391099,Get-A-Gateau,5,0,5,0,2014-12-08,,
391100,Gilmers Quality Farm Butchers,4,5,10,5,2014-10-21,53.705887,-1.148027
391101,Golden Dragon,3,10,10,10,2014-01-16,53.785949,-1.076724
391102,Golden Skewer Kebabs,5,5,5,5,2014-11-27,53.78536,-1.06807
391103,Grange Side Nurseries,4,0,0,10,2013-01-23,53.831762,-1.127166
391104,Great Wall,4,10,5,5,2014-05-12,53.798963,-1.252131
391105,Greggs,5,5,0,0,2013-04-02,,
391106,Grey Horse,4,10,0,0,2014-07-28,,
391107,Greyhound,4,10,5,0,2014-02-18,53.834591,-1.057921
391108,Hambleton C E School,5,5,0,0,2014-07-10,53.769193,-1.160977
391109,Hambleton Court Care Home,4,5,10,5,2013-11-07,53.771497,-1.16392
391110,Hambleton Stores,5,0,0,0,2013-04-08,53.769994,-1.168851
391111,Hanover Care,3,5,10,10,2014-04-17,53.771759,-1.090084
391112,Happy Tiers Yorkshire,5,0,0,0,2013-10-31,53.874334,-1.15924
391113,Happy Wok,3,10,10,5,2014-06-24,53.884224,-1.260758
391114,Hare & Hounds,4,10,5,5,2014-03-11,53.833862,-1.05888
391115,Hare & Hounds Inn,4,10,0,10,2014-01-07,53.867185,-1.2714
391116,Harmony House,5,0,0,0,2015-01-05,,
391117,Hazlewood Castle Hotel,3,10,10,10,2014-10-22,53.858268,-1.325194
391118,Heathcotes,5,5,0,5,2012-02-03,,
391119,Hemingbrough C P School,5,5,0,0,2013-12-10,53.766468,-0.973563
391120,Hemingbrough Village Institute,4,5,5,10,2014-02-24,,
391121,Henry UK,4,5,0,10,2014-02-25,53.70962,-1.020156
391122,Hensall CP School,4,10,0,0,2014-07-16,53.708683,-1.022133
391123,Highfield Care Home,5,5,5,5,2014-04-07,53.820299,-1.251797
391124,Highfield Hog Roast,2,15,10,10,2013-09-04,53.656718,-1.163045
391125,Hill Top Manor Residential Care Home,5,5,0,5,2014-05-06,53.798381,-1.25243
391126,Hins,4,5,5,10,2013-11-06,53.780665,-1.072257
391127,Hog Roast Yorkshire,5,0,5,0,2014-09-24,53.779,-1.247827
391128,Home Bargains,5,0,5,5,2013-03-15,53.783576,-1.069779
391129,Hope Yard Cafe,5,5,0,0,2013-04-08,53.78536,-1.06807
391130,Horse & Jockey,2,15,10,10,2014-01-03,53.706005,-1.150706
391131,Howden Arms,5,0,0,0,2014-03-03,53.883615,-1.262519
391132,Hung Fong Chinese Takeaway,3,10,10,5,2014-11-21,53.780943,-1.075604
391133,Hung Wan Chinese Takeaway,3,10,10,5,2013-11-12,54.1334648132,-1.31587803364
391134,Hut Green Stores Ltd,5,5,5,5,2012-10-23,53.705887,-1.148027
391135,Imperial Takeaway,1,10,10,20,2015-01-07,53.887465,-1.255772
391136,J Sainsbury PLC,5,0,5,5,2014-03-04,53.784477,-1.070063
391137,J T Mellanby's,1,5,10,20,2014-05-09,53.784569,-1.069196
391138,Jack Fultons,5,5,5,0,2012-11-27,53.797233,-1.251433
391139,Jackson's,4,5,0,10,2014-11-20,53.797233,-1.251433
391140,Jeanettes Home Baking,3,10,10,10,2014-12-08,53.784205,-1.068581
391141,Jenny's Fish & Chips,5,5,0,5,2014-01-10,53.797888,-1.041603
391142,Jigsaw's Childcare Ltd,Exempt,nan,nan,nan,2014-05-06,53.826312,-1.216596
391143,Jinnah Restaurant,5,5,5,5,2014-12-01,53.782683,-1.067097
391144,Jodie Bakes Cakes,5,0,0,0,2014-12-09,53.831967,-1.131917
391145,Jug Inn,4,10,5,5,2013-08-06,53.728555,-1.119285
391146,K S Cakes,5,0,0,0,2014-09-23,,
391147,Kans Discotheque,4,10,0,5,2012-04-13,54.1334648132,-1.31587803364
391148,Kellington C P School,5,0,5,0,2014-12-01,,
391149,Kellington Corner Shop,4,0,0,10,2012-10-01,53.717763,-1.166213
391150,Kellington Manor Hotel,4,10,5,0,2014-06-10,,
391151,Kings Arms,3,10,10,10,2013-09-27,53.82508,-0.960874
391152,Kings Church,4,5,5,10,2013-05-29,53.782998,-1.07052
391153,Kirk Fenton P School,5,0,0,0,2014-09-05,53.826312,-1.216596
391154,Kirk Smeaton C of E Primary School,5,5,0,0,2013-11-07,53.643641,-1.216308
391155,Kirk Smeaton Store,5,5,5,5,2014-03-11,53.643641,-1.216308
391156,Kirkgate Fisheries,3,10,10,10,2015-01-15,53.884628,-1.262151
391157,LA Anchor Pizzeria Ltd,5,5,5,5,2014-07-16,,
391158,La Di Da Cakes and Bakes,5,0,5,5,2013-05-08,53.727729,-1.272235
391159,Lake and Orchard Care Centre,3,10,10,5,2014-06-19,53.837541,-1.08603
391160,Lambert Engineering Ltd,4,0,10,10,2014-01-29,53.8825,-1.268349
391161,Le Raj Restaurant,3,10,5,10,2014-10-13,53.784236,-1.064483
391162,Leeds Arms,5,5,0,5,2011-12-29,53.887848,-1.255232
391163,Leeds Road Service Station,5,0,5,0,2012-01-09,53.882441,-1.266129
391164,Lindas Pantry and Deli,4,5,10,5,2014-01-14,53.795704,-1.251263
391165,Little Chef,5,0,5,5,2014-09-05,53.90282,-1.197738
391166,Little Miss Muffins,4,5,10,5,2014-07-17,53.781577,-1.010865
391167,Little Pickle's GF Kitchen,5,5,0,5,2015-01-22,53.71188,-1.016376
391168,Little Yorkshire Cheese Stall,4,5,0,10,2013-12-03,53.853154,-1.284747
391169,LLL's Kitchen,5,5,5,5,2014-12-04,53.875844,-1.271964
391170,Lo Cost Food,4,10,5,5,2014-07-11,53.780678,-1.073941
391171,Lodge Farm,4,0,0,10,2014-08-07,,
391172,Lola's Garden,4,10,0,10,2014-09-05,53.77116,-1.126708
391173,Londesborough Arms Hotel,3,10,10,10,2014-02-18,54.1334648132,-1.31587803364
391174,Londis,5,0,0,5,2013-04-10,53.768799,-0.979181
391175,Longmans Hill C P School,5,5,0,0,2014-06-10,53.773646,-1.075825
391176,Lonsdales Fish & Chips,4,5,10,5,2015-01-19,53.781577,-1.010865
391177,Lovely Jubbly,5,0,5,5,2013-09-03,53.79299,-1.123872
391178,Lucky Horse,5,0,5,5,2014-10-13,53.783573,-1.071737
391179,Lucky Star,3,10,10,5,2014-01-13,53.778481,-1.058465
391180,Luncheon Club,5,5,5,5,2012-10-25,53.771497,-1.16392
391181,Luncheon Club,Exempt,nan,nan,nan,2012-08-09,53.795877,-1.253127
391182,Macca's Sandwich Shop,2,15,5,10,2014-10-03,,
391183,Mama Mia Pizza Takeaway,5,5,5,0,2014-02-18,53.783573,-1.071737
391184,Mandarin Palace,3,10,10,5,2013-07-15,53.884628,-1.262151
391185,Mansion House Care Home,5,5,0,5,2014-01-21,53.731097,-0.975425
391186,Market Lane Tea Rooms,5,5,0,0,2013-10-14,53.783576,-1.069779
391187,Martin Nunns Meat and Livestock,4,5,5,10,2013-11-14,53.735958,-1.19687
391188,Ma's Kitchen,3,5,10,10,2014-04-04,53.766708,-1.066663
391189,Masterplan Hospitality Ltd,3,10,10,10,2013-10-09,53.777916,-1.25548
391190,Maypole Farm,5,0,0,0,2013-01-29,,
391191,McColls,4,5,10,0,2014-10-21,53.776267,-1.058014
391192,McDonalds Restaurants Ltd,5,5,5,5,2014-05-20,53.769881,-1.065515
391193,McDonalds Restaurants Ltd,4,5,10,0,2014-10-15,53.906809,-1.185424
391194,Meadow Lodge Care Ltd,5,0,0,5,2014-10-09,53.713841,-1.163291
391195,Megna Takeaway & Restaurant,0,20,20,20,2015-01-09,,
391196,Milford Hotel,5,5,0,5,2014-01-07,53.777903,-1.308926
391197,Mill House Farm Barn,5,0,0,0,2013-08-29,53.748652,-1.030607
391198,Ming's Chinese,2,10,15,10,2013-11-04,53.785022,-1.066165
391199,Mini Market Grosik Ltd,5,5,5,0,2013-08-08,53.784236,-1.064483
391200,Mister C's,5,5,0,0,2013-10-28,53.78536,-1.06807
391201,Mitchells Fisheries,5,5,5,5,2014-02-27,53.77172274,-1.12551718
391202,Mix and Make,5,5,0,5,2013-04-30,53.766827,-1.080921
391203,Mollie Sharp's,5,5,5,0,2014-04-11,53.784569,-1.069196
391204,"Monk Fryston & Hillam Community Centre,",4,5,0,10,2012-02-01,53.76027,-1.233797
391205,Monk Fryston C E P School,5,5,0,0,2013-11-18,53.760659,-1.232759
391206,Monk Fryston Hall Hotel,3,10,5,10,2014-01-27,53.762395,-1.235882
391207,Monk Fryston Pre-School,5,5,0,5,2013-06-27,53.761136,-1.234252
391208,Monk Fryston Store & Post Office,4,10,5,0,2013-11-20,53.761259,-1.230973
391209,Morley's Fine Foods,5,5,5,5,2014-11-27,53.781577,-1.010865
391210,Munchkins Day Nursery,5,0,0,0,2014-10-03,53.762196,-0.939217
391211,My Family Cakes,4,0,5,10,2014-09-25,,
391212,N Duffield & Skipwith Luncheon Club,5,0,0,5,2014-12-01,53.824925,-0.958523
391213,Nancy's Cafe,5,0,5,5,2014-01-21,53.687203,-1.089756
391214,Narenos,1,10,5,20,2014-05-07,53.798963,-1.252131
391215,Nelson Inn,5,0,0,5,2012-03-14,53.782954,-1.060292
391216,New Inn,3,10,10,10,2014-07-29,,
391217,New Mai Ling,1,10,10,20,2014-07-28,53.781577,-1.010865
391218,New Selby War Memorial,5,0,0,0,2014-03-04,53.776869,-1.07882
391219,Nisa Local,5,0,5,5,2014-01-23,53.832342,-1.057653
391220,Nisa Stores,5,5,0,5,2015-01-28,53.797799,-1.245715
391221,NJB Services Ltd,5,5,5,5,2012-01-16,53.773706,-1.065096
391222,Norec,5,5,5,5,2015-01-20,53.713441,-1.129828
391223,North Duffield C P School,5,0,0,0,2013-12-10,53.781577,-1.010865
391224,Number 8,3,5,10,10,2013-07-26,,
391225,Oddfellows Arms,5,5,0,0,2014-01-13,53.795704,-1.251263
391226,Oddfellows Arms,4,10,0,5,2012-05-03,53.70962,-1.020156
391227,Old Chocolate Box,5,5,0,0,2015-02-02,53.884628,-1.262151
391228,Olives and Grill,3,5,10,10,2014-07-11,53.783573,-1.071737
391229,Olympia Hotel,3,10,5,10,2014-05-20,53.786902,-1.061783
391230,Optima Catering,3,5,10,10,2013-12-11,53.705579,-1.138837
391231,Orchard Trees Day Nursery,5,0,5,5,2014-09-26,53.882856,-0.947347
391232,Organic Pantry,4,10,5,5,2014-04-15,53.891786,-1.309606
391233,Osborne House,5,0,0,5,2013-12-18,53.780678,-1.073941
391234,Osteria 23,2,15,10,10,2014-04-11,53.783576,-1.069779
391235,Owl Hotel & Restaurant,3,10,10,5,2014-07-25,53.769994,-1.168851
391236,Paintball Commando,2,15,0,5,2012-03-29,53.716336,-1.241259
391237,Park Vale Quality Foods,5,5,5,5,2014-03-12,53.744504,-1.259467
391238,Park View Hotel,4,10,0,5,2012-01-03,53.830797,-1.055499
391239,Pavilion,4,5,5,10,2014-02-26,,
391240,Pecan Deluxe Candy,5,0,0,0,2013-03-18,53.788622,-1.231475
391241,Pedro's,4,0,5,10,2014-10-03,53.782937,-1.068534
391242,Pennyghael Residential Home,5,5,5,0,2014-01-30,53.777917,-1.075225
391243,Penny's,4,5,10,5,2014-07-29,53.798381,-1.25243
391244,Per Bacco,2,15,10,10,2014-07-28,53.830797,-1.055499
391245,Peter Pan Nursery,5,5,0,5,2012-01-26,53.797111,-1.247716
391246,Pilots Retreat,3,10,5,10,2014-09-10,53.789865,-1.204342
391247,Pizza Callo,2,15,10,10,2014-09-29,53.783573,-1.071737
391248,Pizza Roma,5,5,5,0,2013-10-27,,
391249,Pizza Thyme,4,5,10,5,2014-01-08,53.778949,-1.052824
391250,Pizzoz Ltd,5,5,0,5,2014-07-28,53.794577,-1.257887
391251,Playcare Day Nursery,3,5,10,10,2014-02-24,53.723589,-1.269821
391252,Popplewell Springs,5,0,5,5,2014-09-08,53.883353,-1.27121
391253,Post Office,Exempt,nan,nan,nan,2012-09-04,53.72775,-1.019159
391254,Post Office,4,5,0,10,2014-09-29,,
391255,Post Office & General Store,4,5,0,10,2012-08-20,53.833125,-1.129173
391256,Preceptory Lodge,4,5,0,10,2013-12-10,,
391257,Premier Travel Inn,5,5,0,0,2013-07-02,53.906809,-1.185424
391258,Quality Hotels Leeds (Selby Fork),3,10,5,10,2014-07-24,53.76716,-1.291716
391259,Queen Margaret's School,4,5,10,5,2013-09-24,53.872922,-1.040421
391260,R & L Snacks,5,5,0,0,2014-03-03,53.78536,-1.06807
391261,Railway Sports & Social Club,5,0,0,0,2014-10-03,53.781616,-1.065087
391262,Railway Tavern,4,10,0,5,2012-03-29,,
391263,Rainbow Private Nursery School Ltd,5,0,5,0,2014-01-10,53.813404,-1.258876
391264,Read School,4,5,5,10,2014-02-07,53.732326,-0.975183
391265,Red Bear,4,10,0,0,2013-05-01,53.797233,-1.251433
391266,Red Lion,4,10,0,5,2012-01-12,53.770735,-1.165468
391267,Refectory,5,0,5,0,2014-09-11,53.775074,-1.051561
391268,Reshma Spice,2,10,15,10,2014-10-23,,
391269,Riccall Butchers Ltd,3,10,10,10,2013-11-21,53.833862,-1.05888
391270,Riccall C P School,5,5,5,5,2015-02-11,53.9665870667,-1.07468152046
391271,Riccall House Care Home,5,0,5,5,2014-09-15,53.83346,-1.058159
391272,Riccall Post Office,4,10,5,0,2014-02-18,53.834468,-1.058334
391273,Riccall Pre-School,5,0,0,0,2014-02-24,53.835149,-1.06148
391274,Riccall Spice,3,10,10,10,2013-10-24,53.833862,-1.05888
391275,Riccall Village Institute,5,5,5,5,2014-11-17,,
391276,Riley Smith Hall,5,5,0,5,2014-01-13,53.885066,-1.26476
391277,Rioco,5,5,0,0,2014-01-29,53.784569,-1.069196
391278,Riverside C P School,5,5,5,5,2013-09-12,53.8853,-1.269168
391279,Robs Rolls,3,10,5,10,2014-01-06,53.88345,-1.262019
391280,Rosemarie's Cakes,4,5,5,10,2014-04-14,,
391281,Rosti Haus Limited,3,10,10,10,2013-09-03,53.85179,-1.302054
391282,Rostrum Cafe,4,5,0,10,2013-07-29,53.727797,-1.265732
391283,Route 63 Spice House,3,10,10,10,2015-01-13,53.796548,-1.031371
391284,Royal Oak,4,10,0,5,2014-03-31,53.888405,-1.259619
391285,Royal Voluntary Service,5,5,5,5,2014-03-11,53.824925,-0.958523
391286,Ruchee Takeaway,5,0,5,5,2014-01-06,53.770735,-1.165468
391287,Saffron,5,5,0,5,2014-01-13,53.795704,-1.251263
391288,Sainsbury's,4,10,5,5,2014-12-04,53.886379,-1.260446
391289,Sainsbury's RDC,5,5,5,5,2014-12-02,53.79456,-1.21576
391290,Saltiz Snacks,4,0,0,10,2013-10-14,53.769881,-1.065515
391291,Sandwich Express,4,5,5,10,2013-11-27,53.779786,-1.075979
391292,Sapori Di Napoli,3,10,10,5,2013-07-02,53.885025,-1.263954
391293,Sarah's Cake Company,5,0,5,5,2012-02-28,53.785903,-1.077772
391294,Saxton C E P School,5,0,0,0,2013-10-11,53.826324,-1.280191
391295,Say it with Cake,5,0,0,0,2014-09-05,,
391296,Scalm Park Leisure,3,10,10,10,2015-01-12,53.790898,-1.14289
391297,Scotts Fish and Chips,3,10,10,10,2014-11-26,54.296823,-0.413836
391298,Seedlings,2,15,15,10,2014-11-07,53.70568,-1.034185
391299,Selby Abbey C E Primary School,4,5,10,5,2014-03-28,53.782998,-1.07052
391300,Selby Auction Market,5,5,5,0,2014-10-15,53.769881,-1.065515
391301,Selby Balti House,3,10,10,10,2014-09-17,53.785949,-1.076724
391302,Selby Bowling Club Ltd,5,5,0,0,2013-05-07,53.771513,-1.076661
391303,Selby Community Centre,5,0,5,5,2014-02-11,53.785144,-1.07489
391304,Selby Community Pre-School,5,0,5,5,2014-02-11,53.785144,-1.07489
391305,Selby Community Primary School,5,0,0,0,2013-04-16,53.785472,-1.080149
391306,Selby Golf Club,4,10,5,5,2014-12-12,53.760453,-1.119058
391307,Selby High School,5,5,0,0,2014-02-10,53.780724,-1.078675
391308,Selby R.U.F.C.,4,10,0,10,2013-08-06,53.777688,-1.100275
391309,Selby Squash & Leisure Club,4,10,0,10,2013-11-07,53.787526,-1.073775
391310,Selby Store,4,0,10,10,2013-05-09,53.781778,-1.074433
391311,Selby Superbowl,4,5,5,10,2014-09-05,53.773706,-1.065096
391312,Selby Town Football Club,3,5,10,10,2014-11-25,,
391313,Servest Catering DHL for Debenhams,5,5,5,5,2014-12-11,53.790372,-1.22276
391314,Shann House Hotel,4,0,0,10,2014-03-03,53.884313,-1.262126
391315,Shelley's Cupcakes,5,0,0,5,2013-04-30,53.771624,-1.091164
391316,Shell's Bakes,5,0,0,0,2014-10-13,,
391317,Sherburn High School,5,0,0,0,2014-04-28,53.790618,-1.257304
391318,Sherburn Hungate CP School,5,5,5,0,2014-04-23,53.800203,-1.250636
391319,Sherburn Pizzas,5,5,5,0,2013-08-06,53.792923,-1.227965
391320,Shoulder of Mutton,3,10,10,10,2014-05-13,53.876083,-1.156102
391321,Shoulder of Mutton,5,5,0,0,2014-03-11,53.643641,-1.216308
391322,Shun Hing,5,5,5,0,2014-11-26,53.797233,-1.251433
391323,Sleeptight Hotels,4,10,5,5,2014-01-15,53.766708,-1.066663
391324,Sonali Restaurant,3,10,10,5,2014-01-21,53.884503,-1.260875
391325,South Milford C P School,5,0,0,0,2015-01-07,53.775554,-1.252942
391326,South Milford Cricket Club,Exempt,nan,nan,nan,2012-07-02,53.779565,-1.246178
391327,South Yorkshire Boat Club,5,5,5,5,2014-03-22,53.680975,-1.117507
391328,Southlands Service Centre Ltd,5,0,0,0,2012-08-03,53.777537,-1.248142
391329,Spar Shop,4,10,5,5,2014-01-07,53.797233,-1.251433
391330,Spuds & Berries,5,5,5,5,2015-01-06,53.765155,-0.959926
391331,Squires Cafe Bar,4,10,5,5,2015-01-14,53.782875061,-1.28891718388
391332,St Josephs R C P School,5,0,0,0,2012-06-25,53.884865,-1.267121
391333,St Mary's RCP School,5,5,0,0,2014-05-15,53.771387,-1.081383
391334,Staff Canteen,4,5,5,10,2014-09-29,53.670785,-1.234286
391335,Staff Canteen,5,5,5,0,2014-01-24,53.783322,-1.069496
391336,Staff Restaurant,5,5,5,5,2015-02-16,53.882366,-1.264153
391337,Staff Restaurant,5,0,0,5,2013-04-02,,
391338,Standering Hall,5,5,5,5,2012-03-09,53.779013,-1.097257
391339,Starkeys,5,5,5,0,2013-12-03,53.796701,-1.251139
391340,Station Inn,4,10,0,10,2014-06-14,53.783458,-1.062664
391341,Stephanie Turner,5,0,5,0,2015-02-09,,
391342,Sticky Fingers,5,5,5,0,2014-03-03,53.692582,-1.156594
391343,Stop n Shop,4,5,0,10,2013-11-20,53.786338,-1.062023
391344,Subway,3,10,5,10,2013-10-22,53.781577,-1.010865
391345,Sunar Bangla,2,15,10,10,2013-07-10,53.826077,-1.223254
391346,Super Fresh,3,5,10,10,2014-03-07,53.783925,-1.071851
391347,Swan Hotel,1,15,15,20,2014-07-09,53.779,-1.247827
391348,Swan Inn,5,5,5,5,2015-01-21,53.768495,-1.088955
391349,Tadcaster Albion F C,2,0,15,10,2013-03-05,53.882425,-1.257687
391350,Tadcaster Bowling Club,4,5,0,10,2012-03-14,53.884099,-1.265233
391351,Tadcaster East C P School,5,5,0,0,2014-06-17,53.886519,-1.253932
391352,Tadcaster Grammar School,5,5,0,0,2014-01-06,53.877868,-1.307355
391353,Tadcaster Ices,5,0,0,5,2012-03-29,53.884409,-1.252905
391354,Tadcaster Magnet Sports & Soc. Club,5,5,5,5,2014-03-27,53.881234,-1.2672
391355,Taddy Tadpoles,4,10,5,5,2014-04-01,53.886519,-1.253932
391356,Tadkebab,3,10,10,5,2013-10-14,53.885936,-1.258568
391357,Taste Sensation,5,0,0,5,2015-01-21,53.770107,-1.075053
391358,Tasty Hot Pizza,3,5,10,10,2014-06-12,53.785949,-1.076724
391359,Temple Manor Nursing Home,5,5,0,0,2014-09-29,53.717874,-1.086534
391360,Tesco,5,0,5,0,2012-12-17,53.797233,-1.251433
391361,Tesco Express,5,0,0,5,2015-02-10,53.768766,-1.088904
391362,Tesco Stores Ltd,5,0,5,0,2013-12-05,53.780814,-1.067124
391363,Thai Sunshine,3,10,10,5,2013-10-31,53.784477,-1.070063
391364,The Black Bull Inn,3,10,10,10,2014-06-30,,
391365,The Black Dog,4,5,5,10,2014-10-15,53.727478,-1.02876
391366,The Bon,5,5,0,0,2013-08-21,53.797233,-1.251433
391367,The Bread Bin,5,5,5,5,2014-12-16,53.768799,-0.979181
391368,The Bumblebee Bakery,5,5,5,5,2012-02-29,53.763465,-1.097514
391369,The Coffee Shop,5,0,0,0,2014-08-08,53.777681,-1.078089
391370,The Coffee Shop,5,5,0,5,2014-06-19,53.796548,-1.031371
391371,The Court Yard,5,0,0,0,2014-10-13,53.666915,-1.199122
391372,The Cross Keys,1,5,15,20,2014-08-28,53.753402,-1.230783
391373,The Crown Inn,3,10,10,10,2014-07-22,53.762395,-1.235882
391374,The Cunliffe Centre,5,5,5,5,2014-02-12,,
391375,The Drovers Arms,3,10,10,10,2014-01-30,53.839642,-0.992611
391376,The Farm Cafe Ltd,2,10,15,10,2014-05-16,53.67295,-1.15903
391377,The Farmers Kitchen,4,5,10,5,2014-09-03,53.709147,-1.20788
391378,The Fish Shop,5,0,0,0,2014-05-08,53.811016,-1.100305
391379,The Fox Inn,5,0,5,5,2014-11-04,53.774431,-1.12661
391380,The Giant Bellflower,5,0,5,0,2014-09-12,53.783573,-1.071737
391381,The Granary,4,10,5,5,2014-04-10,53.884503,-1.260875
391382,The Grange Care Centre,3,5,10,10,2013-11-19,53.780625,-1.065959
391383,The Grey Horse,4,5,5,10,2014-10-13,53.766441,-1.091564
391384,The Greyhound Inn,5,0,5,5,2014-03-03,53.824965,-1.278437
391385,The Griffin,5,5,0,0,2013-07-05,,
391386,The Hazeldene Guest House,4,0,10,10,2014-03-17,53.780996,-1.075558
391387,The Huntsman,4,5,0,10,2014-01-13,53.728932,-0.979813
391388,The Jackdaw,2,15,10,10,2014-05-08,53.875844,-1.271964
391389,The Jolly Sailor,3,10,10,5,2014-01-15,53.832934,-1.13015
391390,The Kings Arms,5,0,5,0,2014-06-25,53.723387,-1.193442
391391,The Little Coffee House,4,5,10,5,2014-01-02,53.780996,-1.075558
391392,The Little Delicatessen,5,5,0,0,2013-04-02,53.88345,-1.262019
391393,The New Inn,0,20,20,20,2013-10-25,53.783925,-1.071851
391394,The New Inn,3,10,5,10,2013-05-29,53.780936,-0.99646
391395,The Old Hall,5,0,0,0,2014-03-04,,
391396,The Old Park Plantation,4,5,10,0,2013-05-13,,
391397,The Old Presbytery,5,5,5,5,2014-03-17,53.822832,-1.258801
391398,The Old Vicarage Guest House,4,5,5,10,2014-03-11,,
391399,The Parsonage Country House Hotel,5,5,0,0,2013-04-03,53.879247,-1.045753
391400,The Plough Inn,5,5,0,0,2013-05-31,53.740554,-1.255822
391401,The Queens High Street,2,15,5,10,2014-05-08,53.8823661804,-1.26415300369
391402,The Ranch Caravan Park,4,5,0,10,2014-01-13,53.795618,-0.998008
391403,The Red Lion,3,10,10,10,2014-12-16,,
391404,The Regen Centre,5,5,5,0,2014-06-19,53.830429,-1.061312
391405,The Restaurant,5,0,5,0,2014-09-18,53.775074,-1.051561
391406,The Riverside,4,10,0,0,2013-03-28,53.784236,-1.064483
391407,The Rockingham Arms,4,0,10,5,2014-09-16,53.84989,-1.263841
391408,The Roebuck Inn,5,0,5,5,2014-03-03,53.873322,-1.161039
391409,The Royal Oak Inn,3,10,5,10,2014-12-12,53.713452,-1.074796
391410,The Rythre Arms,5,5,5,0,2014-07-28,53.846552,-1.161894
391411,The School House,Exempt,nan,nan,nan,2013-10-23,53.760701,-1.232318
391412,The Sloop Inn,1,15,10,20,2014-06-26,53.718159,-1.087361
391413,The Snack Box,3,10,10,10,2014-09-29,53.754309,-1.095451
391414,The Spice Mill,3,10,5,10,2012-12-17,53.828823,-1.072105
391415,The Swan,4,10,0,5,2012-07-06,53.797233,-1.251433
391416,The Tea Lounge,4,5,10,5,2014-03-27,53.885066,-1.26476
391417,The Thaal,4,5,10,5,2014-07-16,53.727422,-1.267542
391418,The Thought of Food,5,0,5,0,2013-08-13,53.877483,-1.044272
391419,The Three Swans,5,5,0,5,2013-09-16,53.785022,-1.066165
391420,The Treehouse,3,5,10,10,2014-09-01,53.783573,-1.071737
391421,The Village Store,5,5,0,5,2014-04-15,53.775554,-1.252942
391422,The Yorkshire Fryer,1,15,10,20,2015-01-11,53.76863,-0.971978
391423,Thomas The Baker,5,5,5,5,2013-11-20,53.783925,-1.071851
391424,Thorpe Willoughby CP School,5,5,0,0,2015-01-09,,
391425,Three Horse Shoes,5,0,0,0,2013-01-08,53.743718,-1.285499
391426,Three Horseshoes,5,5,0,0,2013-11-08,53.728591,-1.272054
391427,Tiffin Fodder,5,0,0,5,2012-05-10,53.780539,-1.255357
391428,Tikk's Thai Kitchen,5,0,0,5,2014-01-24,53.873322,-1.161039
391429,Tiny Tots,4,5,0,10,2014-01-21,,
391430,TJ's Pic N Mix Catering,5,5,0,0,2012-11-06,53.77118,-1.090703
391431,Top Dogs Hot Dogs UK,4,0,0,10,2014-01-13,53.890032,-1.2581
391432,Top Nosh,3,10,10,10,2014-10-07,53.800837,-1.247118
391433,Top Table Catering,5,5,0,0,2013-05-31,53.772775,-1.125066
391434,Truly Scrumptious,3,10,5,10,2014-10-16,,
391435,Tudor House Care Home,1,10,15,20,2014-11-18,53.78149645,-1.07937372
391436,Tuesday Kitchen,4,0,10,10,2013-05-14,53.782683,-1.067097
391437,Tunstall Telecom,1,5,15,20,2014-07-29,53.691402,-1.154937
391438,Tutti's Pizza,3,10,5,10,2013-10-21,53.784353,-1.065679
391439,Two Stop Shop,5,0,0,0,2013-04-02,53.778816,-1.077229
391440,Tykes Tea Rooms,4,10,5,5,2014-01-06,53.883615,-1.262519
391441,UK Coal Mining Limited,3,10,10,10,2014-12-18,53.707626,-1.206212
391442,Ulleskelf Arms,1,5,5,20,2014-04-22,53.853114,-1.212325
391443,Ulleskelf Post Office,5,5,0,5,2012-11-09,53.854654,-1.210031
391444,Unicorn Inn,4,5,5,10,2014-03-20,53.789369,-1.073825
391445,Unit 6,2,10,15,10,2014-06-09,53.69889,-1.160224
391446,Vee's Cakes,5,0,5,5,2014-01-28,,
391447,Venice Pizza & Spice Garden,3,10,5,10,2014-03-20,53.884277,-1.260575
391448,Victoria Site Catering,5,5,5,0,2014-01-21,53.730595,-0.994688
391449,W H Smiths,Exempt,nan,nan,nan,2012-08-31,53.783573,-1.071737
391450,Wadkin Arms,3,10,10,5,2013-07-22,53.781577,-1.010865
391451,Wagon & Horses,5,5,5,5,2013-07-15,53.744246,-1.28355
391452,Walker Humphrey Ltd,Exempt,nan,nan,nan,2013-10-29,53.792116,-1.221331
391453,Waterfront Express,4,5,0,10,2012-03-14,53.780128,-1.058701
391454,Wentbridge Coffee Shop,3,10,10,10,2013-08-16,53.648549,-1.247215
391455,Westbourne Stores,4,0,5,10,2014-02-18,53.771668,-1.073487
391456,Westwood Residential Care Home,5,0,0,0,2014-02-07,53.777907,-1.077113
391457,Wheatsheaf Inn,5,5,0,5,2014-01-13,53.750247,-1.099162
391458,Wheatsheaf Inn,4,10,5,5,2014-01-07,53.797431,-1.23734
391459,Wheelgate House,4,0,10,10,2014-04-15,53.797262,-1.254712
391460,White Cross Ski Club,4,5,0,10,2012-03-29,53.834017,-1.130766
391461,White Horse,4,10,5,5,2014-01-31,53.826312,-1.216596
391462,White Rose Sports & Social Club,4,5,0,10,2014-11-05,53.8031,-1.25394
391463,Whitecote Caravan Park,4,0,0,10,2014-04-01,53.852454,-1.203536
391464,Whitley & Eggborough C P School,5,5,5,5,2015-01-07,53.695163,-1.158103
391465,Wilkinson,5,0,5,0,2013-05-07,53.784477,-1.070063
391466,Wise Owl Tea Rooms,2,15,15,10,2014-11-07,53.70568,-1.034185
391467,Wisteria House,3,10,10,10,2014-01-15,53.714238,-0.951955
391468,Wistow Parochial Primary School,5,0,0,0,2014-05-07,53.813647,-1.102315
391469,Wm Morrison Supermarkets Plc,5,5,0,0,2014-01-21,53.783322,-1.069496
391470,Wolsey Fisheries,5,0,0,0,2014-01-06,53.796701,-1.251139
391471,Woodlands Post Office,5,0,0,0,2014-03-03,53.875844,-1.271964
391472,WOOSH,4,10,5,5,2013-01-17,53.814782,-1.097871
391473,Worsley Court,5,5,0,5,2013-11-14,53.776869,-1.07882
391474,Ye Old Sun Inn,5,0,5,5,2013-12-12,53.896656,-1.175395
391475,Yorkshire Paintball Centre,5,0,0,5,2015-01-10,,
391476,Yorkshire Sweet Cart,5,0,0,5,2013-11-08,,
391477,Young Discoverers Ltd,5,5,5,5,2014-11-17,53.854815,-1.051097
