,addressline1,addressline2,addressline3,addressline4,businessname,businesstype,businesstypeid,confidenceinmanagement,extractdate,fhrsid,hygiene,itemcount,latitude,localauthoritybusinessid,localauthoritycode,localauthorityemailaddress,localauthorityname,localauthoritywebsite,longitude,postcode,ratingdate,ratingkey,ratingvalue,returncode,schemetype,structural
245441,4 Oxford Castle,New Road,Oxford,Oxfordshire,1855,Restaurant/Cafe/Canteen,1,10,,661418,10,,51.75136700000000,14/00042/COM,269,foodsafety@oxford.gov.uk,Oxford City,http://www.oxford.gov.uk,-1.26207400000000,OX1 1AY,2014-04-30,fhrs_3_en-GB,3,,FHRS,5
245442,2 North Parade Avenue,Oxford,Oxfordshire,,2 North Parade Stores,Retailers - other,4613,0,,718878,0,,51.76466400000000,13/00068/COM,269,foodsafety@oxford.gov.uk,Oxford City,http://www.oxford.gov.uk,-1.26191500000000,OX2 6LX,2013-09-18,fhrs_5_en-GB,5,,FHRS,0
245443,St Benet's Hall,38 St Giles',Oxford,Oxfordshire,24 Station Market,Retailers - other,4613,5,,269231,5,,51.75804900000000,10/00014/COM,269,foodsafety@oxford.gov.uk,Oxford City,http://www.oxford.gov.uk,-1.26079100000000,OX1 3LN,2012-09-13,fhrs_5_en-GB,5,,FHRS,0
245444,Offices,Shotover View,Craufurd Road,Oxford,40 Bites/ Extra Care Shotover View,Restaurant/Cafe/Canteen,1,5,,701761,5,,,14/00087/COM,269,foodsafety@oxford.gov.uk,Oxford City,http://www.oxford.gov.uk,,OX4 2SQ,2014-07-31,fhrs_5_en-GB,5,,FHRS,0
245445,40 - 41 Park End Street,Oxford,Oxfordshire,,4500 Miles From Delhi,Restaurant/Cafe/Canteen,1,10,,269028,10,,51.75264100000000,08/00025/COM,269,foodsafety@oxford.gov.uk,Oxford City,http://www.oxford.gov.uk,-1.26587700000000,OX1 1JD,2014-01-29,fhrs_3_en-GB,3,,FHRS,10
245446,Unit 3,Templars Shopping Park,Between Towns Road,Oxford,99p Stores,Retailers - other,4613,,,269232,,,51.73381900000000,10/00016/COM,269,foodsafety@oxford.gov.uk,Oxford City,http://www.oxford.gov.uk,-1.21802000000000,OX4 3JP,2010-02-26,fhrs_exempt_en-GB,Exempt,,FHRS,
245447,Oxford Railway Station,Park End Street,Oxford,Oxfordshire,A M T Coffee Limited,Distributors/Transporters,7,0,,269156,5,,51.75289000000000,08980/2012/2/000,269,foodsafety@oxford.gov.uk,Oxford City,http://www.oxford.gov.uk,-1.26815100000000,,2010-10-11,fhrs_5_en-GB,5,,FHRS,5
245448,Brian Lewis House,80 St Clement's Street,Oxford,Oxfordshire,Abbeyfield Oxford Society,Hospitals/Childcare/Caring Premises,5,0,,269354,0,,51.75070600000000,11040/0080/0/000,269,foodsafety@oxford.gov.uk,Oxford City,http://www.oxford.gov.uk,-1.23877600000000,OX4 1AW,2014-02-26,fhrs_5_en-GB,5,,FHRS,0
245449,11 Sandfield Road,Oxford,Oxfordshire,,ABC Nursery,Hospitals/Childcare/Caring Premises,5,5,,269281,5,,51.75919000000000,10370/0011/0/000,269,foodsafety@oxford.gov.uk,Oxford City,http://www.oxford.gov.uk,-1.21762500000000,OX3 7RG,2014-11-21,fhrs_5_en-GB,5,,FHRS,5
245450,262 Iffley Road,Oxford,Oxfordshire,,Acorn Guest House,Hotel/bed & breakfast/guest house,7842,0,,268821,0,,,06100/0260/2/000,269,foodsafety@oxford.gov.uk,Oxford City,http://www.oxford.gov.uk,,,2013-02-25,fhrs_5_en-GB,5,,FHRS,5
245451,49 St Nicholas Road,Oxford,Oxfordshire,,Acorn News,Retailers - other,4613,10,,269387,5,,51.72102100000000,11390/0049/0/000,269,foodsafety@oxford.gov.uk,Oxford City,http://www.oxford.gov.uk,-1.22023800000000,OX4 4PN,2010-09-22,fhrs_4_en-GB,4,,FHRS,5
245452,,,,,Adam Soft Ice  Cream,Mobile caterer,7846,5,,661421,10,,,14/00046/COM,269,foodsafety@oxford.gov.uk,Oxford City,http://www.oxford.gov.uk,,,2014-05-08,fhrs_4_en-GB,4,,FHRS,5
245453,302 Banbury Road,Oxford,Oxfordshire,,Adams Guest House,Hotel/bed & breakfast/guest house,7842,10,,268380,10,,51.77940500000000,00600/0302/0/000,269,foodsafety@oxford.gov.uk,Oxford City,http://www.oxford.gov.uk,-1.26541400000000,OX2 7ED,2014-09-18,fhrs_3_en-GB,3,,FHRS,10
245454,27 Islip Road,Oxford,,,Advance Housing And Support Ltd,Hospitals/Childcare/Caring Premises,5,,,268832,,,51.78428700000000,06160/0027/0/000,269,foodsafety@oxford.gov.uk,Oxford City,http://www.oxford.gov.uk,-1.26394300000000,OX2 7SN,2010-09-30,fhrs_exempt_en-GB,Exempt,,FHRS,
245455,Street Trader (South Side) (evening,High Street,Oxford,Oxfordshire,Ahmeds BBQ,Mobile caterer,7846,0,,268738,5,,51.75224300000000,05740/2034/2/000,269,foodsafety@oxford.gov.uk,Oxford City,http://www.oxford.gov.uk,-1.24838900000000,,2014-02-14,fhrs_5_en-GB,5,,FHRS,0
245456,192 Abingdon Road,Oxford,Oxfordshire,,Akiport Shop And Cafe,Restaurant/Cafe/Canteen,1,5,,268897,5,,51.73987000000000,07/00271/COM,269,foodsafety@oxford.gov.uk,Oxford City,http://www.oxford.gov.uk,-1.25390400000000,OX1 4RA,2013-01-22,fhrs_5_en-GB,5,,FHRS,5
245457,6 Park End Street,Oxford,Oxfordshire,,Al Salam,Restaurant/Cafe/Canteen,1,5,,269145,5,,51.75293600000000,08980/0006/0/000,269,foodsafety@oxford.gov.uk,Oxford City,http://www.oxford.gov.uk,-1.26558300000000,OX1 1HH,2014-09-11,fhrs_4_en-GB,4,,FHRS,10
245458,216 Cowley Road,Oxford,Oxfordshire,,Al-Amin Foodstore,Retailers - other,4613,10,,269032,5,,51.74650900000000,08/00040/COM,269,foodsafety@oxford.gov.uk,Oxford City,http://www.oxford.gov.uk,-1.23354500000000,OX4 1UQ,2013-02-18,fhrs_4_en-GB,4,,FHRS,0
245459,10 Little Clarendon Street,Oxford,Oxfordshire,,Al-Andalus,Restaurant/Cafe/Canteen,1,5,,268934,5,,51.75868400000000,07110/0010/0/000,269,foodsafety@oxford.gov.uk,Oxford City,http://www.oxford.gov.uk,-1.26173700000000,OX1 2HP,2013-02-26,fhrs_5_en-GB,5,,FHRS,5
245460,34 Walton Street,Oxford,Oxfordshire,,Albion Beatnik Bookstore,Restaurant/Cafe/Canteen,1,10,,458057,5,,51.75803100000000,12/00024/COM,269,foodsafety@oxford.gov.uk,Oxford City,http://www.oxford.gov.uk,-1.26379100000000,OX2 6AA,2012-10-24,fhrs_4_en-GB,4,,FHRS,5
245461,273A Banbury Road,Oxford,,,Alcock's Butchers And Fishmongers,Retailers - other,4613,10,,268378,10,,51.77997600000000,00600/0273/A/000,269,foodsafety@oxford.gov.uk,Oxford City,http://www.oxford.gov.uk,-1.26624600000000,OX2 7JF,2014-07-24,fhrs_4_en-GB,4,,FHRS,0
245462,224 Cowley Road,Oxford,Oxford,,Alders Butchers,Retailers - other,4613,10,,268534,10,,51.74604400000000,03030/0224/0/000,269,foodsafety@oxford.gov.uk,Oxford City,http://www.oxford.gov.uk,-1.23249600000000,OX4 1UH,2014-08-01,fhrs_4_en-GB,4,,FHRS,0
245463,Botley Road,Oxford,Oxfordshire,,Aldi,Retailers - supermarkets/hypermarkets,7840,0,,269186,0,,51.75163900000000,09/00071/COM,269,foodsafety@oxford.gov.uk,Oxford City,http://www.oxford.gov.uk,-1.28726100000000,OX2 0HA,2014-11-17,fhrs_5_en-GB,5,,FHRS,0
245464,9 Albert Street,Oxford,Oxfordshire,,Ali's Jericho Store,Retailers - other,4613,10,,268341,0,,51.75721500000000,00120/0009/0/000,269,foodsafety@oxford.gov.uk,Oxford City,http://www.oxford.gov.uk,-1.26696200000000,OX2 6AY,2014-05-09,fhrs_4_en-GB,4,,FHRS,5
245465,Street Trading Site 19 Outside Radc,Woodstock Road,Oxford,Oxfordshire,Ali's Kebabs,Mobile caterer,7846,5,,269509,5,,,13230/2029/2/000,269,foodsafety@oxford.gov.uk,Oxford City,http://www.oxford.gov.uk,,,2014-03-07,fhrs_5_en-GB,5,,FHRS,5
245466,124 High Street,Oxford,,,All Bar One,Pub/bar/nightclub,7843,0,,268726,0,,51.73147300000000,05740/0124/0/000,269,foodsafety@oxford.gov.uk,Oxford City,http://www.oxford.gov.uk,-1.27988000000000,OX1 4DE,2013-12-16,fhrs_5_en-GB,5,,FHRS,5
245467,,,,,All Cakes And Sizes Ltd,Other catering premises,7841,5,,631362,0,,,14/00006/COM,269,foodsafety@oxford.gov.uk,Oxford City,http://www.oxford.gov.uk,,,2014-01-21,fhrs_5_en-GB,5,,FHRS,0
245468,63 Windmill Road,Oxford,Oxfordshire,,All Seasons Guest House,Hotel/bed & breakfast/guest house,7842,10,,269481,0,,51.75795500000000,13070/0063/0/000,269,foodsafety@oxford.gov.uk,Oxford City,http://www.oxford.gov.uk,-1.20915600000000,OX3 7BP,2013-01-04,fhrs_4_en-GB,4,,FHRS,0
245469,High Street,Oxford,,,All Souls College,School/college/university,7845,5,,268731,5,,51.75278500000000,05740/2000/2/000,269,foodsafety@oxford.gov.uk,Oxford City,http://www.oxford.gov.uk,-1.25302500000000,OX1 4AL,2014-05-20,fhrs_5_en-GB,5,,FHRS,5
245470,Frys Court,2 Nightingale Avenue,Oxford,Oxfordshire,Allied Healthcare - Frys Court,Hospitals/Childcare/Caring Premises,5,0,,502629,5,,,13/00003/COM,269,foodsafety@oxford.gov.uk,Oxford City,http://www.oxford.gov.uk,,,2014-01-10,fhrs_5_en-GB,5,,FHRS,0
245471,Potters Court,Robin Place,Oxford,Oxfordshire,Allied Healthcare - Potters Court,Hospitals/Childcare/Caring Premises,5,10,,502630,0,,,13/00004/COM,269,foodsafety@oxford.gov.uk,Oxford City,http://www.oxford.gov.uk,,,2014-01-10,fhrs_4_en-GB,4,,FHRS,0
245472,89 Covered Market,Market Street,Oxford,Oxfordshire,Alpha Bar,Takeaway/sandwich shop,7844,10,,269526,5,,51.75262700000000,13432/0089/3/000,269,foodsafety@oxford.gov.uk,Oxford City,http://www.oxford.gov.uk,-1.25650500000000,OX1 3DY,2013-11-25,fhrs_4_en-GB,4,,FHRS,5
245473,24-25 Walton Crescent,Oxford,Oxfordshire,,Al-Shami Lebanese Restaurant And Richmond Hotel,Restaurant/Cafe/Canteen,1,10,,269430,15,,51.75744700000000,12530/2425/0/000,269,foodsafety@oxford.gov.uk,Oxford City,http://www.oxford.gov.uk,-1.26520500000000,OX1 2JG,2014-03-14,fhrs_2_en-GB,2,,FHRS,10
245474,24 Holywell Street,Oxford,,,Alternative Tuck Shop,Restaurant/Cafe/Canteen,1,5,,268752,5,,51.75513800000000,05920/0024/0/000,269,foodsafety@oxford.gov.uk,Oxford City,http://www.oxford.gov.uk,-1.25262400000000,OX1 3SB,2013-10-03,fhrs_5_en-GB,5,,FHRS,0
245475,John Radcliffe Hospital,Headley Way,Oxford,Oxfordshire,Amigo Shop Main Hospital Level 2 (Two Units),Retailers - other,4613,5,,268699,0,,51.76388000000000,05500/2019/2/000,269,foodsafety@oxford.gov.uk,Oxford City,http://www.oxford.gov.uk,-1.21981900000000,OX3 9DU,2014-09-05,fhrs_5_en-GB,5,,FHRS,5
245476,53 Collinwood Road,Headington,Oxford,,Ampleforth Arms,Pub/bar/nightclub,7843,0,,268479,5,,51.75882700000000,02720/0053/2/000,269,foodsafety@oxford.gov.uk,Oxford City,http://www.oxford.gov.uk,-1.18926200000000,OX3 8HH,2013-12-19,fhrs_4_en-GB,4,,FHRS,10
245477,Street Trader-day Pavement Westgate,Bonn Square,Oxford,,AMT,Mobile caterer,7846,5,,268430,5,,51.75144800000000,01340/2002/2/000,269,foodsafety@oxford.gov.uk,Oxford City,http://www.oxford.gov.uk,-1.26058000000000,OX1 1DJ,2014-12-22,fhrs_5_en-GB,5,,FHRS,5
245478,"AMT, Oxford Railway Station Forecou",Park End Street,Oxford,,AMT Coffee Ltd,Takeaway/sandwich shop,7844,5,,269161,5,,51.75350300000000,08980/2020/3/001,269,foodsafety@oxford.gov.uk,Oxford City,http://www.oxford.gov.uk,-1.27012300000000,OX1 1HS,2014-11-25,fhrs_5_en-GB,5,,FHRS,5
245479,Street Trader - Church Of St Michae,Cornmarket Street,Oxford,,AMT Espresso,Mobile caterer,7846,5,,268490,5,,51.75350100000000,02870/2011/2/000,269,foodsafety@oxford.gov.uk,Oxford City,http://www.oxford.gov.uk,-1.25833000000000,OX1 3EY,2014-12-22,fhrs_5_en-GB,5,,FHRS,5
245480,2 Hayfield Road,Oxford,,,Anchor Inn,Pub/bar/nightclub,7843,5,,268691,5,,51.76827900000000,05430/0002/2/000,269,foodsafety@oxford.gov.uk,Oxford City,http://www.oxford.gov.uk,-1.26917400000000,OX2 6TT,2014-01-13,fhrs_5_en-GB,5,,FHRS,5
245481,30 St Clement's Street,Oxford,Oxfordshire,,Angel And Greyhound,Pub/bar/nightclub,7843,0,,269345,5,,51.75033000000000,11040/0030/0/000,269,foodsafety@oxford.gov.uk,Oxford City,http://www.oxford.gov.uk,-1.24311400000000,OX4 1AB,2013-11-21,fhrs_5_en-GB,5,,FHRS,5
245482,Unit 3,Dartington House,55 Little Clarendon Street,Oxford,Angels,Pub/bar/nightclub,7843,5,,268937,5,,51.75856500000000,07110/0055/3/005,269,foodsafety@oxford.gov.uk,Oxford City,http://www.oxford.gov.uk,-1.26149300000000,OX1 2HS,2013-03-18,fhrs_5_en-GB,5,,FHRS,5
245483,Unit D,Threeways House,George Street,Oxford,Angrid Thai Canteen,Restaurant/Cafe/Canteen,1,5,,269224,5,,51.73147300000000,10/00001/COM,269,foodsafety@oxford.gov.uk,Oxford City,http://www.oxford.gov.uk,-1.27988000000000,OX1 9BL,2014-01-22,fhrs_5_en-GB,5,,FHRS,5
245484,,,,,Annabels Cakes,Other catering premises,7841,5,,269328,5,,,11/00030/COM,269,foodsafety@oxford.gov.uk,Oxford City,http://www.oxford.gov.uk,,,2011-06-17,fhrs_5_en-GB,5,,FHRS,5
245485,77 Home Close,Oxford,Oxfordshire,,Ann's Munchies,Other catering premises,7841,5,,362213,5,,51.78617300000000,12/00021/COM,269,foodsafety@oxford.gov.uk,Oxford City,http://www.oxford.gov.uk,-1.29296500000000,OX2 8PT,2014-01-14,fhrs_5_en-GB,5,,FHRS,5
245486,Department Of Engineering Science,17 Parks Road,Oxford,Oxfordshire,Aramark - Holder Common Room,Restaurant/Cafe/Canteen,1,0,,268777,0,,51.76028200000000,06/00121/COM,269,foodsafety@oxford.gov.uk,Oxford City,http://www.oxford.gov.uk,-1.25990000000000,OX1 3PJ,2013-03-21,fhrs_5_en-GB,5,,FHRS,0
245487,Nuffield Orthopaedic Centre,Windmill Road,Headington,Oxford,Aramark UK Ltd,Hospitals/Childcare/Caring Premises,5,0,,269482,0,,51.75496200000000,13070/2000/2/000,269,foodsafety@oxford.gov.uk,Oxford City,http://www.oxford.gov.uk,-1.20786100000000,OX3 7DD,2013-12-20,fhrs_5_en-GB,5,,FHRS,0
245488,34 Sunderland Avenue,Oxford,Oxfordshire,,Arden Lodge,Hotel/bed & breakfast/guest house,7842,5,,269392,5,,51.78858000000000,11590/0034/0/000,269,foodsafety@oxford.gov.uk,Oxford City,http://www.oxford.gov.uk,-1.27328300000000,OX2 8DX,2010-09-09,fhrs_5_en-GB,5,,FHRS,5
245489,162 Cowley Road,Oxford,Oxfordshire,,Art Bar,Pub/bar/nightclub,7843,0,,268524,0,,51.74716100000000,03030/0162/2/000,269,foodsafety@oxford.gov.uk,Oxford City,http://www.oxford.gov.uk,-1.23554800000000,OX4 1UE,2013-10-15,fhrs_5_en-GB,5,,FHRS,5
245490,107-108 Walton Street,Oxford,Oxfordshire,,Arzoo Indian Restaurant,Hospitals/Childcare/Caring Premises,5,20,,717016,15,,51.76060300000000,14/00130/COM,269,foodsafety@oxford.gov.uk,Oxford City,http://www.oxford.gov.uk,-1.26663200000000,OX2 6AJ,2014-11-12,fhrs_1_en-GB,1,,FHRS,15
245491,34-36 Beaumont Street,Oxford,,,Ashmolean Dining Room And Cafe,Restaurant/Cafe/Canteen,1,5,,268407,0,,51.75515600000000,00940/3436/3/000,269,foodsafety@oxford.gov.uk,Oxford City,http://www.oxford.gov.uk,-1.26120100000000,OX1 2PG,2013-04-11,fhrs_4_en-GB,4,,FHRS,10
245492,,,,,Asian Continental Delicacies,Other catering premises,7841,,,617386,,,,13/00083/COM,269,foodsafety@oxford.gov.uk,Oxford City,http://www.oxford.gov.uk,,,2013-11-28,fhrs_exempt_en-GB,Exempt,,FHRS,
245493,148A London Road,Headington,Oxford,,Asian Mama The Chinese Restaurant,Restaurant/Cafe/Canteen,1,0,,268961,5,,51.76043800000000,07220/0148/A/000,269,foodsafety@oxford.gov.uk,Oxford City,http://www.oxford.gov.uk,-1.20928700000000,OX3 9ED,2014-01-03,fhrs_4_en-GB,4,,FHRS,10
245494,5 George Street,Oxford,,,Ask,Restaurant/Cafe/Canteen,1,5,,268615,0,,51.75363400000000,04690/0005/0/000,269,foodsafety@oxford.gov.uk,Oxford City,http://www.oxford.gov.uk,-1.25941500000000,OX1 2AT,2014-08-05,fhrs_5_en-GB,5,,FHRS,0
245495,129 High Street,Oxford,Oxfordshire,,At Thai,Restaurant/Cafe/Canteen,1,10,,269178,10,,51.75208600000000,09/00054/COM,269,foodsafety@oxford.gov.uk,Oxford City,http://www.oxford.gov.uk,-1.25623800000000,OX1 4DF,2013-12-16,fhrs_3_en-GB,3,,FHRS,5
245496,,,,,Atacolypse Now,Other catering premises,7841,5,,718879,5,,,14/00122/COM,269,foodsafety@oxford.gov.uk,Oxford City,http://www.oxford.gov.uk,,,2014-11-06,fhrs_5_en-GB,5,,FHRS,5
245497,255 Cowley Road,Oxford,Oxfordshire,,Athena Guest House,Hotel/bed & breakfast/guest house,7842,20,,268543,10,,51.74496200000000,03030/0255/1/00F,269,foodsafety@oxford.gov.uk,Oxford City,http://www.oxford.gov.uk,-1.22925500000000,OX4 1XQ,2014-02-04,fhrs_1_en-GB,1,,FHRS,10
245498,256 Cowley Road,Oxford,Oxfordshire,,Atif Superstore,Retailers - other,4613,5,,701759,5,,51.74604400000000,14/00084/COM,269,foodsafety@oxford.gov.uk,Oxford City,http://www.oxford.gov.uk,-1.23249600000000,OX4 1UH,2014-07-16,fhrs_4_en-GB,4,,FHRS,10
245499,96 Cowley Road,Oxford,Oxfordshire,,Atomic Burger,Restaurant/Cafe/Canteen,1,10,,268876,10,,51.74832500000000,07/00035/COM,269,foodsafety@oxford.gov.uk,Oxford City,http://www.oxford.gov.uk,-1.23907700000000,OX4 1JE,2013-06-27,fhrs_3_en-GB,3,,FHRS,10
245500,247 Cowley Road,Oxford,Oxfordshire,,Atomic Pizza,Restaurant/Cafe/Canteen,1,10,,269064,15,,51.74571800000000,08/00143/COM,269,foodsafety@oxford.gov.uk,Oxford City,http://www.oxford.gov.uk,-1.23077800000000,OX4 1XG,2014-01-14,fhrs_2_en-GB,2,,FHRS,5
245501,John Radcliffe Hospital,Headley Way,Oxford,Oxfordshire,Atrium Cafe (John Radcliffe Childrens Hospital),Restaurant/Cafe/Canteen,1,0,,268889,0,,51.76388000000000,07/00073/COM,269,foodsafety@oxford.gov.uk,Oxford City,http://www.oxford.gov.uk,-1.21981900000000,OX3 9DU,2011-06-16,fhrs_5_en-GB,5,,FHRS,0
245502,Unit 8A,Ozone Leisure Park,Grenoble Road,Oxford,Aziz Express,Restaurant/Cafe/Canteen,1,5,,269254,10,,51.71592300000000,10/00057/COM,269,foodsafety@oxford.gov.uk,Oxford City,http://www.oxford.gov.uk,-1.20809400000000,OX4 4XP,2013-03-13,fhrs_4_en-GB,4,,FHRS,0
245503,228 - 230 Cowley Road,Oxford,Oxfordshire,,Aziz Oxford,Restaurant/Cafe/Canteen,1,5,,268535,5,,51.74604400000000,03030/0228/0/000,269,foodsafety@oxford.gov.uk,Oxford City,http://www.oxford.gov.uk,-1.23249600000000,OX4 1UH,2013-07-29,fhrs_4_en-GB,4,,FHRS,10
245504,10 The Square,Oxford,Oxfordshire,,B&M Bargains,Retailers - supermarkets/hypermarkets,7840,0,,269410,5,,51.73172400000000,12030/0010/3/000,269,foodsafety@oxford.gov.uk,Oxford City,http://www.oxford.gov.uk,-1.21656400000000,OX4 3UZ,2014-11-25,fhrs_5_en-GB,5,,FHRS,5
245505,315 Iffley Road,Oxford,Oxfordshire,,Balkan Lodge Hotel,Hotel/bed & breakfast/guest house,7842,10,,268828,5,,51.73871200000000,06100/0315/2/000,269,foodsafety@oxford.gov.uk,Oxford City,http://www.oxford.gov.uk,-1.23460400000000,OX4 4AG,2013-06-27,fhrs_3_en-GB,3,,FHRS,10
245506,Broad Street,Oxford,Oxfordshire,,Balliol College,School/college/university,7845,0,,268457,0,,51.75530300000000,01600/2005/2/000,269,foodsafety@oxford.gov.uk,Oxford City,http://www.oxford.gov.uk,-1.25744600000000,OX1 3BJ,2013-03-07,fhrs_4_en-GB,4,,FHRS,10
245507,Balliol College,Broad Street,Oxford,Oxfordshire,Balliol College - JCR Pantry,Restaurant/Cafe/Canteen,1,5,,268460,0,,51.75530300000000,01600/2014/2/000,269,foodsafety@oxford.gov.uk,Oxford City,http://www.oxford.gov.uk,-1.25744600000000,OX1 3BJ,2014-12-09,fhrs_5_en-GB,5,,FHRS,5
245508,Jowett Walk,Oxford,Oxfordshire,,Balliol College Sports Ground,Pub/bar/nightclub,7843,5,,268843,0,,,06380/0000/2/000,269,foodsafety@oxford.gov.uk,Oxford City,http://www.oxford.gov.uk,,,2014-12-09,fhrs_5_en-GB,5,,FHRS,5
245509,Balliol College,Rawlinson Road,Oxford,Oxfordshire,Balliol Day Nursery,Hospitals/Childcare/Caring Premises,5,10,,269218,5,,51.76887000000000,09800/2001/2/000,269,foodsafety@oxford.gov.uk,Oxford City,http://www.oxford.gov.uk,-1.26452700000000,OX2 6UE,2013-07-26,fhrs_4_en-GB,4,,FHRS,0
245510,88 Cowley Road,Oxford,Oxfordshire,,Baltic Food,Takeaway/sandwich shop,7844,10,,268511,0,,51.74873200000000,03030/0088/0/000,269,foodsafety@oxford.gov.uk,Oxford City,http://www.oxford.gov.uk,-1.24075100000000,OX4 1JB,2014-11-19,fhrs_4_en-GB,4,,FHRS,5
245511,17 Park End Street,Oxford,Oxfordshire,,Bamboo,Restaurant/Cafe/Canteen,1,5,,548822,10,,51.75252000000000,13/00022/COM,269,foodsafety@oxford.gov.uk,Oxford City,http://www.oxford.gov.uk,-1.26811000000000,OX1 1HU,2014-12-02,fhrs_4_en-GB,4,,FHRS,5
245512,42A Hythe Bridge Street,Oxford,Oxfordshire,,Bangkok House,Restaurant/Cafe/Canteen,1,10,,268811,10,,51.75343400000000,06070/0042/A/000,269,foodsafety@oxford.gov.uk,Oxford City,http://www.oxford.gov.uk,-1.26621200000000,OX1 2EP,2013-07-16,fhrs_2_en-GB,2,,FHRS,15
245513,234 Cowley Road,Oxford,Oxfordshire,,Bar Aroma,Pub/bar/nightclub,7843,10,,268536,10,,,03030/0234/0/000,269,foodsafety@oxford.gov.uk,Oxford City,http://www.oxford.gov.uk,,,2013-10-08,fhrs_3_en-GB,3,,FHRS,5
245514,146 London Road,Headington,Oxford,,Bar Meze,Restaurant/Cafe/Canteen,1,10,,268959,10,,51.76043800000000,07220/0146/0/000,269,foodsafety@oxford.gov.uk,Oxford City,http://www.oxford.gov.uk,-1.20928700000000,OX3 9ED,2014-01-08,fhrs_3_en-GB,3,,FHRS,5
245515,294 Banbury Road,Oxford,Oxfordshire,,Barefoot Books Ltd,Restaurant/Cafe/Canteen,1,0,,269341,10,,51.77940500000000,11/00068/COM,269,foodsafety@oxford.gov.uk,Oxford City,http://www.oxford.gov.uk,-1.26541400000000,OX2 7ED,2014-03-24,fhrs_4_en-GB,4,,FHRS,0
245516,,,,,Barefoot Kitchen,Other catering premises,7841,0,,631366,5,,,14/00014/COM,269,foodsafety@oxford.gov.uk,Oxford City,http://www.oxford.gov.uk,,,2014-01-24,fhrs_5_en-GB,5,,FHRS,0
245517,45 - 47 Saxon Way,Oxford,Oxfordshire,,Barnardo's - Viking House,Hospitals/Childcare/Caring Premises,5,5,,268797,10,,51.76769100000000,06/00228/COM,269,foodsafety@oxford.gov.uk,Oxford City,http://www.oxford.gov.uk,-1.22099900000000,OX3 9DD,2014-01-03,fhrs_4_en-GB,4,,FHRS,5
245518,2 Underhill Circus,Oxford,Oxfordshire,,Barton Chippy,Takeaway/sandwich shop,7844,10,,269422,15,,51.76748600000000,12340/0002/0/000,269,foodsafety@oxford.gov.uk,Oxford City,http://www.oxford.gov.uk,-1.19588900000000,OX3 9LU,2014-10-22,fhrs_1_en-GB,1,,FHRS,20
245519,4 - 5 Bath Place,Oxford,Oxfordshire,,Bath Place Hotel,Hotel/bed & breakfast/guest house,7842,5,,268401,5,,51.75484300000000,00800/0045/0/000,269,foodsafety@oxford.gov.uk,Oxford City,http://www.oxford.gov.uk,-1.25297700000000,OX1 3SU,2014-09-10,fhrs_5_en-GB,5,,FHRS,5
245520,Waynflete Road,Oxford,Oxfordshire,,Bayards Hill Primary School,School/college/university,7845,0,,268402,0,,51.76367800000000,00840/2000/0/000,269,foodsafety@oxford.gov.uk,Oxford City,http://www.oxford.gov.uk,-1.19382700000000,OX3 9NU,2013-05-16,fhrs_4_en-GB,4,,FHRS,10
245521,6 Alfred Street,Oxford,Oxfordshire,,Bear Inn,Pub/bar/nightclub,7843,0,,268342,0,,51.75183200000000,00190/2002/2/000,269,foodsafety@oxford.gov.uk,Oxford City,http://www.oxford.gov.uk,-1.25588000000000,OX1 4EH,2014-01-27,fhrs_5_en-GB,5,,FHRS,0
245522,Oxford Railway Station,Park End Street,Oxford,Oxfordshire,Bebes,Mobile caterer,7846,10,,269239,0,,51.75350300000000,10/00025/COM,269,foodsafety@oxford.gov.uk,Oxford City,http://www.oxford.gov.uk,-1.27012300000000,OX1 1HS,2013-01-29,fhrs_4_en-GB,4,,FHRS,0
245523,5 Becket Street,Oxford,,,Becket Guest House,Hotel/bed & breakfast/guest house,7842,10,,268408,5,,51.75216400000000,00950/0005/0/000,269,foodsafety@oxford.gov.uk,Oxford City,http://www.oxford.gov.uk,-1.26875300000000,OX1 1PP,2014-03-26,fhrs_4_en-GB,4,,FHRS,5
245524,166 Cowley Road,Oxford,Oxfordshire,,Beet Root,Other catering premises,7841,5,,705400,5,,51.74707700000000,14/00086/COM,269,foodsafety@oxford.gov.uk,Oxford City,http://www.oxford.gov.uk,-1.23512900000000,OX4 1UE,2014-09-25,fhrs_5_en-GB,5,,FHRS,5
245525,222 London Road,Headington,Oxford,Oxfordshire,Bell House Guest House,Hotel/bed & breakfast/guest house,7842,5,,268678,5,,51.76189600000000,05/00045/COM,269,foodsafety@oxford.gov.uk,Oxford City,http://www.oxford.gov.uk,-1.20285700000000,OX3 9EG,2012-09-18,fhrs_5_en-GB,5,,FHRS,0
245526,14 - 16 George Street,Oxford,Oxfordshire,,Bella Italia,Restaurant/Cafe/Canteen,1,5,,268618,5,,51.75400400000000,04690/0014/2/000,269,foodsafety@oxford.gov.uk,Oxford City,http://www.oxford.gov.uk,-1.25955300000000,OX1 2AF,2014-12-09,fhrs_5_en-GB,5,,FHRS,5
245527,108 - 109 Covered Market,Market Street,Oxford,Oxfordshire,Ben's Cookie's,Retailers - other,4613,5,,269531,5,,51.75262700000000,13432/1089/3/000,269,foodsafety@oxford.gov.uk,Oxford City,http://www.oxford.gov.uk,-1.25650500000000,OX1 3DZ,2014-10-07,fhrs_5_en-GB,5,,FHRS,5
245528,Unit A,74-77 Magdalen Road,Oxford,Oxfordshire,Best Buys,Retailers - other,4613,0,,269338,0,,51.74234000000000,11/00061/COM,269,foodsafety@oxford.gov.uk,Oxford City,http://www.oxford.gov.uk,-1.23538300000000,OX4 1RB,2014-03-27,fhrs_5_en-GB,5,,FHRS,0
245529,2 Cinnaminta Road,Headington,Oxford,,Best One,Retailers - other,4613,5,,268477,0,,51.74684100000000,02540/0002/0/000,269,foodsafety@oxford.gov.uk,Oxford City,http://www.oxford.gov.uk,-1.20367200000000,OX3 7JB,2014-03-24,fhrs_5_en-GB,5,,FHRS,5
245530,75 Balfour Road,Oxford,Oxfordshire,,Best One,Retailers - other,4613,10,,268350,10,,51.72462600000000,00580/0075/0/000,269,foodsafety@oxford.gov.uk,Oxford City,http://www.oxford.gov.uk,-1.19866200000000,OX4 6AG,2012-09-10,fhrs_3_en-GB,3,,FHRS,5
245531,BHS,20 Queen Street,Oxford,Oxfordshire,BHS Restaurant,Restaurant/Cafe/Canteen,1,0,,269216,0,,51.75135100000000,09680/0020/3/000,269,foodsafety@oxford.gov.uk,Oxford City,http://www.oxford.gov.uk,-1.25945200000000,OX1 1EP,2013-05-20,fhrs_5_en-GB,5,,FHRS,5
245532,95 Cowley Road,Oxford,Oxfordshire,,Big Society,Restaurant/Cafe/Canteen,1,5,,528917,5,,51.74904600000000,13/00014/COM,269,foodsafety@oxford.gov.uk,Oxford City,http://www.oxford.gov.uk,-1.24061500000000,OX4 1HR,2013-02-25,fhrs_5_en-GB,5,,FHRS,5
245533,Northgate Hall,18 St Michael's Street,Oxford,Oxfordshire,Bills,Restaurant/Cafe/Canteen,1,0,,542347,0,,51.75356100000000,12/00045/COM,269,foodsafety@oxford.gov.uk,Oxford City,http://www.oxford.gov.uk,-1.25922700000000,OX1 2DU,2013-04-25,fhrs_5_en-GB,5,,FHRS,5
245534,109 Stone Meadow,Oxford,Oxfordshire,,Birthday Bakers,Other catering premises,7841,5,,717018,5,,51.77151400000000,14/00135/COM,269,foodsafety@oxford.gov.uk,Oxford City,http://www.oxford.gov.uk,-1.27329600000000,OX2 6TD,2014-10-14,fhrs_5_en-GB,5,,FHRS,0
245535,The Danby Building,Edmund Halley Road,Oxford,Oxfordshire,Bite Catering Ltd,Restaurant/Cafe/Canteen,1,5,,268879,5,,51.71395000000000,07/00042/COM,269,foodsafety@oxford.gov.uk,Oxford City,http://www.oxford.gov.uk,-1.21960700000000,OX4 4DQ,2013-12-18,fhrs_5_en-GB,5,,FHRS,5
245536,91 Old High Street,Headington,Oxford,,Black Boy PH,Pub/bar/nightclub,7843,5,,269102,0,,51.76325400000000,08610/0091/0/000,269,foodsafety@oxford.gov.uk,Oxford City,http://www.oxford.gov.uk,-1.21083100000000,OX3 9HT,2013-02-20,fhrs_5_en-GB,5,,FHRS,5
245537,Crown Street,Oxford,,,Black Swan,Pub/bar/nightclub,7843,5,,268558,5,,51.74706000000000,03230/2001/2/000,269,foodsafety@oxford.gov.uk,Oxford City,http://www.oxford.gov.uk,-1.23660700000000,OX4 1QG,2013-02-18,fhrs_4_en-GB,4,,FHRS,10
245538,Blackbird Leys Road,Oxford,,,Blackbird Leys PH,Pub/bar/nightclub,7843,10,,268428,10,,51.72417900000000,01170/2000/2/000,269,foodsafety@oxford.gov.uk,Oxford City,http://www.oxford.gov.uk,-1.21053400000000,OX4 5HW,2013-02-20,fhrs_4_en-GB,4,,FHRS,0
245539,,,,,Blanka Bakes,Other catering premises,7841,5,,729285,0,,,15/00005/COM,269,foodsafety@oxford.gov.uk,Oxford City,http://www.oxford.gov.uk,,,2015-01-12,fhrs_5_en-GB,5,,FHRS,0
245540,,,,,Blissful Foods,Other catering premises,7841,5,,269036,5,,,08/00049/COM,269,foodsafety@oxford.gov.uk,Oxford City,http://www.oxford.gov.uk,,,2010-12-01,fhrs_5_en-GB,5,,FHRS,5
245541,5 Blue Boar Street,Oxford,Oxfordshire,,Blue Boar House,School/college/university,7845,0,,701762,0,,51.75159000000000,14/00088/COM,269,foodsafety@oxford.gov.uk,Oxford City,http://www.oxford.gov.uk,-1.25605800000000,OX1 4EE,2014-08-01,fhrs_5_en-GB,5,,FHRS,0
245542,New Bodleian Library,Broad Street,Oxford,Oxfordshire,Bodleian Library Headley Tearoom,Other catering premises,7841,0,,717021,5,,51.75397400000000,14/00141/COM,269,foodsafety@oxford.gov.uk,Oxford City,http://www.oxford.gov.uk,-1.25491800000000,OX1 3BG,2014-11-19,fhrs_5_en-GB,5,,FHRS,5
245543,242 Cowley Road,Oxford,Oxfordshire,,Bodrum Kebab,Takeaway/sandwich shop,7844,10,,268539,5,,51.74604400000000,03030/0242/0/000,269,foodsafety@oxford.gov.uk,Oxford City,http://www.oxford.gov.uk,-1.23249600000000,OX4 1UH,2014-11-26,fhrs_4_en-GB,4,,FHRS,5
245544,Pegasus Primary School,Field Avenue,Oxford,Oxfordshire,Boiler Room Cafe,Restaurant/Cafe/Canteen,1,5,,268798,5,,51.72122400000000,06/00230/COM,269,foodsafety@oxford.gov.uk,Oxford City,http://www.oxford.gov.uk,-1.19291700000000,OX4 6RQ,2012-10-02,fhrs_5_en-GB,5,,FHRS,5
245545,16A Covered Market,Market Street,Oxford,Oxfordshire,Bolitas,Takeaway/sandwich shop,7844,5,,269515,5,,,13432/0016/A/000,269,foodsafety@oxford.gov.uk,Oxford City,http://www.oxford.gov.uk,,,2011-05-18,fhrs_4_en-GB,4,,FHRS,10
245546,20 And 49,Covered Market,Market Street,Oxford,Bonner's,Retailers - other,4613,,,269514,,,51.75277300000000,13432/0016/3/000,269,foodsafety@oxford.gov.uk,Oxford City,http://www.oxford.gov.uk,-1.25692200000000,OX1 3DU,2012-04-02,fhrs_5_en-GB,5,,FHRS,
245547,7B The Clarendon Centre,Cornmarket Street,Oxford,Oxfordshire,Boost Juice Bars UK Ltd,Retailers - other,4613,5,,268883,5,,51.75229000000000,07/00058/COM,269,foodsafety@oxford.gov.uk,Oxford City,http://www.oxford.gov.uk,-1.25866900000000,OX1 3JD,2010-09-22,fhrs_5_en-GB,5,,FHRS,5
245548,96 London Road,Headington,Oxford,,Boots The Chemist Ltd,Retailers - other,4613,0,,268952,0,,51.75948100000000,07220/0096/0/000,269,foodsafety@oxford.gov.uk,Oxford City,http://www.oxford.gov.uk,-1.21269400000000,OX3 9AJ,2013-02-27,fhrs_5_en-GB,5,,FHRS,0
245549,Street Trading Site 4 Outside No 26,Banbury Road,Oxford,Oxfordshire,Boss Kebabs,Mobile caterer,7846,5,,268391,10,,,00600/2263/3/000,269,foodsafety@oxford.gov.uk,Oxford City,http://www.oxford.gov.uk,,,2013-02-13,fhrs_4_en-GB,4,,FHRS,5
245550,The Square,Oxford,Oxfordshire,,Boswells Cafe,Restaurant/Cafe/Canteen,1,0,,269414,0,,51.73172400000000,12030/2002/0/000,269,foodsafety@oxford.gov.uk,Oxford City,http://www.oxford.gov.uk,-1.21656400000000,OX4 3UZ,2012-09-25,fhrs_5_en-GB,5,,FHRS,5
245551,Street Trading Site 8 Junction With,Cripley Road,Oxford,Oxfordshire,Botley Kebabs,Mobile caterer,7846,10,,268554,10,,,03150/2001/2/000,269,foodsafety@oxford.gov.uk,Oxford City,http://www.oxford.gov.uk,,,2014-03-18,fhrs_3_en-GB,3,,FHRS,5
245552,61 Botley Road,Oxford,Oxfordshire,,Botley Post Office,Retailers - other,4613,10,,268438,10,,51.75217200000000,01380/0061/2/000,269,foodsafety@oxford.gov.uk,Oxford City,http://www.oxford.gov.uk,-1.27744500000000,OX2 0BP,2013-02-25,fhrs_3_en-GB,3,,FHRS,5
245553,Bowlplex,Ozone Leisure Park,Grenoble Road,Oxford,Bowlplex Cafe,Restaurant/Cafe/Canteen,1,0,,269539,5,,51.71592300000000,13440/2003/2/004,269,foodsafety@oxford.gov.uk,Oxford City,http://www.oxford.gov.uk,-1.20809400000000,OX4 4XP,2014-02-07,fhrs_5_en-GB,5,,FHRS,0
245554,4C Bradmore Road,Oxford,,,Bradmore Road Day Nursery,Hospitals/Childcare/Caring Premises,5,0,,268445,5,,51.76353200000000,01470/0004/C/000,269,foodsafety@oxford.gov.uk,Oxford City,http://www.oxford.gov.uk,-1.25910800000000,OX2 6QW,2014-01-27,fhrs_5_en-GB,5,,FHRS,0
245555,111 Walton Street,Oxford,Oxfordshire,,Branca,Restaurant/Cafe/Canteen,1,10,,269446,15,,51.76060300000000,12560/0111/0/000,269,foodsafety@oxford.gov.uk,Oxford City,http://www.oxford.gov.uk,-1.26663200000000,OX2 6AJ,2014-07-25,fhrs_2_en-GB,2,,FHRS,15
245556,110 Walton Street,Oxford,Oxfordshire,,Branca Delicatessen,Takeaway/sandwich shop,7844,0,,269445,5,,51.76060300000000,12560/0110/0/000,269,foodsafety@oxford.gov.uk,Oxford City,http://www.oxford.gov.uk,-1.26663200000000,OX2 6AJ,2014-08-08,fhrs_5_en-GB,5,,FHRS,5
245557,94 Rose Hill,Oxford,Oxfordshire,,Branos,Takeaway/sandwich shop,7844,10,,269274,10,,51.72751600000000,10160/0094/0/000,269,foodsafety@oxford.gov.uk,Oxford City,http://www.oxford.gov.uk,-1.22474500000000,OX4 4HX,2013-03-15,fhrs_3_en-GB,3,,FHRS,10
245558,Kiosk 4,108 Gloucester Green,Oxford,Oxfordshire,Brano's Express,Restaurant/Cafe/Canteen,1,5,,268651,5,,,04840/0108/0/004,269,foodsafety@oxford.gov.uk,Oxford City,http://www.oxford.gov.uk,,,2015-01-12,fhrs_4_en-GB,4,,FHRS,10
245559,High Street,Oxford,Oxfordshire,,Brasenose College,School/college/university,7845,5,,268736,5,,51.75324300000000,05740/2029/2/000,269,foodsafety@oxford.gov.uk,Oxford City,http://www.oxford.gov.uk,-1.25440800000000,OX1 4AJ,2013-05-30,fhrs_5_en-GB,5,,FHRS,5
245560,Brasenose College Pavilion,Abingdon Road,Oxford,Oxfordshire,Brasenose College Pavillion,Pub/bar/nightclub,7843,5,,268340,5,,51.74320300000000,00050/2027/0/000,269,foodsafety@oxford.gov.uk,Oxford City,http://www.oxford.gov.uk,-1.25495000000000,OX1 4PW,2011-03-08,fhrs_4_en-GB,4,,FHRS,10
245561,71-72 Walton Street,Oxford,Oxfordshire,,Brasserie Blanc,Restaurant/Cafe/Canteen,1,5,,269437,0,,51.76086000000000,12560/0071/2/000,269,foodsafety@oxford.gov.uk,Oxford City,http://www.oxford.gov.uk,-1.26748300000000,OX2 6AG,2012-02-05,fhrs_4_en-GB,4,,FHRS,10
245562,Oxford Brookes University Sports Ha,Cheney Lane,Oxford,Oxfordshire,Breton Crepe Company,School/college/university,7845,10,,268466,5,,51.75421300000000,02330/2005/2/000,269,foodsafety@oxford.gov.uk,Oxford City,http://www.oxford.gov.uk,-1.22914100000000,OX3 0GB,2012-10-16,fhrs_4_en-GB,4,,FHRS,0
245563,Sir William Dunn School Of Patholog,South Parks Road,Oxford,Oxfordshire,Bridge Cafe,School/college/university,7845,0,,269306,0,,51.75975300000000,10860/2013/2/000,269,foodsafety@oxford.gov.uk,Oxford City,http://www.oxford.gov.uk,-1.25164900000000,OX1 3RE,2011-03-01,fhrs_5_en-GB,5,,FHRS,5
245564,Meadow Lane,Oxford,,,Bridge Stores,Retailers - other,4613,10,,269012,10,,51.73554900000000,07820/2028/2/000,269,foodsafety@oxford.gov.uk,Oxford City,http://www.oxford.gov.uk,-1.23914700000000,OX4 4BL,2012-01-23,fhrs_2_en-GB,2,,FHRS,15
245565,2600 John Smith Drive,Oxford,Oxfordshire,,British Gas,Restaurant/Cafe/Canteen,1,0,,542353,0,,51.73049600000000,13/00023/COM,269,foodsafety@oxford.gov.uk,Oxford City,http://www.oxford.gov.uk,-1.20514700000000,OX4 2JY,2014-09-16,fhrs_5_en-GB,5,,FHRS,0
245566,John Henry Brookes Building,Oxford Brookes University,Gipsy Lane,Oxford,Brookes - Headington Campus Outlets,Restaurant/Cafe/Canteen,1,0,,679553,5,,51.75439000000000,14/00071/COM,269,foodsafety@oxford.gov.uk,Oxford City,http://www.oxford.gov.uk,-1.22321300000000,OX3 0BP,2014-06-12,fhrs_5_en-GB,5,,FHRS,0
245567,Brookes Training Restaurant,Gipsy Lane,Oxford,Oxfordshire,Brookes Restaurant,Restaurant/Cafe/Canteen,1,0,,268638,5,,51.75439000000000,04760/2003/2/000,269,foodsafety@oxford.gov.uk,Oxford City,http://www.oxford.gov.uk,-1.22321300000000,OX3 0BP,2014-02-03,fhrs_5_en-GB,5,,FHRS,0
245568,Clive Booth Hall,John Garne Way,Oxford,Oxfordshire,Brookes University Nursery,Hospitals/Childcare/Caring Premises,5,5,,268839,5,,51.75785900000000,06310/2002/3/000,269,foodsafety@oxford.gov.uk,Oxford City,http://www.oxford.gov.uk,-1.23252800000000,OX3 0TU,2015-01-22,fhrs_5_en-GB,5,,FHRS,5
245569,Little Bury,Oxford,Oxfordshire,,Brookfield Christian Care Home,Hospitals/Childcare/Caring Premises,5,5,,268931,5,,51.71853100000000,07100/3000/2/000,269,foodsafety@oxford.gov.uk,Oxford City,http://www.oxford.gov.uk,-1.18836200000000,OX4 7UY,2014-01-16,fhrs_5_en-GB,5,,FHRS,5
245570,63 And 77-79,Covered Market,Market Street,Oxford,Brothers And Georginas,Restaurant/Cafe/Canteen,1,5,,269525,5,,51.73147300000000,13432/0063/3/000,269,foodsafety@oxford.gov.uk,Oxford City,http://www.oxford.gov.uk,-1.27988000000000,OX1 3ED,2014-09-23,fhrs_4_en-GB,4,,FHRS,10
245571,Browns Bar & Brasserie,5 Woodstock Road,Oxford,Oxfordshire,Browns Bar And Brasserie Oxford,Restaurant/Cafe/Canteen,1,5,,269490,0,,51.75915900000000,13230/0005/0/001,269,foodsafety@oxford.gov.uk,Oxford City,http://www.oxford.gov.uk,-1.26145400000000,OX2 6HA,2014-05-01,fhrs_4_en-GB,4,,FHRS,10
245572,Covered Market,Market Street,Oxford,Oxfordshire,Brown's Cafe,Restaurant/Cafe/Canteen,1,10,,269527,5,,51.75262700000000,13432/0092/3/000,269,foodsafety@oxford.gov.uk,Oxford City,http://www.oxford.gov.uk,-1.25650500000000,OX1 3DY,2013-10-30,fhrs_3_en-GB,3,,FHRS,10
245573,281 Iffley Road,Oxford,,,Browns Guest House,Hotel/bed & breakfast/guest house,7842,5,,268823,5,,51.73947900000000,06100/0281/2/000,269,foodsafety@oxford.gov.uk,Oxford City,http://www.oxford.gov.uk,-1.23512700000000,OX4 4AQ,2011-03-08,fhrs_5_en-GB,5,,FHRS,5
245574,87 Wilkins Road,Oxford,Oxfordshire,,Bunny's,Retailers - other,4613,5,,269474,5,,51.73532700000000,12990/0087/0/000,269,foodsafety@oxford.gov.uk,Oxford City,http://www.oxford.gov.uk,-1.20559800000000,OX4 2JB,2013-06-25,fhrs_5_en-GB,5,,FHRS,5
245575,4A Hayfield Road,Oxford,Oxfordshire,,Bunters Delicatessen,Retailers - other,4613,10,,268692,15,,51.76827900000000,05430/0046/0/000,269,foodsafety@oxford.gov.uk,Oxford City,http://www.oxford.gov.uk,-1.26917400000000,OX2 6TT,2014-07-15,fhrs_2_en-GB,2,,FHRS,5
245576,24 Cornmarket Street,Oxford,Oxfordshire,,Burger King,Restaurant/Cafe/Canteen,1,0,,268484,0,,51.75350100000000,02870/0024/0/000,269,foodsafety@oxford.gov.uk,Oxford City,http://www.oxford.gov.uk,-1.25833000000000,OX1 3EY,2014-03-08,fhrs_5_en-GB,5,,FHRS,0
245577,Unit 5,Oxford Retail Park,Ambassador Avenue,Oxford,Burger King Drive Thru,Takeaway/sandwich shop,7844,0,,269549,0,,51.72757000000000,13452/0005/0/000,269,foodsafety@oxford.gov.uk,Oxford City,http://www.oxford.gov.uk,-1.20065200000000,OX4 6XJ,2015-01-17,fhrs_5_en-GB,5,,FHRS,0
245578,Wickes Car Park,Botley Road,Oxford,Oxfordshire,Burgerworld,Mobile caterer,7846,5,,269059,5,,51.75163900000000,08/00127/COM,269,foodsafety@oxford.gov.uk,Oxford City,http://www.oxford.gov.uk,-1.28726100000000,OX2 0HA,2014-01-15,fhrs_5_en-GB,5,,FHRS,5
245579,374 Banbury Road,Oxford,Oxfordshire,,Burlington House,Hotel/bed & breakfast/guest house,7842,5,,268386,5,,51.78162300000000,00600/0374/0/000,269,foodsafety@oxford.gov.uk,Oxford City,http://www.oxford.gov.uk,-1.26648000000000,OX2 7PP,2014-03-21,fhrs_5_en-GB,5,,FHRS,5
245580,Windmill Road,Headington,Oxford,,Bury Knowle Club,Pub/bar/nightclub,7843,5,,269484,5,,51.75878100000000,13070/2003/2/000,269,foodsafety@oxford.gov.uk,Oxford City,http://www.oxford.gov.uk,-1.21024300000000,OX3 7BX,2013-03-20,fhrs_5_en-GB,5,,FHRS,5
245581,33-35 George Street,Oxford,Oxfordshire,,Byron,Restaurant/Cafe/Canteen,1,0,,729281,0,,51.75350500000000,12/00039/COM,269,foodsafety@oxford.gov.uk,Oxford City,http://www.oxford.gov.uk,-1.26037300000000,OX1 2AY,2012-08-07,fhrs_5_en-GB,5,,FHRS,0
245582,45 Oxford Castle,New Road,Oxford,Oxfordshire,Cafe 1071,Restaurant/Cafe/Canteen,1,10,,268680,10,,51.75136700000000,05/00072/COM,269,foodsafety@oxford.gov.uk,Oxford City,http://www.oxford.gov.uk,-1.26207400000000,OX1 1AY,2013-03-14,fhrs_4_en-GB,4,,FHRS,0
245583,Clarendon Laboratory,Parks Road,Oxford,,Cafe Bar East,Restaurant/Cafe/Canteen,1,0,,269197,5,,51.76000700000000,09000/2008/2/000,269,foodsafety@oxford.gov.uk,Oxford City,http://www.oxford.gov.uk,-1.25632600000000,OX1 3PU,2013-11-28,fhrs_5_en-GB,5,,FHRS,5
245584,Denys Wilkinson Building,Keble Road,Oxford,,Cafe Bar East And West,Restaurant/Cafe/Canteen,1,0,,268844,0,,51.75973100000000,06440/0000/2/000,269,foodsafety@oxford.gov.uk,Oxford City,http://www.oxford.gov.uk,-1.25951800000000,OX1 3RH,2013-10-08,fhrs_5_en-GB,5,,FHRS,5
245585,136 London Road,Headington,Oxford,Oxfordshire,Cafe Bonjour,Restaurant/Cafe/Canteen,1,0,,268958,5,,51.76043800000000,07220/0134/0/000,269,foodsafety@oxford.gov.uk,Oxford City,http://www.oxford.gov.uk,-1.20928700000000,OX3 9ED,2015-01-15,fhrs_5_en-GB,5,,FHRS,0
245586,23 Cowley Road,Oxford,Oxfordshire,,Cafe CoCo,Restaurant/Cafe/Canteen,1,10,,268499,5,,51.74953600000000,03030/0023/0/000,269,foodsafety@oxford.gov.uk,Oxford City,http://www.oxford.gov.uk,-1.24273600000000,OX4 1HP,2014-03-08,fhrs_3_en-GB,3,,FHRS,10
245587,19 Broad Street,Oxford,,,Cafe Creme,Restaurant/Cafe/Canteen,1,5,,268450,0,,51.75404300000000,01600/0019/0/000,269,foodsafety@oxford.gov.uk,Oxford City,http://www.oxford.gov.uk,-1.25724900000000,OX1 3AS,2013-12-16,fhrs_5_en-GB,5,,FHRS,0
245588,244 Cowley Road,Oxford,Oxfordshire,,Cafe East,Restaurant/Cafe/Canteen,1,,,611196,,,51.74604400000000,13/00059/COM,269,foodsafety@oxford.gov.uk,Oxford City,http://www.oxford.gov.uk,-1.23249600000000,OX4 1UH,2014-05-16,fhrs_4_en-GB,4,,FHRS,
245589,1-3 Golden Cross,Oxford,Oxfordshire,,Cafe Golden Cross,Restaurant/Cafe/Canteen,1,10,,268659,10,,51.75256000000000,04870/0003/0/000,269,foodsafety@oxford.gov.uk,Oxford City,http://www.oxford.gov.uk,-1.25733200000000,OX1 3EU,2013-10-01,fhrs_2_en-GB,2,,FHRS,15
245590,85-87 St Aldate's,Oxford,Oxfordshire,,Cafe Loco,Restaurant/Cafe/Canteen,1,5,,268677,5,,51.74897900000000,05/00041/COM,269,foodsafety@oxford.gov.uk,Oxford City,http://www.oxford.gov.uk,-1.25689800000000,OX1 1RA,2013-11-28,fhrs_5_en-GB,5,,FHRS,5
245591,Modern Art Oxford,30 Pembroke Street,Oxford,Oxfordshire,Cafe Moma,Restaurant/Cafe/Canteen,1,5,,269200,5,,51.75056800000000,09110/0030/2/000,269,foodsafety@oxford.gov.uk,Oxford City,http://www.oxford.gov.uk,-1.25792900000000,OX1 1BP,2013-05-09,fhrs_4_en-GB,4,,FHRS,10
245592,67 - 69 George Street,Oxford,Oxfordshire,,Cafe Opium,Restaurant/Cafe/Canteen,1,5,,268685,5,,51.81394577026367,05/00091/COM,269,foodsafety@oxford.gov.uk,Oxford City,http://www.oxford.gov.uk,-1.29369997978210,OX1 2AH,2014-03-24,fhrs_5_en-GB,5,,FHRS,5
245593,Department Of Physiology,Parks Road,Oxford,,Cafe PCR,Restaurant/Cafe/Canteen,1,5,,269196,5,,51.75781600000000,09000/2002/2/000,269,foodsafety@oxford.gov.uk,Oxford City,http://www.oxford.gov.uk,-1.25388400000000,OX1 3PT,2013-03-21,fhrs_5_en-GB,5,,FHRS,0
245594,13-18 Queen Street,Oxford,,,Cafe Refresh Staff Restaurant,Restaurant/Cafe/Canteen,1,0,,269213,5,,51.75153300000000,09680/0013/0/001,269,foodsafety@oxford.gov.uk,Oxford City,http://www.oxford.gov.uk,-1.25847800000000,OX1 1EJ,2013-06-18,fhrs_4_en-GB,4,,FHRS,10
245595,242 - 254 Banbury Road,Oxford,Oxfordshire,,Cafe Revive,Restaurant/Cafe/Canteen,1,0,,268371,0,,51.77585300000000,00600/0242/3/000,269,foodsafety@oxford.gov.uk,Oxford City,http://www.oxford.gov.uk,-1.26402200000000,OX2 7BY,2014-01-13,fhrs_5_en-GB,5,,FHRS,0
245596,11 Little Clarendon Street,Oxford,Oxfordshire,,Cafe Rouge,Restaurant/Cafe/Canteen,1,0,,268935,5,,51.75868400000000,07110/0011/0/000,269,foodsafety@oxford.gov.uk,Oxford City,http://www.oxford.gov.uk,-1.26173700000000,OX1 2HP,2014-09-17,fhrs_5_en-GB,5,,FHRS,5
245597,98 Rose Hill,Oxford,Oxfordshire,,CafÃ© Spice,Restaurant/Cafe/Canteen,1,0,,269275,0,,51.72751600000000,10160/0098/0/000,269,foodsafety@oxford.gov.uk,Oxford City,http://www.oxford.gov.uk,-1.22474500000000,OX4 4HX,2014-01-27,fhrs_5_en-GB,5,,FHRS,5
245598,Oxford University Rugby Football Cl,Jackdaw Lane,Oxford,Oxfordshire,Cafe Sub 4,Restaurant/Cafe/Canteen,1,10,,268834,10,,51.74330800000000,06190/2002/2/001,269,foodsafety@oxford.gov.uk,Oxford City,http://www.oxford.gov.uk,-1.24318800000000,OX4 1SR,2013-02-07,fhrs_3_en-GB,3,,FHRS,5
245599,56 - 58 Cowley Road,Oxford,Oxfordshire,,Cafe Tarifa,Pub/bar/nightclub,7843,0,,268911,0,,51.74873200000000,07/00390/COM,269,foodsafety@oxford.gov.uk,Oxford City,http://www.oxford.gov.uk,-1.24075100000000,OX4 1JB,2014-02-25,fhrs_5_en-GB,5,,FHRS,0
245600,14 High Street,Oxford,Oxfordshire,,Caffe Nero,Restaurant/Cafe/Canteen,1,5,,268716,5,,51.75223300000000,05740/0014/0/000,269,foodsafety@oxford.gov.uk,Oxford City,http://www.oxford.gov.uk,-1.25677200000000,OX1 4DB,2010-02-06,fhrs_5_en-GB,5,,FHRS,5
245601,48-51 Broad Street,Oxford,Oxfordshire,,Caffe Nero,Restaurant/Cafe/Canteen,1,5,,268453,5,,51.75466200000000,01600/0048/3/000,269,foodsafety@oxford.gov.uk,Oxford City,http://www.oxford.gov.uk,-1.25554400000000,OX1 3BT,2014-12-30,fhrs_4_en-GB,4,,FHRS,10
245602,91 Gloucester Green,Oxford,Oxfordshire,,Caffe Nero,Restaurant/Cafe/Canteen,1,0,,268872,0,,51.75412000000000,07/00023/COM,269,foodsafety@oxford.gov.uk,Oxford City,http://www.oxford.gov.uk,-1.26224600000000,OX1 2BU,2014-12-09,fhrs_5_en-GB,5,,FHRS,0
245603,First And Second Floor,116 - 120 London Road,Headington,Oxford,Caffe Nero,Restaurant/Cafe/Canteen,1,5,,718881,0,,51.75992900000000,14/00127/COM,269,foodsafety@oxford.gov.uk,Oxford City,http://www.oxford.gov.uk,-1.21116500000000,OX3 9AX,2014-10-17,fhrs_5_en-GB,5,,FHRS,0
245604,Unit A,Meadowside Retail Park,Lamarsh Road,Oxford,Caffe Pausa,Restaurant/Cafe/Canteen,1,0,,434057,0,,51.76311800000000,12/00040/COM,269,foodsafety@oxford.gov.uk,Oxford City,http://www.oxford.gov.uk,-1.30672700000000,OX2 0FE,2014-11-04,fhrs_5_en-GB,5,,FHRS,5
245605,21 Upper Barr,Oxford,Oxfordshire,,Cagneys,Restaurant/Cafe/Canteen,1,0,,269425,0,,51.73158800000000,12370/0021/0/000,269,foodsafety@oxford.gov.uk,Oxford City,http://www.oxford.gov.uk,-1.21523400000000,OX4 3UX,2013-01-03,fhrs_4_en-GB,4,,FHRS,10
245606,12 North Parade Avenue,Oxford,Oxfordshire,,Cairo Cafe,Restaurant/Cafe/Canteen,1,10,,269330,5,,51.76466400000000,11/00036/COM,269,foodsafety@oxford.gov.uk,Oxford City,http://www.oxford.gov.uk,-1.26191500000000,OX2 6LX,2013-05-09,fhrs_3_en-GB,3,,FHRS,10
245607,,,,,Cake Expectations,Retailers - other,4613,5,,268907,0,,,07/00366/COM,269,foodsafety@oxford.gov.uk,Oxford City,http://www.oxford.gov.uk,,,2013-03-19,fhrs_5_en-GB,5,,FHRS,0
245608,,,,,Cakes N Cakes,Other catering premises,7841,0,,410339,5,,,11/00033/COM,269,foodsafety@oxford.gov.uk,Oxford City,http://www.oxford.gov.uk,,,2012-07-04,fhrs_5_en-GB,5,,FHRS,0
245609,15 Ingle Close,Oxford,Oxfordshire,,Cakes With Grace,Other catering premises,7841,5,,352382,5,,51.76748600000000,12/00014/COM,269,foodsafety@oxford.gov.uk,Oxford City,http://www.oxford.gov.uk,-1.21985800000000,OX3 9DB,2012-04-17,fhrs_5_en-GB,5,,FHRS,5
245610,Bar Med,28-31 St Ebbes Street,Oxford,,Camera,Restaurant/Cafe/Canteen,1,10,,269376,10,,51.75097500000000,11220/2831/0/000,269,foodsafety@oxford.gov.uk,Oxford City,http://www.oxford.gov.uk,-1.25980600000000,OX1 1PU,2012-01-17,fhrs_3_en-GB,3,,FHRS,10
245611,Brewer Street,Oxford,Oxfordshire,,Campion Hall,School/college/university,7845,0,,268446,0,,51.74978600000000,01530/0000/2/000,269,foodsafety@oxford.gov.uk,Oxford City,http://www.oxford.gov.uk,-1.25813000000000,OX1 1QS,2013-02-07,fhrs_5_en-GB,5,,FHRS,5
245612,Iffley Road,Oxford,Oxfordshire,,Cape Of Good Hope,Pub/bar/nightclub,7843,5,,269402,5,,51.74897200000000,11990/2001/2/000,269,foodsafety@oxford.gov.uk,Oxford City,http://www.oxford.gov.uk,-1.24313700000000,OX4 1EA,2014-05-01,fhrs_4_en-GB,4,,FHRS,10
245613,EF International,Pullens Lane,Oxford,Oxfordshire,Capers Bistro - EF International Language School,School/college/university,7845,5,,268865,10,,51.75800800000000,07/00014/COM,269,foodsafety@oxford.gov.uk,Oxford City,http://www.oxford.gov.uk,-1.22783100000000,OX3 0DT,2014-01-07,fhrs_4_en-GB,4,,FHRS,5
245614,Wolsey Hall,66 Banbury Road,Oxford,Oxfordshire,Caramba Cafe,School/college/university,7845,10,,268354,15,,51.76472700000000,00600/0066/2/001,269,foodsafety@oxford.gov.uk,Oxford City,http://www.oxford.gov.uk,-1.26039200000000,OX2 6PR,2014-01-24,fhrs_2_en-GB,2,,FHRS,15
245615,Pennyfarthing Place,Oxford,Oxfordshire,,Carbon,Pub/bar/nightclub,7843,0,,268900,5,,51.75043700000000,07/00309/COM,269,foodsafety@oxford.gov.uk,Oxford City,http://www.oxford.gov.uk,-1.25998800000000,OX1 1QF,2009-07-22,fhrs_5_en-GB,5,,FHRS,5
245616,131 - 136 Covered Market,Market Street,Oxford,Oxfordshire,Cardew And Co,Retailers - other,4613,5,,269532,5,,51.75262700000000,13432/1314/3/000,269,foodsafety@oxford.gov.uk,Oxford City,http://www.oxford.gov.uk,-1.25650500000000,OX1 3DZ,2014-12-29,fhrs_5_en-GB,5,,FHRS,5
245617,135 High Street,Oxford,Oxfordshire,,Carfax Fish And Chips,Takeaway/sandwich shop,7844,10,,621600,5,,51.75191000000000,13/00093/COM,269,foodsafety@oxford.gov.uk,Oxford City,http://www.oxford.gov.uk,-1.25692200000000,OX1 4DN,2013-12-09,fhrs_3_en-GB,3,,FHRS,10
245618,1-2 Little Clarendon Street,Oxford,Oxfordshire,,Carluccio's,Restaurant/Cafe/Canteen,1,0,,701768,5,,51.75868400000000,14/00105/COM,269,foodsafety@oxford.gov.uk,Oxford City,http://www.oxford.gov.uk,-1.26173700000000,OX1 2HP,2014-08-19,fhrs_5_en-GB,5,,FHRS,5
245619,,,,,Carol Brewer,Other catering premises,7841,5,,661416,0,,,13/00078/COM,269,foodsafety@oxford.gov.uk,Oxford City,http://www.oxford.gov.uk,,,2013-11-06,fhrs_5_en-GB,5,,FHRS,0
245620,33 George Street,Oxford,,,Caspian News,Retailers - other,4613,0,,268624,0,,51.75350500000000,04690/0033/0/000,269,foodsafety@oxford.gov.uk,Oxford City,http://www.oxford.gov.uk,-1.26037300000000,OX1 2AY,2012-02-25,fhrs_5_en-GB,5,,FHRS,0
245621,11 New Road,Oxford,Oxfordshire,,Castle Newsagents,Retailers - other,4613,,,268801,,,51.75195300000000,06/00237/COM,269,foodsafety@oxford.gov.uk,Oxford City,http://www.oxford.gov.uk,-1.26089100000000,OX1 1LT,2012-01-26,fhrs_exempt_en-GB,Exempt,,FHRS,
245622,,,,,Catering Solutions,Other catering premises,7841,5,,269333,5,,,11/00054/COM,269,foodsafety@oxford.gov.uk,Oxford City,http://www.oxford.gov.uk,,,2014-11-04,fhrs_5_en-GB,5,,FHRS,5
245623,Sir Michael Sobell House Hospice,Old Road,Headington,Oxford,Catermasters - Sir Michael Sobell House Hospice,Hospitals/Childcare/Caring Premises,5,0,,268909,5,,51.75034100000000,07/00374/COM,269,foodsafety@oxford.gov.uk,Oxford City,http://www.oxford.gov.uk,-1.21472100000000,OX3 7LE,2014-01-02,fhrs_5_en-GB,5,,FHRS,5
245624,21 Osberton Road,Oxford,Oxfordshire,,Charles Ponsonby House,Hospitals/Childcare/Caring Premises,5,0,,269112,0,,,08700/2000/2/000,269,foodsafety@oxford.gov.uk,Oxford City,http://www.oxford.gov.uk,,,2013-05-23,fhrs_5_en-GB,5,,FHRS,5
245625,Eagle Iron Works,Walton Well Road,Oxford,,Charlton House (CH & Co Catering) Co Ltd.,Restaurant/Cafe/Canteen,1,0,,479032,0,,51.76185000000000,12570/2001/2/000,269,foodsafety@oxford.gov.uk,Oxford City,http://www.oxford.gov.uk,-1.26909000000000,OX2 6EE,2011-10-18,fhrs_5_en-GB,5,,FHRS,0
245626,71 St Clement's Street,Oxford,Oxfordshire,,Chateau Gateau,Retailers - other,4613,10,,352378,0,,51.75083700000000,05/00081/COM,269,foodsafety@oxford.gov.uk,Oxford City,http://www.oxford.gov.uk,-1.23948400000000,OX4 1AH,2014-03-10,fhrs_2_en-GB,2,,FHRS,15
245627,Cheney Lane,Headington,Oxford,,Cheney School,School/college/university,7845,,,268465,,,51.75295300000000,02330/2001/2/000,269,foodsafety@oxford.gov.uk,Oxford City,http://www.oxford.gov.uk,-1.22218000000000,OX3 7QH,2013-10-04,fhrs_5_en-GB,5,,FHRS,
245628,Gladstone Road,Oxford,Oxfordshire,,Cherry Tree Nursery,Hospitals/Childcare/Caring Premises,5,10,,268642,5,,51.76042800000000,04800/2000/2/000,269,foodsafety@oxford.gov.uk,Oxford City,http://www.oxford.gov.uk,-1.20115800000000,OX3 8LL,2013-01-17,fhrs_4_en-GB,4,,FHRS,0
245629,Cherwell Boat House,50 Bardwell Road,Oxford,Oxfordshire,Cherwell Boathouse Restaurant,Restaurant/Cafe/Canteen,1,,,268395,,,51.76966000000000,00640/0026/0/000,269,foodsafety@oxford.gov.uk,Oxford City,http://www.oxford.gov.uk,-1.25422500000000,OX2 6ST,2014-07-31,fhrs_4_en-GB,4,,FHRS,
245630,Cherwell School South Site,Marston Ferry Road,Oxford,Oxfordshire,Cherwell School,School/college/university,7845,0,,269001,5,,51.77463600000000,07700/2006/2/000,269,foodsafety@oxford.gov.uk,Oxford City,http://www.oxford.gov.uk,-1.26056400000000,OX2 7EF,2013-10-03,fhrs_5_en-GB,5,,FHRS,5
245631,The Cherwell School,Marston Ferry Road,Oxford,Oxfordshire,Cherwell School,School/college/university,7845,5,,268998,5,,51.77499200000000,07700/2003/2/000,269,foodsafety@oxford.gov.uk,Oxford City,http://www.oxford.gov.uk,-1.26147100000000,OX2 7EE,2013-02-08,fhrs_4_en-GB,4,,FHRS,10
245632,9B North Parade Avenue,Oxford,,,Chez Gaston,Restaurant/Cafe/Canteen,1,10,,269097,10,,51.76466400000000,08450/0009/B/000,269,foodsafety@oxford.gov.uk,Oxford City,http://www.oxford.gov.uk,-1.26191500000000,OX2 6LX,2014-01-27,fhrs_3_en-GB,3,,FHRS,10
245633,130A High Street,Oxford,,,Chiang Mai Kitchen,Restaurant/Cafe/Canteen,1,0,,268728,5,,51.75203400000000,05740/0130/A/000,269,foodsafety@oxford.gov.uk,Oxford City,http://www.oxford.gov.uk,-1.25652900000000,OX1 4DH,2013-02-26,fhrs_5_en-GB,5,,FHRS,5
245634,107 Cowley Road,Oxford,Oxfordshire,,Chicken Cottage,Takeaway/sandwich shop,7844,10,,649030,5,,51.74813300000000,14/00029/COM,269,foodsafety@oxford.gov.uk,Oxford City,http://www.oxford.gov.uk,-1.23721200000000,OX4 1HU,2014-03-20,fhrs_3_en-GB,3,,FHRS,10
245635,55 Between Towns Road,Oxford,Oxfordshire,,Chicken Hut,Takeaway/sandwich shop,7844,10,,268908,10,,51.73241100000000,07/00373/COM,269,foodsafety@oxford.gov.uk,Oxford City,http://www.oxford.gov.uk,-1.21717500000000,OX4 3LR,2014-11-25,fhrs_3_en-GB,3,,FHRS,5
245636,2 Dunnock Way,Oxford,Oxfordshire,,Chillies Indian Takeaway,Takeaway/sandwich shop,7844,10,,268782,0,,51.71682100000000,06/00139/COM,269,foodsafety@oxford.gov.uk,Oxford City,http://www.oxford.gov.uk,-1.19605000000000,OX4 7YS,2014-01-27,fhrs_4_en-GB,4,,FHRS,10
245637,131 Oxford Road,Cowley,Oxford,Oxfordshire,China Kitchen,Takeaway/sandwich shop,7844,10,,269128,0,,51.73531800000000,08850/0131/0/000,269,foodsafety@oxford.gov.uk,Oxford City,http://www.oxford.gov.uk,-1.21492400000000,OX4 2ES,2014-01-23,fhrs_4_en-GB,4,,FHRS,5
245638,East Oxford Community Centre,Princes Street,Oxford,Oxfordshire,Chinese Elderly Day Centre,Other catering premises,7841,10,,269228,0,,51.74893900000000,10/00006/COM,269,foodsafety@oxford.gov.uk,Oxford City,http://www.oxford.gov.uk,-1.23666200000000,OX4 1DD,2013-03-12,fhrs_4_en-GB,4,,FHRS,5
245639,3 Brewer Street,Oxford,,,Christ Church Cathedral School,School/college/university,7845,5,,268447,0,,51.74964100000000,01530/0003/0/000,269,foodsafety@oxford.gov.uk,Oxford City,http://www.oxford.gov.uk,-1.25779900000000,OX1 1QW,2014-03-18,fhrs_5_en-GB,5,,FHRS,0
245640,St Aldate's,Oxford,Oxfordshire,,Christ Church College,School/college/university,7845,0,,269314,5,,51.74991200000000,10980/2001/2/000,269,foodsafety@oxford.gov.uk,Oxford City,http://www.oxford.gov.uk,-1.25656400000000,OX1 1DP,2013-07-29,fhrs_5_en-GB,5,,FHRS,5
245641,Liddell Building,58-60 Iffley Road,Oxford,Oxfordshire,Christ Church Sports Ground,Pub/bar/nightclub,7843,10,,268830,5,,51.74821100000000,06100/2002/2/000,269,foodsafety@oxford.gov.uk,Oxford City,http://www.oxford.gov.uk,-1.24359800000000,OX4 1EQ,2007-03-29,fhrs_4_en-GB,4,,FHRS,5
245642,,,,,Chuckle & Bake Ltd.,Other catering premises,7841,0,,649035,0,,,14/00036/COM,269,foodsafety@oxford.gov.uk,Oxford City,http://www.oxford.gov.uk,,,2014-04-01,fhrs_5_en-GB,5,,FHRS,0
245643,Church Cowley St James Primary Scho,Bartholomew Road,Oxford,Oxfordshire,Church Cowley St James C Of E Primary School,School/college/university,7845,0,,268397,0,,51.72812900000000,00720/2001/2/000,269,foodsafety@oxford.gov.uk,Oxford City,http://www.oxford.gov.uk,-1.21277500000000,OX4 3QH,2012-12-19,fhrs_5_en-GB,5,,FHRS,0
245644,Churchill Hospital,Old Road,Headington,Oxford,Churchill Hospital  - Ward Kitchens,Hospitals/Childcare/Caring Premises,5,0,,269108,0,,51.75335700000000,08640/2012/0/000,269,foodsafety@oxford.gov.uk,Oxford City,http://www.oxford.gov.uk,-1.21931900000000,OX3 7JY,2011-12-07,fhrs_5_en-GB,5,,FHRS,5
245645,Churchill Hospital,Old Road,Headington,Oxford,Churchill Hospital Main And Ward Kitchens - Aramark Catering,Hospitals/Childcare/Caring Premises,5,0,,269105,0,,51.75034100000000,08640/2002/2/000,269,foodsafety@oxford.gov.uk,Oxford City,http://www.oxford.gov.uk,-1.21472100000000,OX3 7LE,2013-09-26,fhrs_5_en-GB,5,,FHRS,5
245646,36 St Michael's Street,Oxford,Oxfordshire,,Chutneys Indian Brasserie,Restaurant/Cafe/Canteen,1,5,,269386,5,,51.75331600000000,11360/0036/0/000,269,foodsafety@oxford.gov.uk,Oxford City,http://www.oxford.gov.uk,-1.26030300000000,OX1 2EB,2013-03-08,fhrs_5_en-GB,5,,FHRS,5
245647,4 South Parade,Oxford,Oxfordshire,,Cibo,Restaurant/Cafe/Canteen,1,,,268778,,,51.77847100000000,06/00125/COM,269,foodsafety@oxford.gov.uk,Oxford City,http://www.oxford.gov.uk,-1.26705300000000,OX2 7JL,2014-12-11,fhrs_5_en-GB,5,,FHRS,
245648,28 Friars Entry,Oxford,Oxfordshire,,Cinnamon Cafe,Restaurant/Cafe/Canteen,1,20,,683088,20,,51.75436100000000,14/00080/COM,269,foodsafety@oxford.gov.uk,Oxford City,http://www.oxford.gov.uk,-1.26054700000000,OX1 2BY,2014-07-11,fhrs_0_en-GB,0,,FHRS,15
245649,The City Arms,288 Cowley Road,Oxford,Oxfordshire,City Arms,Pub/bar/nightclub,7843,5,,268546,5,,51.74514000000000,03030/0288/2/000,269,foodsafety@oxford.gov.uk,Oxford City,http://www.oxford.gov.uk,-1.23039700000000,OX4 1UR,2013-12-16,fhrs_4_en-GB,4,,FHRS,10
245650,54 St John Street,Oxford,,,City Centre Bed And Breakfast,Hotel/bed & breakfast/guest house,7842,5,,269377,5,,51.75597700000000,11290/0054/0/000,269,foodsafety@oxford.gov.uk,Oxford City,http://www.oxford.gov.uk,-1.26162200000000,OX1 2LQ,2013-03-13,fhrs_5_en-GB,5,,FHRS,5
245651,Street Trading Site 23 Magdalen Col,High Street,Oxford,Oxfordshire,City Ices,Mobile caterer,7846,5,,268739,5,,,05740/2035/2/000,269,foodsafety@oxford.gov.uk,Oxford City,http://www.oxford.gov.uk,,,2008-08-27,fhrs_5_en-GB,5,,FHRS,5
245652,Temple Cowley Pools,Temple Road,Oxford,Oxfordshire,City Leisure,Restaurant/Cafe/Canteen,1,,,269396,,,51.73646000000000,11800/2009/2/000,269,foodsafety@oxford.gov.uk,Oxford City,http://www.oxford.gov.uk,-1.21228300000000,OX4 2EZ,2010-09-24,fhrs_exempt_en-GB,Exempt,,FHRS,
245653,Meadow Lane,Oxford,Oxfordshire,,City Of Oxford Rowing Club,Pub/bar/nightclub,7843,10,,269013,5,,51.73554900000000,07820/2029/2/000,269,foodsafety@oxford.gov.uk,Oxford City,http://www.oxford.gov.uk,-1.23914700000000,OX4 4BL,2013-03-21,fhrs_3_en-GB,3,,FHRS,10
245654,254 Cowley Road,Oxford,Oxfordshire,,Classic Wines,Retailers - other,4613,,,268542,,,51.74604400000000,03030/0254/0/000,269,foodsafety@oxford.gov.uk,Oxford City,http://www.oxford.gov.uk,-1.23249600000000,OX4 1UH,2013-03-08,fhrs_exempt_en-GB,Exempt,,FHRS,
245655,Fire And Stone,Threeways House,George Street,Oxford,Cleaver,Other catering premises,7841,5,,638384,5,,51.75385100000000,14/00002/COM,269,foodsafety@oxford.gov.uk,Oxford City,http://www.oxford.gov.uk,-1.26106200000000,OX1 2BJ,2014-03-05,fhrs_5_en-GB,5,,FHRS,5
245656,15 St Clement's Street,Oxford,Oxfordshire,,Clementines,Pub/bar/nightclub,7843,5,,269343,5,,51.75033000000000,11040/0015/0/000,269,foodsafety@oxford.gov.uk,Oxford City,http://www.oxford.gov.uk,-1.24311400000000,OX4 1AB,2010-03-10,fhrs_4_en-GB,4,,FHRS,10
245657,Church Mission Society (CMS),Watlington Road,Cowley,Oxford,CMS Cafe,Restaurant/Cafe/Canteen,1,0,,268902,0,,51.72417900000000,07/00317/COM,269,foodsafety@oxford.gov.uk,Oxford City,http://www.oxford.gov.uk,-1.21053400000000,OX4 6YL,2013-01-17,fhrs_5_en-GB,5,,FHRS,0
245658,62 St Clement's Street,Oxford,Oxfordshire,,Coach And Horses,Hotel/bed & breakfast/guest house,7842,10,,542348,10,,51.75083700000000,12/00068/COM,269,foodsafety@oxford.gov.uk,Oxford City,http://www.oxford.gov.uk,-1.23948400000000,OX4 1AH,2013-04-25,fhrs_4_en-GB,4,,FHRS,0
245659,9 Golden Cross,Oxford,Oxfordshire,,Coba,Restaurant/Cafe/Canteen,1,10,,717013,10,,51.75256000000000,14/00094/COM,269,foodsafety@oxford.gov.uk,Oxford City,http://www.oxford.gov.uk,-1.25733200000000,OX1 3EU,2014-11-14,fhrs_3_en-GB,3,,FHRS,10
245660,47 - 49 Cowley Road,Oxford,Oxfordshire,,Coffee Republic,Other catering premises,7841,0,,491702,0,,51.74953600000000,03030/0047/0/000,269,foodsafety@oxford.gov.uk,Oxford City,http://www.oxford.gov.uk,-1.24273600000000,OX4 1HP,2014-08-12,fhrs_5_en-GB,5,,FHRS,0
245661,93 Gloucester Green,Oxford,Oxfordshire,,Combibos Coffee,Restaurant/Cafe/Canteen,1,0,,268803,5,,51.75412000000000,06/00242/COM,269,foodsafety@oxford.gov.uk,Oxford City,http://www.oxford.gov.uk,-1.26224600000000,OX1 2BU,2014-02-13,fhrs_5_en-GB,5,,FHRS,0
245662,Dept Of Pharmacology,Mansfield Road,Oxford,,Common Room Cafe,School/college/university,7845,0,,268987,5,,51.75825900000000,07560/2000/2/000,269,foodsafety@oxford.gov.uk,Oxford City,http://www.oxford.gov.uk,-1.25139900000000,OX1 3QT,2013-03-21,fhrs_5_en-GB,5,,FHRS,0
245663,366 Cowley Road,Oxford,Oxfordshire,,Convenience Store,Retailers - other,4613,20,,268875,5,,51.74227400000000,07/00027/COM,269,foodsafety@oxford.gov.uk,Oxford City,http://www.oxford.gov.uk,-1.22659300000000,OX4 2BY,2013-03-12,fhrs_1_en-GB,1,,FHRS,0
245664,237 Banbury Road,Oxford,Oxfordshire,,Cook,Retailers - other,4613,5,,268892,5,,51.77782200000000,07/00155/COM,269,foodsafety@oxford.gov.uk,Oxford City,http://www.oxford.gov.uk,-1.26538200000000,OX2 7HN,2014-10-09,fhrs_5_en-GB,5,,FHRS,0
245665,Lucy Faithfull House,8 Speedwell Street,Oxford,,Coombs Catering Partnership,Hospitals/Childcare/Caring Premises,5,10,,269307,0,,51.74873600000000,10890/0008/2/000,269,foodsafety@oxford.gov.uk,Oxford City,http://www.oxford.gov.uk,-1.25966800000000,OX1 1PX,2014-01-24,fhrs_4_en-GB,4,,FHRS,0
245666,1 Roger Dudman Way,Oxford,Oxfordshire,,Co-operative Childcare,Hospitals/Childcare/Caring Premises,5,5,,362212,5,,51.75577700000000,10105/0001/2/000,269,foodsafety@oxford.gov.uk,Oxford City,http://www.oxford.gov.uk,-1.27146200000000,OX1 1HW,2014-12-16,fhrs_5_en-GB,5,,FHRS,5
245667,20 - 22 Cherwell Drive,Oxford,Oxfordshire,,Co-operative Store,Retailers - other,4613,5,,268469,5,,51.76778600000000,02360/0022/0/000,269,foodsafety@oxford.gov.uk,Oxford City,http://www.oxford.gov.uk,-1.23135900000000,OX3 0LY,2012-01-25,fhrs_5_en-GB,5,,FHRS,5
245668,282 Abingdon Road,Oxford,,,Cornerways Guest House,Hotel/bed & breakfast/guest house,7842,20,,268331,5,,51.73667400000000,00050/0282/0/000,269,foodsafety@oxford.gov.uk,Oxford City,http://www.oxford.gov.uk,-1.25188600000000,OX1 4TA,2014-10-20,fhrs_1_en-GB,1,,FHRS,5
245669,11 The Clarendon Centre,Cornmarket Street,Oxford,Oxfordshire,Cornish Kitchen,Takeaway/sandwich shop,7844,5,,269230,5,,51.75229000000000,10/00012/COM,269,foodsafety@oxford.gov.uk,Oxford City,http://www.oxford.gov.uk,-1.25866900000000,OX1 3JD,2013-12-16,fhrs_5_en-GB,5,,FHRS,0
245670,Merton Street,Oxford,,,Corpus Christi College,School/college/university,7845,5,,269017,5,,51.75054900000000,07880/2001/2/000,269,foodsafety@oxford.gov.uk,Oxford City,http://www.oxford.gov.uk,-1.25351100000000,OX1 4JF,2014-05-29,fhrs_5_en-GB,5,,FHRS,5
245671,Unit 7,Oxford Retail Park,Ambassador Avenue,Oxford,Costa,Restaurant/Cafe/Canteen,1,0,,269545,0,,,13452/0001/A/000,269,foodsafety@oxford.gov.uk,Oxford City,http://www.oxford.gov.uk,,,2015-01-17,fhrs_5_en-GB,5,,FHRS,5
245672,141-145 Cowley Road,Oxford,Oxfordshire,,Costa Coffee,Restaurant/Cafe/Canteen,1,0,,268918,0,,51.74813300000000,07/00414/COM,269,foodsafety@oxford.gov.uk,Oxford City,http://www.oxford.gov.uk,-1.23721200000000,OX4 1HU,2015-01-23,fhrs_5_en-GB,5,,FHRS,5
245673,2 - 3 The Clarendon Centre,Cornmarket Street,Oxford,Oxfordshire,Costa Coffee,Restaurant/Cafe/Canteen,1,0,,268790,0,,51.75229000000000,06/00196/COM,269,foodsafety@oxford.gov.uk,Oxford City,http://www.oxford.gov.uk,-1.25866900000000,OX1 3JD,2012-01-20,fhrs_5_en-GB,5,,FHRS,5
245674,205 Banbury Road,Oxford,Oxfordshire,,Costa Coffee,Restaurant/Cafe/Canteen,1,0,,268783,5,,51.77677700000000,06/00140/COM,269,foodsafety@oxford.gov.uk,Oxford City,http://www.oxford.gov.uk,-1.26497900000000,OX2 7HQ,2013-03-18,fhrs_5_en-GB,5,,FHRS,0
245675,30 Queen Street,Oxford,Oxfordshire,,Costa Coffee,Restaurant/Cafe/Canteen,1,0,,269252,5,,51.75186200000000,10/00054/COM,269,foodsafety@oxford.gov.uk,Oxford City,http://www.oxford.gov.uk,-1.25922600000000,OX1 1ER,2014-12-09,fhrs_5_en-GB,5,,FHRS,0
245676,7 - 9 Old Marston Road,Oxford,Oxfordshire,,Costcutter And Post Office,Retailers - other,4613,10,,268571,5,,51.76627300000000,04/00016/COM,269,foodsafety@oxford.gov.uk,Oxford City,http://www.oxford.gov.uk,-1.23515300000000,OX3 0JR,2014-01-08,fhrs_3_en-GB,3,,FHRS,10
245677,41 - 47 George Street,Oxford,Oxfordshire,,COTE Brasserie,Restaurant/Cafe/Canteen,1,5,,548824,5,,51.75340700000000,13/00028/COM,269,foodsafety@oxford.gov.uk,Oxford City,http://www.oxford.gov.uk,-1.26188100000000,OX1 2BE,2013-05-07,fhrs_4_en-GB,4,,FHRS,10
245678,363 Banbury Road,Oxford,,,Cotswold House,Hotel/bed & breakfast/guest house,7842,5,,268384,5,,51.78318100000000,00600/0363/0/000,269,foodsafety@oxford.gov.uk,Oxford City,http://www.oxford.gov.uk,-1.26823800000000,OX2 7PL,2014-07-24,fhrs_5_en-GB,5,,FHRS,5
245679,Warneford Hospital,Warneford Lane,Oxford,Oxfordshire,Cotswold House,Hospitals/Childcare/Caring Premises,5,0,,269454,0,,51.75085000000000,12610/2001/2/001,269,foodsafety@oxford.gov.uk,Oxford City,http://www.oxford.gov.uk,-1.22233200000000,OX3 7JX,2015-01-20,fhrs_5_en-GB,5,,FHRS,0
245680,66A Banbury Road,Oxford,,,Cotswold Lodge Hotel,Restaurant/Cafe/Canteen,1,5,,268355,5,,51.76557300000000,00600/0066/A/000,269,foodsafety@oxford.gov.uk,Oxford City,http://www.oxford.gov.uk,-1.26063900000000,OX2 6JP,2014-01-13,fhrs_5_en-GB,5,,FHRS,0
245681,65 Woodstock Road,Oxford,,,Court Candy Shop,Retailers - other,4613,5,,269497,0,,51.76220100000000,13230/0065/0/000,269,foodsafety@oxford.gov.uk,Oxford City,http://www.oxford.gov.uk,-1.26341800000000,OX2 6HJ,2012-01-27,fhrs_5_en-GB,5,,FHRS,0
245682,19-20 St Clement's Street,Oxford,Oxfordshire,,Cous Cous Cafe,Restaurant/Cafe/Canteen,1,5,,269027,5,,51.75033000000000,08/00024/COM,269,foodsafety@oxford.gov.uk,Oxford City,http://www.oxford.gov.uk,-1.24311400000000,OX4 1AB,2013-06-28,fhrs_4_en-GB,4,,FHRS,10
245683,Between Towns Road,Oxford,Oxfordshire,,Cowley Conservative Club,Pub/bar/nightclub,7843,20,,268418,10,,51.73325300000000,01090/2008/0/000,269,foodsafety@oxford.gov.uk,Oxford City,http://www.oxford.gov.uk,-1.21274400000000,OX4 3LX,2014-03-28,fhrs_1_en-GB,1,,FHRS,10
245684,172 Cowley Road,Oxford,Oxford,,Cowley Retreat,Pub/bar/nightclub,7843,0,,268525,5,,51.74707700000000,03030/0172/0/000,269,foodsafety@oxford.gov.uk,Oxford City,http://www.oxford.gov.uk,-1.23512900000000,OX4 1UE,2013-02-18,fhrs_5_en-GB,5,,FHRS,0
245685,120 Cowley Road,Oxford,Oxfordshire,,Cowley Road Post Office,Retailers - other,4613,10,,268795,5,,51.74832500000000,06/00222/COM,269,foodsafety@oxford.gov.uk,Oxford City,http://www.oxford.gov.uk,-1.23907700000000,OX4 1JE,2013-02-18,fhrs_4_en-GB,4,,FHRS,5
245686,Between Towns Road,Oxford,Oxfordshire,,Cowley Workers Social Club,Pub/bar/nightclub,7843,10,,268417,0,,51.73346500000000,01090/2007/0/000,269,foodsafety@oxford.gov.uk,Oxford City,http://www.oxford.gov.uk,-1.21350800000000,OX4 3LZ,2010-10-04,fhrs_4_en-GB,4,,FHRS,5
245687,45 Queen Street,Oxford,Oxfordshire,,Crabtree And Evelyn,Retailers - other,4613,0,,269217,0,,51.75190200000000,09680/0045/3/000,269,foodsafety@oxford.gov.uk,Oxford City,http://www.oxford.gov.uk,-1.25844300000000,OX1 1ET,2012-01-04,fhrs_5_en-GB,5,,FHRS,5
245688,Cricketers Arms,Temple Road,Oxford,Oxfordshire,Cricketers Arms PH,Pub/bar/nightclub,7843,10,,269395,5,,51.73646000000000,11800/0102/2/000,269,foodsafety@oxford.gov.uk,Oxford City,http://www.oxford.gov.uk,-1.21228300000000,OX4 2EZ,2013-10-04,fhrs_4_en-GB,4,,FHRS,5
245689,,,,,Crissels Kitchen,Other catering premises,7841,5,,623992,5,,,14/00001/COM,269,foodsafety@oxford.gov.uk,Oxford City,http://www.oxford.gov.uk,,,2014-01-07,fhrs_5_en-GB,5,,FHRS,0
245690,10 Crown Street,Oxford,Oxfordshire,,Crown House Club,Pub/bar/nightclub,7843,5,,268557,5,,51.74697900000000,03230/2000/2/000,269,foodsafety@oxford.gov.uk,Oxford City,http://www.oxford.gov.uk,-1.23668100000000,OX4 1QG,2012-03-14,fhrs_5_en-GB,5,,FHRS,5
245691,,,,,Cupcakes By Maria,Other catering premises,7841,5,,418443,5,,,12/00035/COM,269,foodsafety@oxford.gov.uk,Oxford City,http://www.oxford.gov.uk,,,2012-07-05,fhrs_4_en-GB,4,,FHRS,10
245692,25 Botley Road,Oxford,Oxfordshire,,Curry Dor,Takeaway/sandwich shop,7844,10,,723651,15,,51.75223900000000,14/00147/COM,269,foodsafety@oxford.gov.uk,Oxford City,http://www.oxford.gov.uk,-1.27650200000000,OX2 0BN,2014-11-25,fhrs_2_en-GB,2,,FHRS,10
245693,Cutteslowe Community Centre,Wren Road,Oxford,,Cutteslowe Community Cafe,Restaurant/Cafe/Canteen,1,5,,269512,5,,51.78618500000000,13280/2000/2/000,269,foodsafety@oxford.gov.uk,Oxford City,http://www.oxford.gov.uk,-1.26124500000000,OX2 7SX,2014-02-14,fhrs_5_en-GB,5,,FHRS,0
245694,Wren Road,Oxford,Oxfordshire,,Cutteslowe Primary School,School/college/university,7845,5,,269513,0,,51.78618400000000,13280/2001/2/000,269,foodsafety@oxford.gov.uk,Oxford City,http://www.oxford.gov.uk,-1.26124400000000,OX2 7SX,2012-12-13,fhrs_4_en-GB,4,,FHRS,10
245695,436 Abingdon Road,Oxford,,,Dairy Crest,Distributors/Transporters,7,0,,268333,0,,51.73099500000000,00050/0436/0/000,269,foodsafety@oxford.gov.uk,Oxford City,http://www.oxford.gov.uk,-1.25247200000000,OX1 4XP,2013-02-27,fhrs_5_en-GB,5,,FHRS,0
245696,104 Godstow Road,Oxford,Oxfordshire,,Dak Bo,Takeaway/sandwich shop,7844,5,,268654,10,,51.78391400000000,04860/0104/2/000,269,foodsafety@oxford.gov.uk,Oxford City,http://www.oxford.gov.uk,-1.29258000000000,OX2 8PQ,2014-01-14,fhrs_3_en-GB,3,,FHRS,10
245697,Department Of Zoology,South Parks Road,Oxford,Oxfordshire,Darwins,School/college/university,7845,5,,269301,0,,51.75877500000000,10860/2001/2/000,269,foodsafety@oxford.gov.uk,Oxford City,http://www.oxford.gov.uk,-1.25062300000000,OX1 3PS,2013-03-21,fhrs_5_en-GB,5,,FHRS,0
245698,96 Horspath Road,Oxford,Oxfordshire,,Daudhar News,Retailers - other,4613,10,,268763,10,,51.73782100000000,05980/0096/0/000,269,foodsafety@oxford.gov.uk,Oxford City,http://www.oxford.gov.uk,-1.20076000000000,OX4 2QT,2012-12-19,fhrs_3_en-GB,3,,FHRS,5
245699,93-97 Covered Market,Market Street,Oxford,Oxfordshire,David John Butchers,Retailers - other,4613,5,,269528,5,,,13432/0093/3/000,269,foodsafety@oxford.gov.uk,Oxford City,http://www.oxford.gov.uk,,,2014-09-23,fhrs_4_en-GB,4,,FHRS,10
245700,David Lloyd Leisure Plot 9000,Alec Issigonis Way,Oxford,Oxfordshire,David Lloyd Health And Fitness Club,Restaurant/Cafe/Canteen,1,0,,269543,0,,51.73049600000000,13445/9000/2/000,269,foodsafety@oxford.gov.uk,Oxford City,http://www.oxford.gov.uk,-1.20514700000000,OX4 2JY,2013-01-03,fhrs_5_en-GB,5,,FHRS,5
245701,The Clock House,Long Ground,Oxford,Oxfordshire,Daybreak Oxford,Other catering premises,7841,0,,569208,0,,51.71639200000000,13/00041/COM,269,foodsafety@oxford.gov.uk,Oxford City,http://www.oxford.gov.uk,-1.19895200000000,OX4 7FX,2013-06-16,fhrs_5_en-GB,5,,FHRS,0
245702,1 Magdalen Street,Oxford,Oxfordshire,,Debenhams Food Services,Restaurant/Cafe/Canteen,1,0,,268981,0,,51.75433700000000,07440/2000/3/002,269,foodsafety@oxford.gov.uk,Oxford City,http://www.oxford.gov.uk,-1.25957700000000,OX1 3AA,2014-02-13,fhrs_5_en-GB,5,,FHRS,0
245703,Lincoln College,Turl Street,Oxford,Oxfordshire,Deep Hall,Pub/bar/nightclub,7843,0,,634002,0,,51.75309100000000,14/00017/COM,269,foodsafety@oxford.gov.uk,Oxford City,http://www.oxford.gov.uk,-1.25596100000000,OX1 3DR,2014-02-05,fhrs_5_en-GB,5,,FHRS,5
245704,34 Cowley Road,Littlemore,Oxford,Oxfordshire,Deli Polonia,Takeaway/sandwich shop,7844,5,,268894,10,,51.72386500000000,07/00233/COM,269,foodsafety@oxford.gov.uk,Oxford City,http://www.oxford.gov.uk,-1.22055100000000,OX4 4LD,2011-11-07,fhrs_3_en-GB,3,,FHRS,10
245705,42A Abingdon Road,Oxford,Oxfordshire,,Delicatessen Cafe,Hospitals/Childcare/Caring Premises,5,10,,717019,5,,51.74331800000000,14/00136/COM,269,foodsafety@oxford.gov.uk,Oxford City,http://www.oxford.gov.uk,-1.25599100000000,OX1 4PE,2014-10-27,fhrs_4_en-GB,4,,FHRS,5
245706,Platform 1,Oxford Railway Station Forecourt,Park End Street,Oxford,Delice De France,Takeaway/sandwich shop,7844,0,,268864,0,,51.75350300000000,07/00012/COM,269,foodsafety@oxford.gov.uk,Oxford City,http://www.oxford.gov.uk,-1.27012300000000,OX1 1HS,2011-07-01,fhrs_5_en-GB,5,,FHRS,0
245707,56 Between Towns Road,Oxford,Oxfordshire,,Delight Kebab House,Takeaway/sandwich shop,7844,10,,268412,10,,51.73241100000000,01090/0056/0/000,269,foodsafety@oxford.gov.uk,Oxford City,http://www.oxford.gov.uk,-1.21717500000000,OX4 3LR,2014-09-10,fhrs_3_en-GB,3,,FHRS,5
245708,12 Cherwell Drive,Oxford,Oxfordshire,,Deli-Licious,Restaurant/Cafe/Canteen,1,5,,434059,5,,51.76778600000000,12/00043/COM,269,foodsafety@oxford.gov.uk,Oxford City,http://www.oxford.gov.uk,-1.23135900000000,OX3 0LY,2014-01-07,fhrs_5_en-GB,5,,FHRS,0
245709,102-104 Blackbird Leys Road,Oxford,,,Delteys Supermarket,Retailers - other,4613,5,,268426,10,,51.72417900000000,01170/0102/0/000,269,foodsafety@oxford.gov.uk,Oxford City,http://www.oxford.gov.uk,-1.21053400000000,OX4 5HS,2014-05-12,fhrs_2_en-GB,2,,FHRS,15
245710,Street Trader (o/s 73/75)(evenings),London Road,Headington,Oxford,Dennis Kebabs,Mobile caterer,7846,5,,268969,10,,51.75986000000000,07220/2013/2/000,269,foodsafety@oxford.gov.uk,Oxford City,http://www.oxford.gov.uk,-1.21291900000000,OX3 9AA,2014-03-12,fhrs_4_en-GB,4,,FHRS,5
245711,1 Wellington Square,Oxford,,,Department For Continuing Education,School/college/university,7845,5,,269459,5,,51.75710400000000,12740/0001/2/000,269,foodsafety@oxford.gov.uk,Oxford City,http://www.oxford.gov.uk,-1.26206700000000,OX1 2JA,2013-05-08,fhrs_5_en-GB,5,,FHRS,5
245712,3 Mansfield Road,Oxford,Oxfordshire,,Department Of International Development,Restaurant/Cafe/Canteen,1,10,,268688,5,,51.75575000000000,05/00104/COM,269,foodsafety@oxford.gov.uk,Oxford City,http://www.oxford.gov.uk,-1.25135400000000,OX1 3TB,2014-10-22,fhrs_4_en-GB,4,,FHRS,0
245713,,,,,Diana's B And B,Hotel/bed & breakfast/guest house,7842,10,,634004,5,,,14/00022/COM,269,foodsafety@oxford.gov.uk,Oxford City,http://www.oxford.gov.uk,,,2014-02-06,fhrs_4_en-GB,4,,FHRS,5
245714,U Y S Ltd,Garsington Road,Oxford,Oxfordshire,Dine Contract Catering Limited,Restaurant/Cafe/Canteen,1,0,,268887,5,,51.73244600000000,07/00068/COM,269,foodsafety@oxford.gov.uk,Oxford City,http://www.oxford.gov.uk,-1.19971100000000,OX4 2BW,2013-12-18,fhrs_5_en-GB,5,,FHRS,5
245715,Wyndham Housing Association,Plantation Road,Oxford,,Dine Contract Catering Limited,Hospitals/Childcare/Caring Premises,5,0,,269203,5,,51.76271700000000,09340/4169/3/000,269,foodsafety@oxford.gov.uk,Oxford City,http://www.oxford.gov.uk,-1.26691700000000,OX2 6JJ,2013-12-18,fhrs_5_en-GB,5,,FHRS,5
245716,Emden House,Barton Lane,Oxford,Oxfordshire,Dine Limited,Hospitals/Childcare/Caring Premises,5,0,,268399,0,,51.76529900000000,00750/2004/2/000,269,foodsafety@oxford.gov.uk,Oxford City,http://www.oxford.gov.uk,-1.20771200000000,,2012-08-17,fhrs_5_en-GB,5,,FHRS,5
245717,126 London Road,Headington,Oxford,Oxfordshire,Domino Pizza,Takeaway/sandwich shop,7844,5,,268956,0,,51.76043800000000,07220/0126/0/000,269,foodsafety@oxford.gov.uk,Oxford City,http://www.oxford.gov.uk,-1.20928700000000,OX3 9ED,2015-01-15,fhrs_5_en-GB,5,,FHRS,5
245718,18 Park End Street,Oxford,Oxfordshire,,Dominos Pizza,Takeaway/sandwich shop,7844,0,,269148,0,,51.75251900000000,08980/0018/0/000,269,foodsafety@oxford.gov.uk,Oxford City,http://www.oxford.gov.uk,-1.26811000000000,OX1 1HU,2013-01-28,fhrs_5_en-GB,5,,FHRS,5
245719,57 Between Towns Road,Oxford,Oxfordshire,,Domino's Pizza,Takeaway/sandwich shop,7844,5,,268413,0,,51.73241100000000,01090/0057/0/000,269,foodsafety@oxford.gov.uk,Oxford City,http://www.oxford.gov.uk,-1.21717500000000,OX4 3LR,2014-01-14,fhrs_5_en-GB,5,,FHRS,5
245720,1 The Parade,Windmill Road,Oxford,Oxfordshire,Dong Dong Noodle Bar,Restaurant/Cafe/Canteen,1,5,,268787,5,,51.75987100000000,06/00167/COM,269,foodsafety@oxford.gov.uk,Oxford City,http://www.oxford.gov.uk,-1.21051400000000,OX3 7BL,2013-11-07,fhrs_2_en-GB,2,,FHRS,15
245721,Donnington Community Centre,Freelands Road,Oxford,Oxfordshire,Donnington Community Centre Social Club,Other catering premises,7841,20,,268600,5,,51.73552700000000,04500/2002/2/000,269,foodsafety@oxford.gov.uk,Oxford City,http://www.oxford.gov.uk,-1.23848100000000,OX4 4BS,2014-07-30,fhrs_1_en-GB,1,,FHRS,5
245722,Townsend Square,Oxford,Oxfordshire,,Donnington Doorstep Family Centre,Restaurant/Cafe/Canteen,1,0,,269417,0,,51.73675000000000,12180/2001/0/000,269,foodsafety@oxford.gov.uk,Oxford City,http://www.oxford.gov.uk,-1.23576700000000,OX4 4BB,2014-09-29,fhrs_5_en-GB,5,,FHRS,0
245723,74 Cowley Road,Oxford,Oxfordshire,,Door 74,Restaurant/Cafe/Canteen,1,10,,268578,0,,51.74873200000000,04/00104/COM,269,foodsafety@oxford.gov.uk,Oxford City,http://www.oxford.gov.uk,-1.24075100000000,OX4 1JB,2013-02-04,fhrs_4_en-GB,4,,FHRS,5
245724,25 Park End Street,Oxford,Oxfordshire,,Dosa Park,Takeaway/sandwich shop,7844,10,,269171,10,,51.75252000000000,09/00030/COM,269,foodsafety@oxford.gov.uk,Oxford City,http://www.oxford.gov.uk,-1.26811000000000,OX1 1HU,2014-11-24,fhrs_3_en-GB,3,,FHRS,10
245725,Helen And Douglas House,14A Magdalen Road,Oxford,Oxfordshire,Douglas House,Hospitals/Childcare/Caring Premises,5,0,,268973,5,,51.74432800000000,07430/0000/2/001,269,foodsafety@oxford.gov.uk,Oxford City,http://www.oxford.gov.uk,-1.23136600000000,OX4 1RW,2014-02-13,fhrs_5_en-GB,5,,FHRS,0
245726,106 Banbury Road,Oxford,Oxfordshire,,D'Overbroeck's College,School/college/university,7845,0,,356616,0,,51.77064400000000,09/00053/COM,269,foodsafety@oxford.gov.uk,Oxford City,http://www.oxford.gov.uk,-1.26196200000000,OX2 6JU,2014-01-31,fhrs_5_en-GB,5,,FHRS,5
245727,111 Banbury Road,Oxford,,,D'Overbroeck's College,Restaurant/Cafe/Canteen,1,0,,458055,5,,51.76937000000000,00600/0111/0/000,269,foodsafety@oxford.gov.uk,Oxford City,http://www.oxford.gov.uk,-1.26247600000000,OX2 6JX,2014-03-10,fhrs_5_en-GB,5,,FHRS,5
245728,D'overbroeks College,Leckford Place,Oxford,Oxfordshire,D'Overbroeck's College,School/college/university,7845,10,,268858,0,,51.76361900000000,06910/2001/2/000,269,foodsafety@oxford.gov.uk,Oxford City,http://www.oxford.gov.uk,-1.26588800000000,OX2 6HX,2010-03-22,fhrs_4_en-GB,4,,FHRS,0
245729,Hayfield House,338-340 Banbury Road,Oxford,Oxfordshire,D'Overbroeck's College,Restaurant/Cafe/Canteen,1,0,,268383,5,,51.78074700000000,00600/0338/0/000,269,foodsafety@oxford.gov.uk,Oxford City,http://www.oxford.gov.uk,-1.26594300000000,OX2 7PR,2013-03-12,fhrs_5_en-GB,5,,FHRS,5
245730,11-13 Hollow Way,Oxford,Oxfordshire,,Dragon Bowl,Takeaway/sandwich shop,7844,5,,268745,10,,51.73515700000000,05870/0013/0/000,269,foodsafety@oxford.gov.uk,Oxford City,http://www.oxford.gov.uk,-1.20969900000000,OX4 2NA,2014-01-23,fhrs_3_en-GB,3,,FHRS,10
245731,Lynam School,306 Woodstock Road,Oxford,,Dragon School Pre-prep - Lynam's,School/college/university,7845,0,,269500,0,,51.77346300000000,13230/0306/2/000,269,foodsafety@oxford.gov.uk,Oxford City,http://www.oxford.gov.uk,-1.27001800000000,OX2 7NL,2014-12-05,fhrs_5_en-GB,5,,FHRS,0
245732,Dragon School,Bardwell Road,Oxford,Oxfordshire,Dragon School Trust Ltd,School/college/university,7845,0,,268393,0,,51.76781400000000,00640/0000/2/000,269,foodsafety@oxford.gov.uk,Oxford City,http://www.oxford.gov.uk,-1.25673400000000,OX2 6SS,2013-02-07,fhrs_5_en-GB,5,,FHRS,0
245733,202 Garsington Road,Oxford,Oxfordshire,,D's Caribbean Takeaway,Takeaway/sandwich shop,7844,10,,701758,10,,51.72859300000000,14/00062/COM,269,foodsafety@oxford.gov.uk,Oxford City,http://www.oxford.gov.uk,-1.19896800000000,OX4 6NQ,2014-09-04,fhrs_3_en-GB,3,,FHRS,10
245734,49 St Giles,Oxford,,,Eagle And Child,Pub/bar/nightclub,7843,0,,269363,0,,51.75696600000000,11070/0049/2/000,269,foodsafety@oxford.gov.uk,Oxford City,http://www.oxford.gov.uk,-1.26027300000000,OX1 3LU,2014-02-14,fhrs_5_en-GB,5,,FHRS,0
245735,East Oxford Life Long Learning Cent,Collins Street,Oxford,Oxfordshire,East Oxford Childrens Centre,Other catering premises,7841,5,,352380,0,,51.74886100000000,09/00028/COM,269,foodsafety@oxford.gov.uk,Oxford City,http://www.oxford.gov.uk,-1.23567800000000,OX4 1JP,2014-06-27,fhrs_5_en-GB,5,,FHRS,0
245736,62 James Street,Oxford,Oxfordshire,,East Oxford Conservative Club,Pub/bar/nightclub,7843,5,,268837,5,,51.74717400000000,06220/0062/0/000,269,foodsafety@oxford.gov.uk,Oxford City,http://www.oxford.gov.uk,-1.23756100000000,OX4 1EU,2010-09-24,fhrs_5_en-GB,5,,FHRS,5
245737,Union Street,Oxford,Oxfordshire,,East Oxford Primary School,School/college/university,7845,5,,269423,0,,51.74886100000000,12350/2000/2/000,269,foodsafety@oxford.gov.uk,Oxford City,http://www.oxford.gov.uk,-1.23567800000000,OX4 1JP,2014-11-13,fhrs_5_en-GB,5,,FHRS,5
245738,61A Woodstock Road,Oxford,Oxfordshire,,East West Foods,Retailers - other,4613,0,,269495,0,,51.76220100000000,13230/0061/A/000,269,foodsafety@oxford.gov.uk,Oxford City,http://www.oxford.gov.uk,-1.26341800000000,OX2 6HJ,2012-02-15,fhrs_5_en-GB,5,,FHRS,0
245739,152 Cowley Road,Oxford,Oxfordshire,,Eastern And Continental Stores,Retailers - other,4613,10,,268522,0,,51.74765500000000,03030/0152/0/000,269,foodsafety@oxford.gov.uk,Oxford City,http://www.oxford.gov.uk,-1.23691600000000,OX4 1JJ,2013-02-18,fhrs_4_en-GB,4,,FHRS,5
245740,Eastgate Hotel,73 High Street,Oxford,Oxfordshire,Eastgate Hotel And The High Table Brasserie And Bar,Restaurant/Cafe/Canteen,1,0,,269015,5,,51.75215000000000,07880/0023/2/000,269,foodsafety@oxford.gov.uk,Oxford City,http://www.oxford.gov.uk,-1.24935600000000,OX1 4BE,2014-04-28,fhrs_5_en-GB,5,,FHRS,5
245741,5 Queen Street,Oxford,Oxfordshire,,Eat,Takeaway/sandwich shop,7844,0,,269023,0,,51.75153300000000,08/00006/COM,269,foodsafety@oxford.gov.uk,Oxford City,http://www.oxford.gov.uk,-1.25847800000000,OX1 1EJ,2014-12-09,fhrs_5_en-GB,5,,FHRS,0
245742,Barton Neighbourhood Centre,Underhill Circus,Oxford,Oxfordshire,Eatwells Cafe,Other catering premises,7841,5,,269044,5,,51.76779600000000,08/00083/COM,269,foodsafety@oxford.gov.uk,Oxford City,http://www.oxford.gov.uk,-1.19653600000000,OX3 9LS,2012-12-05,fhrs_5_en-GB,5,,FHRS,5
245743,15 Holywell Street,Oxford,,,Edamame,Restaurant/Cafe/Canteen,1,5,,268751,5,,51.75501700000000,05920/0015/0/000,269,foodsafety@oxford.gov.uk,Oxford City,http://www.oxford.gov.uk,-1.25064100000000,OX1 3SA,2014-01-22,fhrs_5_en-GB,5,,FHRS,0
245744,38 Horspath Road,Oxford,,,Eden House,Hospitals/Childcare/Caring Premises,5,0,,268761,5,,51.73782100000000,05980/0038/0/000,269,foodsafety@oxford.gov.uk,Oxford City,http://www.oxford.gov.uk,-1.20076000000000,OX4 2QT,2011-11-16,fhrs_5_en-GB,5,,FHRS,0
245745,50 Horspath Road,Oxford,,,Eden House,Hospitals/Childcare/Caring Premises,5,0,,268762,5,,51.73782100000000,05980/0050/0/000,269,foodsafety@oxford.gov.uk,Oxford City,http://www.oxford.gov.uk,-1.20076000000000,OX4 2QT,2011-11-16,fhrs_5_en-GB,5,,FHRS,0
245746,67 Botley Road,Oxford,Oxfordshire,,Eggs Eggsetera,Takeaway/sandwich shop,7844,0,,268439,5,,51.75217700000000,01380/0067/0/000,269,foodsafety@oxford.gov.uk,Oxford City,http://www.oxford.gov.uk,-1.27812600000000,OX2 0BS,2014-01-16,fhrs_5_en-GB,5,,FHRS,0
245747,Restore,Elder Stubbs Allotments,Rymers Lane,Oxford,Elder Stubbs Garden Group,Other catering premises,7841,5,,269276,0,,51.73470200000000,10280/2002/2/000,269,foodsafety@oxford.gov.uk,Oxford City,http://www.oxford.gov.uk,-1.22092900000000,OX4 3LB,2013-01-02,fhrs_5_en-GB,5,,FHRS,0
245748,27 Salford Road,Oxford,Oxfordshire,,Elham's Lebanese Deli & Bistro,Other catering premises,7841,5,,717017,5,,51.76769400000000,14/00133/COM,269,foodsafety@oxford.gov.uk,Oxford City,http://www.oxford.gov.uk,-1.24215700000000,OX3 0RY,2014-10-31,fhrs_5_en-GB,5,,FHRS,5
245749,,,,,Emma George - Home Caterer,Mobile caterer,7846,5,,352383,10,,,12/00017/COM,269,foodsafety@oxford.gov.uk,Oxford City,http://www.oxford.gov.uk,,,2012-04-19,fhrs_4_en-GB,4,,FHRS,5
245750,Oxpens Service Station,Oxpens Road,Oxford,Oxfordshire,Esso Oxpens Service Station,Retailers - other,4613,5,,269138,5,,51.75006700000000,08900/2013/2/000,269,foodsafety@oxford.gov.uk,Oxford City,http://www.oxford.gov.uk,-1.26700500000000,OX1 1RX,2014-08-04,fhrs_5_en-GB,5,,FHRS,5
245751,59 Western Road,Oxford,Oxfordshire,,Ethos Hotel,Hotel/bed & breakfast/guest house,7842,0,,269163,0,,51.74478600000000,09/00002/COM,269,foodsafety@oxford.gov.uk,Oxford City,http://www.oxford.gov.uk,-1.25786500000000,OX1 4LF,2015-01-21,fhrs_5_en-GB,5,,FHRS,5
245752,The Oxford Combined Court Centre,St Aldate's,Oxford,Oxfordshire,Eurest Services,Restaurant/Cafe/Canteen,1,5,,269316,5,,51.74818000000000,10980/2005/2/000,269,foodsafety@oxford.gov.uk,Oxford City,http://www.oxford.gov.uk,-1.25708500000000,OX1 1TL,2013-02-26,fhrs_5_en-GB,5,,FHRS,0
245753,115 London Road,Headington,Oxford,Oxfordshire,Euro Foods,Retailers - other,4613,10,,269405,0,,51.76051700000000,12/00010/COM,269,foodsafety@oxford.gov.uk,Oxford City,http://www.oxford.gov.uk,-1.21034300000000,OX3 9HZ,2015-01-15,fhrs_4_en-GB,4,,FHRS,5
245754,48 George Street,Oxford,,,Eurobar,Hotel/bed & breakfast/guest house,7842,10,,268628,10,,51.75356400000000,04690/0048/2/000,269,foodsafety@oxford.gov.uk,Oxford City,http://www.oxford.gov.uk,-1.26248700000000,OX1 2AQ,2014-10-01,fhrs_3_en-GB,3,,FHRS,10
245755,Donnington Arms,147 - 151 Howard Street,Oxford,Oxfordshire,Everest Nepalese Restaurant And Bar,Pub/bar/nightclub,7843,10,,268804,5,,51.74099000000000,06010/0000/2/000,269,foodsafety@oxford.gov.uk,Oxford City,http://www.oxford.gov.uk,-1.23104600000000,OX4 3AZ,2013-03-15,fhrs_2_en-GB,2,,FHRS,15
245756,Turl Street,Oxford,,,Exeter College,School/college/university,7845,5,,269420,10,,51.75377600000000,12290/2008/2/000,269,foodsafety@oxford.gov.uk,Oxford City,http://www.oxford.gov.uk,-1.25629700000000,OX1 3DP,2013-10-29,fhrs_4_en-GB,4,,FHRS,0
245757,252 Cowley Road,Oxford,Oxfordshire,,Express Pizza (Oxford) Ltd,Takeaway/sandwich shop,7844,20,,268541,10,,51.74604400000000,03030/0252/0/000,269,foodsafety@oxford.gov.uk,Oxford City,http://www.oxford.gov.uk,-1.23249600000000,OX4 1UH,2015-01-09,fhrs_1_en-GB,1,,FHRS,15
245758,Kiosk 3,107 Gloucester Green,Oxford,Oxfordshire,Express Pizza And Al Amodi Deli,Takeaway/sandwich shop,7844,10,,661419,15,,51.75412000000000,14/00043/COM,269,foodsafety@oxford.gov.uk,Oxford City,http://www.oxford.gov.uk,-1.26224600000000,OX1 2BU,2014-05-01,fhrs_2_en-GB,2,,FHRS,10
245759,16 Glebelands,Oxford,Oxfordshire,,Fairview Inn,Pub/bar/nightclub,7843,5,,268645,0,,51.74596900000000,04820/0016/0/000,269,foodsafety@oxford.gov.uk,Oxford City,http://www.oxford.gov.uk,-1.20759800000000,OX3 7EN,2012-02-07,fhrs_2_en-GB,2,,FHRS,15
245760,Kiosk 1,105 Gloucester Green,Oxford,Oxfordshire,Falafel House,Takeaway/sandwich shop,7844,10,,661413,5,,51.75408400000000,04840/0105/0/000,269,foodsafety@oxford.gov.uk,Oxford City,http://www.oxford.gov.uk,-1.26226100000000,OX1 2BU,2014-02-13,fhrs_4_en-GB,4,,FHRS,0
245761,10-12 Friars Entry,Oxford,,,Far From The Madding Crowd,Pub/bar/nightclub,7843,,,668848,,,,04530/0012/2/000,269,foodsafety@oxford.gov.uk,Oxford City,http://www.oxford.gov.uk,,,2014-12-09,fhrs_5_en-GB,5,,FHRS,
245762,Barn To The Rear Of 107,Walton Street,Oxford,Oxfordshire,Farm Fresh Oxford,Retailers - other,4613,5,,731310,5,,51.76060200000000,15/00010/COM,269,foodsafety@oxford.gov.uk,Oxford City,http://www.oxford.gov.uk,-1.26663200000000,OX2 6AJ,2014-12-19,fhrs_4_en-GB,4,,FHRS,10
245763,Pembroke College,Brewer Street,Oxford,Oxfordshire,Farthings Cafe - Pembroke College,Other catering premises,7841,5,,571965,5,,51.75008900000000,13/00048/COM,269,foodsafety@oxford.gov.uk,Oxford City,http://www.oxford.gov.uk,-1.25754600000000,OX1 1DW,2013-07-11,fhrs_5_en-GB,5,,FHRS,0
245764,121 Covered Market,Market Street,Oxford,Oxfordshire,Fasta Pasta,Retailers - other,4613,0,,701756,0,,51.75262700000000,13432/0121/3/000,269,foodsafety@oxford.gov.uk,Oxford City,http://www.oxford.gov.uk,-1.25650500000000,OX1 3DZ,2014-08-15,fhrs_5_en-GB,5,,FHRS,5
245765,55 Westlands Drive,Oxford,Oxfordshire,,Fat Boyz Pizza,Takeaway/sandwich shop,7844,20,,268769,15,,51.76907500000000,06/00021/COM,269,foodsafety@oxford.gov.uk,Oxford City,http://www.oxford.gov.uk,-1.22361300000000,OX3 9QS,2014-07-30,fhrs_1_en-GB,1,,FHRS,10
245766,Carfax Gardens,Carfax,Oxford,Oxfordshire,Fernando's,Restaurant/Cafe/Canteen,1,5,,268462,10,,,02070/2000/2/000,269,foodsafety@oxford.gov.uk,Oxford City,http://www.oxford.gov.uk,,,2013-11-25,fhrs_3_en-GB,3,,FHRS,10
245767,Ferry Pool Road,Oxford,,,Ferry Sports Centre,Retailers - other,4613,,,268590,,,51.77587500000000,04230/2002/3/001,269,foodsafety@oxford.gov.uk,Oxford City,http://www.oxford.gov.uk,-1.26313800000000,OX2 7DP,2010-03-10,fhrs_exempt_en-GB,Exempt,,FHRS,
245768,The Presbytery,322 Woodstock Road,Oxford,Oxfordshire,Field House Montessori Nursery,Hospitals/Childcare/Caring Premises,5,0,,269502,0,,51.78251900000000,13230/0322/0/000,269,foodsafety@oxford.gov.uk,Oxford City,http://www.oxford.gov.uk,-1.27329300000000,OX2 7NS,2012-02-14,fhrs_5_en-GB,5,,FHRS,5
245769,35-36 St Clement's Street,Oxford,Oxfordshire,,Fishers Restaurant,Restaurant/Cafe/Canteen,1,10,,269346,10,,51.75033000000000,11040/0036/0/000,269,foodsafety@oxford.gov.uk,Oxford City,http://www.oxford.gov.uk,-1.24311400000000,OX4 1AB,2013-07-08,fhrs_2_en-GB,2,,FHRS,15
245770,528 Banbury Road,Oxford,,,Five Mile View Guest House,Hotel/bed & breakfast/guest house,7842,10,,268388,5,,51.79170700000000,00600/0528/0/000,269,foodsafety@oxford.gov.uk,Oxford City,http://www.oxford.gov.uk,-1.27162300000000,OX2 8EG,2013-02-07,fhrs_4_en-GB,4,,FHRS,0
245771,Family Centre,Florence Park,Rymers Lane,Oxford,Florence Park Childrens Centre,Restaurant/Cafe/Canteen,1,10,,268877,0,,51.73622800000000,07/00040/COM,269,foodsafety@oxford.gov.uk,Oxford City,http://www.oxford.gov.uk,-1.22329300000000,OX4 3JZ,2010-09-30,fhrs_4_en-GB,4,,FHRS,5
245772,Florence Park Community Centre,Cornwallis Road,Oxford,Oxfordshire,Florence Park Community Centre And Social Club,Other catering premises,7841,5,,268491,5,,51.73527600000000,02900/2000/2/000,269,foodsafety@oxford.gov.uk,Oxford City,http://www.oxford.gov.uk,-1.23039000000000,OX4 3NH,2012-02-06,fhrs_5_en-GB,5,,FHRS,0
245773,Old Toll House,Folly Bridge,Oxford,Oxfordshire,Folly Bridge Stores,Retailers - other,4613,,,268596,,,51.74604300000000,04390/2002/2/000,269,foodsafety@oxford.gov.uk,Oxford City,http://www.oxford.gov.uk,-1.25616400000000,OX1 4LB,2014-01-14,fhrs_exempt_en-GB,Exempt,,FHRS,
245774,Harbord Road,Oxford,Oxfordshire,,Food Kiosk,Takeaway/sandwich shop,7844,0,,268561,0,,51.79092600000000,03310/2006/2/000,269,foodsafety@oxford.gov.uk,Oxford City,http://www.oxford.gov.uk,-1.26174700000000,OX2 8ES,2010-05-25,fhrs_5_en-GB,5,,FHRS,0
245775,Unit 7A,Ozone Leisure Park,Grenoble Road,Oxford,Frankie And Benny's,Restaurant/Cafe/Canteen,1,5,,268674,0,,51.71592300000000,05/00020/COM,269,foodsafety@oxford.gov.uk,Oxford City,http://www.oxford.gov.uk,-1.20809400000000,OX4 4XP,2014-01-16,fhrs_5_en-GB,5,,FHRS,5
245776,FREUD,119 Walton Street,Oxford,Oxfordshire,Freuds,Restaurant/Cafe/Canteen,1,0,,269452,0,,51.75834500000000,12560/2017/2/000,269,foodsafety@oxford.gov.uk,Oxford City,http://www.oxford.gov.uk,-1.26361200000000,OX2 6AH,2014-09-17,fhrs_5_en-GB,5,,FHRS,0
245777,98 St Aldate's,Oxford,Oxfordshire,,Frewen Club,Pub/bar/nightclub,7843,0,,269310,5,,51.75077100000000,10980/0098/2/000,269,foodsafety@oxford.gov.uk,Oxford City,http://www.oxford.gov.uk,-1.25730300000000,OX1 1BT,2013-02-26,fhrs_5_en-GB,5,,FHRS,0
245778,5 Broad Street,Oxford,Oxfordshire,,Fudge Kitchen,Retailers - other,4613,0,,269190,0,,51.75400200000000,09/00081/COM,269,foodsafety@oxford.gov.uk,Oxford City,http://www.oxford.gov.uk,-1.25781500000000,OX1 3AJ,2013-02-26,fhrs_5_en-GB,5,,FHRS,0
245779,,,,,Gaia Products,Mobile caterer,7846,5,,683086,5,,,14/00077/COM,269,foodsafety@oxford.gov.uk,Oxford City,http://www.oxford.gov.uk,,,2014-07-15,fhrs_5_en-GB,5,,FHRS,5
245780,Ozone Leisure Park,Grenoble Road,Oxford,Oxfordshire,Gala Bingo,Pub/bar/nightclub,7843,0,,268580,5,,51.71592300000000,04/00119/COM,269,foodsafety@oxford.gov.uk,Oxford City,http://www.oxford.gov.uk,-1.20809400000000,OX4 4XP,2013-12-20,fhrs_5_en-GB,5,,FHRS,0
245781,209 Banbury Road,Oxford,Oxfordshire,,Gatineau,Retailers - other,4613,5,,268871,5,,51.77677700000000,07/00022/COM,269,foodsafety@oxford.gov.uk,Oxford City,http://www.oxford.gov.uk,-1.26497900000000,OX2 7HQ,2013-04-24,fhrs_5_en-GB,5,,FHRS,5
245782,61A Banbury Road,Oxford,Oxfordshire,,Gee's Restaurant,Restaurant/Cafe/Canteen,1,10,,268353,0,,51.76421800000000,00600/0061/A/000,269,foodsafety@oxford.gov.uk,Oxford City,http://www.oxford.gov.uk,-1.26108200000000,OX2 6PE,2013-11-28,fhrs_4_en-GB,4,,FHRS,5
245783,2 Grays Road,Headington,Oxford,,General Stores And Newsagent,Retailers - other,4613,5,,268663,5,,51.75540300000000,04980/0002/0/000,269,foodsafety@oxford.gov.uk,Oxford City,http://www.oxford.gov.uk,-1.22150100000000,OX3 7QA,2009-03-10,fhrs_5_en-GB,5,,FHRS,5
245784,94 St Aldate's,Oxford,Oxfordshire,,George And Danver,Restaurant/Cafe/Canteen,1,5,,269309,5,,51.75077100000000,10980/0094/0/000,269,foodsafety@oxford.gov.uk,Oxford City,http://www.oxford.gov.uk,-1.25730300000000,OX1 1BT,2011-06-06,fhrs_4_en-GB,4,,FHRS,10
245785,Unit 2,Dartington House,55 Little Clarendon Street,Oxford,George And Davis',Manufacturers/packers,7839,0,,268936,5,,51.75856500000000,07110/0055/3/004,269,foodsafety@oxford.gov.uk,Oxford City,http://www.oxford.gov.uk,-1.26149300000000,OX1 2HS,2014-05-09,fhrs_5_en-GB,5,,FHRS,0
245786,John Radcliffe Hospital,Headley Way,Oxford,Oxfordshire,George Pickering Educational Centre Cafe (Level 3),Restaurant/Cafe/Canteen,1,0,,268704,5,,51.76388000000000,05500/2026/2/000,269,foodsafety@oxford.gov.uk,Oxford City,http://www.oxford.gov.uk,-1.21981900000000,OX3 9DU,2014-01-03,fhrs_5_en-GB,5,,FHRS,0
245787,16 Hertford Street,Oxford,,,Gibbons Bakery,Retailers - other,4613,10,,268710,10,,51.74260900000000,05690/0016/0/000,269,foodsafety@oxford.gov.uk,Oxford City,http://www.oxford.gov.uk,-1.23245300000000,OX4 3AJ,2013-05-29,fhrs_2_en-GB,2,,FHRS,15
245788,94 Gloucester Green,Oxford,,,Gino's Spaghetti House,Restaurant/Cafe/Canteen,1,5,,268648,0,,51.75439500000000,04840/0094/0/000,269,foodsafety@oxford.gov.uk,Oxford City,http://www.oxford.gov.uk,-1.26176300000000,OX1 2DF,2013-10-15,fhrs_5_en-GB,5,,FHRS,5
245789,71 George Street,Oxford,Oxfordshire,,Giraffe,Restaurant/Cafe/Canteen,1,5,,269022,5,,51.75332400000000,08/00004/COM,269,foodsafety@oxford.gov.uk,Oxford City,http://www.oxford.gov.uk,-1.26291100000000,OX1 2BQ,2012-10-18,fhrs_5_en-GB,5,,FHRS,5
245790,7 Girdlestone Road,Headington,Oxford,,Girdlestone Stores,Retailers - other,4613,5,,268640,5,,51.75127100000000,04780/0007/0/000,269,foodsafety@oxford.gov.uk,Oxford City,http://www.oxford.gov.uk,-1.20860600000000,OX3 7LZ,2014-12-01,fhrs_4_en-GB,4,,FHRS,10
245791,99 St Aldate's,Oxford,Oxfordshire,,Globe News Market,Retailers - other,4613,20,,268926,15,,51.75077100000000,07/00453/COM,269,foodsafety@oxford.gov.uk,Oxford City,http://www.oxford.gov.uk,-1.25730300000000,OX1 1BT,2013-10-14,fhrs_1_en-GB,1,,FHRS,15
245792,1 New Inn Hall Street,Oxford,Oxfordshire,,Globe Newsagents,Retailers - other,4613,20,,269077,5,,51.75304100000000,08210/0001/0/000,269,foodsafety@oxford.gov.uk,Oxford City,http://www.oxford.gov.uk,-1.26084400000000,OX1 2DH,2014-09-30,fhrs_1_en-GB,1,,FHRS,5
245793,17 Woodstock Road,Oxford,Oxfordshire,,Globe Newsmarket,Retailers - other,4613,10,,269491,5,,51.75915900000000,13230/0017/0/000,269,foodsafety@oxford.gov.uk,Oxford City,http://www.oxford.gov.uk,-1.26145400000000,OX2 6HA,2014-07-30,fhrs_2_en-GB,2,,FHRS,15
245794,2 College Lane,Littlemore,Oxford,,Golden Ball,Pub/bar/nightclub,7843,5,,268478,5,,51.72194100000000,02680/0002/2/000,269,foodsafety@oxford.gov.uk,Oxford City,http://www.oxford.gov.uk,-1.22065600000000,OX4 4LQ,2012-09-25,fhrs_5_en-GB,5,,FHRS,5
245795,29-31 George Street,Oxford,Oxfordshire,,Gourmet Burger Kitchen,Restaurant/Cafe/Canteen,1,0,,268903,5,,51.75350500000000,07/00318/COM,269,foodsafety@oxford.gov.uk,Oxford City,http://www.oxford.gov.uk,-1.26037300000000,OX1 2AY,2012-05-28,fhrs_5_en-GB,5,,FHRS,0
245796,Grandpont Nursery,47 White House Road,Oxford,Oxfordshire,Grandpont Nursery School,School/college/university,7845,0,,269471,5,,51.74300000000000,12890/2010/0/000,269,foodsafety@oxford.gov.uk,Oxford City,http://www.oxford.gov.uk,-1.25980600000000,OX1 4QH,2014-02-10,fhrs_5_en-GB,5,,FHRS,0
245797,BMW UK Manufacturing Ltd,Garsington Road,Oxford,Oxfordshire,Graysons Restaurants,Restaurant/Cafe/Canteen,1,0,,269025,0,,51.72417900000000,08/00021/COM,269,foodsafety@oxford.gov.uk,Oxford City,http://www.oxford.gov.uk,-1.21053400000000,OX4 5NL,2014-01-20,fhrs_5_en-GB,5,,FHRS,0
245798,84 Cowley Road,Oxford,Oxfordshire,,Greece Greek Taverna,Restaurant/Cafe/Canteen,1,10,,631365,10,,51.74873200000000,14/00013/COM,269,foodsafety@oxford.gov.uk,Oxford City,http://www.oxford.gov.uk,-1.24075100000000,OX4 1JB,2014-01-31,fhrs_3_en-GB,3,,FHRS,5
245799,326 Abingdon Road,Oxford,Oxfordshire,,Green Gables,Hotel/bed & breakfast/guest house,7842,5,,268332,5,,51.73571700000000,00050/0326/0/000,269,foodsafety@oxford.gov.uk,Oxford City,http://www.oxford.gov.uk,-1.25133700000000,OX1 4TE,2010-01-23,fhrs_5_en-GB,5,,FHRS,5
245800,Green Gates,Hernes Road,Oxford,,Green Gates Nursing Home,Hospitals/Childcare/Caring Premises,5,5,,268708,5,,51.78303700000000,05660/2000/2/000,269,foodsafety@oxford.gov.uk,Oxford City,http://www.oxford.gov.uk,-1.26676100000000,OX2 7PT,2013-12-19,fhrs_5_en-GB,5,,FHRS,0
245801,Woodstock Road,Oxford,Oxfordshire,,Green Templeton College,School/college/university,7845,5,,269507,5,,51.76137900000000,13230/2013/2/000,269,foodsafety@oxford.gov.uk,Oxford City,http://www.oxford.gov.uk,-1.26273600000000,OX2 6HG,2014-03-05,fhrs_5_en-GB,5,,FHRS,0
245802,78A Cowley Road,Oxford,Oxfordshire,,Green Village Oxford,Retailers - other,4613,10,,269261,10,,51.74873200000000,10/00072/COM,269,foodsafety@oxford.gov.uk,Oxford City,http://www.oxford.gov.uk,-1.24075100000000,OX4 1JB,2013-11-27,fhrs_3_en-GB,3,,FHRS,10
245803,50 St Giles',Oxford,Oxfordshire,,Greens Cafe,Restaurant/Cafe/Canteen,1,20,,268886,15,,51.75696600000000,07/00067/COM,269,foodsafety@oxford.gov.uk,Oxford City,http://www.oxford.gov.uk,-1.26027300000000,OX1 3LU,2014-02-14,fhrs_1_en-GB,1,,FHRS,0
245804,118 London Road,Headington,Oxford,Oxfordshire,Greggs,Manufacturers/packers,7839,0,,269267,0,,51.75987700000000,10/00092/COM,269,foodsafety@oxford.gov.uk,Oxford City,http://www.oxford.gov.uk,-1.21144100000000,OX3 9AX,2014-01-06,fhrs_5_en-GB,5,,FHRS,0
245805,121 Pound Way,Oxford,Oxfordshire,,Greggs The Bakers,Retailers - other,4613,0,,269205,0,,51.73175800000000,09460/0121/0/000,269,foodsafety@oxford.gov.uk,Oxford City,http://www.oxford.gov.uk,-1.21772200000000,OX4 3XH,2014-09-10,fhrs_4_en-GB,4,,FHRS,10
245806,46 Balliol Court,Rutherway,Oxford,Oxfordshire,Gyoza And Buns Oxford,Mobile caterer,7846,5,,705398,5,,51.76494200000000,14/00047/COM,269,foodsafety@oxford.gov.uk,Oxford City,http://www.oxford.gov.uk,-1.27185100000000,OX2 6QZ,2014-10-02,fhrs_5_en-GB,5,,FHRS,5
245807,42 Garsington Road,Oxford,Oxfordshire,,Hacketts,Retailers - other,4613,10,,268607,5,,51.73300300000000,04630/0042/0/000,269,foodsafety@oxford.gov.uk,Oxford City,http://www.oxford.gov.uk,-1.20885300000000,OX4 2LG,2014-02-10,fhrs_3_en-GB,3,,FHRS,10
245808,The Half Moon,17-18 St Clement's Street,Oxford,Oxfordshire,Half Moon,Pub/bar/nightclub,7843,0,,269344,5,,51.75033000000000,11040/0017/2/000,269,foodsafety@oxford.gov.uk,Oxford City,http://www.oxford.gov.uk,-1.24311400000000,OX4 1AB,2012-01-24,fhrs_5_en-GB,5,,FHRS,5
245809,Unit 23,The Chiltern Small Business Centre,198 Garsington Road,Oxford,Hall's Catering,Mobile caterer,7846,5,,269247,5,,51.72886300000000,10/00044/COM,269,foodsafety@oxford.gov.uk,Oxford City,http://www.oxford.gov.uk,-1.20174400000000,OX4 6NG,2010-06-09,fhrs_5_en-GB,5,,FHRS,5
245810,Flat 1,217 Iffley Road,Oxford,Oxfordshire,Handmade Bangladeshi Snacks,Other catering premises,7841,5,,269335,5,,51.74239300000000,11/00058/COM,269,foodsafety@oxford.gov.uk,Oxford City,http://www.oxford.gov.uk,-1.23804700000000,OX4 1SQ,2011-07-20,fhrs_5_en-GB,5,,FHRS,5
245811,,,,,Happy Cakes UK Ltd,Retailers - other,4613,0,,268573,0,,,04/00022/COM,269,foodsafety@oxford.gov.uk,Oxford City,http://www.oxford.gov.uk,,,2013-03-18,fhrs_5_en-GB,5,,FHRS,0
245812,1-2 Cranham Terrace,Oxford,,,Harcourt Arms,Pub/bar/nightclub,7843,20,,268549,5,,51.75979700000000,03050/0001/0/000,269,foodsafety@oxford.gov.uk,Oxford City,http://www.oxford.gov.uk,-1.26857200000000,OX2 6DG,2012-11-20,fhrs_1_en-GB,1,,FHRS,0
245813,19 Park End Street,Oxford,Oxfordshire,,Haris' News,Retailers - other,4613,20,,269149,15,,51.75252000000000,08980/0019/0/000,269,foodsafety@oxford.gov.uk,Oxford City,http://www.oxford.gov.uk,-1.26811000000000,OX1 1HU,2014-08-26,fhrs_1_en-GB,1,,FHRS,15
245814,6000 Garsington Road,Oxford,Oxfordshire,,Harley-Davidson (Europe) Ltd,Restaurant/Cafe/Canteen,1,5,,268799,5,,51.73256700000000,06/00232/COM,269,foodsafety@oxford.gov.uk,Oxford City,http://www.oxford.gov.uk,-1.20560300000000,OX4 2DQ,2013-01-03,fhrs_5_en-GB,5,,FHRS,5
245815,307 Iffley Road,Oxford,,,Harris Guest House,Hotel/bed & breakfast/guest house,7842,10,,268827,5,,51.73871200000000,06100/0307/2/000,269,foodsafety@oxford.gov.uk,Oxford City,http://www.oxford.gov.uk,-1.23460400000000,OX4 4AG,2014-12-01,fhrs_4_en-GB,4,,FHRS,5
245816,Mansfield Road,Oxford,Oxfordshire,,Harris Manchester College,School/college/university,7845,5,,268988,5,,51.75562800000000,07560/2003/2/000,269,foodsafety@oxford.gov.uk,Oxford City,http://www.oxford.gov.uk,-1.25192100000000,OX1 3TD,2013-03-14,fhrs_5_en-GB,5,,FHRS,5
245817,Street Trading Site 7 Opposite Coun,New Road,Oxford,Oxfordshire,Harry's Grill,Mobile caterer,7846,20,,581818,20,,,13/00058/COM,269,foodsafety@oxford.gov.uk,Oxford City,http://www.oxford.gov.uk,,,2013-09-02,fhrs_1_en-GB,1,,FHRS,10
245818,Hawkwell House Hotel,Church Way,Oxford,Oxfordshire,Hawkwell House Hotel And Arezzo Restaurant,Restaurant/Cafe/Canteen,1,20,,268473,20,,51.73181900000000,02530/2027/2/000,269,foodsafety@oxford.gov.uk,Oxford City,http://www.oxford.gov.uk,-1.23372100000000,OX4 4DZ,2014-11-19,fhrs_0_en-GB,0,,FHRS,15
245819,21 - 23 Covered Market,Market Street,Oxford,Oxfordshire,Haymans Fisheries,Retailers - other,4613,10,,269518,0,,51.75277300000000,13432/0021/3/000,269,foodsafety@oxford.gov.uk,Oxford City,http://www.oxford.gov.uk,-1.25692200000000,OX1 3DU,2014-03-10,fhrs_4_en-GB,4,,FHRS,0
