,addressline1,addressline2,addressline3,addressline4,businessname,businesstype,businesstypeid,confidenceinmanagement,extractdate,fhrsid,hygiene,itemcount,latitude,localauthoritybusinessid,localauthoritycode,localauthorityemailaddress,localauthorityname,localauthoritywebsite,longitude,postcode,ratingdate,ratingkey,ratingvalue,returncode,schemetype,structural
231493,Burrows Lea Farm Hook Lane,,Shere,Surrey,10 Flavours Ltd,Other catering premises,7841,5,,649940,0,,51.21093900000000,4814,307,HCCS@guildford.gov.uk,Guildford,http://www.guildford.gov.uk,-0.45706800000000,GU5 9QQ,2013-11-18,fhrs_4_en-GB,4,,FHRS,10
231494,Abbeywood Wharf Road,,Ash Vale,Surrey,Abbeywood Elderly Home,Hospitals/Childcare/Caring Premises,5,0,,649724,0,,51.25908600000000,4243,307,HCCS@guildford.gov.uk,Guildford,http://www.guildford.gov.uk,-0.71799800000000,GU12 5AX,2014-10-24,fhrs_5_en-GB,5,,FHRS,5
231495,Accolade House Old Portsmouth Road,Peasmarsh,Guildford,Surrey,Accolade Wines Ltd,Other catering premises,7841,0,,649401,0,,51.21539000000000,2312,307,HCCS@guildford.gov.uk,Guildford,http://www.guildford.gov.uk,-0.58068500000000,GU3 1LR,2015-01-23,fhrs_5_en-GB,5,,FHRS,0
231496,Adult Education Centre Sydenham Road,,Guildford,Surrey,Adult Education Centre,School/college/university,7845,5,,649903,0,,51.23656700000000,4651,307,HCCS@guildford.gov.uk,Guildford,http://www.guildford.gov.uk,-0.56808700000000,GU1 3RX,2011-11-16,fhrs_5_en-GB,5,,FHRS,0
231497,"Al Vicolo Restaurant, 1 - 5 Swan Lane",,Guildford,Surrey,Al Vicolo Restaurant,Other catering premises,7841,5,,649794,5,,51.23597100000000,436,307,HCCS@guildford.gov.uk,Guildford,http://www.guildford.gov.uk,-0.57453700000000,GU1 4EQ,2013-08-20,fhrs_5_en-GB,5,,FHRS,0
231498,"Albury House, 6 Albury Road",,Guildford,Surrey,Albury House,Hospitals/Childcare/Caring Premises,5,10,,649260,5,,51.23722600000000,1149,307,HCCS@guildford.gov.uk,Guildford,http://www.guildford.gov.uk,-0.55437200000000,GU1 2BT,2014-03-11,fhrs_3_en-GB,3,,FHRS,10
231499,Albury Village Hall The Street,,Albury,Surrey,Albury Village Hall,Other catering premises,7841,,,650168,,,,641,307,HCCS@guildford.gov.uk,Guildford,http://www.guildford.gov.uk,,,2011-12-13,fhrs_exempt_en-GB,Exempt,,FHRS,
231500,Aldro School Lombard Street,,Shackleford,Surrey,Aldro School,School/college/university,7845,5,,650027,0,,51.20068100000000,5169,307,HCCS@guildford.gov.uk,Guildford,http://www.guildford.gov.uk,-0.66492900000000,GU8 6AS,2013-09-20,fhrs_5_en-GB,5,,FHRS,5
231501,47 Woodbridge Hill,,Guildford,Surrey,Ali Grocery And Butchers,Retailers - other,4613,5,,650163,5,,51.24895300000000,5642,307,HCCS@guildford.gov.uk,Guildford,http://www.guildford.gov.uk,-0.58686000000000,GU2 9AD,2014-01-31,fhrs_5_en-GB,5,,FHRS,5
231502,16 - 17 North Street,,Guildford,Surrey,All Bar One,Other catering premises,7841,0,,649869,0,,51.23699800000000,4530,307,HCCS@guildford.gov.uk,Guildford,http://www.guildford.gov.uk,-0.57317300000000,GU1 4AF,2011-09-22,fhrs_5_en-GB,5,,FHRS,0
231503,All Saints Church Vicarage Gate,,Guildford,Surrey,All Saints Church,Other catering premises,7841,,,649560,,,,3539,307,HCCS@guildford.gov.uk,Guildford,http://www.guildford.gov.uk,,,2011-08-24,fhrs_exempt_en-GB,Exempt,,FHRS,
231504,57 Ladymead,,Guildford,Surrey,Allianz Insurance PLC,Other catering premises,7841,0,,650075,0,,51.24881300000000,5425,307,HCCS@guildford.gov.uk,Guildford,http://www.guildford.gov.uk,-0.57682000000000,GU1 1BZ,2013-01-17,fhrs_5_en-GB,5,,FHRS,0
231505,,,,,Amani's,Other catering premises,7841,5,,728870,5,,,5705,307,HCCS@guildford.gov.uk,Guildford,http://www.guildford.gov.uk,,,2014-10-29,fhrs_5_en-GB,5,,FHRS,5
231506,Resources Building University Of Surrey,,Guildford,Surrey,Amigo,Retailers - other,4613,10,,650140,0,,51.24258200000000,5597,307,HCCS@guildford.gov.uk,Guildford,http://www.guildford.gov.uk,-0.58795800000000,GU2 7XH,2013-11-13,fhrs_4_en-GB,4,,FHRS,5
231507,"The Astolat, 9 Old Palace Road",,Guildford,Surrey,Anaj Indian Food Takeaway,Takeaway/sandwich shop,7844,5,,671679,0,,51.23684400000000,5636,307,HCCS@guildford.gov.uk,Guildford,http://www.guildford.gov.uk,-0.59015300000000,GU2 7TU,2014-04-29,fhrs_4_en-GB,4,,FHRS,10
231508,"Anchor And Horseshoes, 194 London Road",,Guildford,Surrey,Anchor & Horseshoes,Pub/bar/nightclub,7843,0,,649716,5,,51.25431900000000,4232,307,HCCS@guildford.gov.uk,Guildford,http://www.guildford.gov.uk,-0.54986700000000,GU1 1XR,2014-11-26,fhrs_5_en-GB,5,,FHRS,5
231509,15 Harvey Road,,Guildford,Surrey,Angel View,Hotel/bed & breakfast/guest house,7842,,,650103,,,51.23480200000000,5509,307,HCCS@guildford.gov.uk,Guildford,http://www.guildford.gov.uk,-0.56785500000000,GU1 3SG,2014-01-09,fhrs_exempt_en-GB,Exempt,,FHRS,
231510,High Street Market,,,,Anilia's Authentic Sauces,Retailers - other,4613,,,650150,,,,5612,307,HCCS@guildford.gov.uk,Guildford,http://www.guildford.gov.uk,,,2013-02-05,fhrs_exempt_en-GB,Exempt,,FHRS,
231511,,,,,Annabel's Village Kitchen,Other catering premises,7841,5,,650186,5,,,771,307,HCCS@guildford.gov.uk,Guildford,http://www.guildford.gov.uk,,,2013-07-25,fhrs_5_en-GB,5,,FHRS,0
231512,Occam Court Occam Road,Surrey Research Park,Guildford,Surrey,Aramark Ltd -Lionhead,Other catering premises,7841,0,,650039,0,,,5194,307,HCCS@guildford.gov.uk,Guildford,http://www.guildford.gov.uk,,,2013-01-31,fhrs_5_en-GB,5,,FHRS,0
231513,Army Target Shooting Club Club Row,Bisley Camp,Brookwood,Surrey,Army Target Shooting Club,Pub/bar/nightclub,7843,10,,650086,0,,51.31094600000000,5465,307,HCCS@guildford.gov.uk,Guildford,http://www.guildford.gov.uk,-0.65557600000000,GU24 0NY,2013-07-12,fhrs_4_en-GB,4,,FHRS,0
231514,Artists Rifle Club Club Row,Bisley Camp,Brookwood,Surrey,Artists Rifle Clubhouse,Pub/bar/nightclub,7843,10,,649902,5,,51.31094600000000,4643,307,HCCS@guildford.gov.uk,Guildford,http://www.guildford.gov.uk,-0.65557600000000,GU24 0NY,2013-07-12,fhrs_4_en-GB,4,,FHRS,5
231515,Ash Grange Primary School Ash Church Road,,Ash,Surrey,Ash Grange Primary School,School/college/university,7845,0,,649558,0,,51.24896300000000,353,307,HCCS@guildford.gov.uk,Guildford,http://www.guildford.gov.uk,-0.71489800000000,GU12 6LX,2013-01-28,fhrs_5_en-GB,5,,FHRS,0
231516,Ash Manor School Manor Road,,Ash,Surrey,Ash Manor School,School/college/university,7845,0,,649813,0,,51.23941600000000,4400,307,HCCS@guildford.gov.uk,Guildford,http://www.guildford.gov.uk,-0.72832900000000,GU12 6QH,2013-01-29,fhrs_5_en-GB,5,,FHRS,0
231517,Ashley House Christmas Hill,,Shalford,Surrey,Ashley House,Hospitals/Childcare/Caring Premises,5,5,,649612,0,,51.21192200000000,3797,307,HCCS@guildford.gov.uk,Guildford,http://www.guildford.gov.uk,-0.56031900000000,GU4 8HN,2014-07-30,fhrs_5_en-GB,5,,FHRS,5
231518,Ashley Park Nursing Home The Street,,West Clandon,Surrey,Ashley Park Nursing Home,Hospitals/Childcare/Caring Premises,5,0,,649725,0,,51.25568500000000,4244,307,HCCS@guildford.gov.uk,Guildford,http://www.guildford.gov.uk,-0.50266100000000,GU4 7SU,2013-09-05,fhrs_5_en-GB,5,,FHRS,5
231519,"Merrow Heights, 255 - 257 Epsom Road",,Guildford,Surrey,Ashuka Tandoori,Other catering premises,7841,5,,650142,5,,51.24627700000000,5599,307,HCCS@guildford.gov.uk,Guildford,http://www.guildford.gov.uk,-0.52944500000000,GU1 2RE,2013-05-21,fhrs_5_en-GB,5,,FHRS,5
231520,16 - 19 Chapel Street,,Guildford,Surrey,Ask Restaurants Ltd,Other catering premises,7841,5,,649766,0,,51.23495000000000,4310,307,HCCS@guildford.gov.uk,Guildford,http://www.guildford.gov.uk,-0.57336600000000,GU1 3UL,2013-04-24,fhrs_5_en-GB,5,,FHRS,0
231521,Asperion Hillside Hotel Perry Hill,,Worplesdon,Surrey,Asperion Hillside Hotel,Hotel/bed & breakfast/guest house,7842,0,,649786,0,,51.27730500000000,4342,307,HCCS@guildford.gov.uk,Guildford,http://www.guildford.gov.uk,-0.60928800000000,GU3 3RF,2013-04-11,fhrs_5_en-GB,5,,FHRS,0
231522,73 Farnham Road,,Guildford,Surrey,Asperion Hotel,Hotel/bed & breakfast/guest house,7842,5,,649906,5,,51.23397900000000,4655,307,HCCS@guildford.gov.uk,Guildford,http://www.guildford.gov.uk,-0.58972500000000,GU2 7PF,2013-04-11,fhrs_5_en-GB,5,,FHRS,0
231523,Stag Hill House University Of Surrey,,Guildford,Surrey,Assessment and Qualifications Alliance,Restaurant/Cafe/Canteen,1,5,,649570,5,,51.23958200000000,3585,307,HCCS@guildford.gov.uk,Guildford,http://www.guildford.gov.uk,-0.59052800000000,GU2 7TW,2014-08-04,fhrs_5_en-GB,5,,FHRS,0
231524,155 Send Road,,Send,Surrey,Astalet Cafe,Restaurant/Cafe/Canteen,1,5,,649664,5,,51.29146100000000,4087,307,HCCS@guildford.gov.uk,Guildford,http://www.guildford.gov.uk,-0.53134300000000,GU23 7EZ,2013-04-08,fhrs_5_en-GB,5,,FHRS,0
231525,"The Astolat, 9 Old Palace Road",,Guildford,Surrey,Astolat,Pub/bar/nightclub,7843,5,,649720,5,,51.23684400000000,4236,307,HCCS@guildford.gov.uk,Guildford,http://www.guildford.gov.uk,-0.59015300000000,GU2 7TU,2013-06-03,fhrs_5_en-GB,5,,FHRS,5
231526,Sports Facilites Lawn Bowls Pavilion Lido Road,,Guildford,Surrey,Astolat Bowling Club,Pub/bar/nightclub,7843,5,,649296,5,,,1331,307,HCCS@guildford.gov.uk,Guildford,http://www.guildford.gov.uk,,,2011-12-05,fhrs_5_en-GB,5,,FHRS,5
231527,Unit 71 The Friary Shopping Centre Level One,,Guildford,Surrey,Auntie Annes,Takeaway/sandwich shop,7844,10,,649937,0,,51.23684300000000,4805,307,HCCS@guildford.gov.uk,Guildford,http://www.guildford.gov.uk,-0.57667300000000,GU1 4YL,2014-04-28,fhrs_4_en-GB,4,,FHRS,0
231528,Avaya House Cathedral Hill,,Guildford,Surrey,Avaya House,Restaurant/Cafe/Canteen,1,0,,649538,5,,51.24643400000000,3378,307,HCCS@guildford.gov.uk,Guildford,http://www.guildford.gov.uk,-0.59046200000000,GU2 7YB,2014-07-23,fhrs_5_en-GB,5,,FHRS,5
231529,,,,,Azure Events Ltd,Other catering premises,7841,5,,649350,5,,,1917,307,HCCS@guildford.gov.uk,Guildford,http://www.guildford.gov.uk,,,2012-07-04,fhrs_5_en-GB,5,,FHRS,0
231530,,,,,Babean,Other catering premises,7841,5,,650202,5,,,879,307,HCCS@guildford.gov.uk,Guildford,http://www.guildford.gov.uk,,,2013-10-21,fhrs_5_en-GB,5,,FHRS,5
231531,,,,,Baffers Catering,Other catering premises,7841,5,,649527,5,,,3303,307,HCCS@guildford.gov.uk,Guildford,http://www.guildford.gov.uk,,,2014-03-11,fhrs_5_en-GB,5,,FHRS,0
231532,Fc2 The Friary Shopping Centre Level Three,,Guildford,Surrey,Bamboo Basket,Takeaway/sandwich shop,7844,10,,650123,15,,,5570,307,HCCS@guildford.gov.uk,Guildford,http://www.guildford.gov.uk,,,2014-02-25,fhrs_2_en-GB,2,,FHRS,5
231533,13 Guildford Park Road,,Guildford,Surrey,Bamboo Garden,Takeaway/sandwich shop,7844,20,,728871,15,,51.23661000000000,5706,307,HCCS@guildford.gov.uk,Guildford,http://www.guildford.gov.uk,-0.58272600000000,GU2 7NA,2014-10-16,fhrs_1_en-GB,1,,FHRS,15
231534,Weymead House Millbrook,,Guildford,Surrey,Bar des Arts,Restaurant/Cafe/Canteen,1,5,,649275,5,,51.23390500000000,1202,307,HCCS@guildford.gov.uk,Guildford,http://www.guildford.gov.uk,-0.57398500000000,GU1 3YA,2013-07-29,fhrs_5_en-GB,5,,FHRS,0
231535,The Barley Mow Littleworth Road,The Sands,Farnham,Surrey,Barley Mow,Pub/bar/nightclub,7843,5,,649735,10,,51.20969100000000,4262,307,HCCS@guildford.gov.uk,Guildford,http://www.guildford.gov.uk,-0.73785200000000,GU10 1NE,2014-09-11,fhrs_3_en-GB,3,,FHRS,10
231536,High Street High Street,,Guildford,Surrey,Bath Soft Cheeses,Retailers - other,4613,,,650121,,,,5567,307,HCCS@guildford.gov.uk,Guildford,http://www.guildford.gov.uk,,,2014-10-07,fhrs_exempt_en-GB,Exempt,,FHRS,
231537,,,,,BBQ & Spitroast Specialist,Mobile caterer,7846,5,,649266,0,,,1173,307,HCCS@guildford.gov.uk,Guildford,http://www.guildford.gov.uk,,,2014-02-20,fhrs_5_en-GB,5,,FHRS,0
231538,132 Worplesdon Road,,Guildford,Surrey,Beijing Restaurant,Other catering premises,7841,5,,649721,5,,51.25280800000000,4237,307,HCCS@guildford.gov.uk,Guildford,http://www.guildford.gov.uk,-0.59111200000000,GU2 9RT,2014-05-22,fhrs_5_en-GB,5,,FHRS,5
231539,Bellfields Youth And Community Centre Hazel Avenue,,Guildford,Surrey,Bellfields Youth Centre,Pub/bar/nightclub,7843,,,650035,,,51.26006800000000,5181,307,HCCS@guildford.gov.uk,Guildford,http://www.guildford.gov.uk,-0.58095800000000,GU1 1NS,2011-08-18,fhrs_exempt_en-GB,Exempt,,FHRS,
231540,Hazel Stores Hazel Avenue,,Guildford,Surrey,Best One Hazel Stores,Retailers - supermarkets/hypermarkets,7840,5,,649793,5,,51.26006800000000,4359,307,HCCS@guildford.gov.uk,Guildford,http://www.guildford.gov.uk,-0.58095800000000,GU1 1NS,2011-10-19,fhrs_5_en-GB,5,,FHRS,0
231541,1 Angel Gate,,Guildford,Surrey,Bills Restaurants,Other catering premises,7841,0,,649927,5,,51.23620700000000,4734,307,HCCS@guildford.gov.uk,Guildford,http://www.guildford.gov.uk,-0.57392800000000,GU1 4AE,2014-12-12,fhrs_5_en-GB,5,,FHRS,5
231542,Bisley Gun Club House Fremantle Way,Bisley Camp,Brookwood,Surrey,Bisley Gun Club,Other catering premises,7841,10,,650023,10,,51.31094600000000,5160,307,HCCS@guildford.gov.uk,Guildford,http://www.guildford.gov.uk,-0.65557600000000,GU24 0NY,2013-11-03,fhrs_3_en-GB,3,,FHRS,10
231543,National Rifle Association Pavilion Queens Way,Bisley Camp,Brookwood,Surrey,Bisley Pavilion,Pub/bar/nightclub,7843,10,,649901,0,,51.31094600000000,4641,307,HCCS@guildford.gov.uk,Guildford,http://www.guildford.gov.uk,-0.65557600000000,GU24 0NY,2013-07-12,fhrs_4_en-GB,4,,FHRS,5
231544,6 Aldershot Road,,Guildford,Surrey,Bizzi B's,Retailers - other,4613,5,,649347,5,,51.25005400000000,1744,307,HCCS@guildford.gov.uk,Guildford,http://www.guildford.gov.uk,-0.59012200000000,GU2 8AF,2013-11-14,fhrs_4_en-GB,4,,FHRS,10
231545,"The Priestley Centre, 10 Priestley Road",Surrey Research Park,Guildford,Surrey,BOC Ltd,Other catering premises,7841,0,,650038,5,,,5190,307,HCCS@guildford.gov.uk,Guildford,http://www.guildford.gov.uk,,,2012-02-01,fhrs_5_en-GB,5,,FHRS,0
231546,High Street High Street,,Guildford,Surrey,Bookham Harrison Farms Ltd,Retailers - other,4613,,,649999,,,,5089,307,HCCS@guildford.gov.uk,Guildford,http://www.guildford.gov.uk,,,2014-07-01,fhrs_exempt_en-GB,Exempt,,FHRS,
231547,Kingfisher Shopping Centre Kingfisher Drive,,Guildford,Surrey,Boots UK Ltd,Retailers - other,4613,,,650215,,,51.25178500000000,944,307,HCCS@guildford.gov.uk,Guildford,http://www.guildford.gov.uk,-0.52984200000000,GU4 7EA,2013-12-09,fhrs_exempt_en-GB,Exempt,,FHRS,
231548,The Parade Wharf Road,,Ash Vale,Surrey,Bo-Wah Fish Bar,Takeaway/sandwich shop,7844,0,,649565,5,,51.25759300000000,3549,307,HCCS@guildford.gov.uk,Guildford,http://www.guildford.gov.uk,-0.72039000000000,GU12 5AZ,2014-05-29,fhrs_5_en-GB,5,,FHRS,0
231549,Boxgrove Primary School Boxgrove Lane,,Guildford,Surrey,Boxgrove Primary School,School/college/university,7845,0,,649805,0,,51.24615200000000,4387,307,HCCS@guildford.gov.uk,Guildford,http://www.guildford.gov.uk,-0.54466500000000,GU1 2TD,2013-02-12,fhrs_5_en-GB,5,,FHRS,0
231550,"The Sands Room, 1 The Green",The Sands,Farnham,Surrey,British Legion Seale & Sands,Pub/bar/nightclub,7843,10,,649498,5,,51.21050400000000,3173,307,HCCS@guildford.gov.uk,Guildford,http://www.guildford.gov.uk,-0.73814500000000,GU10 1LL,2011-09-05,fhrs_4_en-GB,4,,FHRS,5
231551,,,,,Brownie Fairy,Other catering premises,7841,5,,671682,5,,,5647,307,HCCS@guildford.gov.uk,Guildford,http://www.guildford.gov.uk,,,2014-03-24,fhrs_5_en-GB,5,,FHRS,5
231552,1 - 2 Station Parade,,East Horsley,Surrey,Budgens,Retailers - supermarkets/hypermarkets,7840,0,,650195,5,,51.27731500000000,853,307,HCCS@guildford.gov.uk,Guildford,http://www.guildford.gov.uk,-0.43551800000000,KT24 6QN,2013-01-14,fhrs_5_en-GB,5,,FHRS,0
231553,14 Wharf Road,Wharf Road,,Surrey,Budgens,Retailers - supermarkets/hypermarkets,7840,0,,649841,5,,51.25745000000000,4451,307,HCCS@guildford.gov.uk,Guildford,http://www.guildford.gov.uk,-0.71969200000000,GU12 5AS,2013-03-14,fhrs_5_en-GB,5,,FHRS,0
231554,Food Store Railton Road,,Guildford,Surrey,Budgens,Retailers - supermarkets/hypermarkets,7840,5,,649911,0,,51.26033200000000,4676,307,HCCS@guildford.gov.uk,Guildford,http://www.guildford.gov.uk,-0.58934900000000,GU2 9JX,2013-02-28,fhrs_5_en-GB,5,,FHRS,0
231555,Lovelace Works High Street,,Ripley,Surrey,Budgens of Ripley,Retailers - other,4613,0,,649332,0,,51.29908500000000,1587,307,HCCS@guildford.gov.uk,Guildford,http://www.guildford.gov.uk,-0.49443600000000,GU23 6AF,2014-02-03,fhrs_5_en-GB,5,,FHRS,5
231556,Bulls Head The Street,,West Clandon,Surrey,Bulls Head Public House,Pub/bar/nightclub,7843,5,,649690,0,,51.25434500000000,4200,307,HCCS@guildford.gov.uk,Guildford,http://www.guildford.gov.uk,-0.50406600000000,GU4 7ST,2013-04-23,fhrs_5_en-GB,5,,FHRS,0
231557,Burchatts Farm Pavilion London Road,,Guildford,Surrey,Burchetts Farm,Other catering premises,7841,,,650220,,,,970,307,HCCS@guildford.gov.uk,Guildford,http://www.guildford.gov.uk,,,2011-08-18,fhrs_exempt_en-GB,Exempt,,FHRS,
231558,24 - 25 North Street,,Guildford,Surrey,Burger King,Takeaway/sandwich shop,7844,0,,649369,0,,51.23644000000000,2045,307,HCCS@guildford.gov.uk,Guildford,http://www.guildford.gov.uk,-0.57533900000000,GU1 4TA,2014-08-04,fhrs_5_en-GB,5,,FHRS,0
231559,5 Europa Park Road,,Guildford,Surrey,Burger King,Other catering premises,7841,0,,650185,0,,51.24888100000000,760,307,HCCS@guildford.gov.uk,Guildford,http://www.guildford.gov.uk,-0.57870900000000,GU1 1AJ,2014-07-08,fhrs_5_en-GB,5,,FHRS,0
231560,Whittles Drive Aldershot Road,,Normandy,Surrey,Burger World,Mobile caterer,7846,5,,728868,5,,51.26408500000000,5703,307,HCCS@guildford.gov.uk,Guildford,http://www.guildford.gov.uk,-0.64289700000000,GU3 2BE,2014-08-20,fhrs_5_en-GB,5,,FHRS,5
231561,Bushy Hill Junior School Sheeplands Avenue,,Guildford,Surrey,Bushy Hill Junior School,School/college/university,7845,0,,649623,5,,51.24855000000000,3862,307,HCCS@guildford.gov.uk,Guildford,http://www.guildford.gov.uk,-0.53291100000000,GU1 2SG,2011-10-11,fhrs_5_en-GB,5,,FHRS,0
231562,St Marks Hall Guildford Road,,Normandy,Surrey,Busy Bees Playscheme,Other catering premises,7841,5,,649978,5,,,4958,307,HCCS@guildford.gov.uk,Guildford,http://www.guildford.gov.uk,,,2011-07-25,fhrs_5_en-GB,5,,FHRS,5
231563,North Street North Street,,Guildford,Surrey,Butter & Cream Cakes,Retailers - other,4613,,,650061,,,,5337,307,HCCS@guildford.gov.uk,Guildford,http://www.guildford.gov.uk,,,2013-08-02,fhrs_exempt_en-GB,Exempt,,FHRS,
231564,54 Woking Road,,Guildford,Surrey,Butties,Restaurant/Cafe/Canteen,1,5,,649791,5,,51.25202400000000,4351,307,HCCS@guildford.gov.uk,Guildford,http://www.guildford.gov.uk,-0.57096000000000,GU1 1QD,2014-07-24,fhrs_4_en-GB,4,,FHRS,10
231565,,,,,Cacao Amelie,Other catering premises,7841,,,716946,,,,5690,307,HCCS@guildford.gov.uk,Guildford,http://www.guildford.gov.uk,,,2014-09-04,fhrs_exempt_en-GB,Exempt,,FHRS,
231566,"Lord Roberts Centre, 32 Kings Way",Bisley Camp,Brookwood,Surrey,Cafe 1901,Restaurant/Cafe/Canteen,1,5,,671692,5,,,5658,307,HCCS@guildford.gov.uk,Guildford,http://www.guildford.gov.uk,,,2014-02-07,fhrs_5_en-GB,5,,FHRS,5
231567,Boxgrove Primary School Boxgrove Lane,,Guildford,Surrey,Cafe B,Restaurant/Cafe/Canteen,1,0,,650157,5,,51.24615200000000,5628,307,HCCS@guildford.gov.uk,Guildford,http://www.guildford.gov.uk,-0.54466500000000,GU1 2TD,2013-11-12,fhrs_5_en-GB,5,,FHRS,5
231568,,,,,Cafe B Catering,Other catering premises,7841,5,,649596,5,,,3728,307,HCCS@guildford.gov.uk,Guildford,http://www.guildford.gov.uk,,,2013-09-18,fhrs_5_en-GB,5,,FHRS,0
231569,North Street North Street,,Guildford,Surrey,Cafe Delux,Retailers - other,4613,0,,649994,0,,,5063,307,HCCS@guildford.gov.uk,Guildford,http://www.guildford.gov.uk,,,2013-08-02,fhrs_5_en-GB,5,,FHRS,0
231570,8 - 9 Chapel Street,,Guildford,Surrey,Cafe Rouge,Other catering premises,7841,0,,649632,0,,51.23489000000000,3916,307,HCCS@guildford.gov.uk,Guildford,http://www.guildford.gov.uk,-0.57356800000000,GU1 3UH,2011-09-20,fhrs_5_en-GB,5,,FHRS,0
231571,Guildford Railway Station Station View,,Guildford,Surrey,Cafe Xpress,Restaurant/Cafe/Canteen,1,10,,649909,5,,,4669,307,HCCS@guildford.gov.uk,Guildford,http://www.guildford.gov.uk,,,2014-11-18,fhrs_4_en-GB,4,,FHRS,5
231572,Guildford Business Park Guildford Business Park Road,,Guildford,Surrey,Caffe Kix Ltd,Restaurant/Cafe/Canteen,1,0,,650151,0,,51.24669700000000,5615,307,HCCS@guildford.gov.uk,Guildford,http://www.guildford.gov.uk,-0.58694300000000,GU2 8XG,2013-04-29,fhrs_5_en-GB,5,,FHRS,0
231573,105 - 111 High Street,,Guildford,Surrey,Caffe Nero,Other catering premises,7841,0,,650037,0,,,5183,307,HCCS@guildford.gov.uk,Guildford,http://www.guildford.gov.uk,,,2013-03-12,fhrs_5_en-GB,5,,FHRS,5
231574,65 - 66 North Street,,Guildford,Surrey,Caffe Nero,Restaurant/Cafe/Canteen,1,0,,671683,5,,51.23644100000000,5648,307,HCCS@guildford.gov.uk,Guildford,http://www.guildford.gov.uk,-0.57396400000000,GU1 4AH,2014-01-22,fhrs_5_en-GB,5,,FHRS,0
231575,69 High Street,,Guildford,Surrey,Caffe Nero,Restaurant/Cafe/Canteen,1,5,,649798,5,,51.23536500000000,4373,307,HCCS@guildford.gov.uk,Guildford,http://www.guildford.gov.uk,-0.57498600000000,GU1 3DY,2013-01-25,fhrs_4_en-GB,4,,FHRS,10
231576,,,,,Cake Addict,Other catering premises,7841,10,,650205,5,,,897,307,HCCS@guildford.gov.uk,Guildford,http://www.guildford.gov.uk,,,2013-06-20,fhrs_4_en-GB,4,,FHRS,0
231577,,,,,Cake It Baby,Other catering premises,7841,5,,728878,0,,,5719,307,HCCS@guildford.gov.uk,Guildford,http://www.guildford.gov.uk,,,2014-11-13,fhrs_5_en-GB,5,,FHRS,0
231578,,,,,Cakes by Victoria,Other catering premises,7841,,,649421,,,,2518,307,HCCS@guildford.gov.uk,Guildford,http://www.guildford.gov.uk,,,2011-07-28,fhrs_exempt_en-GB,Exempt,,FHRS,
231579,Hook Wood Old Lane,,Cobham,Surrey,Campaign Paintball,Other catering premises,7841,5,,649922,5,,,4701,307,HCCS@guildford.gov.uk,Guildford,http://www.guildford.gov.uk,,,2013-03-20,fhrs_4_en-GB,4,,FHRS,10
231580,Kids Unlimited Richard Meyjes Road,,Guildford,Surrey,Campus Kids Guildford Day Nursery,Hospitals/Childcare/Caring Premises,5,0,,716953,5,,51.23590800000000,5698,307,HCCS@guildford.gov.uk,Guildford,http://www.guildford.gov.uk,-0.60738500000000,GU2 7AD,2014-09-12,fhrs_5_en-GB,5,,FHRS,0
231581,Macdonald Stewart Canadian Pavilion Queen Victoria Way,Bisley Camp,Brookwood,Surrey,Canadian Pavilion at Bisley Ltd,Pub/bar/nightclub,7843,0,,649900,10,,51.31094600000000,4640,307,HCCS@guildford.gov.uk,Guildford,http://www.guildford.gov.uk,-0.65557600000000,GU24 0NY,2014-07-17,fhrs_4_en-GB,4,,FHRS,5
231582,Halfway Courtyard Halfway Lane,,Godalming,Surrey,Caper & Berry,Other catering premises,7841,5,,649950,0,,51.18611400000000,4874,307,HCCS@guildford.gov.uk,Guildford,http://www.guildford.gov.uk,-0.63153700000000,GU7 2QQ,2013-07-10,fhrs_5_en-GB,5,,FHRS,5
231583,"Surrey Technology Centre, 40 Occam Road",Surrey Research Park,Guildford,Surrey,Caper & Berry,Other catering premises,7841,0,,650048,0,,51.24027200000000,5247,307,HCCS@guildford.gov.uk,Guildford,http://www.guildford.gov.uk,-0.61212400000000,GU2 7YG,2011-09-28,fhrs_5_en-GB,5,,FHRS,5
231584,168 High Street,,Guildford,Surrey,Caracoli,Restaurant/Cafe/Canteen,1,5,,650092,10,,51.23618800000000,5478,307,HCCS@guildford.gov.uk,Guildford,http://www.guildford.gov.uk,-0.57017600000000,GU1 3HS,2013-11-21,fhrs_3_en-GB,3,,FHRS,10
231585,21 - 22 White Lion Walk,,Guildford,Surrey,Card Factory,Retailers - other,4613,5,,649552,0,,51.23560700000000,3508,307,HCCS@guildford.gov.uk,Guildford,http://www.guildford.gov.uk,-0.57565200000000,GU1 3DN,2012-07-10,fhrs_5_en-GB,5,,FHRS,0
231586,The Bungalow Beech Lane,,Normandy,Surrey,Care UK,Hospitals/Childcare/Caring Premises,5,,,649492,,,51.24289200000000,3159,307,HCCS@guildford.gov.uk,Guildford,http://www.guildford.gov.uk,-0.68085600000000,GU3 2JH,2013-11-29,fhrs_exempt_en-GB,Exempt,,FHRS,
231587,7 - 8 White Lion Walk,,Guildford,Surrey,Cargo,Retailers - other,4613,,,649470,,,51.23560700000000,298,307,HCCS@guildford.gov.uk,Guildford,http://www.guildford.gov.uk,-0.57565200000000,GU1 3DN,2012-12-04,fhrs_exempt_en-GB,Exempt,,FHRS,
231588,Caring Daycare Nursery Gill Avenue,,Guildford,Surrey,Caring Day Care Nursery,Hospitals/Childcare/Caring Premises,5,0,,649467,0,,51.23959900000000,2928,307,HCCS@guildford.gov.uk,Guildford,http://www.guildford.gov.uk,-0.60919300000000,GU2 7WW,2013-07-22,fhrs_5_en-GB,5,,FHRS,0
231589,Carlos Trattoria Newlands Corner,,Guildford,Surrey,Carlos Trattoria,Other catering premises,7841,10,,650167,15,,51.23530000000000,640,307,HCCS@guildford.gov.uk,Guildford,http://www.guildford.gov.uk,-0.50557200000000,GU4 8SE,2014-11-06,fhrs_2_en-GB,2,,FHRS,10
231590,321 Vale Road,,Ash Vale,Surrey,Carriages Cafe,Restaurant/Cafe/Canteen,1,10,,649788,0,,51.27085700000000,4346,307,HCCS@guildford.gov.uk,Guildford,http://www.guildford.gov.uk,-0.72207200000000,GU12 5LN,2014-11-03,fhrs_4_en-GB,4,,FHRS,0
231591,"Castle Nursery School, 14 South Hill",,Guildford,Surrey,Castle Nursery,Hospitals/Childcare/Caring Premises,5,0,,649825,0,,51.23391300000000,4426,307,HCCS@guildford.gov.uk,Guildford,http://www.guildford.gov.uk,-0.57020300000000,GU1 3SY,2013-08-27,fhrs_5_en-GB,5,,FHRS,0
231592,Castle Day Nursery Old School Close,,Guildford,Surrey,Castle Nursery and Preschool,Hospitals/Childcare/Caring Premises,5,5,,649824,5,,51.24244000000000,4425,307,HCCS@guildford.gov.uk,Guildford,http://www.guildford.gov.uk,-0.57254700000000,GU1 4QJ,2014-01-20,fhrs_5_en-GB,5,,FHRS,0
231593,Street Record High Street,,Guildford,Surrey,Catch (isle Of Wight) Ltd,Retailers - other,4613,,,728891,,,,5739,307,HCCS@guildford.gov.uk,Guildford,http://www.guildford.gov.uk,,,2014-12-02,fhrs_exempt_en-GB,Exempt,,FHRS,
231594,14 - 18 Chertsey Street,,Guildford,Surrey,Cath Kidston ltd,Retailers - other,4613,,,649926,,,51.23752200000000,4731,307,HCCS@guildford.gov.uk,Guildford,http://www.guildford.gov.uk,-0.57042100000000,GU1 4HD,2011-04-21,fhrs_exempt_en-GB,Exempt,,FHRS,
231595,Stag Hill The Chase,,Guildford,Surrey,Cathedral of Holy Spirit,Other catering premises,7841,5,,671675,5,,,5177,307,HCCS@guildford.gov.uk,Guildford,http://www.guildford.gov.uk,,,2014-03-20,fhrs_5_en-GB,5,,FHRS,5
231596,274 High Street,,Guildford,Surrey,Cau,Other catering premises,7841,0,,649769,0,,51.23735400000000,4313,307,HCCS@guildford.gov.uk,Guildford,http://www.guildford.gov.uk,-0.56698800000000,GU1 3JL,2014-05-12,fhrs_5_en-GB,5,,FHRS,0
231597,High Street High Street,,Guildford,Surrey,Celtic Bakers,Retailers - other,4613,,,650001,,,,5093,307,HCCS@guildford.gov.uk,Guildford,http://www.guildford.gov.uk,,,2014-02-04,fhrs_exempt_en-GB,Exempt,,FHRS,
231598,"Chada Thai Restaurant, 2 Kings Road",,Shalford,Surrey,Chada Thai Restaurant,Other catering premises,7841,10,,649667,5,,51.21324400000000,4104,307,HCCS@guildford.gov.uk,Guildford,http://www.guildford.gov.uk,-0.56611900000000,GU4 8JU,2013-09-05,fhrs_4_en-GB,4,,FHRS,5
231599,Cherry Trees School Lane,,East Clandon,Surrey,Cherry Trees,Hospitals/Childcare/Caring Premises,5,5,,649249,5,,51.25435500000000,1040,307,HCCS@guildford.gov.uk,Guildford,http://www.guildford.gov.uk,-0.48112300000000,GU4 7RS,2014-10-17,fhrs_5_en-GB,5,,FHRS,0
231600,Cherryvale Nursery Frimley Road,,Ash Vale,Surrey,Cherryvale Nursery,Hospitals/Childcare/Caring Premises,5,0,,649339,0,,51.27581500000000,171,307,HCCS@guildford.gov.uk,Guildford,http://www.guildford.gov.uk,-0.72243600000000,GU12 5NZ,2013-11-26,fhrs_5_en-GB,5,,FHRS,0
231601,Cherrywood Nursery The Green,,Pirbright,Surrey,Cherrywood Nursery,Hospitals/Childcare/Caring Premises,5,5,,649983,5,,51.29451000000000,5026,307,HCCS@guildford.gov.uk,Guildford,http://www.guildford.gov.uk,-0.64248800000000,GU24 0JT,2014-06-11,fhrs_5_en-GB,5,,FHRS,0
231602,21 Woodbridge Hill,,Guildford,Surrey,Chilli Indian Takeaway,Takeaway/sandwich shop,7844,10,,649762,10,,51.24879600000000,4307,307,HCCS@guildford.gov.uk,Guildford,http://www.guildford.gov.uk,-0.58576100000000,GU2 9AA,2013-03-27,fhrs_3_en-GB,3,,FHRS,10
231603,"Post Office, 80 - 82 New Road",,Chilworth,Surrey,Chilworth Post Office,Retailers - other,4613,,,649276,,,51.21387600000000,1211,307,HCCS@guildford.gov.uk,Guildford,http://www.guildford.gov.uk,-0.54091500000000,GU4 8LU,2013-11-25,fhrs_exempt_en-GB,Exempt,,FHRS,
231604,92 New Road,,Chilworth,Surrey,Chilworth Stores,Retailers - supermarkets/hypermarkets,7840,10,,649890,10,,51.21387600000000,4609,307,HCCS@guildford.gov.uk,Guildford,http://www.guildford.gov.uk,-0.54091500000000,GU4 8LU,2012-12-12,fhrs_3_en-GB,3,,FHRS,5
231605,Chilworth Village Hall New Road,,Chilworth,Surrey,Chilworth Village Hall,Other catering premises,7841,,,649549,,,,3451,307,HCCS@guildford.gov.uk,Guildford,http://www.guildford.gov.uk,,,2011-09-02,fhrs_exempt_en-GB,Exempt,,FHRS,
231606,147 Guildford Road,,Ash,Surrey,China Express,Takeaway/sandwich shop,7844,10,,649752,10,,51.25282900000000,4297,307,HCCS@guildford.gov.uk,Guildford,http://www.guildford.gov.uk,-0.70420100000000,GU12 6DF,2014-09-26,fhrs_3_en-GB,3,,FHRS,10
231607,89B Woodbridge Road,,Guildford,Surrey,Chinese Taste,Retailers - other,4613,10,,650040,5,,51.23832900000000,5199,307,HCCS@guildford.gov.uk,Guildford,http://www.guildford.gov.uk,-0.57539600000000,GU1 4QD,2014-10-23,fhrs_3_en-GB,3,,FHRS,10
231608,89E Woodbridge Road,,Guildford,Surrey,Chinese Taste Ltd,Retailers - other,4613,10,,649330,5,,51.23832900000000,1581,307,HCCS@guildford.gov.uk,Guildford,http://www.guildford.gov.uk,-0.57539600000000,GU1 4QD,2011-11-04,fhrs_4_en-GB,4,,FHRS,5
231609,26 Madrid Road,,Guildford,Surrey,Choice Wine and Food,Retailers - other,4613,10,,649344,0,,51.23736200000000,1736,307,HCCS@guildford.gov.uk,Guildford,http://www.guildford.gov.uk,-0.58758700000000,GU2 7NU,2012-02-10,fhrs_4_en-GB,4,,FHRS,0
231610,Christopher Robin House Burpham Lane,,Guildford,Surrey,Christopher Robin Day Nursery,Hospitals/Childcare/Caring Premises,5,0,,649376,0,,51.26315100000000,2141,307,HCCS@guildford.gov.uk,Guildford,http://www.guildford.gov.uk,-0.55000400000000,GU4 7LZ,2013-08-06,fhrs_5_en-GB,5,,FHRS,0
231611,St Peters Roman Catholic Comprehensive School Horseshoe Lane East,,Guildford,Surrey,Christopher Robin Day Nursery,Hospitals/Childcare/Caring Premises,5,5,,649562,5,,,3542,307,HCCS@guildford.gov.uk,Guildford,http://www.guildford.gov.uk,,,2014-06-02,fhrs_5_en-GB,5,,FHRS,5
231612,The Royal British Legion Wood Street Green,,Wood Street Village,Surrey,Christopher Robin Day Nursery,Hospitals/Childcare/Caring Premises,5,0,,649579,0,,,3619,307,HCCS@guildford.gov.uk,Guildford,http://www.guildford.gov.uk,,,2014-08-07,fhrs_5_en-GB,5,,FHRS,0
231613,Shooting Star Chase Old Portsmouth Road,Peasmarsh,Guildford,Surrey,Christophers Hospice,Other catering premises,7841,5,,649711,0,,51.21907600000000,4227,307,HCCS@guildford.gov.uk,Guildford,http://www.guildford.gov.uk,-0.57987000000000,GU3 1LP,2014-02-20,fhrs_5_en-GB,5,,FHRS,0
231614,Christs College Larch Avenue,,Guildford,Surrey,Christ's College,School/college/university,7845,0,,649817,0,,51.25569400000000,4412,307,HCCS@guildford.gov.uk,Guildford,http://www.guildford.gov.uk,-0.57837000000000,GU1 1JY,2013-02-14,fhrs_5_en-GB,5,,FHRS,0
231615,City Rifle Club House Club Row,Bisley Camp,Brookwood,Surrey,City Rifle Club,Pub/bar/nightclub,7843,0,,650018,0,,51.31094600000000,5145,307,HCCS@guildford.gov.uk,Guildford,http://www.guildford.gov.uk,-0.65557600000000,GU24 0NY,2014-07-17,fhrs_5_en-GB,5,,FHRS,0
231616,Clandon Church Of England Aided Infant School The Street,,West Clandon,Surrey,Clandon C of E Infant School,School/college/university,7845,0,,649491,0,,51.25434500000000,3155,307,HCCS@guildford.gov.uk,Guildford,http://www.guildford.gov.uk,-0.50406600000000,GU4 7ST,2011-10-05,fhrs_5_en-GB,5,,FHRS,5
231617,Clandon Park House Clandon Park,,West Clandon,Surrey,Clandon Park (National Trust),Other catering premises,7841,5,,650083,5,,51.25103400000000,5457,307,HCCS@guildford.gov.uk,Guildford,http://www.guildford.gov.uk,-0.51523600000000,GU4 7RQ,2013-07-09,fhrs_5_en-GB,5,,FHRS,5
231618,West Clandon Garden Centre Clandon Park,Clandon Park,West Clandon,Surrey,Clandon Park Garden Centre,Restaurant/Cafe/Canteen,1,0,,649373,0,,51.25103400000000,2065,307,HCCS@guildford.gov.uk,Guildford,http://www.guildford.gov.uk,-0.51523600000000,GU4 7RQ,2012-02-15,fhrs_5_en-GB,5,,FHRS,0
231619,Clandon Regis Golf Club Epsom Road,,West Clandon,Surrey,Clandon Regis Golf Club,Restaurant/Cafe/Canteen,1,0,,649840,5,,51.24796200000000,4450,307,HCCS@guildford.gov.uk,Guildford,http://www.guildford.gov.uk,-0.51192500000000,GU4 7RH,2012-05-15,fhrs_5_en-GB,5,,FHRS,0
231620,Claremont Court Harts Gardens,,Guildford,Surrey,Claremont (Stoughton) Ltd,Hospitals/Childcare/Caring Premises,5,5,,650113,5,,51.25774200000000,5533,307,HCCS@guildford.gov.uk,Guildford,http://www.guildford.gov.uk,-0.58865400000000,GU2 9QA,2015-01-07,fhrs_5_en-GB,5,,FHRS,0
231621,9 Madrid Road,,Guildford,Surrey,Cliche,Retailers - other,4613,10,,649895,5,,51.23736200000000,4625,307,HCCS@guildford.gov.uk,Guildford,http://www.guildford.gov.uk,-0.58758700000000,GU2 7NU,2012-06-21,fhrs_3_en-GB,3,,FHRS,10
231622,1 Stoke Road,,Guildford,Surrey,Clyde and Co,Other catering premises,7841,0,,649883,5,,51.23920200000000,4600,307,HCCS@guildford.gov.uk,Guildford,http://www.guildford.gov.uk,-0.57099900000000,GU1 4HW,2013-08-02,fhrs_5_en-GB,5,,FHRS,0
231623,147 Ash Hill Road,,Ash,Surrey,Coffee and Crumbs,Retailers - other,4613,5,,649474,5,,51.25606400000000,3005,307,HCCS@guildford.gov.uk,Guildford,http://www.guildford.gov.uk,-0.71958700000000,GU12 5DW,2014-09-30,fhrs_5_en-GB,5,,FHRS,5
231624,2 Angel Gate,,Guildford,Surrey,Coffee Culture,Restaurant/Cafe/Canteen,1,5,,649340,5,,51.23620700000000,1729,307,HCCS@guildford.gov.uk,Guildford,http://www.guildford.gov.uk,-0.57392800000000,GU1 4AE,2014-01-22,fhrs_5_en-GB,5,,FHRS,0
231625,Guildford Business Park Guildford Business Park Road,,Guildford,Surrey,Colgate Palmolive Ltd (Staff Restaurant),Other catering premises,7841,0,,650047,0,,,5244,307,HCCS@guildford.gov.uk,Guildford,http://www.guildford.gov.uk,,,2011-09-28,fhrs_5_en-GB,5,,FHRS,5
231626,High Street High Street,,Guildford,Surrey,Collaroy Farm Egg Sales,Retailers - other,4613,,,649959,,,,4899,307,HCCS@guildford.gov.uk,Guildford,http://www.guildford.gov.uk,,,2013-03-05,fhrs_exempt_en-GB,Exempt,,FHRS,
231627,The University Of Law Brabouf Manor Portsmouth Road,,Guildford,Surrey,College of Law,School/college/university,7845,0,,649832,0,,51.22416900000000,4438,307,HCCS@guildford.gov.uk,Guildford,http://www.guildford.gov.uk,-0.58303600000000,GU3 1HA,2012-02-13,fhrs_5_en-GB,5,,FHRS,0
231628,2 - 4 South Hill,,Guildford,Surrey,Como,Other catering premises,7841,5,,649771,10,,51.23391300000000,4315,307,HCCS@guildford.gov.uk,Guildford,http://www.guildford.gov.uk,-0.57020300000000,GU1 3SY,2013-12-04,fhrs_4_en-GB,4,,FHRS,5
231629,Compton Village Hall The Street,,Compton,Surrey,Compton Village Hall,Other catering premises,7841,10,,649407,5,,51.21395700000000,2379,307,HCCS@guildford.gov.uk,Guildford,http://www.guildford.gov.uk,-0.63245900000000,GU3 1EG,2011-08-11,fhrs_4_en-GB,4,,FHRS,5
231630,Compton Village Club Limited Spiceall,,Compton,Surrey,Compton Village RBL Club Ltd,Pub/bar/nightclub,7843,5,,650049,5,,51.21459400000000,5256,307,HCCS@guildford.gov.uk,Guildford,http://www.guildford.gov.uk,-0.62850300000000,GU3 1JQ,2013-09-19,fhrs_5_en-GB,5,,FHRS,5
231631,6B Tunsgate Square,,Guildford,Surrey,Continental Cafe,Other catering premises,7841,0,,649636,5,,51.23520000000000,3944,307,HCCS@guildford.gov.uk,Guildford,http://www.guildford.gov.uk,-0.57251300000000,GU1 3QZ,2014-07-07,fhrs_5_en-GB,5,,FHRS,0
231632,4 Kingpost Parade,,Guildford,Surrey,Cook,Retailers - other,4613,5,,649879,5,,51.25821800000000,4570,307,HCCS@guildford.gov.uk,Guildford,http://www.guildford.gov.uk,-0.54521500000000,GU1 1YP,2012-11-27,fhrs_5_en-GB,5,,FHRS,0
231633,,,,,cookiedoe,Other catering premises,7841,5,,650206,5,,,901,307,HCCS@guildford.gov.uk,Guildford,http://www.guildford.gov.uk,,,2013-04-23,fhrs_5_en-GB,5,,FHRS,5
231634,Coombehurst Wonham Way,,Peaslake,Surrey,Coombehurst B&B,Hotel/bed & breakfast/guest house,7842,5,,649536,5,,51.20652300000000,3352,307,HCCS@guildford.gov.uk,Guildford,http://www.guildford.gov.uk,-0.44202700000000,GU5 9PA,2011-10-04,fhrs_5_en-GB,5,,FHRS,0
231635,12 - 14 Madrid Road,,Guildford,Surrey,Co-op,Retailers - supermarkets/hypermarkets,7840,5,,649659,5,,51.23791400000000,4069,307,HCCS@guildford.gov.uk,Guildford,http://www.guildford.gov.uk,-0.58639600000000,GU2 7NT,2011-08-12,fhrs_5_en-GB,5,,FHRS,5
231636,121B Aldershot Road,,Guildford,Surrey,Co-op,Retailers - supermarkets/hypermarkets,7840,5,,649828,5,,51.25056000000000,4431,307,HCCS@guildford.gov.uk,Guildford,http://www.guildford.gov.uk,-0.59562300000000,GU2 8AQ,2014-07-14,fhrs_5_en-GB,5,,FHRS,5
231637,69 Ash Street,,Ash,Surrey,Co-Op Welcome,Retailers - supermarkets/hypermarkets,7840,20,,649800,25,,51.24630100000000,4376,307,HCCS@guildford.gov.uk,Guildford,http://www.guildford.gov.uk,-0.72389900000000,GU12 6LG,2014-07-24,fhrs_0_en-GB,0,,FHRS,5
231638,Welcome Shere Middle Street,,Shere,Surrey,Co-Op Welcome,Retailers - supermarkets/hypermarkets,7840,5,,649585,5,,51.21988500000000,3650,307,HCCS@guildford.gov.uk,Guildford,http://www.guildford.gov.uk,-0.46447300000000,GU5 9HF,2011-10-04,fhrs_5_en-GB,5,,FHRS,5
231639,Cornerways Orestan Lane,,Effingham,Surrey,Cornerways Cottage,Hotel/bed & breakfast/guest house,7842,,,649451,,,51.27084800000000,2787,307,HCCS@guildford.gov.uk,Guildford,http://www.guildford.gov.uk,-0.40870100000000,KT24 5SN,2011-11-15,fhrs_exempt_en-GB,Exempt,,FHRS,
231640,Guildford Railway Station Station View,,Guildford,Surrey,Costa,Restaurant/Cafe/Canteen,1,0,,649958,0,,51.23691600000000,4892,307,HCCS@guildford.gov.uk,Guildford,http://www.guildford.gov.uk,-0.58045300000000,GU1 4UT,2014-06-30,fhrs_5_en-GB,5,,FHRS,5
231641,Unit 34 The Friary Shopping Centre Level Two,,Guildford,Surrey,Costa,Restaurant/Cafe/Canteen,1,0,,649938,5,,51.23673600000000,4806,307,HCCS@guildford.gov.uk,Guildford,http://www.guildford.gov.uk,-0.57604600000000,GU1 4YW,2012-12-07,fhrs_5_en-GB,5,,FHRS,0
231642,15 - 17 Swan Lane,,Guildford,Surrey,Costa Coffee,Other catering premises,7841,0,,649644,0,,51.23597100000000,3977,307,HCCS@guildford.gov.uk,Guildford,http://www.guildford.gov.uk,-0.57453700000000,GU1 4EQ,2015-01-20,fhrs_4_en-GB,4,,FHRS,10
231643,71 - 73 High Street,,Guildford,Surrey,Costa Coffee,Restaurant/Cafe/Canteen,1,0,,649446,0,,51.23536500000000,2735,307,HCCS@guildford.gov.uk,Guildford,http://www.guildford.gov.uk,-0.57498600000000,GU1 3DY,2014-02-24,fhrs_5_en-GB,5,,FHRS,5
231644,Rio Works Polesden Lane,,Ripley,Surrey,Costa Express,Mobile caterer,7846,,,649500,,,51.29274600000000,3176,307,HCCS@guildford.gov.uk,Guildford,http://www.guildford.gov.uk,-0.51347500000000,GU23 6JX,2011-09-08,fhrs_exempt_en-GB,Exempt,,FHRS,
231645,1 Cinnamon Gardens,,Guildford,Surrey,Costcutter,Retailers - other,4613,10,,649282,0,,51.26391900000000,1255,307,HCCS@guildford.gov.uk,Guildford,http://www.guildford.gov.uk,-0.59452800000000,GU2 9YZ,2013-04-11,fhrs_4_en-GB,4,,FHRS,0
231646,262 Southway,,Guildford,Surrey,Costcutter,Retailers - other,4613,5,,649974,5,,51.24333300000000,4951,307,HCCS@guildford.gov.uk,Guildford,http://www.guildford.gov.uk,-0.60792000000000,GU2 8DT,2012-01-03,fhrs_5_en-GB,5,,FHRS,5
231647,61 Bushy Hill Drive,,Guildford,Surrey,Costcutters,Retailers - supermarkets/hypermarkets,7840,10,,649624,0,,51.24968900000000,3863,307,HCCS@guildford.gov.uk,Guildford,http://www.guildford.gov.uk,-0.53982500000000,GU1 2UQ,2013-03-11,fhrs_4_en-GB,4,,FHRS,0
231648,"Restaurant, 35 - 38 Castle Street",,Guildford,Surrey,Cote Bistro,Other catering premises,7841,5,,649576,5,,51.23440300000000,3606,307,HCCS@guildford.gov.uk,Guildford,http://www.guildford.gov.uk,-0.57352600000000,GU1 3UQ,2014-01-09,fhrs_4_en-GB,4,,FHRS,10
231649,High Street High Street,,Guildford,Surrey,Countryliners Market,Retailers - other,4613,,,649997,,,,5076,307,HCCS@guildford.gov.uk,Guildford,http://www.guildford.gov.uk,,,2012-02-07,fhrs_exempt_en-GB,Exempt,,FHRS,
231650,143 High Street,,Guildford,Surrey,Crabtree and Evelyn,Retailers - other,4613,,,649449,,,51.23605000000000,276,307,HCCS@guildford.gov.uk,Guildford,http://www.guildford.gov.uk,-0.57210000000000,GU1 3AD,2013-11-21,fhrs_exempt_en-GB,Exempt,,FHRS,
231651,Cobbett Park Moorfield Road,,Guildford,Surrey,Craggy Island Indoor Climbing Centre,Other catering premises,7841,5,,649511,10,,51.26002800000000,3247,307,HCCS@guildford.gov.uk,Guildford,http://www.guildford.gov.uk,-0.56437700000000,GU1 1RU,2014-08-13,fhrs_3_en-GB,3,,FHRS,10
231652,Cranmore Epsom Road,,West Horsley,Surrey,Cranmore School,School/college/university,7845,0,,649852,5,,51.26107200000000,4475,307,HCCS@guildford.gov.uk,Guildford,http://www.guildford.gov.uk,-0.45087500000000,KT24 6AT,2013-11-12,fhrs_5_en-GB,5,,FHRS,0
231653,4A North Street,,Guildford,Surrey,Creams,Other catering premises,7841,5,,728889,5,,51.23699800000000,5737,307,HCCS@guildford.gov.uk,Guildford,http://www.guildford.gov.uk,-0.57317300000000,GU1 4AF,2014-12-18,fhrs_5_en-GB,5,,FHRS,5
231654,The Cricketers The Green,,Pirbright,Surrey,Cricketers,Pub/bar/nightclub,7843,0,,649699,0,,51.29451000000000,4211,307,HCCS@guildford.gov.uk,Guildford,http://www.guildford.gov.uk,-0.64248800000000,GU24 0JT,2011-09-26,fhrs_5_en-GB,5,,FHRS,0
231655,"The Cricketers, 12 Oxenden Road",,Tongham,Surrey,Cricketers,Pub/bar/nightclub,7843,10,,650117,5,,51.23639600000000,5559,307,HCCS@guildford.gov.uk,Guildford,http://www.guildford.gov.uk,-0.73259500000000,GU10 1AF,2014-12-18,fhrs_4_en-GB,4,,FHRS,0
231656,Guildford Crown Court Bedford Road,,Guildford,Surrey,Crown Court Restaurant,Restaurant/Cafe/Canteen,1,5,,735696,0,,51.23764200000000,5747,307,HCCS@guildford.gov.uk,Guildford,http://www.guildford.gov.uk,-0.57809600000000,GU1 4SJ,2015-01-12,fhrs_5_en-GB,5,,FHRS,5
231657,"The Gables, 3 Lower Street",,Shere,Surrey,Crumbs Shere,Manufacturers/packers,7839,5,,649776,5,,51.21960400000000,4320,307,HCCS@guildford.gov.uk,Guildford,http://www.guildford.gov.uk,-0.46564200000000,GU5 9HT,2013-09-25,fhrs_4_en-GB,4,,FHRS,10
231658,,,,,Cup Cake Days,Other catering premises,7841,,,649855,,,,448,307,HCCS@guildford.gov.uk,Guildford,http://www.guildford.gov.uk,,,2012-03-01,fhrs_exempt_en-GB,Exempt,,FHRS,
231659,Curry Garden Restaurant High Street,,Ripley,Surrey,Curry Garden,Other catering premises,7841,10,,649702,15,,51.30076000000000,4215,307,HCCS@guildford.gov.uk,Guildford,http://www.guildford.gov.uk,-0.49109700000000,GU23 6AY,2013-03-27,fhrs_2_en-GB,2,,FHRS,10
231660,Currys Woodbridge Road,,Guildford,Surrey,Currys Megastore,Retailers - other,4613,,,649577,,,51.24452000000000,3607,307,HCCS@guildford.gov.uk,Guildford,http://www.guildford.gov.uk,-0.57652200000000,GU1 1ED,2012-01-03,fhrs_exempt_en-GB,Exempt,,FHRS,
231661,"St James House, 20 Bedford Road",,Guildford,Surrey,D B Londis LLP,Retailers - other,4613,10,,649981,0,,51.23764200000000,5011,307,HCCS@guildford.gov.uk,Guildford,http://www.guildford.gov.uk,-0.57809600000000,GU1 4SJ,2012-03-09,fhrs_4_en-GB,4,,FHRS,0
231662,16 Jeffries Passage,,Guildford,Surrey,Davis Butchers & Delicattessen Ltd,Retailers - other,4613,10,,649515,10,,51.23654700000000,326,307,HCCS@guildford.gov.uk,Guildford,http://www.guildford.gov.uk,-0.57155400000000,GU1 4AP,2014-03-03,fhrs_3_en-GB,3,,FHRS,10
231663,Debenhams Millbrook,,Guildford,Surrey,Debenhams PLC (Customer Restaurant),Other catering premises,7841,0,,649466,5,,,2923,307,HCCS@guildford.gov.uk,Guildford,http://www.guildford.gov.uk,,,2014-07-04,fhrs_5_en-GB,5,,FHRS,0
231664,Dene Place Nursing Home Ripley Lane,,West Horsley,Surrey,Dene Place Nursing Home,Hospitals/Childcare/Caring Premises,5,0,,649353,0,,51.26630900000000,1925,307,HCCS@guildford.gov.uk,Guildford,http://www.guildford.gov.uk,-0.46000200000000,KT24 6JW,2014-10-17,fhrs_5_en-GB,5,,FHRS,0
231665,8 Guildford Park Road,,Guildford,Surrey,Diamond Kebab House,Takeaway/sandwich shop,7844,10,,649362,10,,51.23720200000000,195,307,HCCS@guildford.gov.uk,Guildford,http://www.guildford.gov.uk,-0.58329500000000,GU2 7ND,2012-12-20,fhrs_3_en-GB,3,,FHRS,5
231666,Challengers Guildford Playcentre Disability Challengers Holiday Scheme London Road,,Guildford,Surrey,Disability Challengers,Hospitals/Childcare/Caring Premises,5,5,,649941,5,,51.24791200000000,4821,307,HCCS@guildford.gov.uk,Guildford,http://www.guildford.gov.uk,-0.55610000000000,GU1 1TU,2014-02-04,fhrs_4_en-GB,4,,FHRS,10
231667,,,,,Dom and Matt Cake Ind,Other catering premises,7841,,,650108,,,,5521,307,HCCS@guildford.gov.uk,Guildford,http://www.guildford.gov.uk,,,2012-05-31,fhrs_exempt_en-GB,Exempt,,FHRS,
231668,"Dominos Pizza, 25 Woodbridge Road",,Guildford,Surrey,Dominos Pizza,Takeaway/sandwich shop,7844,0,,649366,0,,51.24528800000000,199,307,HCCS@guildford.gov.uk,Guildford,http://www.guildford.gov.uk,-0.57681400000000,GU1 1DY,2014-08-26,fhrs_5_en-GB,5,,FHRS,0
231669,The Clock House High Street,,Ripley,Surrey,Drake's Restaurant Limited,Other catering premises,7841,10,,650128,10,,51.30049600000000,5577,307,HCCS@guildford.gov.uk,Guildford,http://www.guildford.gov.uk,-0.49294100000000,GU23 6AQ,2014-04-10,fhrs_4_en-GB,4,,FHRS,0
231670,Dray Court The Chase,,Guildford,Surrey,Dray Court,Hospitals/Childcare/Caring Premises,5,0,,649522,0,,51.23772300000000,3288,307,HCCS@guildford.gov.uk,Guildford,http://www.guildford.gov.uk,-0.58923800000000,GU2 7UW,2013-09-26,fhrs_5_en-GB,5,,FHRS,0
231671,"Drayton House, 35 Austen Road",,Guildford,Surrey,Drayton House School,School/college/university,7845,5,,649631,0,,51.23635800000000,3906,307,HCCS@guildford.gov.uk,Guildford,http://www.guildford.gov.uk,-0.55690600000000,GU1 3NP,2014-02-10,fhrs_5_en-GB,5,,FHRS,0
231672,Drift Golf And Country Club The Drift,,East Horsley,Surrey,Drift Golf & Country Club,Restaurant/Cafe/Canteen,1,5,,649846,10,,51.28929100000000,4466,307,HCCS@guildford.gov.uk,Guildford,http://www.guildford.gov.uk,-0.42395400000000,KT24 5HD,2014-10-01,fhrs_4_en-GB,4,,FHRS,5
231673,Drummond Arms The Street,,Albury,Surrey,Drummond Arms,Pub/bar/nightclub,7843,0,,649682,0,,51.22011400000000,4188,307,HCCS@guildford.gov.uk,Guildford,http://www.guildford.gov.uk,-0.49946200000000,GU5 9AG,2014-06-09,fhrs_5_en-GB,5,,FHRS,5
231674,The Duke Of Wellington Guildford Road,,East Horsley,Surrey,Duke of Wellington,Pub/bar/nightclub,7843,10,,649694,10,,51.26291300000000,4205,307,HCCS@guildford.gov.uk,Guildford,http://www.guildford.gov.uk,-0.43173600000000,KT24 6AA,2013-10-01,fhrs_3_en-GB,3,,FHRS,10
231675,High Street High Street,,Guildford,Surrey,Durleigh Marsh Farm,Retailers - other,4613,,,649998,,,,5077,307,HCCS@guildford.gov.uk,Guildford,http://www.guildford.gov.uk,,,2013-07-04,fhrs_exempt_en-GB,Exempt,,FHRS,
231676,High Street High Street,,Guildford,Surrey,Dylon's Ice Cream,Retailers - other,4613,,,650059,,,,5333,307,HCCS@guildford.gov.uk,Guildford,http://www.guildford.gov.uk,,,2013-06-04,fhrs_exempt_en-GB,Exempt,,FHRS,
231677,The Raleigh School Northcote Crescent,,West Horsley,Surrey,Earlybirds & Shipmates Club,School/college/university,7845,0,,650088,0,,51.28193500000000,5467,307,HCCS@guildford.gov.uk,Guildford,http://www.guildford.gov.uk,-0.44952800000000,KT24 6LX,2013-11-15,fhrs_5_en-GB,5,,FHRS,0
231678,Eashing Filling Station Lower Eashing,,Godalming,Surrey,Eashing Service Station,Retailers - other,4613,10,,649524,0,,51.18642100000000,3293,307,HCCS@guildford.gov.uk,Guildford,http://www.guildford.gov.uk,-0.64868500000000,GU7 2QG,2014-10-17,fhrs_4_en-GB,4,,FHRS,0
231679,The Royal British Legion Cranmore Lane,,West Horsley,Surrey,East & West Horsley Royal British Legion,Pub/bar/nightclub,7843,10,,649674,5,,,4132,307,HCCS@guildford.gov.uk,Guildford,http://www.guildford.gov.uk,,,2011-08-30,fhrs_4_en-GB,4,,FHRS,5
231680,East Clandon Village Hall The Street,,East Clandon,Surrey,East Clandon Village Hall,Other catering premises,7841,,,649408,,,51.25528900000000,2380,307,HCCS@guildford.gov.uk,Guildford,http://www.guildford.gov.uk,-0.48097800000000,GU4 7RX,2011-08-09,fhrs_exempt_en-GB,Exempt,,FHRS,
231681,19 Station Parade,,East Horsley,Surrey,East Horsley News,Retailers - other,4613,,,649972,,,51.27731500000000,4949,307,HCCS@guildford.gov.uk,Guildford,http://www.guildford.gov.uk,-0.43551800000000,KT24 6QN,2011-10-13,fhrs_exempt_en-GB,Exempt,,FHRS,
231682,10 Bishopsmead Parade,,East Horsley,Surrey,East Horsley Post Office,Retailers - other,4613,10,,649290,0,,51.26521000000000,130,307,HCCS@guildford.gov.uk,Guildford,http://www.guildford.gov.uk,-0.43207400000000,KT24 6RT,2014-01-10,fhrs_4_en-GB,4,,FHRS,0
231683,East Horsley Village Hall Kingston Avenue,,,Surrey,East Horsley Village Hall,Hospitals/Childcare/Caring Premises,5,,,649374,,,51.27683100000000,2118,307,HCCS@guildford.gov.uk,Guildford,http://www.guildford.gov.uk,-0.43694000000000,KT24 6QT,2011-09-19,fhrs_exempt_en-GB,Exempt,,FHRS,
231684,East Horsley Village Hall Kingston Avenue,,East Horsley,Surrey,East Horsley Village Hall,Other catering premises,7841,,,649822,,,,4422,307,HCCS@guildford.gov.uk,Guildford,http://www.guildford.gov.uk,,,2011-09-19,fhrs_exempt_en-GB,Exempt,,FHRS,
231685,Eastbury Manor Nursing Home The Street,,Compton,Surrey,Eastbury Manor Nursing Home,Hospitals/Childcare/Caring Premises,5,0,,650193,0,,51.21395600000000,841,307,HCCS@guildford.gov.uk,Guildford,http://www.guildford.gov.uk,-0.63245900000000,GU3 1EG,2014-07-28,fhrs_5_en-GB,5,,FHRS,0
231686,,,,,Eating In,Other catering premises,7841,5,,649608,5,,,3773,307,HCCS@guildford.gov.uk,Guildford,http://www.guildford.gov.uk,,,2013-11-08,fhrs_5_en-GB,5,,FHRS,5
231687,,,,,Eating Rocks,Other catering premises,7841,5,,649314,5,,,1453,307,HCCS@guildford.gov.uk,Guildford,http://www.guildford.gov.uk,,,2012-10-25,fhrs_5_en-GB,5,,FHRS,5
231688,Ash Vale Railway Station Station Approach,,Ash Vale,Surrey,Eccher's,Restaurant/Cafe/Canteen,1,10,,649582,10,,,3641,307,HCCS@guildford.gov.uk,Guildford,http://www.guildford.gov.uk,,,2013-09-17,fhrs_3_en-GB,3,,FHRS,5
231689,Effingham & Leatherhead Rugby Club Browns Lane (1st Floor Kitchen),,Effingham,Surrey,Effingham & Leatherhead Rugby Club,Pub/bar/nightclub,7843,0,,649352,0,,51.26986600000000,1919,307,HCCS@guildford.gov.uk,Guildford,http://www.guildford.gov.uk,-0.39602000000000,KT24 5ND,2013-07-08,fhrs_5_en-GB,5,,FHRS,5
231690,Effingham Golf Club Guildford Road,,Effingham,Surrey,Effingham Golf Club,Pub/bar/nightclub,7843,10,,649878,0,,51.26743900000000,4552,307,HCCS@guildford.gov.uk,Guildford,http://www.guildford.gov.uk,-0.39872700000000,KT24 5PY,2013-09-09,fhrs_4_en-GB,4,,FHRS,10
231691,Effingham Post Office The Street,,Effingham,Surrey,Effingham Post Office,Retailers - other,4613,,,649872,,,51.26879600000000,4537,307,HCCS@guildford.gov.uk,Guildford,http://www.guildford.gov.uk,-0.39868000000000,KT24 5LQ,2014-01-10,fhrs_exempt_en-GB,Exempt,,FHRS,
231692,Kiosk 3 The Friary Shopping Centre Level Three,,Guildford,Surrey,El Mexicana,Takeaway/sandwich shop,7844,5,,728890,5,,,5738,307,HCCS@guildford.gov.uk,Guildford,http://www.guildford.gov.uk,,,2014-12-19,fhrs_5_en-GB,5,,FHRS,0
231693,Grenville Grenville Road,,Shackleford,Surrey,Elam Ministries,Other catering premises,7841,,,650201,,,51.19756300000000,872,307,HCCS@guildford.gov.uk,Guildford,http://www.guildford.gov.uk,-0.65412700000000,GU8 6AX,2012-08-24,fhrs_exempt_en-GB,Exempt,,FHRS,
231694,The Electric Theatre Onslow Street,,Guildford,Surrey,Electric Theatre,Other catering premises,7841,10,,650021,0,,51.23618000000000,5154,307,HCCS@guildford.gov.uk,Guildford,http://www.guildford.gov.uk,-0.57765400000000,GU1 4SZ,2014-05-13,fhrs_4_en-GB,4,,FHRS,0
231695,Onslow House Onslow Street,,Guildford,Surrey,Electronic Arts,Restaurant/Cafe/Canteen,1,0,,649931,0,,51.24139000000000,4767,307,HCCS@guildford.gov.uk,Guildford,http://www.guildford.gov.uk,-0.57197700000000,GU1 4LT,2013-03-13,fhrs_5_en-GB,5,,FHRS,0
231696,,,,,Elspeth's Home Baking,Other catering premises,7841,5,,671693,5,,,5660,307,HCCS@guildford.gov.uk,Guildford,http://www.guildford.gov.uk,,,2014-05-13,fhrs_5_en-GB,5,,FHRS,0
231697,Emmanuel United Reformed Church Glaziers Lane,,Normandy,Surrey,Emmanuel Nursery,Hospitals/Childcare/Caring Premises,5,,,649443,,,,2708,307,HCCS@guildford.gov.uk,Guildford,http://www.guildford.gov.uk,,,2013-12-17,fhrs_exempt_en-GB,Exempt,,FHRS,
231698,115 Aldershot Road,,Guildford,Surrey,Empire Fish & Chips,Takeaway/sandwich shop,7844,0,,650058,5,,51.25026300000000,5332,307,HCCS@guildford.gov.uk,Guildford,http://www.guildford.gov.uk,-0.59710800000000,GU2 8BE,2013-10-15,fhrs_5_en-GB,5,,FHRS,5
231699,,,,,EMS Loves Cakes,Other catering premises,7841,,,649594,,,,3715,307,HCCS@guildford.gov.uk,Guildford,http://www.guildford.gov.uk,,,2011-08-03,fhrs_exempt_en-GB,Exempt,,FHRS,
231700,English V111 Queens Way,Bisley Camp,Brookwood,Surrey,English 8 Club,Pub/bar/nightclub,7843,5,,650014,5,,51.31094600000000,5137,307,HCCS@guildford.gov.uk,Guildford,http://www.guildford.gov.uk,-0.65557600000000,GU24 0NY,2012-07-10,fhrs_5_en-GB,5,,FHRS,5
231701,,,,,Enjoy Enjoy,Other catering premises,7841,20,,650213,5,,,937,307,HCCS@guildford.gov.uk,Guildford,http://www.guildford.gov.uk,,,2013-03-14,fhrs_1_en-GB,1,,FHRS,0
231702,Guildford Business Park Guildford Business Park Road,,Guildford,Surrey,Ericsson Restaurant,Restaurant/Cafe/Canteen,1,0,,671678,0,,51.24669700000000,5633,307,HCCS@guildford.gov.uk,Guildford,http://www.guildford.gov.uk,-0.58694300000000,GU2 8XG,2014-04-07,fhrs_5_en-GB,5,,FHRS,5
231703,Tesco Superstore Egerton Road,,Guildford,Surrey,Euphorium Bakery,Retailers - other,4613,0,,735694,0,,,5741,307,HCCS@guildford.gov.uk,Guildford,http://www.guildford.gov.uk,,,2015-01-26,fhrs_5_en-GB,5,,FHRS,0
231704,15 Station Parade,,East Horsley,Surrey,F Conisbee & Son,Retailers - other,4613,5,,649866,5,,51.27731500000000,4524,307,HCCS@guildford.gov.uk,Guildford,http://www.guildford.gov.uk,-0.43551800000000,KT24 6QN,2012-11-13,fhrs_5_en-GB,5,,FHRS,5
231705,Park Corner Ockham Road South,,East Horsley,Surrey,F Conisbee & Son,Retailers - other,4613,5,,649681,5,,51.26700300000000,4187,307,HCCS@guildford.gov.uk,Guildford,http://www.guildford.gov.uk,-0.43234200000000,KT24 6RZ,2012-03-29,fhrs_5_en-GB,5,,FHRS,5
231706,,,,,Fabulous Fancies,Other catering premises,7841,10,,649455,5,,,2815,307,HCCS@guildford.gov.uk,Guildford,http://www.guildford.gov.uk,,,2012-09-06,fhrs_4_en-GB,4,,FHRS,0
231707,,,,,Fabulous Fancies,Other catering premises,7841,10,,649604,5,,,3756,307,HCCS@guildford.gov.uk,Guildford,http://www.guildford.gov.uk,,,2012-09-06,fhrs_4_en-GB,4,,FHRS,0
231708,High Street High Street,,Guildford,Surrey,Facing Heaven Chilli Co,Retailers - other,4613,,,649962,,,,4912,307,HCCS@guildford.gov.uk,Guildford,http://www.guildford.gov.uk,,,2014-07-01,fhrs_exempt_en-GB,Exempt,,FHRS,
231709,,,,,Fairy Toppins,Other catering premises,7841,5,,649456,5,,,2816,307,HCCS@guildford.gov.uk,Guildford,http://www.guildford.gov.uk,,,2013-03-28,fhrs_5_en-GB,5,,FHRS,5
231710,Garage Woodbridge Road,,Guildford,Surrey,Falcon Garage(Markenfield Garage),Retailers - other,4613,10,,649676,0,,51.24347200000000,4168,307,HCCS@guildford.gov.uk,Guildford,http://www.guildford.gov.uk,-0.57611100000000,GU1 4RN,2013-01-03,fhrs_4_en-GB,4,,FHRS,10
231711,Farnham Golf Club Blighton Lane,The Sands,Farnham,Surrey,Farnham Golf Club,Restaurant/Cafe/Canteen,1,5,,649839,5,,51.21443400000000,4449,307,HCCS@guildford.gov.uk,Guildford,http://www.guildford.gov.uk,-0.74324900000000,GU10 1PU,2014-12-05,fhrs_5_en-GB,5,,FHRS,0
231712,Farnham Road Hospital Farnham Road,,Guildford,Surrey,Farnham Road Hospital,Hospitals/Childcare/Caring Premises,5,0,,649834,0,,51.23511200000000,4440,307,HCCS@guildford.gov.uk,Guildford,http://www.guildford.gov.uk,-0.58447600000000,GU2 7LX,2012-03-22,fhrs_5_en-GB,5,,FHRS,0
231713,Guildford Railway Station Station View,,Guildford,Surrey,Fcb Artisan Espresso Bar,Takeaway/sandwich shop,7844,,,649989,,,,5052,307,HCCS@guildford.gov.uk,Guildford,http://www.guildford.gov.uk,,,2013-12-02,fhrs_exempt_en-GB,Exempt,,FHRS,
231714,Felbury House Horsham Road,,Holmbury St Mary,Surrey,Felbury House Residential Home,Hospitals/Childcare/Caring Premises,5,10,,671662,10,,51.19637700000000,3181,307,HCCS@guildford.gov.uk,Guildford,http://www.guildford.gov.uk,-0.41573300000000,RH5 6NL,2014-05-07,fhrs_4_en-GB,4,,FHRS,0
231715,North Street North Street,,Guildford,Surrey,Findlays Unique Fruit & Veg,Retailers - other,4613,0,,650022,0,,,5158,307,HCCS@guildford.gov.uk,Guildford,http://www.guildford.gov.uk,,,2012-10-19,fhrs_5_en-GB,5,,FHRS,5
231716,,,,,Finesse Catering,Other catering premises,7841,10,,650218,5,,,963,307,HCCS@guildford.gov.uk,Guildford,http://www.guildford.gov.uk,,,2011-11-15,fhrs_4_en-GB,4,,FHRS,5
231717,32 Portsmouth Road,,Guildford,Surrey,Fitzsimmons Place Nursery,Hospitals/Childcare/Caring Premises,5,0,,649658,5,,51.23020400000000,4063,307,HCCS@guildford.gov.uk,Guildford,http://www.guildford.gov.uk,-0.57869700000000,GU2 4DJ,2014-07-31,fhrs_5_en-GB,5,,FHRS,5
231718,25 - 26 Friary Street,,Guildford,Surrey,Five Guys,Other catering premises,7841,5,,671688,5,,51.23532100000000,5653,307,HCCS@guildford.gov.uk,Guildford,http://www.guildford.gov.uk,-0.57647700000000,GU1 4EH,2014-04-30,fhrs_5_en-GB,5,,FHRS,0
231719,,,,,Flossy Cockles,Other catering premises,7841,5,,650155,0,,,5621,307,HCCS@guildford.gov.uk,Guildford,http://www.guildford.gov.uk,,,2013-08-15,fhrs_5_en-GB,5,,FHRS,0
231720,40A Haydon Place,,Guildford,Surrey,Food 4 You,Retailers - other,4613,20,,649677,5,,51.23853700000000,4170,307,HCCS@guildford.gov.uk,Guildford,http://www.guildford.gov.uk,-0.57326900000000,GU1 4NE,2011-12-13,fhrs_1_en-GB,1,,FHRS,0
231721,The Manor Farm Barn Long Reach,,West Horsley,Surrey,Footprints,Hospitals/Childcare/Caring Premises,5,5,,649923,5,,,4703,307,HCCS@guildford.gov.uk,Guildford,http://www.guildford.gov.uk,,,2014-08-28,fhrs_5_en-GB,5,,FHRS,5
231722,Forest Road Stores And Post Office Forest Road,Effingham Junction,Leatherhead,Surrey,Forest Road General Stores,Retailers - other,4613,,,650045,,,51.29066000000000,5219,307,HCCS@guildford.gov.uk,Guildford,http://www.guildford.gov.uk,-0.42207100000000,KT24 5HE,2011-10-13,fhrs_exempt_en-GB,Exempt,,FHRS,
231723,The Fox Fox Corner,,Worplesdon,Surrey,Fox Inn,Pub/bar/nightclub,7843,10,,716951,5,,51.28308500000000,5695,307,HCCS@guildford.gov.uk,Guildford,http://www.guildford.gov.uk,-0.62282200000000,GU3 3PP,2014-09-22,fhrs_3_en-GB,3,,FHRS,10
231724,3 - 5 Woodbridge Meadows,,Guildford,Surrey,Frankie and Benny's,Other catering premises,7841,0,,649904,0,,51.24556100000000,4653,307,HCCS@guildford.gov.uk,Guildford,http://www.guildford.gov.uk,-0.58300900000000,GU1 1BA,2013-11-01,fhrs_5_en-GB,5,,FHRS,0
231725,87 North Street,,Guildford,Surrey,Fresh Choices,Retailers - other,4613,5,,649530,5,,51.23673600000000,332,307,HCCS@guildford.gov.uk,Guildford,http://www.guildford.gov.uk,-0.57089000000000,GU1 4AU,2014-05-10,fhrs_5_en-GB,5,,FHRS,5
231726,,,,,Fresh Coffee Direct Guildford.,Mobile caterer,7846,10,,649428,5,,,2560,307,HCCS@guildford.gov.uk,Guildford,http://www.guildford.gov.uk,,,2012-06-07,fhrs_4_en-GB,4,,FHRS,0
231727,,,,,Friendly Fodder,Other catering premises,7841,10,,649413,0,,,2471,307,HCCS@guildford.gov.uk,Guildford,http://www.guildford.gov.uk,,,2013-07-25,fhrs_4_en-GB,4,,FHRS,0
231728,Ash Manor School Manor Road,,Ash,Surrey,Friends Day Nursery,Hospitals/Childcare/Caring Premises,5,5,,649920,5,,,4697,307,HCCS@guildford.gov.uk,Guildford,http://www.guildford.gov.uk,,,2014-11-11,fhrs_4_en-GB,4,,FHRS,10
231729,Friends Montessori Day Nursery Gomshall Lane,Memorial Hall,Gomshall Lane,Shere,Friends Private Day Nursery,Hospitals/Childcare/Caring Premises,5,10,,649583,5,,,3647,307,HCCS@guildford.gov.uk,Guildford,http://www.guildford.gov.uk,,,2014-06-23,fhrs_4_en-GB,4,,FHRS,0
231730,,,,,Fruit Machine,Retailers - other,4613,,,649603,,,,3748,307,HCCS@guildford.gov.uk,Guildford,http://www.guildford.gov.uk,,,2012-11-23,fhrs_exempt_en-GB,Exempt,,FHRS,
231731,Rice Stores The Green,,Pirbright,Surrey,Fulk Bros,Retailers - other,4613,5,,649845,10,,51.29451000000000,4463,307,HCCS@guildford.gov.uk,Guildford,http://www.guildford.gov.uk,-0.64248800000000,GU24 0JT,2013-09-04,fhrs_4_en-GB,4,,FHRS,5
231732,G Live London Road,,Guildford,Surrey,G Live Cafe-Bar,Restaurant/Cafe/Canteen,1,5,,650097,5,,51.23946900000000,5490,307,HCCS@guildford.gov.uk,Guildford,http://www.guildford.gov.uk,-0.56491700000000,GU1 2AA,2015-01-28,fhrs_5_en-GB,5,,FHRS,0
231733,55 Woking Road,,Guildford,Surrey,G&J News,Retailers - other,4613,10,,649804,0,,51.25202400000000,4383,307,HCCS@guildford.gov.uk,Guildford,http://www.guildford.gov.uk,-0.57096000000000,GU1 1QD,2014-11-21,fhrs_4_en-GB,4,,FHRS,0
231734,22 North Street,,Guildford,Surrey,Game Retail Ltd,Retailers - other,4613,,,649368,,,51.23644000000000,2044,307,HCCS@guildford.gov.uk,Guildford,http://www.guildford.gov.uk,-0.57533900000000,GU1 4TA,2012-11-23,fhrs_exempt_en-GB,Exempt,,FHRS,
231735,,,,,Gary's Snacks,Mobile caterer,7846,10,,649417,5,,,2495,307,HCCS@guildford.gov.uk,Guildford,http://www.guildford.gov.uk,,,2013-12-20,fhrs_4_en-GB,4,,FHRS,0
231736,,,,,Gastrocircus,Mobile caterer,7846,10,,649600,10,,,3742,307,HCCS@guildford.gov.uk,Guildford,http://www.guildford.gov.uk,,,2012-08-08,fhrs_4_en-GB,4,,FHRS,0
231737,7 - 11 High Street,,Guildford,Surrey,George Abbot,Pub/bar/nightclub,7843,0,,649717,0,,51.23488700000000,4233,307,HCCS@guildford.gov.uk,Guildford,http://www.guildford.gov.uk,-0.57780800000000,GU2 4AB,2014-04-15,fhrs_4_en-GB,4,,FHRS,10
231738,George Abbot School Woodruff Avenue,,Guildford,Surrey,George Abbot School,School/college/university,7845,0,,671695,0,,,5670,307,HCCS@guildford.gov.uk,Guildford,http://www.guildford.gov.uk,,,2014-05-09,fhrs_5_en-GB,5,,FHRS,5
231739,"Mews End, 5 The Street",,Effingham,Surrey,Gibb and Evans Butchers,Retailers - other,4613,5,,649867,10,,51.27200700000000,4525,307,HCCS@guildford.gov.uk,Guildford,http://www.guildford.gov.uk,-0.40007400000000,KT24 5LU,2013-11-12,fhrs_3_en-GB,3,,FHRS,10
231740,215 High Street,,Guildford,Surrey,Giraffe,Other catering premises,7841,0,,649444,0,,,2718,307,HCCS@guildford.gov.uk,Guildford,http://www.guildford.gov.uk,,GU1 3BH,2015-01-27,fhrs_5_en-GB,5,,FHRS,5
231741,Glenesk Ockham Road North,,West Horsley,Surrey,Glenesk School Ltd,School/college/university,7845,5,,671664,5,,51.28266500000000,368,307,HCCS@guildford.gov.uk,Guildford,http://www.guildford.gov.uk,-0.43948100000000,KT24 6NS,2014-03-25,fhrs_5_en-GB,5,,FHRS,0
231742,6 Tunsgate,,Guildford,Surrey,Glutton & Glee,Restaurant/Cafe/Canteen,1,0,,649921,0,,51.23519000000000,4700,307,HCCS@guildford.gov.uk,Guildford,http://www.guildford.gov.uk,-0.57165400000000,GU1 3QT,2013-01-15,fhrs_5_en-GB,5,,FHRS,5
231743,Goal Farm Gole Road,,Pirbright,Surrey,Goal Farm Golf Club,Restaurant/Cafe/Canteen,1,5,,649297,0,,,1332,307,HCCS@guildford.gov.uk,Guildford,http://www.guildford.gov.uk,,,2013-04-11,fhrs_5_en-GB,5,,FHRS,0
231744,Europa Park Road Europa Park Road,,Guildford,Surrey,Goddard Fast Food,Mobile caterer,7846,0,,649967,0,,,4938,307,HCCS@guildford.gov.uk,Guildford,http://www.guildford.gov.uk,,,2014-12-05,fhrs_5_en-GB,5,,FHRS,5
231745,"Gomshall Mill, 52 Station Road",,Gomshall,Surrey,Gomshall Mill,Other catering premises,7841,5,,649830,5,,51.21914800000000,4435,307,HCCS@guildford.gov.uk,Guildford,http://www.guildford.gov.uk,-0.44674100000000,GU5 9LB,2014-02-03,fhrs_5_en-GB,5,,FHRS,5
231746,Gomshall Village Club Queen Street,,Gomshall,Surrey,Gomshall Village Sports and Social Club,Pub/bar/nightclub,7843,5,,649672,5,,51.21922400000000,4122,307,HCCS@guildford.gov.uk,Guildford,http://www.guildford.gov.uk,-0.45109200000000,GU5 9LY,2013-07-16,fhrs_5_en-GB,5,,FHRS,5
231747,80 The Street,,Tongham,Surrey,Good Taste Bakery,Manufacturers/packers,7839,0,,649777,10,,51.23342200000000,4321,307,HCCS@guildford.gov.uk,Guildford,http://www.guildford.gov.uk,-0.73200400000000,GU10 1AA,2014-07-04,fhrs_4_en-GB,4,,FHRS,5
231748,64 Chertsey Street,,Guildford,Surrey,Goodfillas,Takeaway/sandwich shop,7844,5,,728885,5,,51.23826900000000,5729,307,HCCS@guildford.gov.uk,Guildford,http://www.guildford.gov.uk,-0.57047000000000,GU1 4HL,2014-12-09,fhrs_5_en-GB,5,,FHRS,5
231749,Goose Green Cottage The Green,,Pirbright,Surrey,Goose Green Cottage,Hotel/bed & breakfast/guest house,7842,5,,649528,5,,51.29451000000000,3304,307,HCCS@guildford.gov.uk,Guildford,http://www.guildford.gov.uk,-0.64248800000000,GU24 0JT,2013-11-28,fhrs_5_en-GB,5,,FHRS,5
231750,Grizedale Horsham Road,,Holmbury St Mary,Surrey,Gourmande,Retailers - other,4613,5,,649932,5,,51.18690200000000,4773,307,HCCS@guildford.gov.uk,Guildford,http://www.guildford.gov.uk,-0.41067800000000,RH5 6PD,2013-01-25,fhrs_5_en-GB,5,,FHRS,5
231751,10 Friary Street,,Guildford,Surrey,Gourmet Burger Kitchen,Other catering premises,7841,0,,649543,0,,51.23532100000000,340,307,HCCS@guildford.gov.uk,Guildford,http://www.guildford.gov.uk,-0.57647700000000,GU1 4EH,2013-06-19,fhrs_5_en-GB,5,,FHRS,5
231752,Grange Park Stores 1/2 Burden Way,,,Surrey,Grange Park Stores,Retailers - supermarkets/hypermarkets,7840,5,,650164,10,,,614,307,HCCS@guildford.gov.uk,Guildford,http://www.guildford.gov.uk,,GU2 6RB,2011-10-19,fhrs_4_en-GB,4,,FHRS,5
231753,42 - 43 North Street,,Guildford,Surrey,Greggs Plc,Retailers - other,4613,0,,649343,5,,51.23618100000000,1732,307,HCCS@guildford.gov.uk,Guildford,http://www.guildford.gov.uk,-0.57474600000000,GU1 4TE,2014-01-28,fhrs_5_en-GB,5,,FHRS,0
231754,Gresham School Rifle Club House Queens Way,Bisley Camp,Brookwood,Surrey,Gresham School Rifle Club,Pub/bar/nightclub,7843,,,650017,,,51.31094600000000,5144,307,HCCS@guildford.gov.uk,Guildford,http://www.guildford.gov.uk,-0.65557600000000,GU24 0NY,2012-07-10,fhrs_exempt_en-GB,Exempt,,FHRS,
231755,Millmead House Millmead,,Guildford,Surrey,Guildford Borough Council,Other catering premises,7841,5,,649784,0,,51.23219100000000,4329,307,HCCS@guildford.gov.uk,Guildford,http://www.guildford.gov.uk,-0.57648700000000,GU2 4BB,2013-05-30,fhrs_5_en-GB,5,,FHRS,5
231756,The Guildford Childrens Centre Hazel Avenue,,Guildford,Surrey,Guildford Childrens Centre,Hospitals/Childcare/Caring Premises,5,5,,649509,5,,51.25935900000000,3240,307,HCCS@guildford.gov.uk,Guildford,http://www.guildford.gov.uk,-0.57956100000000,GU1 1NR,2014-04-29,fhrs_5_en-GB,5,,FHRS,5
231757,Guildford College Stoke Park Campus Stoke Road,,Guildford,Surrey,Guildford College,School/college/university,7845,20,,649386,5,,,2207,307,HCCS@guildford.gov.uk,Guildford,http://www.guildford.gov.uk,,,2015-01-26,fhrs_1_en-GB,1,,FHRS,5
231758,Guildford County School Farnham Road,,Guildford,Surrey,Guildford County School,School/college/university,7845,5,,649808,0,,51.23418000000000,4390,307,HCCS@guildford.gov.uk,Guildford,http://www.guildford.gov.uk,-0.58547900000000,GU2 4LU,2012-11-26,fhrs_5_en-GB,5,,FHRS,0
231759,"Day Nursery, 56 Epsom Road",,Guildford,Surrey,Guildford Day Nursery,Hospitals/Childcare/Caring Premises,5,0,,649486,0,,51.24677700000000,3067,307,HCCS@guildford.gov.uk,Guildford,http://www.guildford.gov.uk,-0.52488700000000,GU4 7AA,2014-07-15,fhrs_5_en-GB,5,,FHRS,5
231760,Guildford Golf Club Grove Road,,Guildford,Surrey,Guildford Golf Club,Restaurant/Cafe/Canteen,1,10,,649873,10,,51.24057900000000,4544,307,HCCS@guildford.gov.uk,Guildford,http://www.guildford.gov.uk,-0.53615900000000,GU1 2HL,2014-08-19,fhrs_3_en-GB,3,,FHRS,5
231761,Guildford Grove Southway,,Guildford,Surrey,Guildford Grove School,School/college/university,7845,0,,649678,0,,51.24398900000000,4174,307,HCCS@guildford.gov.uk,Guildford,http://www.guildford.gov.uk,-0.60934800000000,GU2 8YD,2013-02-11,fhrs_5_en-GB,5,,FHRS,0
231762,Guildford High School For Girls London Road,,Guildford,Surrey,Guildford High School,School/college/university,7845,5,,649510,5,,51.24179800000000,3243,307,HCCS@guildford.gov.uk,Guildford,http://www.guildford.gov.uk,-0.56422900000000,GU1 1SJ,2014-02-11,fhrs_5_en-GB,5,,FHRS,0
231763,,,,,Guildford Hog Roast,Other catering premises,7841,5,,649452,0,,,2798,307,HCCS@guildford.gov.uk,Guildford,http://www.guildford.gov.uk,,,2012-06-29,fhrs_5_en-GB,5,,FHRS,0
231764,155 High Street,,Guildford,Surrey,Guildford House Tea Room,Other catering premises,7841,10,,649453,5,,51.23623500000000,280,307,HCCS@guildford.gov.uk,Guildford,http://www.guildford.gov.uk,-0.57104800000000,GU1 3AJ,2014-01-29,fhrs_4_en-GB,4,,FHRS,5
231765,Jubilee Club Stocton Close,,Guildford,Surrey,Guildford Jubilee Social,Pub/bar/nightclub,7843,10,,649406,5,,,2367,307,HCCS@guildford.gov.uk,Guildford,http://www.guildford.gov.uk,,,2011-08-11,fhrs_4_en-GB,4,,FHRS,5
231766,39 Woodbridge Hill,,Guildford,Surrey,Guildford Kebab,Takeaway/sandwich shop,7844,10,,649280,10,,51.24895300000000,1241,307,HCCS@guildford.gov.uk,Guildford,http://www.guildford.gov.uk,-0.58686000000000,GU2 9AD,2014-12-15,fhrs_3_en-GB,3,,FHRS,5
231767,South West Surrey Masonic Centre At Guildford Weybourne House Hitherbury Close,,Guildford,Surrey,Guildford Masonic Centre,Pub/bar/nightclub,7843,0,,649957,0,,51.22938100000000,4891,307,HCCS@guildford.gov.uk,Guildford,http://www.guildford.gov.uk,-0.57760500000000,GU2 4DR,2013-03-14,fhrs_5_en-GB,5,,FHRS,0
231768,Guildford Methodist Church Woodbridge Road,,Guildford,Surrey,Guildford Methodist Church,Other catering premises,7841,,,649648,,,,4012,307,HCCS@guildford.gov.uk,Guildford,http://www.guildford.gov.uk,,,2011-08-18,fhrs_exempt_en-GB,Exempt,,FHRS,
231769,The Guildford Nuffield Hospital Stirling Road,Surrey Research Park,Guildford,Surrey,Guildford Nuffield Hospital,Hospitals/Childcare/Caring Premises,5,0,,649656,5,,51.24170600000000,4048,307,HCCS@guildford.gov.uk,Guildford,http://www.guildford.gov.uk,-0.61251100000000,GU2 7RF,2013-03-21,fhrs_5_en-GB,5,,FHRS,0
231770,The Guildford Park Evangelical Church Guildford Park Road,,Guildford,Surrey,Guildford Park Evangelical Church,Other catering premises,7841,10,,649284,5,,,1277,307,HCCS@guildford.gov.uk,Guildford,http://www.guildford.gov.uk,,,2013-07-04,fhrs_4_en-GB,4,,FHRS,5
231771,,,,,Guildford Railway Club,Pub/bar/nightclub,7843,,,649645,,,,3983,307,HCCS@guildford.gov.uk,Guildford,http://www.guildford.gov.uk,,,2011-09-09,fhrs_exempt_en-GB,Exempt,,FHRS,
231772,Guildford Rowing Club Shalford Road,,Guildford,Surrey,Guildford Rowing Club,Pub/bar/nightclub,7843,5,,649635,5,,,3937,307,HCCS@guildford.gov.uk,Guildford,http://www.guildford.gov.uk,,,2011-08-12,fhrs_5_en-GB,5,,FHRS,5
231773,"Guildford United Reformed Church, 83 Portsmouth Road",,Guildford,Surrey,GUILDFORD UNITED REFORM CHURCH,Other catering premises,7841,,,649657,,,,4062,307,HCCS@guildford.gov.uk,Guildford,http://www.guildford.gov.uk,,,2011-11-08,fhrs_exempt_en-GB,Exempt,,FHRS,
231774,"Guildford Centre For Young People, 7 Ward Street",,Guildford,Surrey,Guildford Young People's Centre,Pub/bar/nightclub,7843,,,649934,,,51.23740900000000,4781,307,HCCS@guildford.gov.uk,Guildford,http://www.guildford.gov.uk,-0.57218700000000,GU1 4LH,2013-05-23,fhrs_exempt_en-GB,Exempt,,FHRS,
231775,Artington Manor Farm Old Portsmouth Road,Peasmarsh,Guildford,Surrey,Gymnastics Factory,Other catering premises,7841,0,,649806,0,,,4388,307,HCCS@guildford.gov.uk,Guildford,http://www.guildford.gov.uk,,,2012-10-09,fhrs_5_en-GB,5,,FHRS,5
231776,Youngs Kitchen Student Union University Of Surrey,,Guildford,Surrey,H.R.B. Youngs Kitchen,Other catering premises,7841,5,,649382,5,,,2202,307,HCCS@guildford.gov.uk,Guildford,http://www.guildford.gov.uk,,,2014-08-04,fhrs_5_en-GB,5,,FHRS,5
231777,Half Moon High Street,,Ripley,Surrey,Half Moon,Pub/bar/nightclub,7843,5,,649730,10,,51.30109600000000,4257,307,HCCS@guildford.gov.uk,Guildford,http://www.guildford.gov.uk,-0.49134400000000,GU23 6AN,2013-02-06,fhrs_4_en-GB,4,,FHRS,5
231778,Puttenham Golf Club The Heath,,Puttenham,Surrey,Halfway House,Restaurant/Cafe/Canteen,1,10,,649898,0,,,4636,307,HCCS@guildford.gov.uk,Guildford,http://www.guildford.gov.uk,,,2013-08-23,fhrs_4_en-GB,4,,FHRS,5
231779,High Street High Street,,Guildford,Surrey,Hampshire Game,Retailers - other,4613,,,650006,,,,5116,307,HCCS@guildford.gov.uk,Guildford,http://www.guildford.gov.uk,,,2014-08-05,fhrs_exempt_en-GB,Exempt,,FHRS,
231780,Hampton Estate Farms Elstead Road,Nr Farnham,Seale,Surrey,Hampton Estate,Farmers/growers,7838,10,,649416,0,,51.21140800000000,2494,307,HCCS@guildford.gov.uk,Guildford,http://www.guildford.gov.uk,-0.70241500000000,GU10 1JF,2013-12-06,fhrs_4_en-GB,4,,FHRS,0
231781,High Street High Street,,Guildford,Surrey,Hank Marvins Catering,Mobile caterer,7846,10,,649968,5,,,4939,307,HCCS@guildford.gov.uk,Guildford,http://www.guildford.gov.uk,,,2014-02-05,fhrs_3_en-GB,3,,FHRS,10
231782,171 - 173 Ash Hill Road,,Ash,Surrey,Happy Garden,Takeaway/sandwich shop,7844,5,,671694,5,,51.25606400000000,5662,307,HCCS@guildford.gov.uk,Guildford,http://www.guildford.gov.uk,-0.71958700000000,GU12 5DW,2014-05-15,fhrs_5_en-GB,5,,FHRS,5
231783,Tesco Superstore Egerton Road,,Guildford,Surrey,Harris & Hoole,Restaurant/Cafe/Canteen,1,5,,649464,5,,,2914,307,HCCS@guildford.gov.uk,Guildford,http://www.guildford.gov.uk,,,2014-01-17,fhrs_5_en-GB,5,,FHRS,0
231784,49 North Street,,Guildford,Surrey,Harris and Hoole,Other catering premises,7841,5,,649370,5,,51.23618100000000,2046,307,HCCS@guildford.gov.uk,Guildford,http://www.guildford.gov.uk,-0.57474600000000,GU1 4TE,2015-01-14,fhrs_5_en-GB,5,,FHRS,5
231785,Burrows Lea Hook Lane,,Shere,Surrey,Harry Edwards Spiritual Healing Sanctuary,Restaurant/Cafe/Canteen,1,5,,649669,0,,51.21093900000000,4117,307,HCCS@guildford.gov.uk,Guildford,http://www.guildford.gov.uk,-0.45706800000000,GU5 9QQ,2012-01-09,fhrs_5_en-GB,5,,FHRS,0
231786,9 Epsom Road,,Guildford,Surrey,Harvesters Express Store,Retailers - other,4613,10,,649358,5,,51.23781100000000,1941,307,HCCS@guildford.gov.uk,Guildford,http://www.guildford.gov.uk,-0.56537000000000,GU1 3JT,2012-02-09,fhrs_4_en-GB,4,,FHRS,5
231787,Guildford Spectrum Leisure Centre Parkway,,Guildford,Surrey,Harvey's Diner,Restaurant/Cafe/Canteen,1,5,,671685,5,,51.24904000000000,5650,307,HCCS@guildford.gov.uk,Guildford,http://www.guildford.gov.uk,-0.56294300000000,GU1 1UP,2014-04-08,fhrs_4_en-GB,4,,FHRS,10
231788,High Street High Street,,Guildford,Surrey,Harvey's Poultry Products,Retailers - other,4613,,,649963,,,,4926,307,HCCS@guildford.gov.uk,Guildford,http://www.guildford.gov.uk,,,2014-07-01,fhrs_exempt_en-GB,Exempt,,FHRS,
231789,Hatchlands Park Epsom Road,,East Clandon,Surrey,Hatchlands Park,Other catering premises,7841,5,,649432,0,,51.25543700000000,2640,307,HCCS@guildford.gov.uk,Guildford,http://www.guildford.gov.uk,-0.47512600000000,GU4 7RT,2014-10-22,fhrs_5_en-GB,5,,FHRS,5
231790,,,,,Heart & Sole Confectionary,Other catering premises,7841,5,,728876,5,,,5714,307,HCCS@guildford.gov.uk,Guildford,http://www.guildford.gov.uk,,,2014-11-07,fhrs_5_en-GB,5,,FHRS,0
231791,"Manor Park Student Village Reception, 1 Alexander Fleming Road",Manor Park Student Village,Guildford,Surrey,Heart and Soul,Other catering premises,7841,5,,650138,5,,51.23650300000000,5593,307,HCCS@guildford.gov.uk,Guildford,http://www.guildford.gov.uk,-0.61202300000000,GU2 7YW,2014-04-25,fhrs_5_en-GB,5,,FHRS,0
231792,143 Worplesdon Road,,Guildford,Surrey,Heaters Bakery,Manufacturers/packers,7839,0,,649774,5,,51.25633900000000,4318,307,HCCS@guildford.gov.uk,Guildford,http://www.guildford.gov.uk,-0.59458700000000,GU2 9XA,2014-12-23,fhrs_4_en-GB,4,,FHRS,10
231793,High Street High Street,,Guildford,Surrey,Hempstead Foods,Retailers - other,4613,5,,650007,5,,,5119,307,HCCS@guildford.gov.uk,Guildford,http://www.guildford.gov.uk,,,2013-02-05,fhrs_5_en-GB,5,,FHRS,5
231794,Henley Fort Outdoor Education Centre The Mount,,Guildford,Surrey,Henley Fort Outdoor Centre,School/college/university,7845,5,,649394,5,,,2254,307,HCCS@guildford.gov.uk,Guildford,http://www.guildford.gov.uk,,,2012-06-21,fhrs_5_en-GB,5,,FHRS,5
231795,,,,,Hey There Cupcake,Other catering premises,7841,5,,650224,0,,,997,307,HCCS@guildford.gov.uk,Guildford,http://www.guildford.gov.uk,,,2013-11-19,fhrs_5_en-GB,5,,FHRS,5
231796,Seasons And Oak Complex University Of Surrey,,Guildford,Surrey,Hillside University of Surrey,School/college/university,7845,10,,649381,15,,51.24258200000000,2199,307,HCCS@guildford.gov.uk,Guildford,http://www.guildford.gov.uk,-0.58795800000000,GU2 7XH,2014-07-17,fhrs_2_en-GB,2,,FHRS,5
231797,38 Barrack Road,,Guildford,Surrey,Ho Ho Takeaway,Takeaway/sandwich shop,7844,10,,649759,10,,51.25448900000000,4304,307,HCCS@guildford.gov.uk,Guildford,http://www.guildford.gov.uk,-0.59176300000000,GU2 9RU,2014-11-07,fhrs_3_en-GB,3,,FHRS,10
231798,Little Chef Restaurant Hogs Back,,Seale,Surrey,Hogs Back Cafe,Restaurant/Cafe/Canteen,1,5,,649499,5,,51.22600900000000,3175,307,HCCS@guildford.gov.uk,Guildford,http://www.guildford.gov.uk,-0.72589200000000,GU10 1EU,2014-06-12,fhrs_5_en-GB,5,,FHRS,0
231799,Holiday Inn Egerton Road,,Guildford,Surrey,Holiday Inn,Hotel/bed & breakfast/guest house,7842,0,,649507,5,,51.23362600000000,3235,307,HCCS@guildford.gov.uk,Guildford,http://www.guildford.gov.uk,-0.61288300000000,GU2 7XU,2014-11-27,fhrs_5_en-GB,5,,FHRS,5
231800,Womens Institute Hall Felday Glade,,Holmbury St Mary,Surrey,HOLMBURY ST MARY VILL.HA.,Other catering premises,7841,,,649355,,,51.18819100000000,1927,307,HCCS@guildford.gov.uk,Guildford,http://www.guildford.gov.uk,-0.41555600000000,RH5 6PG,2011-11-29,fhrs_exempt_en-GB,Exempt,,FHRS,
231801,36 Aldershot Road,,Guildford,Surrey,Holroyd Arms,Pub/bar/nightclub,7843,10,,649722,10,,51.25005400000000,4238,307,HCCS@guildford.gov.uk,Guildford,http://www.guildford.gov.uk,-0.59012200000000,GU2 8AF,2013-08-23,fhrs_3_en-GB,3,,FHRS,5
231802,Holy Trinity Church Of England Junior School Addison Road,,Guildford,Surrey,Holy Trinity Pewley Down School,School/college/university,7845,0,,649954,0,,51.23420300000000,4884,307,HCCS@guildford.gov.uk,Guildford,http://www.guildford.gov.uk,-0.55938000000000,GU1 3QF,2011-11-03,fhrs_5_en-GB,5,,FHRS,5
231803,,,,,Home Caterer,Other catering premises,7841,,,735695,,,,5744,307,HCCS@guildford.gov.uk,Guildford,http://www.guildford.gov.uk,,,2015-01-30,fhrs_exempt_en-GB,Exempt,,FHRS,
231804,,,,,Homemade etc,Other catering premises,7841,,,649419,,,,2510,307,HCCS@guildford.gov.uk,Guildford,http://www.guildford.gov.uk,,,2012-11-12,fhrs_exempt_en-GB,Exempt,,FHRS,
231805,Horse And Groom Epsom Road,,Guildford,Surrey,Horse and Groom,Pub/bar/nightclub,7843,0,,649715,5,,51.24582300000000,4231,307,HCCS@guildford.gov.uk,Guildford,http://www.guildford.gov.uk,-0.52911500000000,GU1 2RG,2013-04-23,fhrs_5_en-GB,5,,FHRS,0
231806,Horsley Evangelical Church Ockham Road North,,East Horsley,Surrey,Horsley Evangelical Church,Other catering premises,7841,10,,649951,5,,,4880,307,HCCS@guildford.gov.uk,Guildford,http://www.guildford.gov.uk,,,2011-11-22,fhrs_4_en-GB,4,,FHRS,0
231807,Pavilion Long Reach,,West Horsley,Surrey,Horsley Football Club,Pub/bar/nightclub,7843,5,,649331,5,,,1584,307,HCCS@guildford.gov.uk,Guildford,http://www.guildford.gov.uk,,,2011-09-09,fhrs_5_en-GB,5,,FHRS,5
231808,"Post Office And Newsagents, 12 The Street",,West Horsley,Surrey,Horsley Newsagents,Retailers - other,4613,,,649836,,,51.26131600000000,4443,307,HCCS@guildford.gov.uk,Guildford,http://www.guildford.gov.uk,-0.45638500000000,KT24 6AX,2011-10-05,fhrs_exempt_en-GB,Exempt,,FHRS,
231809,16 Station Parade,,East Horsley,Surrey,Horsley Village Store,Retailers - supermarkets/hypermarkets,7840,10,,649300,0,,51.27731500000000,1340,307,HCCS@guildford.gov.uk,Guildford,http://www.guildford.gov.uk,-0.43551800000000,KT24 6QN,2013-02-07,fhrs_4_en-GB,4,,FHRS,10
231810,8 Market Street,,Guildford,Surrey,Hotel Chocolat,Retailers - other,4613,5,,649649,5,,51.23620200000000,4020,307,HCCS@guildford.gov.uk,Guildford,http://www.guildford.gov.uk,-0.57278300000000,GU1 4LB,2011-06-02,fhrs_5_en-GB,5,,FHRS,0
231811,Howard Of Effingham School Lower Road,,Effingham,Surrey,Howard of Effingham School,School/college/university,7845,0,,649489,5,,51.27374000000000,3144,307,HCCS@guildford.gov.uk,Guildford,http://www.guildford.gov.uk,-0.39529700000000,KT24 5JR,2011-10-13,fhrs_5_en-GB,5,,FHRS,0
231812,High Street High Street,,Guildford,Surrey,Hunts Hill Farm,Retailers - other,4613,10,,671673,0,,,5105,307,HCCS@guildford.gov.uk,Guildford,http://www.guildford.gov.uk,,,2014-08-05,fhrs_4_en-GB,4,,FHRS,0
231813,,,,,Hunts Hill Farm,Mobile caterer,7846,10,,649475,5,,,3009,307,HCCS@guildford.gov.uk,Guildford,http://www.guildford.gov.uk,,,2013-08-30,fhrs_4_en-GB,4,,FHRS,5
231814,Hurtmore Golf Club Hurtmore Road,Hurtmore,Godalming,Surrey,Hurtmore Golf Club,Other catering premises,7841,0,,649704,10,,,4217,307,HCCS@guildford.gov.uk,Guildford,http://www.guildford.gov.uk,,,2015-01-08,fhrs_4_en-GB,4,,FHRS,5
231815,,,,,Iced Gems,Other catering premises,7841,5,,650143,5,,,5600,307,HCCS@guildford.gov.uk,Guildford,http://www.guildford.gov.uk,,,2013-07-25,fhrs_5_en-GB,5,,FHRS,5
231816,High Street High Street,,Guildford,Surrey,Imbhams Farm Granary,Retailers - other,4613,0,,649965,5,,,4934,307,HCCS@guildford.gov.uk,Guildford,http://www.guildford.gov.uk,,,2013-12-03,fhrs_5_en-GB,5,,FHRS,5
231817,111 Aldershot Road,,Guildford,Surrey,Imraan Tandoori,Takeaway/sandwich shop,7844,5,,649760,5,,51.25026300000000,4305,307,HCCS@guildford.gov.uk,Guildford,http://www.guildford.gov.uk,-0.59710800000000,GU2 8BE,2014-10-22,fhrs_4_en-GB,4,,FHRS,10
231818,,,,,In Flavour Catering,Other catering premises,7841,5,,671681,0,,,5645,307,HCCS@guildford.gov.uk,Guildford,http://www.guildford.gov.uk,,,2014-03-27,fhrs_5_en-GB,5,,FHRS,5
231819,248 Shawfield Road,,Ash,Surrey,Indian Hut,Takeaway/sandwich shop,7844,10,,649779,5,,51.25635800000000,4323,307,HCCS@guildford.gov.uk,Guildford,http://www.guildford.gov.uk,-0.72096900000000,GU12 5DJ,2012-11-22,fhrs_4_en-GB,4,,FHRS,5
231820,Inns Of Court Pavillion Bisley,Bisley Camp,Pirbright,,Inns of Court Pavillion,Pub/bar/nightclub,7843,,,649431,,,51.31155900000000,2607,307,HCCS@guildford.gov.uk,Guildford,http://www.guildford.gov.uk,-0.65568700000000,GU24 0PB,2011-07-22,fhrs_exempt_en-GB,Exempt,,FHRS,
231821,Institute For Animal Health Ash Road,,Pirbright,Surrey,Institute for Animal Health,Restaurant/Cafe/Canteen,1,0,,649835,0,,51.27981100000000,4441,307,HCCS@guildford.gov.uk,Guildford,http://www.guildford.gov.uk,-0.63503500000000,GU24 0NF,2013-08-06,fhrs_5_en-GB,5,,FHRS,0
231822,,,,,It's Time for Cake,Other catering premises,7841,10,,649602,0,,,3746,307,HCCS@guildford.gov.uk,Guildford,http://www.guildford.gov.uk,,,2013-05-13,fhrs_4_en-GB,4,,FHRS,0
231823,Rickford House Rickford,,Worplesdon,Surrey,J A Christmas & Sons,Manufacturers/packers,7839,5,,649775,5,,51.27965900000000,4319,307,HCCS@guildford.gov.uk,Guildford,http://www.guildford.gov.uk,-0.61439300000000,GU3 3PJ,2014-03-05,fhrs_5_en-GB,5,,FHRS,5
231824,Jacobs Well Village Hall Jacobs Well Road,,Jacobs Well,Surrey,Jacobs Well Village Hall,Other catering premises,7841,,,649251,,,,1044,307,HCCS@guildford.gov.uk,Guildford,http://www.guildford.gov.uk,,,2011-08-22,fhrs_exempt_en-GB,Exempt,,FHRS,
231825,13 Friary Street,,Guildford,Surrey,Jamie's Italian,Other catering premises,7841,0,,649327,0,,,1562,307,HCCS@guildford.gov.uk,Guildford,http://www.guildford.gov.uk,,GU1 4EN,2014-07-02,fhrs_5_en-GB,5,,FHRS,5
231826,Japonica Court Shawfield Road,,Ash,Surrey,Japonica Court,Hospitals/Childcare/Caring Premises,5,,,735693,,,51.24637800000000,4137,307,HCCS@guildford.gov.uk,Guildford,http://www.guildford.gov.uk,-0.72944100000000,GU12 6QU,2014-11-11,fhrs_exempt_en-GB,Exempt,,FHRS,
231827,"Snack Bar, 11 Fremantle Way",Bisley Camp,Brookwood,Surrey,Jenny's Snack Bar,Takeaway/sandwich shop,7844,5,,649899,5,,,4639,307,HCCS@guildford.gov.uk,Guildford,http://www.guildford.gov.uk,,,2013-04-07,fhrs_4_en-GB,4,,FHRS,10
231828,,,,,Jen's Cake Mix,Other catering premises,7841,5,,649533,5,,,3328,307,HCCS@guildford.gov.uk,Guildford,http://www.guildford.gov.uk,,,2013-05-10,fhrs_5_en-GB,5,,FHRS,5
231829,7 Guildford Park Road,,Guildford,Surrey,Jerry and the Pizza Maker,Mobile caterer,7846,5,,649269,5,,51.23661000000000,1179,307,HCCS@guildford.gov.uk,Guildford,http://www.guildford.gov.uk,-0.58272600000000,GU2 7NA,2013-07-30,fhrs_5_en-GB,5,,FHRS,5
231830,The Jolly Farmer Burdenshott Road,,Worplesdon,Surrey,Jolly Farmer,Pub/bar/nightclub,7843,5,,716945,0,,51.27885400000000,5688,307,HCCS@guildford.gov.uk,Guildford,http://www.guildford.gov.uk,-0.58542600000000,GU3 3RN,2014-08-04,fhrs_4_en-GB,4,,FHRS,10
231831,The Jolly Farmer Puttenham Heath Road,,Puttenham,Surrey,Jolly Farmer (Harvester),Other catering premises,7841,0,,649705,0,,51.22123900000000,4218,307,HCCS@guildford.gov.uk,Guildford,http://www.guildford.gov.uk,-0.66267300000000,GU3 1AJ,2014-03-14,fhrs_5_en-GB,5,,FHRS,5
231832,The Jovial Sailor Portsmouth Road,,Ripley,Surrey,Jovial Sailor,Pub/bar/nightclub,7843,0,,649733,0,,51.28873800000000,4260,307,HCCS@guildford.gov.uk,Guildford,http://www.guildford.gov.uk,-0.50237500000000,GU23 6EZ,2013-01-14,fhrs_5_en-GB,5,,FHRS,0
231833,,,,,Joy Leigh,Other catering premises,7841,5,,650178,5,,,719,307,HCCS@guildford.gov.uk,Guildford,http://www.guildford.gov.uk,,,2013-10-22,fhrs_5_en-GB,5,,FHRS,5
231834,Lascombe Estate Highfield Lane,,Puttenham,Surrey,Kalm Kitchen Ltd,Other catering premises,7841,0,,649984,0,,51.21781000000000,5036,307,HCCS@guildford.gov.uk,Guildford,http://www.guildford.gov.uk,-0.68303300000000,GU3 1BB,2013-02-28,fhrs_5_en-GB,5,,FHRS,5
231835,"Kathryn House Nursing Home, 43 - 49 Farnham Road",,Guildford,Surrey,Kathryns House,Hospitals/Childcare/Caring Premises,5,5,,649286,0,,51.23527300000000,1281,307,HCCS@guildford.gov.uk,Guildford,http://www.guildford.gov.uk,-0.58222200000000,GU2 4JN,2013-10-24,fhrs_5_en-GB,5,,FHRS,5
231836,,,,,Katie's Bakery,Other catering premises,7841,,,649945,,,,4851,307,HCCS@guildford.gov.uk,Guildford,http://www.guildford.gov.uk,,,2012-03-07,fhrs_exempt_en-GB,Exempt,,FHRS,
231837,14 Riverside,,Guildford,Surrey,Kendall's Fruit & Veg,Retailers - other,4613,0,,649606,0,,51.25121300000000,3759,307,HCCS@guildford.gov.uk,Guildford,http://www.guildford.gov.uk,-0.57375100000000,GU1 1LW,2012-10-19,fhrs_5_en-GB,5,,FHRS,5
231838,264 High Street,,Guildford,Surrey,Kentucky Fried Chicken,Takeaway/sandwich shop,7844,5,,728886,0,,51.23735400000000,5730,307,HCCS@guildford.gov.uk,Guildford,http://www.guildford.gov.uk,-0.56698800000000,GU1 3JL,2014-05-19,fhrs_5_en-GB,5,,FHRS,5
231839,Nursery Railton Road,,Guildford,Surrey,Kids Inc Day Nursery,Hospitals/Childcare/Caring Premises,5,0,,649572,0,,51.26129700000000,3590,307,HCCS@guildford.gov.uk,Guildford,http://www.guildford.gov.uk,-0.58735600000000,GU2 9LX,2014-10-10,fhrs_5_en-GB,5,,FHRS,0
231840,North Street North Street,,Guildford,Surrey,Kilfeather,Retailers - other,4613,,,700434,,,,5056,307,HCCS@guildford.gov.uk,Guildford,http://www.guildford.gov.uk,,,2014-07-25,fhrs_exempt_en-GB,Exempt,,FHRS,
231841,Royal Grammar School High Street,,Guildford,Surrey,King Edward V1 Royal Grammar School,Other catering premises,7841,0,,649976,5,,51.23740200000000,4954,307,HCCS@guildford.gov.uk,Guildford,http://www.guildford.gov.uk,-0.56943600000000,GU1 3BB,2013-07-11,fhrs_5_en-GB,5,,FHRS,5
231842,King George V Hall Browns Lane,,Effingham,Surrey,King George V Village Hall,Pub/bar/nightclub,7843,,,649809,,,,4395,307,HCCS@guildford.gov.uk,Guildford,http://www.guildford.gov.uk,,,2011-09-09,fhrs_exempt_en-GB,Exempt,,FHRS,
231843,"The King William Iv, 83 The Street",,West Horsley,Surrey,King William IV,Pub/bar/nightclub,7843,0,,649695,5,,51.26516700000000,4206,307,HCCS@guildford.gov.uk,Guildford,http://www.guildford.gov.uk,-0.45655700000000,KT24 6BG,2013-02-25,fhrs_5_en-GB,5,,FHRS,5
231844,Kinghams Restaurant Gomshall Lane,,Shere,Surrey,Kinghams,Other catering premises,7841,5,,650212,5,,51.22049300000000,932,307,HCCS@guildford.gov.uk,Guildford,http://www.guildford.gov.uk,-0.46279100000000,GU5 9HE,2014-02-12,fhrs_4_en-GB,4,,FHRS,10
231845,Kings College For The Arts And Technology Southway,,Guildford,Surrey,Kings College Secondary School,School/college/university,7845,0,,649843,0,,51.24437600000000,4458,307,HCCS@guildford.gov.uk,Guildford,http://www.guildford.gov.uk,-0.60715800000000,GU2 8DU,2014-06-27,fhrs_4_en-GB,4,,FHRS,10
231846,The Kings Head Holmbury Hill Road,,Holmbury St Mary,Surrey,Kings Head,Pub/bar/nightclub,7843,10,,649502,15,,51.18543000000000,3180,307,HCCS@guildford.gov.uk,Guildford,http://www.guildford.gov.uk,-0.41094300000000,RH5 6NP,2013-11-14,fhrs_2_en-GB,2,,FHRS,10
231847,Kings Head Quarry Street,,Guildford,Surrey,Kings Head Public House,Pub/bar/nightclub,7843,20,,649712,15,,51.23448100000000,4228,307,HCCS@guildford.gov.uk,Guildford,http://www.guildford.gov.uk,-0.57398200000000,GU1 3UA,2014-09-30,fhrs_1_en-GB,1,,FHRS,10
231848,Egerton Road Egerton Road,,Guildford,Surrey,Kings Kebab,Mobile caterer,7846,10,,649816,10,,,4411,307,HCCS@guildford.gov.uk,Guildford,http://www.guildford.gov.uk,,,2013-10-10,fhrs_3_en-GB,3,,FHRS,10
231849,Woodbridge Road Woodbridge Road,,Guildford,Surrey,Kings Kebab,Mobile caterer,7846,20,,649966,15,,,4935,307,HCCS@guildford.gov.uk,Guildford,http://www.guildford.gov.uk,,,2014-11-04,fhrs_0_en-GB,0,,FHRS,20
231850,18 Station Parade,,East Horsley,Surrey,Kirthon,Other catering premises,7841,10,,649301,5,,51.27731500000000,1341,307,HCCS@guildford.gov.uk,Guildford,http://www.guildford.gov.uk,-0.43551800000000,KT24 6QN,2013-04-22,fhrs_3_en-GB,3,,FHRS,10
231851,53 North Street,,Guildford,Surrey,Kokoro,Restaurant/Cafe/Canteen,1,5,,649652,5,,51.23618100000000,4023,307,HCCS@guildford.gov.uk,Guildford,http://www.guildford.gov.uk,-0.57474600000000,GU1 4TE,2014-06-20,fhrs_5_en-GB,5,,FHRS,5
231852,4 Pannells Court,,Guildford,Surrey,Kowalski Delicatessen Ltd,Retailers - other,4613,10,,650068,5,,51.23706900000000,5387,307,HCCS@guildford.gov.uk,Guildford,http://www.guildford.gov.uk,-0.57016300000000,GU1 4EU,2012-12-06,fhrs_4_en-GB,4,,FHRS,5
231853,4A Chapel Street,,Guildford,Surrey,La Casita,Other catering premises,7841,0,,650026,0,,51.23489000000000,5167,307,HCCS@guildford.gov.uk,Guildford,http://www.guildford.gov.uk,-0.57356800000000,GU1 3UH,2013-04-25,fhrs_5_en-GB,5,,FHRS,5
231854,La Fitness Epsom Road,,Guildford,Surrey,LA Fitness,Restaurant/Cafe/Canteen,1,,,649861,,,51.24677700000000,4502,307,HCCS@guildford.gov.uk,Guildford,http://www.guildford.gov.uk,-0.52488700000000,GU4 7AA,2011-08-11,fhrs_exempt_en-GB,Exempt,,FHRS,
231855,La Meridiana Restaurant Ockham Road South,,East Horsley,Surrey,La Meridiana,Other catering premises,7841,10,,649701,5,,51.27854600000000,4214,307,HCCS@guildford.gov.uk,Guildford,http://www.guildford.gov.uk,-0.43607900000000,KT24 6QU,2014-12-10,fhrs_4_en-GB,4,,FHRS,5
231856,Management School University Of Surrey,,Guildford,Surrey,Lakeside Coffee Shop,Restaurant/Cafe/Canteen,1,5,,650134,0,,51.24258200000000,5586,307,HCCS@guildford.gov.uk,Guildford,http://www.guildford.gov.uk,-0.58795800000000,GU2 7XH,2013-12-12,fhrs_5_en-GB,5,,FHRS,5
231857,Lanesborough Preparatory School Cranley Road,,Guildford,Surrey,Lanesborough Prep School,School/college/university,7845,5,,649893,5,,51.24045200000000,4615,307,HCCS@guildford.gov.uk,Guildford,http://www.guildford.gov.uk,-0.55855400000000,GU1 2EH,2014-12-10,fhrs_5_en-GB,5,,FHRS,5
231858,High Street High Street,,Guildford,Surrey,Larinka Apiaries,Retailers - other,4613,,,650060,,,,5334,307,HCCS@guildford.gov.uk,Guildford,http://www.guildford.gov.uk,,,2013-12-03,fhrs_exempt_en-GB,Exempt,,FHRS,
231859,8 Station Parade,,East Horsley,Surrey,Laughing Buddha,Other catering premises,7841,5,,649526,5,,51.27731500000000,3298,307,HCCS@guildford.gov.uk,Guildford,http://www.guildford.gov.uk,-0.43551800000000,KT24 6QN,2013-09-17,fhrs_4_en-GB,4,,FHRS,10
231860,,,,,Lea Bakery (LEA),Other catering premises,7841,5,,649263,5,,,1162,307,HCCS@guildford.gov.uk,Guildford,http://www.guildford.gov.uk,,,2013-02-18,fhrs_5_en-GB,5,,FHRS,5
231861,,,,,Leigh's Cupcake Kitchen,Other catering premises,7841,,,650137,,,,5592,307,HCCS@guildford.gov.uk,Guildford,http://www.guildford.gov.uk,,,2012-07-06,fhrs_exempt_en-GB,Exempt,,FHRS,
231862,123 Worplesdon Road,,Guildford,Surrey,Lewis News,Retailers - other,4613,5,,649457,0,,51.25633900000000,2821,307,HCCS@guildford.gov.uk,Guildford,http://www.guildford.gov.uk,-0.59458700000000,GU2 9XA,2011-08-23,fhrs_5_en-GB,5,,FHRS,0
231863,Guildford Lido Lido Road,,Guildford,Surrey,Lido Cafe,Other catering premises,7841,0,,650194,5,,,852,307,HCCS@guildford.gov.uk,Guildford,http://www.guildford.gov.uk,,,2013-06-05,fhrs_4_en-GB,4,,FHRS,10
231864,Limegrove St Martins Close,,East Horsley,Surrey,Limegrove,Hospitals/Childcare/Caring Premises,5,0,,649399,0,,51.26395300000000,2302,307,HCCS@guildford.gov.uk,Guildford,http://www.guildford.gov.uk,-0.43357800000000,KT24 6SU,2013-09-17,fhrs_5_en-GB,5,,FHRS,0
231865,"The Lion Brewery, 104 Guildford Road",,Ash,Surrey,Lion Brewery,Pub/bar/nightclub,7843,10,,649435,5,,51.25169300000000,2653,307,HCCS@guildford.gov.uk,Guildford,http://www.guildford.gov.uk,-0.70808800000000,GU12 6BT,2013-04-26,fhrs_4_en-GB,4,,FHRS,5
231866,Rokers Little Angels Holly Lane,,Worplesdon,Surrey,Little Angels,Other catering premises,7841,0,,716939,5,,51.26588200000000,2383,307,HCCS@guildford.gov.uk,Guildford,http://www.guildford.gov.uk,-0.61743100000000,GU3 3PB,2014-09-08,fhrs_5_en-GB,5,,FHRS,0
231867,Little Chef Ripley By-pass Southbound,,Ripley,Surrey,Little Chef,Other catering premises,7841,0,,649703,5,,51.29342600000000,4216,307,HCCS@guildford.gov.uk,Guildford,http://www.guildford.gov.uk,-0.48793800000000,GU23 6PU,2014-03-27,fhrs_4_en-GB,4,,FHRS,10
231868,Pavilion Backside Common,,Wood Street Village,Surrey,Little Crickets Nursery,Hospitals/Childcare/Caring Premises,5,10,,671691,5,,,5657,307,HCCS@guildford.gov.uk,Guildford,http://www.guildford.gov.uk,,,2014-04-22,fhrs_4_en-GB,4,,FHRS,0
231869,,,,,Little Larder,Other catering premises,7841,10,,650183,0,,,733,307,HCCS@guildford.gov.uk,Guildford,http://www.guildford.gov.uk,,,2013-03-20,fhrs_4_en-GB,4,,FHRS,0
231870,Howard Of Effingham School Lower Road,,Effingham,Surrey,Little Pickles Nursery,Hospitals/Childcare/Caring Premises,5,5,,649391,5,,51.27374000000000,2241,307,HCCS@guildford.gov.uk,Guildford,http://www.guildford.gov.uk,-0.39529700000000,KT24 5JR,2014-10-28,fhrs_5_en-GB,5,,FHRS,5
231871,,,,,Little Sweet Cake Company,Other catering premises,7841,5,,728874,0,,,5710,307,HCCS@guildford.gov.uk,Guildford,http://www.guildford.gov.uk,,,2014-10-30,fhrs_5_en-GB,5,,FHRS,0
231872,Rodboro Buildings Bridge Street,,Guildford,Surrey,Lloyds Number 1 Bar,Pub/bar/nightclub,7843,0,,649749,0,,51.23655400000000,4290,307,HCCS@guildford.gov.uk,Guildford,http://www.guildford.gov.uk,-0.57804300000000,GU1 4SB,2013-02-27,fhrs_5_en-GB,5,,FHRS,0
231873,119 Aldershot Road,,Guildford,Surrey,Lloyds Pharmacy,Retailers - other,4613,,,649476,,,51.25026300000000,3020,307,HCCS@guildford.gov.uk,Guildford,http://www.guildford.gov.uk,-0.59710800000000,GU2 8BE,2013-12-17,fhrs_exempt_en-GB,Exempt,,FHRS,
231874,7 Station Parade,,East Horsley,Surrey,Lloyds Pharmacy,Retailers - other,4613,,,649525,,,51.27731500000000,3297,307,HCCS@guildford.gov.uk,Guildford,http://www.guildford.gov.uk,-0.43551800000000,KT24 6QN,2012-03-01,fhrs_exempt_en-GB,Exempt,,FHRS,
231875,The Parade Wharf Road,,Ash Vale,Surrey,Lloyds Pharmacy,Retailers - other,4613,,,649797,,,51.25759300000000,4371,307,HCCS@guildford.gov.uk,Guildford,http://www.guildford.gov.uk,-0.72039000000000,GU12 5AZ,2013-12-17,fhrs_exempt_en-GB,Exempt,,FHRS,
231876,Centenary Hall Chapel Street,,Guildford,Surrey,Loch Fyne Restaurants Ltd,Other catering premises,7841,5,,649555,5,,51.23489000000000,3523,307,HCCS@guildford.gov.uk,Guildford,http://www.guildford.gov.uk,-0.57356800000000,GU1 3UH,2013-11-26,fhrs_5_en-GB,5,,FHRS,5
231877,Lockhurst Hatch Farm Lockhurst Hatch Lane,,Shere,Surrey,Lockhurst Hatch Farm,Hotel/bed & breakfast/guest house,7842,,,649881,,,51.19780400000000,4596,307,HCCS@guildford.gov.uk,Guildford,http://www.guildford.gov.uk,-0.47515400000000,GU5 9JN,2012-10-23,fhrs_exempt_en-GB,Exempt,,FHRS,
231878,London And Middlesex Rifle Association Club Row,Bisley Camp,Brookwood,Surrey,London & Middx Rifle Asso,Pub/bar/nightclub,7843,10,,649988,5,,51.31094600000000,5048,307,HCCS@guildford.gov.uk,Guildford,http://www.guildford.gov.uk,-0.65557600000000,GU24 0NY,2014-03-28,fhrs_3_en-GB,3,,FHRS,10
231879,69 Longfield Road,,Ash,Surrey,Longfield Stores,Retailers - supermarkets/hypermarkets,7840,10,,649436,10,,51.24769900000000,2654,307,HCCS@guildford.gov.uk,Guildford,http://www.guildford.gov.uk,-0.72262800000000,GU12 6NB,2012-03-15,fhrs_3_en-GB,3,,FHRS,5
231880,Lord Pirbright Hall The Green,,Pirbright,Surrey,Lord Pirbrights Village Hall,Pub/bar/nightclub,7843,,,650219,,,51.29523100000000,969,307,HCCS@guildford.gov.uk,Guildford,http://www.guildford.gov.uk,-0.64569400000000,GU24 0JE,2011-08-11,fhrs_exempt_en-GB,Exempt,,FHRS,
231881,96 Stoke Road,,Guildford,Surrey,Lorenzo's cafe,Restaurant/Cafe/Canteen,1,10,,649801,10,,51.24255400000000,4377,307,HCCS@guildford.gov.uk,Guildford,http://www.guildford.gov.uk,-0.57155500000000,GU1 4JN,2013-09-06,fhrs_3_en-GB,3,,FHRS,5
231882,Home Farm Loseley Park,,Guildford,Surrey,Loseley Bakery,Manufacturers/packers,7839,5,,649842,5,,51.21529700000000,4453,307,HCCS@guildford.gov.uk,Guildford,http://www.guildford.gov.uk,-0.60278100000000,GU3 1HS,2013-08-29,fhrs_5_en-GB,5,,FHRS,5
231883,Loseley House Loseley Park,,Guildford,Surrey,Loseley Tea Rooms,Other catering premises,7841,5,,649710,5,,,4226,307,HCCS@guildford.gov.uk,Guildford,http://www.guildford.gov.uk,,,2011-06-10,fhrs_5_en-GB,5,,FHRS,5
231884,,,,,Luci Loves You,Other catering premises,7841,,,649289,,,,1296,307,HCCS@guildford.gov.uk,Guildford,http://www.guildford.gov.uk,,,2011-11-28,fhrs_exempt_en-GB,Exempt,,FHRS,
231885,,,,,Lucy Lou Cakes,Other catering premises,7841,,,649288,,,,1294,307,HCCS@guildford.gov.uk,Guildford,http://www.guildford.gov.uk,,,2011-10-31,fhrs_exempt_en-GB,Exempt,,FHRS,
231886,Enterprise Estate Moorfield Road,,Guildford,Surrey,Lunches Direct,Other catering premises,7841,5,,649390,5,,51.26003900000000,2233,307,HCCS@guildford.gov.uk,Guildford,http://www.guildford.gov.uk,-0.56596800000000,GU1 1RB,2014-05-14,fhrs_4_en-GB,4,,FHRS,10
231887,,,,,Lyn McKay,Other catering premises,7841,5,,649299,5,,,1338,307,HCCS@guildford.gov.uk,Guildford,http://www.guildford.gov.uk,,,2013-12-03,fhrs_5_en-GB,5,,FHRS,0
231888,,,,,Lyn Payne,Other catering premises,7841,5,,650187,5,,,772,307,HCCS@guildford.gov.uk,Guildford,http://www.guildford.gov.uk,,,2013-03-22,fhrs_5_en-GB,5,,FHRS,5
231889,,,,,M Springett Trading,Mobile caterer,7846,5,,649886,5,,,4605,307,HCCS@guildford.gov.uk,Guildford,http://www.guildford.gov.uk,,,2013-05-14,fhrs_5_en-GB,5,,FHRS,5
231890,,,,,MAD Jams,Other catering premises,7841,5,,649454,5,,,2800,307,HCCS@guildford.gov.uk,Guildford,http://www.guildford.gov.uk,,,2013-12-06,fhrs_5_en-GB,5,,FHRS,5
231891,73A North Street,,Guildford,Surrey,Maison Blanc,Retailers - other,4613,0,,649650,0,,51.23668300000000,4021,307,HCCS@guildford.gov.uk,Guildford,http://www.guildford.gov.uk,-0.57245300000000,GU1 4AW,2011-09-21,fhrs_5_en-GB,5,,FHRS,5
231892,18 Woodbridge Road,,Guildford,Surrey,Majestic Wine Warehouses,Retailers - other,4613,,,649568,,,51.24528800000000,3569,307,HCCS@guildford.gov.uk,Guildford,http://www.guildford.gov.uk,-0.57681400000000,GU1 1DY,2013-11-22,fhrs_exempt_en-GB,Exempt,,FHRS,
231893,"Maloncho Tandoori Restaurant, 7 Epsom Road",,Guildford,Surrey,Maloncho Tandoori,Other catering premises,7841,5,,649357,5,,51.23781100000000,1940,307,HCCS@guildford.gov.uk,Guildford,http://www.guildford.gov.uk,-0.56537000000000,GU1 3JT,2013-12-12,fhrs_4_en-GB,4,,FHRS,10
231894,13 Epsom Road,,Guildford,Surrey,Mandarin Restaurant,Other catering premises,7841,0,,649767,0,,51.23781100000000,4311,307,HCCS@guildford.gov.uk,Guildford,http://www.guildford.gov.uk,-0.56537000000000,GU1 3JT,2013-01-15,fhrs_5_en-GB,5,,FHRS,5
231895,High Street High Street,,Guildford,Surrey,Mapleleaf Watercress,Retailers - other,4613,,,650011,,,,5134,307,HCCS@guildford.gov.uk,Guildford,http://www.guildford.gov.uk,,,2013-12-03,fhrs_exempt_en-GB,Exempt,,FHRS,
231896,61 - 65 High Street,,Guildford,Surrey,Marks & Spencer PLC (Canteen),Other catering premises,7841,0,,650067,0,,,5381,307,HCCS@guildford.gov.uk,Guildford,http://www.guildford.gov.uk,,,2014-05-08,fhrs_5_en-GB,5,,FHRS,0
231897,61 - 65 High Street,,Guildford,Surrey,Marks and Spencer Plc,Retailers - supermarkets/hypermarkets,7840,0,,671665,5,,,3708,307,HCCS@guildford.gov.uk,Guildford,http://www.guildford.gov.uk,,,2014-05-08,fhrs_5_en-GB,5,,FHRS,0
231898,252 High Street,,Guildford,Surrey,Martin Mc Coll,Retailers - other,4613,5,,649323,5,,51.23710100000000,1543,307,HCCS@guildford.gov.uk,Guildford,http://www.guildford.gov.uk,-0.56764100000000,GU1 3JG,2013-10-04,fhrs_5_en-GB,5,,FHRS,0
231899,278 High Street,,Guildford,Surrey,Martin McColl,Retailers - other,4613,,,649973,,,51.23735400000000,4950,307,HCCS@guildford.gov.uk,Guildford,http://www.guildford.gov.uk,-0.56698800000000,GU1 3JL,2011-08-11,fhrs_exempt_en-GB,Exempt,,FHRS,
