,businessname,ratingvalue,structural,hygiene,confidenceinmanagement,ratingdate,latitude,longitude
231493,10 Flavours Ltd,4,10,0,5,2013-11-18,51.210939,-0.457068
231494,Abbeywood Elderly Home,5,5,0,0,2014-10-24,51.259086,-0.717998
231495,Accolade Wines Ltd,5,0,0,0,2015-01-23,51.21539,-0.580685
231496,Adult Education Centre,5,0,0,5,2011-11-16,51.236567,-0.568087
231497,Al Vicolo Restaurant,5,0,5,5,2013-08-20,51.235971,-0.574537
231498,Albury House,3,10,5,10,2014-03-11,51.237226,-0.554372
231499,Albury Village Hall,Exempt,nan,nan,nan,2011-12-13,,
231500,Aldro School,5,5,0,5,2013-09-20,51.200681,-0.664929
231501,Ali Grocery And Butchers,5,5,5,5,2014-01-31,51.248953,-0.58686
231502,All Bar One,5,0,0,0,2011-09-22,51.236998,-0.573173
231503,All Saints Church,Exempt,nan,nan,nan,2011-08-24,,
231504,Allianz Insurance PLC,5,0,0,0,2013-01-17,51.248813,-0.57682
231505,Amani's,5,5,5,5,2014-10-29,,
231506,Amigo,4,5,0,10,2013-11-13,51.242582,-0.587958
231507,Anaj Indian Food Takeaway,4,10,0,5,2014-04-29,51.236844,-0.590153
231508,Anchor & Horseshoes,5,5,5,0,2014-11-26,51.254319,-0.549867
231509,Angel View,Exempt,nan,nan,nan,2014-01-09,51.234802,-0.567855
231510,Anilia's Authentic Sauces,Exempt,nan,nan,nan,2013-02-05,,
231511,Annabel's Village Kitchen,5,0,5,5,2013-07-25,,
231512,Aramark Ltd -Lionhead,5,0,0,0,2013-01-31,,
231513,Army Target Shooting Club,4,0,0,10,2013-07-12,51.310946,-0.655576
231514,Artists Rifle Clubhouse,4,5,5,10,2013-07-12,51.310946,-0.655576
231515,Ash Grange Primary School,5,0,0,0,2013-01-28,51.248963,-0.714898
231516,Ash Manor School,5,0,0,0,2013-01-29,51.239416,-0.728329
231517,Ashley House,5,5,0,5,2014-07-30,51.211922,-0.560319
231518,Ashley Park Nursing Home,5,5,0,0,2013-09-05,51.255685,-0.502661
231519,Ashuka Tandoori,5,5,5,5,2013-05-21,51.246277,-0.529445
231520,Ask Restaurants Ltd,5,0,0,5,2013-04-24,51.23495,-0.573366
231521,Asperion Hillside Hotel,5,0,0,0,2013-04-11,51.277305,-0.609288
231522,Asperion Hotel,5,0,5,5,2013-04-11,51.233979,-0.589725
231523,Assessment and Qualifications Alliance,5,0,5,5,2014-08-04,51.239582,-0.590528
231524,Astalet Cafe,5,0,5,5,2013-04-08,51.291461,-0.531343
231525,Astolat,5,5,5,5,2013-06-03,51.236844,-0.590153
231526,Astolat Bowling Club,5,5,5,5,2011-12-05,,
231527,Auntie Annes,4,0,0,10,2014-04-28,51.236843,-0.576673
231528,Avaya House,5,5,5,0,2014-07-23,51.246434,-0.590462
231529,Azure Events Ltd,5,0,5,5,2012-07-04,,
231530,Babean,5,5,5,5,2013-10-21,,
231531,Baffers Catering,5,0,5,5,2014-03-11,,
231532,Bamboo Basket,2,5,15,10,2014-02-25,,
231533,Bamboo Garden,1,15,15,20,2014-10-16,51.23661,-0.582726
231534,Bar des Arts,5,0,5,5,2013-07-29,51.233905,-0.573985
231535,Barley Mow,3,10,10,5,2014-09-11,51.209691,-0.737852
231536,Bath Soft Cheeses,Exempt,nan,nan,nan,2014-10-07,,
231537,BBQ & Spitroast Specialist,5,0,0,5,2014-02-20,,
231538,Beijing Restaurant,5,5,5,5,2014-05-22,51.252808,-0.591112
231539,Bellfields Youth Centre,Exempt,nan,nan,nan,2011-08-18,51.260068,-0.580958
231540,Best One Hazel Stores,5,0,5,5,2011-10-19,51.260068,-0.580958
231541,Bills Restaurants,5,5,5,0,2014-12-12,51.236207,-0.573928
231542,Bisley Gun Club,3,10,10,10,2013-11-03,51.310946,-0.655576
231543,Bisley Pavilion,4,5,0,10,2013-07-12,51.310946,-0.655576
231544,Bizzi B's,4,10,5,5,2013-11-14,51.250054,-0.590122
231545,BOC Ltd,5,0,5,0,2012-02-01,,
231546,Bookham Harrison Farms Ltd,Exempt,nan,nan,nan,2014-07-01,,
231547,Boots UK Ltd,Exempt,nan,nan,nan,2013-12-09,51.251785,-0.529842
231548,Bo-Wah Fish Bar,5,0,5,0,2014-05-29,51.257593,-0.72039
231549,Boxgrove Primary School,5,0,0,0,2013-02-12,51.246152,-0.544665
231550,British Legion Seale & Sands,4,5,5,10,2011-09-05,51.210504,-0.738145
231551,Brownie Fairy,5,5,5,5,2014-03-24,,
231552,Budgens,5,0,5,0,2013-01-14,51.277315,-0.435518
231553,Budgens,5,0,5,0,2013-03-14,51.25745,-0.719692
231554,Budgens,5,0,0,5,2013-02-28,51.260332,-0.589349
231555,Budgens of Ripley,5,5,0,0,2014-02-03,51.299085,-0.494436
231556,Bulls Head Public House,5,0,0,5,2013-04-23,51.254345,-0.504066
231557,Burchetts Farm,Exempt,nan,nan,nan,2011-08-18,,
231558,Burger King,5,0,0,0,2014-08-04,51.23644,-0.575339
231559,Burger King,5,0,0,0,2014-07-08,51.248881,-0.578709
231560,Burger World,5,5,5,5,2014-08-20,51.264085,-0.642897
231561,Bushy Hill Junior School,5,0,5,0,2011-10-11,51.24855,-0.532911
231562,Busy Bees Playscheme,5,5,5,5,2011-07-25,,
231563,Butter & Cream Cakes,Exempt,nan,nan,nan,2013-08-02,,
231564,Butties,4,10,5,5,2014-07-24,51.252024,-0.57096
231565,Cacao Amelie,Exempt,nan,nan,nan,2014-09-04,,
231566,Cafe 1901,5,5,5,5,2014-02-07,,
231567,Cafe B,5,5,5,0,2013-11-12,51.246152,-0.544665
231568,Cafe B Catering,5,0,5,5,2013-09-18,,
231569,Cafe Delux,5,0,0,0,2013-08-02,,
231570,Cafe Rouge,5,0,0,0,2011-09-20,51.23489,-0.573568
231571,Cafe Xpress,4,5,5,10,2014-11-18,,
231572,Caffe Kix Ltd,5,0,0,0,2013-04-29,51.246697,-0.586943
231573,Caffe Nero,5,5,0,0,2013-03-12,,
231574,Caffe Nero,5,0,5,0,2014-01-22,51.236441,-0.573964
231575,Caffe Nero,4,10,5,5,2013-01-25,51.235365,-0.574986
231576,Cake Addict,4,0,5,10,2013-06-20,,
231577,Cake It Baby,5,0,0,5,2014-11-13,,
231578,Cakes by Victoria,Exempt,nan,nan,nan,2011-07-28,,
231579,Campaign Paintball,4,10,5,5,2013-03-20,,
231580,Campus Kids Guildford Day Nursery,5,0,5,0,2014-09-12,51.235908,-0.607385
231581,Canadian Pavilion at Bisley Ltd,4,5,10,0,2014-07-17,51.310946,-0.655576
231582,Caper & Berry,5,5,0,5,2013-07-10,51.186114,-0.631537
231583,Caper & Berry,5,5,0,0,2011-09-28,51.240272,-0.612124
231584,Caracoli,3,10,10,5,2013-11-21,51.236188,-0.570176
231585,Card Factory,5,0,0,5,2012-07-10,51.235607,-0.575652
231586,Care UK,Exempt,nan,nan,nan,2013-11-29,51.242892,-0.680856
231587,Cargo,Exempt,nan,nan,nan,2012-12-04,51.235607,-0.575652
231588,Caring Day Care Nursery,5,0,0,0,2013-07-22,51.239599,-0.609193
231589,Carlos Trattoria,2,10,15,10,2014-11-06,51.2353,-0.505572
231590,Carriages Cafe,4,0,0,10,2014-11-03,51.270857,-0.722072
231591,Castle Nursery,5,0,0,0,2013-08-27,51.233913,-0.570203
231592,Castle Nursery and Preschool,5,0,5,5,2014-01-20,51.24244,-0.572547
231593,Catch (isle Of Wight) Ltd,Exempt,nan,nan,nan,2014-12-02,,
231594,Cath Kidston ltd,Exempt,nan,nan,nan,2011-04-21,51.237522,-0.570421
231595,Cathedral of Holy Spirit,5,5,5,5,2014-03-20,,
231596,Cau,5,0,0,0,2014-05-12,51.237354,-0.566988
231597,Celtic Bakers,Exempt,nan,nan,nan,2014-02-04,,
231598,Chada Thai Restaurant,4,5,5,10,2013-09-05,51.213244,-0.566119
231599,Cherry Trees,5,0,5,5,2014-10-17,51.254355,-0.481123
231600,Cherryvale Nursery,5,0,0,0,2013-11-26,51.275815,-0.722436
231601,Cherrywood Nursery,5,0,5,5,2014-06-11,51.29451,-0.642488
231602,Chilli Indian Takeaway,3,10,10,10,2013-03-27,51.248796,-0.585761
231603,Chilworth Post Office,Exempt,nan,nan,nan,2013-11-25,51.213876,-0.540915
231604,Chilworth Stores,3,5,10,10,2012-12-12,51.213876,-0.540915
231605,Chilworth Village Hall,Exempt,nan,nan,nan,2011-09-02,,
231606,China Express,3,10,10,10,2014-09-26,51.252829,-0.704201
231607,Chinese Taste,3,10,5,10,2014-10-23,51.238329,-0.575396
231608,Chinese Taste Ltd,4,5,5,10,2011-11-04,51.238329,-0.575396
231609,Choice Wine and Food,4,0,0,10,2012-02-10,51.237362,-0.587587
231610,Christopher Robin Day Nursery,5,0,0,0,2013-08-06,51.263151,-0.550004
231611,Christopher Robin Day Nursery,5,5,5,5,2014-06-02,,
231612,Christopher Robin Day Nursery,5,0,0,0,2014-08-07,,
231613,Christophers Hospice,5,0,0,5,2014-02-20,51.219076,-0.57987
231614,Christ's College,5,0,0,0,2013-02-14,51.255694,-0.57837
231615,City Rifle Club,5,0,0,0,2014-07-17,51.310946,-0.655576
231616,Clandon C of E Infant School,5,5,0,0,2011-10-05,51.254345,-0.504066
231617,Clandon Park (National Trust),5,5,5,5,2013-07-09,51.251034,-0.515236
231618,Clandon Park Garden Centre,5,0,0,0,2012-02-15,51.251034,-0.515236
231619,Clandon Regis Golf Club,5,0,5,0,2012-05-15,51.247962,-0.511925
231620,Claremont (Stoughton) Ltd,5,0,5,5,2015-01-07,51.257742,-0.588654
231621,Cliche,3,10,5,10,2012-06-21,51.237362,-0.587587
231622,Clyde and Co,5,0,5,0,2013-08-02,51.239202,-0.570999
231623,Coffee and Crumbs,5,5,5,5,2014-09-30,51.256064,-0.719587
231624,Coffee Culture,5,0,5,5,2014-01-22,51.236207,-0.573928
231625,Colgate Palmolive Ltd (Staff Restaurant),5,5,0,0,2011-09-28,,
231626,Collaroy Farm Egg Sales,Exempt,nan,nan,nan,2013-03-05,,
231627,College of Law,5,0,0,0,2012-02-13,51.224169,-0.583036
231628,Como,4,5,10,5,2013-12-04,51.233913,-0.570203
231629,Compton Village Hall,4,5,5,10,2011-08-11,51.213957,-0.632459
231630,Compton Village RBL Club Ltd,5,5,5,5,2013-09-19,51.214594,-0.628503
231631,Continental Cafe,5,0,5,0,2014-07-07,51.2352,-0.572513
231632,Cook,5,0,5,5,2012-11-27,51.258218,-0.545215
231633,cookiedoe,5,5,5,5,2013-04-23,,
231634,Coombehurst B&B,5,0,5,5,2011-10-04,51.206523,-0.442027
231635,Co-op,5,5,5,5,2011-08-12,51.237914,-0.586396
231636,Co-op,5,5,5,5,2014-07-14,51.25056,-0.595623
231637,Co-Op Welcome,0,5,25,20,2014-07-24,51.246301,-0.723899
231638,Co-Op Welcome,5,5,5,5,2011-10-04,51.219885,-0.464473
231639,Cornerways Cottage,Exempt,nan,nan,nan,2011-11-15,51.270848,-0.408701
231640,Costa,5,5,0,0,2014-06-30,51.236916,-0.580453
231641,Costa,5,0,5,0,2012-12-07,51.236736,-0.576046
231642,Costa Coffee,4,10,0,0,2015-01-20,51.235971,-0.574537
231643,Costa Coffee,5,5,0,0,2014-02-24,51.235365,-0.574986
231644,Costa Express,Exempt,nan,nan,nan,2011-09-08,51.292746,-0.513475
231645,Costcutter,4,0,0,10,2013-04-11,51.263919,-0.594528
231646,Costcutter,5,5,5,5,2012-01-03,51.243333,-0.60792
231647,Costcutters,4,0,0,10,2013-03-11,51.249689,-0.539825
231648,Cote Bistro,4,10,5,5,2014-01-09,51.234403,-0.573526
231649,Countryliners Market,Exempt,nan,nan,nan,2012-02-07,,
231650,Crabtree and Evelyn,Exempt,nan,nan,nan,2013-11-21,51.23605,-0.5721
231651,Craggy Island Indoor Climbing Centre,3,10,10,5,2014-08-13,51.260028,-0.564377
231652,Cranmore School,5,0,5,0,2013-11-12,51.261072,-0.450875
231653,Creams,5,5,5,5,2014-12-18,51.236998,-0.573173
231654,Cricketers,5,0,0,0,2011-09-26,51.29451,-0.642488
231655,Cricketers,4,0,5,10,2014-12-18,51.236396,-0.732595
231656,Crown Court Restaurant,5,5,0,5,2015-01-12,51.237642,-0.578096
231657,Crumbs Shere,4,10,5,5,2013-09-25,51.219604,-0.465642
231658,Cup Cake Days,Exempt,nan,nan,nan,2012-03-01,,
231659,Curry Garden,2,10,15,10,2013-03-27,51.30076,-0.491097
231660,Currys Megastore,Exempt,nan,nan,nan,2012-01-03,51.24452,-0.576522
231661,D B Londis LLP,4,0,0,10,2012-03-09,51.237642,-0.578096
231662,Davis Butchers & Delicattessen Ltd,3,10,10,10,2014-03-03,51.236547,-0.571554
231663,Debenhams PLC (Customer Restaurant),5,0,5,0,2014-07-04,,
231664,Dene Place Nursing Home,5,0,0,0,2014-10-17,51.266309,-0.460002
231665,Diamond Kebab House,3,5,10,10,2012-12-20,51.237202,-0.583295
231666,Disability Challengers,4,10,5,5,2014-02-04,51.247912,-0.5561
231667,Dom and Matt Cake Ind,Exempt,nan,nan,nan,2012-05-31,,
231668,Dominos Pizza,5,0,0,0,2014-08-26,51.245288,-0.576814
231669,Drake's Restaurant Limited,4,0,10,10,2014-04-10,51.300496,-0.492941
231670,Dray Court,5,0,0,0,2013-09-26,51.237723,-0.589238
231671,Drayton House School,5,0,0,5,2014-02-10,51.236358,-0.556906
231672,Drift Golf & Country Club,4,5,10,5,2014-10-01,51.289291,-0.423954
231673,Drummond Arms,5,5,0,0,2014-06-09,51.220114,-0.499462
231674,Duke of Wellington,3,10,10,10,2013-10-01,51.262913,-0.431736
231675,Durleigh Marsh Farm,Exempt,nan,nan,nan,2013-07-04,,
231676,Dylon's Ice Cream,Exempt,nan,nan,nan,2013-06-04,,
231677,Earlybirds & Shipmates Club,5,0,0,0,2013-11-15,51.281935,-0.449528
231678,Eashing Service Station,4,0,0,10,2014-10-17,51.186421,-0.648685
231679,East & West Horsley Royal British Legion,4,5,5,10,2011-08-30,,
231680,East Clandon Village Hall,Exempt,nan,nan,nan,2011-08-09,51.255289,-0.480978
231681,East Horsley News,Exempt,nan,nan,nan,2011-10-13,51.277315,-0.435518
231682,East Horsley Post Office,4,0,0,10,2014-01-10,51.26521,-0.432074
231683,East Horsley Village Hall,Exempt,nan,nan,nan,2011-09-19,51.276831,-0.43694
231684,East Horsley Village Hall,Exempt,nan,nan,nan,2011-09-19,,
231685,Eastbury Manor Nursing Home,5,0,0,0,2014-07-28,51.213956,-0.632459
231686,Eating In,5,5,5,5,2013-11-08,,
231687,Eating Rocks,5,5,5,5,2012-10-25,,
231688,Eccher's,3,5,10,10,2013-09-17,,
231689,Effingham & Leatherhead Rugby Club,5,5,0,0,2013-07-08,51.269866,-0.39602
231690,Effingham Golf Club,4,10,0,10,2013-09-09,51.267439,-0.398727
231691,Effingham Post Office,Exempt,nan,nan,nan,2014-01-10,51.268796,-0.39868
231692,El Mexicana,5,0,5,5,2014-12-19,,
231693,Elam Ministries,Exempt,nan,nan,nan,2012-08-24,51.197563,-0.654127
231694,Electric Theatre,4,0,0,10,2014-05-13,51.23618,-0.577654
231695,Electronic Arts,5,0,0,0,2013-03-13,51.24139,-0.571977
231696,Elspeth's Home Baking,5,0,5,5,2014-05-13,,
231697,Emmanuel Nursery,Exempt,nan,nan,nan,2013-12-17,,
231698,Empire Fish & Chips,5,5,5,0,2013-10-15,51.250263,-0.597108
231699,EMS Loves Cakes,Exempt,nan,nan,nan,2011-08-03,,
231700,English 8 Club,5,5,5,5,2012-07-10,51.310946,-0.655576
231701,Enjoy Enjoy,1,0,5,20,2013-03-14,,
231702,Ericsson Restaurant,5,5,0,0,2014-04-07,51.246697,-0.586943
231703,Euphorium Bakery,5,0,0,0,2015-01-26,,
231704,F Conisbee & Son,5,5,5,5,2012-11-13,51.277315,-0.435518
231705,F Conisbee & Son,5,5,5,5,2012-03-29,51.267003,-0.432342
231706,Fabulous Fancies,4,0,5,10,2012-09-06,,
231707,Fabulous Fancies,4,0,5,10,2012-09-06,,
231708,Facing Heaven Chilli Co,Exempt,nan,nan,nan,2014-07-01,,
231709,Fairy Toppins,5,5,5,5,2013-03-28,,
231710,Falcon Garage(Markenfield Garage),4,10,0,10,2013-01-03,51.243472,-0.576111
231711,Farnham Golf Club,5,0,5,5,2014-12-05,51.214434,-0.743249
231712,Farnham Road Hospital,5,0,0,0,2012-03-22,51.235112,-0.584476
231713,Fcb Artisan Espresso Bar,Exempt,nan,nan,nan,2013-12-02,,
231714,Felbury House Residential Home,4,0,10,10,2014-05-07,51.196377,-0.415733
231715,Findlays Unique Fruit & Veg,5,5,0,0,2012-10-19,,
231716,Finesse Catering,4,5,5,10,2011-11-15,,
231717,Fitzsimmons Place Nursery,5,5,5,0,2014-07-31,51.230204,-0.578697
231718,Five Guys,5,0,5,5,2014-04-30,51.235321,-0.576477
231719,Flossy Cockles,5,0,0,5,2013-08-15,,
231720,Food 4 You,1,0,5,20,2011-12-13,51.238537,-0.573269
231721,Footprints,5,5,5,5,2014-08-28,,
231722,Forest Road General Stores,Exempt,nan,nan,nan,2011-10-13,51.29066,-0.422071
231723,Fox Inn,3,10,5,10,2014-09-22,51.283085,-0.622822
231724,Frankie and Benny's,5,0,0,0,2013-11-01,51.245561,-0.583009
231725,Fresh Choices,5,5,5,5,2014-05-10,51.236736,-0.57089
231726,Fresh Coffee Direct Guildford.,4,0,5,10,2012-06-07,,
231727,Friendly Fodder,4,0,0,10,2013-07-25,,
231728,Friends Day Nursery,4,10,5,5,2014-11-11,,
231729,Friends Private Day Nursery,4,0,5,10,2014-06-23,,
231730,Fruit Machine,Exempt,nan,nan,nan,2012-11-23,,
231731,Fulk Bros,4,5,10,5,2013-09-04,51.29451,-0.642488
231732,G Live Cafe-Bar,5,0,5,5,2015-01-28,51.239469,-0.564917
231733,G&J News,4,0,0,10,2014-11-21,51.252024,-0.57096
231734,Game Retail Ltd,Exempt,nan,nan,nan,2012-11-23,51.23644,-0.575339
231735,Gary's Snacks,4,0,5,10,2013-12-20,,
231736,Gastrocircus,4,0,10,10,2012-08-08,,
231737,George Abbot,4,10,0,0,2014-04-15,51.234887,-0.577808
231738,George Abbot School,5,5,0,0,2014-05-09,,
231739,Gibb and Evans Butchers,3,10,10,5,2013-11-12,51.272007,-0.400074
231740,Giraffe,5,5,0,0,2015-01-27,,
231741,Glenesk School Ltd,5,0,5,5,2014-03-25,51.282665,-0.439481
231742,Glutton & Glee,5,5,0,0,2013-01-15,51.23519,-0.571654
231743,Goal Farm Golf Club,5,0,0,5,2013-04-11,,
231744,Goddard Fast Food,5,5,0,0,2014-12-05,,
231745,Gomshall Mill,5,5,5,5,2014-02-03,51.219148,-0.446741
231746,Gomshall Village Sports and Social Club,5,5,5,5,2013-07-16,51.219224,-0.451092
231747,Good Taste Bakery,4,5,10,0,2014-07-04,51.233422,-0.732004
231748,Goodfillas,5,5,5,5,2014-12-09,51.238269,-0.57047
231749,Goose Green Cottage,5,5,5,5,2013-11-28,51.29451,-0.642488
231750,Gourmande,5,5,5,5,2013-01-25,51.186902,-0.410678
231751,Gourmet Burger Kitchen,5,5,0,0,2013-06-19,51.235321,-0.576477
231752,Grange Park Stores,4,5,10,5,2011-10-19,,
231753,Greggs Plc,5,0,5,0,2014-01-28,51.236181,-0.574746
231754,Gresham School Rifle Club,Exempt,nan,nan,nan,2012-07-10,51.310946,-0.655576
231755,Guildford Borough Council,5,5,0,5,2013-05-30,51.232191,-0.576487
231756,Guildford Childrens Centre,5,5,5,5,2014-04-29,51.259359,-0.579561
231757,Guildford College,1,5,5,20,2015-01-26,,
231758,Guildford County School,5,0,0,5,2012-11-26,51.23418,-0.585479
231759,Guildford Day Nursery,5,5,0,0,2014-07-15,51.246777,-0.524887
231760,Guildford Golf Club,3,5,10,10,2014-08-19,51.240579,-0.536159
231761,Guildford Grove School,5,0,0,0,2013-02-11,51.243989,-0.609348
231762,Guildford High School,5,0,5,5,2014-02-11,51.241798,-0.564229
231763,Guildford Hog Roast,5,0,0,5,2012-06-29,,
231764,Guildford House Tea Room,4,5,5,10,2014-01-29,51.236235,-0.571048
231765,Guildford Jubilee Social,4,5,5,10,2011-08-11,,
231766,Guildford Kebab,3,5,10,10,2014-12-15,51.248953,-0.58686
231767,Guildford Masonic Centre,5,0,0,0,2013-03-14,51.229381,-0.577605
231768,Guildford Methodist Church,Exempt,nan,nan,nan,2011-08-18,,
231769,Guildford Nuffield Hospital,5,0,5,0,2013-03-21,51.241706,-0.612511
231770,Guildford Park Evangelical Church,4,5,5,10,2013-07-04,,
231771,Guildford Railway Club,Exempt,nan,nan,nan,2011-09-09,,
231772,Guildford Rowing Club,5,5,5,5,2011-08-12,,
231773,GUILDFORD UNITED REFORM CHURCH,Exempt,nan,nan,nan,2011-11-08,,
231774,Guildford Young People's Centre,Exempt,nan,nan,nan,2013-05-23,51.237409,-0.572187
231775,Gymnastics Factory,5,5,0,0,2012-10-09,,
231776,H.R.B. Youngs Kitchen,5,5,5,5,2014-08-04,,
231777,Half Moon,4,5,10,5,2013-02-06,51.301096,-0.491344
231778,Halfway House,4,5,0,10,2013-08-23,,
231779,Hampshire Game,Exempt,nan,nan,nan,2014-08-05,,
231780,Hampton Estate,4,0,0,10,2013-12-06,51.211408,-0.702415
231781,Hank Marvins Catering,3,10,5,10,2014-02-05,,
231782,Happy Garden,5,5,5,5,2014-05-15,51.256064,-0.719587
231783,Harris & Hoole,5,0,5,5,2014-01-17,,
231784,Harris and Hoole,5,5,5,5,2015-01-14,51.236181,-0.574746
231785,Harry Edwards Spiritual Healing Sanctuary,5,0,0,5,2012-01-09,51.210939,-0.457068
231786,Harvesters Express Store,4,5,5,10,2012-02-09,51.237811,-0.56537
231787,Harvey's Diner,4,10,5,5,2014-04-08,51.24904,-0.562943
231788,Harvey's Poultry Products,Exempt,nan,nan,nan,2014-07-01,,
231789,Hatchlands Park,5,5,0,5,2014-10-22,51.255437,-0.475126
231790,Heart & Sole Confectionary,5,0,5,5,2014-11-07,,
231791,Heart and Soul,5,0,5,5,2014-04-25,51.236503,-0.612023
231792,Heaters Bakery,4,10,5,0,2014-12-23,51.256339,-0.594587
231793,Hempstead Foods,5,5,5,5,2013-02-05,,
231794,Henley Fort Outdoor Centre,5,5,5,5,2012-06-21,,
231795,Hey There Cupcake,5,5,0,5,2013-11-19,,
231796,Hillside University of Surrey,2,5,15,10,2014-07-17,51.242582,-0.587958
231797,Ho Ho Takeaway,3,10,10,10,2014-11-07,51.254489,-0.591763
231798,Hogs Back Cafe,5,0,5,5,2014-06-12,51.226009,-0.725892
231799,Holiday Inn,5,5,5,0,2014-11-27,51.233626,-0.612883
231800,HOLMBURY ST MARY VILL.HA.,Exempt,nan,nan,nan,2011-11-29,51.188191,-0.415556
231801,Holroyd Arms,3,5,10,10,2013-08-23,51.250054,-0.590122
231802,Holy Trinity Pewley Down School,5,5,0,0,2011-11-03,51.234203,-0.55938
231803,Home Caterer,Exempt,nan,nan,nan,2015-01-30,,
231804,Homemade etc,Exempt,nan,nan,nan,2012-11-12,,
231805,Horse and Groom,5,0,5,0,2013-04-23,51.245823,-0.529115
231806,Horsley Evangelical Church,4,0,5,10,2011-11-22,,
231807,Horsley Football Club,5,5,5,5,2011-09-09,,
231808,Horsley Newsagents,Exempt,nan,nan,nan,2011-10-05,51.261316,-0.456385
231809,Horsley Village Store,4,10,0,10,2013-02-07,51.277315,-0.435518
231810,Hotel Chocolat,5,0,5,5,2011-06-02,51.236202,-0.572783
231811,Howard of Effingham School,5,0,5,0,2011-10-13,51.27374,-0.395297
231812,Hunts Hill Farm,4,0,0,10,2014-08-05,,
231813,Hunts Hill Farm,4,5,5,10,2013-08-30,,
231814,Hurtmore Golf Club,4,5,10,0,2015-01-08,,
231815,Iced Gems,5,5,5,5,2013-07-25,,
231816,Imbhams Farm Granary,5,5,5,0,2013-12-03,,
231817,Imraan Tandoori,4,10,5,5,2014-10-22,51.250263,-0.597108
231818,In Flavour Catering,5,5,0,5,2014-03-27,,
231819,Indian Hut,4,5,5,10,2012-11-22,51.256358,-0.720969
231820,Inns of Court Pavillion,Exempt,nan,nan,nan,2011-07-22,51.311559,-0.655687
231821,Institute for Animal Health,5,0,0,0,2013-08-06,51.279811,-0.635035
231822,It's Time for Cake,4,0,0,10,2013-05-13,,
231823,J A Christmas & Sons,5,5,5,5,2014-03-05,51.279659,-0.614393
231824,Jacobs Well Village Hall,Exempt,nan,nan,nan,2011-08-22,,
231825,Jamie's Italian,5,5,0,0,2014-07-02,,
231826,Japonica Court,Exempt,nan,nan,nan,2014-11-11,51.246378,-0.729441
231827,Jenny's Snack Bar,4,10,5,5,2013-04-07,,
231828,Jen's Cake Mix,5,5,5,5,2013-05-10,,
231829,Jerry and the Pizza Maker,5,5,5,5,2013-07-30,51.23661,-0.582726
231830,Jolly Farmer,4,10,0,5,2014-08-04,51.278854,-0.585426
231831,Jolly Farmer (Harvester),5,5,0,0,2014-03-14,51.221239,-0.662673
231832,Jovial Sailor,5,0,0,0,2013-01-14,51.288738,-0.502375
231833,Joy Leigh,5,5,5,5,2013-10-22,,
231834,Kalm Kitchen Ltd,5,5,0,0,2013-02-28,51.21781,-0.683033
231835,Kathryns House,5,5,0,5,2013-10-24,51.235273,-0.582222
231836,Katie's Bakery,Exempt,nan,nan,nan,2012-03-07,,
231837,Kendall's Fruit & Veg,5,5,0,0,2012-10-19,51.251213,-0.573751
231838,Kentucky Fried Chicken,5,5,0,5,2014-05-19,51.237354,-0.566988
231839,Kids Inc Day Nursery,5,0,0,0,2014-10-10,51.261297,-0.587356
231840,Kilfeather,Exempt,nan,nan,nan,2014-07-25,,
231841,King Edward V1 Royal Grammar School,5,5,5,0,2013-07-11,51.237402,-0.569436
231842,King George V Village Hall,Exempt,nan,nan,nan,2011-09-09,,
231843,King William IV,5,5,5,0,2013-02-25,51.265167,-0.456557
231844,Kinghams,4,10,5,5,2014-02-12,51.220493,-0.462791
231845,Kings College Secondary School,4,10,0,0,2014-06-27,51.244376,-0.607158
231846,Kings Head,2,10,15,10,2013-11-14,51.18543,-0.410943
231847,Kings Head Public House,1,10,15,20,2014-09-30,51.234481,-0.573982
231848,Kings Kebab,3,10,10,10,2013-10-10,,
231849,Kings Kebab,0,20,15,20,2014-11-04,,
231850,Kirthon,3,10,5,10,2013-04-22,51.277315,-0.435518
231851,Kokoro,5,5,5,5,2014-06-20,51.236181,-0.574746
231852,Kowalski Delicatessen Ltd,4,5,5,10,2012-12-06,51.237069,-0.570163
231853,La Casita,5,5,0,0,2013-04-25,51.23489,-0.573568
231854,LA Fitness,Exempt,nan,nan,nan,2011-08-11,51.246777,-0.524887
231855,La Meridiana,4,5,5,10,2014-12-10,51.278546,-0.436079
231856,Lakeside Coffee Shop,5,5,0,5,2013-12-12,51.242582,-0.587958
231857,Lanesborough Prep School,5,5,5,5,2014-12-10,51.240452,-0.558554
231858,Larinka Apiaries,Exempt,nan,nan,nan,2013-12-03,,
231859,Laughing Buddha,4,10,5,5,2013-09-17,51.277315,-0.435518
231860,Lea Bakery (LEA),5,5,5,5,2013-02-18,,
231861,Leigh's Cupcake Kitchen,Exempt,nan,nan,nan,2012-07-06,,
231862,Lewis News,5,0,0,5,2011-08-23,51.256339,-0.594587
231863,Lido Cafe,4,10,5,0,2013-06-05,,
231864,Limegrove,5,0,0,0,2013-09-17,51.263953,-0.433578
231865,Lion Brewery,4,5,5,10,2013-04-26,51.251693,-0.708088
231866,Little Angels,5,0,5,0,2014-09-08,51.265882,-0.617431
231867,Little Chef,4,10,5,0,2014-03-27,51.293426,-0.487938
231868,Little Crickets Nursery,4,0,5,10,2014-04-22,,
231869,Little Larder,4,0,0,10,2013-03-20,,
231870,Little Pickles Nursery,5,5,5,5,2014-10-28,51.27374,-0.395297
231871,Little Sweet Cake Company,5,0,0,5,2014-10-30,,
231872,Lloyds Number 1 Bar,5,0,0,0,2013-02-27,51.236554,-0.578043
231873,Lloyds Pharmacy,Exempt,nan,nan,nan,2013-12-17,51.250263,-0.597108
231874,Lloyds Pharmacy,Exempt,nan,nan,nan,2012-03-01,51.277315,-0.435518
231875,Lloyds Pharmacy,Exempt,nan,nan,nan,2013-12-17,51.257593,-0.72039
231876,Loch Fyne Restaurants Ltd,5,5,5,5,2013-11-26,51.23489,-0.573568
231877,Lockhurst Hatch Farm,Exempt,nan,nan,nan,2012-10-23,51.197804,-0.475154
231878,London & Middx Rifle Asso,3,10,5,10,2014-03-28,51.310946,-0.655576
231879,Longfield Stores,3,5,10,10,2012-03-15,51.247699,-0.722628
231880,Lord Pirbrights Village Hall,Exempt,nan,nan,nan,2011-08-11,51.295231,-0.645694
231881,Lorenzo's cafe,3,5,10,10,2013-09-06,51.242554,-0.571555
231882,Loseley Bakery,5,5,5,5,2013-08-29,51.215297,-0.602781
231883,Loseley Tea Rooms,5,5,5,5,2011-06-10,,
231884,Luci Loves You,Exempt,nan,nan,nan,2011-11-28,,
231885,Lucy Lou Cakes,Exempt,nan,nan,nan,2011-10-31,,
231886,Lunches Direct,4,10,5,5,2014-05-14,51.260039,-0.565968
231887,Lyn McKay,5,0,5,5,2013-12-03,,
231888,Lyn Payne,5,5,5,5,2013-03-22,,
231889,M Springett Trading,5,5,5,5,2013-05-14,,
231890,MAD Jams,5,5,5,5,2013-12-06,,
231891,Maison Blanc,5,5,0,0,2011-09-21,51.236683,-0.572453
231892,Majestic Wine Warehouses,Exempt,nan,nan,nan,2013-11-22,51.245288,-0.576814
231893,Maloncho Tandoori,4,10,5,5,2013-12-12,51.237811,-0.56537
231894,Mandarin Restaurant,5,5,0,0,2013-01-15,51.237811,-0.56537
231895,Mapleleaf Watercress,Exempt,nan,nan,nan,2013-12-03,,
231896,Marks & Spencer PLC (Canteen),5,0,0,0,2014-05-08,,
231897,Marks and Spencer Plc,5,0,5,0,2014-05-08,,
231898,Martin Mc Coll,5,0,5,5,2013-10-04,51.237101,-0.567641
231899,Martin McColl,Exempt,nan,nan,nan,2011-08-11,51.237354,-0.566988
231900,Martin McColl,5,0,0,0,2011-11-04,51.246277,-0.529445
231901,Martin McColls,4,10,5,0,2012-02-06,51.291461,-0.531343
231902,Martyr's Green Montessori,5,5,0,5,2014-04-16,,
231903,Mary Pargeter,Exempt,nan,nan,nan,2013-07-29,,
231904,Masalas Indian Takeaway,5,5,5,0,2013-12-19,51.26521,-0.432074
231905,Matahari,5,5,5,5,2014-01-29,51.23489,-0.573568
231906,McColls,5,5,0,0,2014-12-15,51.252224,-0.574092
231907,McColls,4,10,5,5,2011-10-27,51.257685,-0.545748
231908,McDonalds,5,5,5,0,2014-07-01,51.23684,-0.568365
231909,McDonalds,5,5,0,0,2013-02-27,,
231910,Merrist Wood College (Restaurant),4,10,5,0,2014-01-31,,
231911,Merrist Wood Golf Club,3,10,10,10,2014-05-22,51.265882,-0.617431
231912,Merrow Cricket Club,4,5,5,10,2011-09-09,,
231913,Merrow Infant School,5,5,0,0,2014-09-26,51.251785,-0.529842
231914,Merrow Lawn Tennis Club,Exempt,nan,nan,nan,2012-01-03,51.246777,-0.524887
231915,MERROW METHODIST CHURCH,Exempt,nan,nan,nan,2013-09-30,,
231916,Merrow News,5,5,5,5,2011-10-13,51.243348,-0.53683
231917,Merrow Savouries,5,0,0,5,2012-06-11,,
231918,Merrow SF Connect,5,5,0,0,2013-01-30,51.245988,-0.530801
231919,Merrow Village Club & Hall,Exempt,nan,nan,nan,2011-08-16,51.245519,-0.532119
231920,Merry House,5,5,5,5,2014-12-04,51.276799,-0.435278
231921,Miah's Indian Takeaway,4,5,0,10,2013-10-31,51.256339,-0.594587
231922,Michael Jordan Caravans Ltd,5,5,0,5,2013-10-30,,
231923,Micky's Cakes,5,5,5,5,2013-11-26,,
231924,Millies Cookies,5,0,0,5,2011-08-30,51.235607,-0.575652
231925,Ming's Chinese Take Away,5,0,5,5,2013-07-26,51.250263,-0.597108
231926,Mini Fish Bar,5,5,0,0,2013-05-13,51.241016,-0.571545
231927,Mint,5,5,0,0,2014-05-09,,
231928,Mobile Munchies,5,5,5,5,2013-11-12,,
231929,Molly's Coffee Shop,4,5,5,10,2013-08-08,51.234076,-0.600021
231930,Morrison Supermarkets PLC,5,0,5,0,2014-07-08,51.236907,-0.569394
231931,Mount Alvernia Hospital,5,0,5,5,2014-03-10,51.235936,-0.564268
231932,Mr Frosty,4,0,0,10,2013-05-02,51.242065,-0.675335
231933,Mr Simms Olde English Sweets,Exempt,nan,nan,nan,2012-04-26,51.236843,-0.576673
231934,Mr Softee,4,0,10,0,2012-06-29,,
231935,Mrs J Fernandes,4,0,5,10,2012-10-17,,
231936,Mrs Williams Market Stall,Exempt,nan,nan,nan,2011-11-11,,
231937,Mrs. J Graham,Exempt,nan,nan,nan,2014-05-27,,
231938,Muffin Break/WB Fresh Foods,4,5,5,10,2013-11-04,51.236843,-0.576673
231939,Munchies,1,15,15,20,2014-03-27,51.253614,-0.570811
231940,MWB Business Exchange,Exempt,nan,nan,nan,2011-08-12,,
231941,My Little Shop of Cakes,Exempt,nan,nan,nan,2012-03-06,,
231942,My Secret Kitchen,Exempt,nan,nan,nan,2011-09-12,,
231943,Nandos,5,0,0,0,2013-01-15,51.235321,-0.576477
231944,Napiers,3,10,5,10,2014-09-16,51.260033,-0.722343
231945,National Clay Shooting Centre,5,0,5,0,2014-05-23,,
231946,Nest,5,0,5,5,2013-10-29,51.300496,-0.492941
231947,Newlands Caterers,4,0,5,10,2014-07-09,,
231948,Normandy British Legion,5,5,5,5,2012-01-18,51.256149,-0.669972
231949,North London Rifle Club,4,10,5,0,2014-07-17,51.310946,-0.655576
231950,Northmead GM Junior Sch,5,0,0,0,2013-02-13,51.257462,-0.585567
231951,Nosh Plus,4,10,0,0,2014-04-17,,
231952,Not Just a Pretty Cake,5,5,5,5,2013-08-05,,
231953,Nuffield Health,2,10,15,10,2014-12-02,51.258345,-0.58865
231954,Nuro,4,5,10,5,2014-08-05,51.237522,-0.570421
231955,Nuro Kebab House,3,5,10,10,2013-11-22,51.237811,-0.56537
231956,Nutknowle Farm,5,5,5,5,2013-04-23,,
231957,Nuts About Living,1,0,5,20,2013-04-10,,
231958,Ocean City,4,10,5,5,2014-11-06,51.291461,-0.531343
231959,Ockham Bites,5,5,5,5,2014-08-26,51.335484,-0.407886
231960,OCS Catering,5,5,5,5,2015-01-20,,
231961,Old Guildfordian Association Of Clubs,5,5,5,5,2014-12-15,,
231962,Olives And Things,5,5,5,5,2014-02-04,,
231963,Olivo,5,5,5,5,2013-09-02,51.232352,-0.572715
231964,On the Run,5,0,0,0,2012-05-14,51.260563,-0.572802
231965,One 'o' clock box,4,5,10,5,2012-01-19,,
231966,One Stop,5,5,5,5,2012-06-01,,
231967,One Stop Community Store,4,10,0,5,2013-04-08,51.300497,-0.491665
231968,One Stop Community Stores Ltd,5,5,5,0,2011-10-12,51.246303,-0.545935
231969,ONE STOP SHOP,5,5,0,0,2011-09-20,,
231970,Onslow County Infant School,5,0,0,0,2013-02-11,51.234319,-0.601575
231971,Onslow Village Hall,Exempt,nan,nan,nan,2011-08-11,51.234076,-0.600021
231972,Onslow's Dry,5,5,5,0,2013-08-06,,
231973,Oriental Express,3,10,10,10,2013-05-23,51.237362,-0.587587
231974,Oriental Express,4,0,10,10,2013-05-23,51.252224,-0.574092
231975,Ottino's Ltd,3,10,10,10,2014-03-24,51.235056,-0.573921
231976,Our Lady of Sorrow Church Hall,Exempt,nan,nan,nan,2011-08-10,,
231977,Oxfam,Exempt,nan,nan,nan,2013-11-21,51.23684,-0.568365
231978,Oxfam,Exempt,nan,nan,nan,2013-11-25,51.234481,-0.573982
231979,Pantiles Service Station,5,5,5,0,2011-08-25,51.259568,-0.543868
231980,Papa John's,5,5,5,0,2014-03-14,51.235939,-0.563752
231981,Park Barn Centre,5,0,5,5,2013-10-14,51.247779,-0.605193
231982,Park Barn Community Centre,Exempt,nan,nan,nan,2011-09-05,,
231983,Park Barn Community Centre,4,5,5,10,2011-10-27,,
231984,Parkway Premier Inn,5,5,5,0,2014-06-19,51.24904,-0.562943
231985,Parrfect Cakes,4,0,5,10,2014-04-23,,
231986,Party Box,Exempt,nan,nan,nan,2012-08-16,,
231987,Pats Newsagents,Exempt,nan,nan,nan,2014-08-06,51.257874,-0.722245
231988,Paul's Cafe,4,5,5,10,2013-09-25,,
231989,Peacocks Delicatessen,5,0,0,5,2013-02-28,51.246303,-0.545935
231990,Peaslake Memorial Hall,Exempt,nan,nan,nan,2011-08-11,51.191878,-0.447744
231991,Peaslake Village Stores,4,5,5,10,2014-07-09,51.193045,-0.445558
231992,Pedal & Spoke,5,0,5,5,2011-08-09,51.191878,-0.447744
231993,Penny Rose Bakery,5,5,5,5,2013-05-09,,
231994,Pepito Cakes,5,0,5,5,2014-04-15,,
231995,Percy Arms,3,10,10,10,2013-12-02,51.215561,-0.526071
231996,Perfect Pizza,2,15,5,10,2013-04-05,51.237811,-0.56537
231997,Perry Court Farm,5,5,5,5,2013-12-03,,
231998,Peter Pan Playgroup,5,0,5,5,2014-02-24,,
231999,Pews Wine Bar,3,10,10,5,2014-11-11,51.23495,-0.573366
232000,Piece of Cake Guildford,1,5,5,20,2013-03-13,,
232001,Piglets Catering,5,0,5,5,2014-02-12,51.197422,-0.444051
232002,Pilgrim Wood Residential Home,5,0,0,0,2014-02-18,51.222595,-0.589715
232003,Pinewood Stores,4,5,5,10,2013-11-04,51.251693,-0.708088
232004,Pink Garlic,1,10,15,20,2014-10-22,51.26521,-0.432074
232005,Pinnocks Coffee Ltd,5,5,5,5,2014-06-24,51.299085,-0.494436
232006,Pirbright Day Nursery,5,0,5,0,2013-04-19,,
232007,Pirbright Primary School,5,0,0,0,2013-02-13,51.298334,-0.64893
232008,Pizza Express,5,5,0,0,2012-09-10,51.237647,-0.567409
232009,Pizza Go Go,3,10,10,10,2014-01-27,51.23489,-0.573568
232010,Pizza House & Chicken House,3,10,10,10,2013-09-10,51.245288,-0.576814
232011,Pizza Hut,5,0,0,0,2013-09-16,51.245288,-0.576814
232012,Pizzaman,4,5,5,10,2013-11-13,51.242582,-0.587958
232013,Plaegan House,5,5,5,5,2011-09-27,51.232458,-0.588081
232014,Positano Ltd,2,5,15,10,2014-09-10,51.235649,-0.572456
232015,Positive Steps,4,5,5,10,2014-06-10,51.241519,-0.561243
232016,Post Office,Exempt,nan,nan,nan,2013-12-09,51.26521,-0.432074
232017,Poundland,5,5,0,0,2012-11-23,51.236998,-0.573173
232018,Pour Mes Amis,5,5,5,5,2013-05-28,,
232019,Pret A Manger,5,0,0,0,2013-01-15,51.235971,-0.574537
232020,Prezzo,5,0,5,5,2014-09-26,51.235365,-0.574986
232021,Prime Wines,5,0,0,5,2011-08-23,51.256339,-0.594587
232022,Prince Albert Public House,4,10,5,5,2013-03-14,51.241016,-0.571545
232023,Prior's Field School,5,5,0,0,2013-03-11,51.206859,-0.6407
232024,Purbani Indian Takeaway,1,10,15,20,2014-12-09,51.242554,-0.571555
232025,Puttenham Hill House,5,5,0,0,2014-02-17,51.224696,-0.662258
232026,Queen Eleanors C of E Junior School,5,5,5,0,2013-09-18,51.238185,-0.596215
232027,Queen Elizabeth Park Care Home,5,0,0,0,2014-10-10,51.263673,-0.585305
232028,Queens Head Public House,4,0,10,10,2014-03-25,51.254466,-0.48271
232029,R A Collins,4,5,5,10,2011-08-15,51.219208,-0.464209
232030,Radisson Edwardian Hotel,5,0,0,5,2013-04-24,51.238211,-0.56722
232031,Rajdoot Tandoori Restaurant,5,0,5,0,2013-02-12,51.257685,-0.545748
232032,Raleigh Nursery School,Exempt,nan,nan,nan,2011-09-07,51.281935,-0.449528
232033,Ramada Guildford,4,10,5,5,2014-07-25,51.261807,-0.430398
232034,Ray Rowley Butchers,5,5,5,5,2014-11-28,51.250263,-0.597108
232035,Really Hungry,5,0,0,5,2014-12-03,,
232036,Red Planet Pizza,5,0,0,5,2013-04-25,51.23495,-0.573366
232037,Red Rose Restaurant,2,15,10,5,2013-08-19,51.253614,-0.570811
232038,Redwood,5,0,5,5,2014-02-18,51.245519,-0.532119
232039,Ringden Farm,5,5,5,5,2012-05-01,,
232040,Ripley C of E Primary School,5,0,5,0,2011-10-18,51.298969,-0.4987
232041,Ripley Court Educational,5,0,5,0,2011-10-18,51.299509,-0.491726
232042,RIPLEY VILLAGE HALL,Exempt,nan,nan,nan,2011-12-13,51.299085,-0.494436
232043,Riverside Fish Bar,5,5,5,5,2014-03-12,51.251808,-0.576856
232044,Robin Hood,1,15,15,20,2012-12-06,,
232045,Robyn@long common,5,5,5,5,2015-01-20,,
232046,Robyn's Wellspring,5,0,5,5,2013-05-09,,
232047,Roker Park Golf Club & Little Angels,3,5,10,10,2014-09-05,51.265882,-0.617431
232048,Rose Valley Restaurant,4,10,5,5,2013-02-20,51.237522,-0.570421
232049,Rosy's Kitchen,5,0,5,5,2012-11-22,,
232050,Row Barge Public House,3,10,5,10,2014-07-21,51.251213,-0.573751
232051,Royal British Legion,Exempt,nan,nan,nan,2011-08-10,,
232052,Royal British Legion,5,5,5,5,2011-08-09,,
232053,Royal Gurkha,4,10,0,5,2013-08-29,51.252751,-0.608926
232054,Royal Horticultural Society -Main Kitchens,4,10,10,0,2013-05-16,,
232055,Royal Oak,5,5,5,5,2014-09-16,51.280206,-0.647369
232056,Royal Oak Public House,4,10,0,0,2014-01-27,51.250031,-0.626002
232057,Royal Surrey County Hospital,5,5,5,0,2013-03-28,,
232058,Rum Wong,5,0,5,0,2012-02-17,51.238402,-0.565165
232059,Rydes Hill Preparatory School,4,10,5,5,2014-03-06,51.251546,-0.602127
232060,S+S Patisserie,Exempt,nan,nan,nan,2012-11-06,,
232061,Saddlers Arms,4,10,5,5,2014-06-12,51.289785,-0.510473
232062,Sainsbury's Supermakets Ltd,5,5,5,0,2015-01-06,51.26066,-0.547832
232063,Sainsbury's Supermarkets Ltd,5,0,5,0,2012-04-25,,
232064,Sainsbury's Supermarkets Ltd,3,5,10,10,2014-06-25,51.26066,-0.547832
232065,Sainsbury's Supermarkets Ltd,5,0,5,0,2011-08-25,51.26066,-0.547832
232066,Samantha Coates Cakes,Exempt,nan,nan,nan,2012-01-31,,
232067,Sandfield County Primary,5,0,0,0,2013-02-14,51.239631,-0.57229
232068,Sanofi Aventis,5,0,0,0,2012-05-11,,
232069,Sarah Wilson,4,0,5,10,2012-10-17,,
232070,Sarahflowercakes,4,0,5,10,2013-04-10,,
232071,Scout and Guide Group HQ,Exempt,nan,nan,nan,2011-06-15,51.268187,-0.567549
232072,Scout Hut,Exempt,nan,nan,nan,2011-08-13,,
232073,Sea Cadets Corps,Exempt,nan,nan,nan,2011-08-11,,
232074,Seafare,5,0,0,0,2013-02-13,51.256339,-0.594587
232075,Seafare,5,0,0,0,2011-09-29,51.257685,-0.545748
232076,Seale Craft Shop,Exempt,nan,nan,nan,2012-07-17,51.223729,-0.718021
232077,Seale Tea Room,5,0,0,5,2014-02-11,,
232078,Seale Village Hall,Exempt,nan,nan,nan,2011-10-18,51.221805,-0.717244
232079,Seasons Restaurant,5,5,0,0,2013-12-12,,
232080,Selsey Willows,Exempt,nan,nan,nan,2013-05-01,,
232081,Send C of E First School,5,5,5,0,2013-10-21,51.287098,-0.524829
232082,Send Social & Ex-Service,5,5,5,5,2011-12-20,,
232083,Seven Stars Public House,5,0,0,5,2013-04-15,51.301134,-0.508413
232084,Shackleford Village Hall,Exempt,nan,nan,nan,2011-08-11,,
232085,Shahin Tandoori,5,5,5,0,2014-01-17,51.248796,-0.585761
232086,Shalford & District Social Club,4,5,5,10,2011-08-15,51.21349,-0.565667
232087,Shalford Infant School,5,0,0,0,2011-09-23,51.215061,-0.566907
232088,Shalford Post Office,Exempt,nan,nan,nan,2011-09-15,51.213244,-0.566119
232089,Shalford Village Hall,Exempt,nan,nan,nan,2012-01-09,,
232090,Shardana Restaurant,5,0,5,5,2013-09-26,51.236294,-0.570058
232091,Shawfield C F School,5,0,0,0,2013-01-29,51.254066,-0.721921
232092,Shawfield Centre,5,5,0,5,2014-03-18,51.247396,-0.728668
232093,Sheila Butler,5,0,0,5,2014-12-02,,
232094,Shell Burnt Common,5,5,5,0,2011-09-08,51.282424,-0.512159
232095,Shell Horsley,5,0,0,0,2013-04-22,51.262262,-0.430841
232096,Shell Service Station,5,5,5,5,2011-08-22,51.250497,-0.594106
232097,Shell Stoughton,5,0,0,0,2013-04-23,51.256992,-0.594266
232098,Shell Topcliffe,5,0,0,0,2013-04-26,51.205485,-0.58401
232099,Shell UK Ltd,5,5,5,5,2011-08-22,51.24789,-0.574814
232100,Shere C of E Infant School,5,0,5,0,2011-10-05,51.220316,-0.462998
232101,Shere Delights,4,0,10,10,2013-05-07,51.219885,-0.464473
232102,Shere Village Hall,Exempt,nan,nan,nan,2011-09-09,51.220493,-0.462791
232103,SIBLEY NEWSAGENTS,Exempt,nan,nan,nan,2013-01-17,51.269001,-0.393928
232104,Simply Play,5,5,5,5,2014-07-08,51.256358,-0.720969
232105,Sir and Madam Thai Restaurant,5,5,5,5,2014-12-03,51.236547,-0.571554
232106,Sir Douglas Haig,3,10,10,10,2014-11-24,51.272007,-0.400074
232107,Skips Catering Unit,3,10,5,10,2014-09-23,,
232108,Slindon Bakery,Exempt,nan,nan,nan,2013-03-05,,
232109,Snooty Fox Sandwich Bar,4,5,10,5,2013-08-27,51.213244,-0.566119
232110,Snooty's Groceries,4,5,5,10,2013-10-07,51.214018,-0.566983
232111,Son of Sombrero,4,10,5,5,2013-10-11,51.237522,-0.570421
232112,Sophie Bradshaw,5,0,0,5,2012-05-03,,
232113,Southway Express,1,15,10,20,2013-07-24,51.244981,-0.596781
232114,Southway Fish Bar,3,10,5,10,2012-11-16,51.244981,-0.596781
232115,Spectrum Catering,3,10,10,5,2014-05-20,,
232116,Spice of India,1,10,15,20,2015-01-14,51.257593,-0.72039
232117,Spirits,Exempt,nan,nan,nan,2012-04-25,51.250263,-0.597108
232118,Spongeworks,4,0,0,10,2013-05-07,,
232119,Springfield Manor Nursing Home,5,5,0,0,2014-01-24,,
232120,St Catherines Manor Nursing Home,5,5,0,0,2015-01-29,51.223823,-0.57971
232121,St Catherines Village Hall,Exempt,nan,nan,nan,2011-09-07,,
232122,St Clares Church,Exempt,nan,nan,nan,2011-08-12,,
232123,St Francis Centre,5,5,5,5,2012-01-11,51.248577,-0.597431
232124,St Johns Church,Exempt,nan,nan,nan,2011-09-21,,
232125,St Josephs Catholic Primary School,5,5,5,0,2014-10-10,51.251202,-0.60112
232126,St Josephs Church Hall,Exempt,nan,nan,nan,2011-08-15,,
232127,St Lawrence Church Hall,Exempt,nan,nan,nan,2011-08-24,,
232128,St Lawrence Primary School,5,0,0,0,2014-07-15,51.274128,-0.396674
232129,St Martin's Court,5,0,0,5,2013-07-18,51.264362,-0.435256
232130,St Paul's and Tongham Daycare,5,0,5,5,2014-03-07,51.23507,-0.727246
232131,St Peter's Centre,Exempt,nan,nan,nan,2011-12-05,,
232132,St Peters RC Comprehensive,5,5,5,0,2014-11-19,51.246743,-0.537267
232133,St Saviours Church,5,0,0,5,2014-01-30,,
232134,St Teresa's School,5,0,5,0,2011-10-13,51.247977,-0.399231
232135,Star Cafe,2,0,15,10,2014-02-21,,
232136,Star Inn,5,0,5,0,2013-09-30,51.234979,-0.575012
232137,Starbucks,5,0,0,0,2013-03-13,51.236202,-0.572783
232138,Starbucks,5,0,5,0,2014-08-04,51.242582,-0.587958
232139,Starbucks,5,5,5,5,2012-10-24,51.242582,-0.587958
232140,Starbucks Coffee Co,5,0,0,0,2013-03-12,51.236907,-0.569394
232141,Starfish Childrens Day Nursery,5,0,0,5,2014-04-16,51.246152,-0.544665
232142,Stateside Candy Co Ltd,5,0,0,5,2011-10-12,51.235607,-0.575652
232143,Stevens and Bolton llp,Exempt,nan,nan,nan,2011-11-24,51.237139,-0.579572
232144,Stoke Local,Exempt,nan,nan,nan,2013-12-19,51.241016,-0.571545
232145,Stoke Park Kiosk,4,0,5,10,2014-05-21,,
232146,Stoughton District Working Mens Club,4,5,5,10,2011-09-15,,
232147,Stovold Butchers,5,0,0,0,2014-05-06,,
232148,Subway,5,5,0,0,2014-05-20,51.237642,-0.578096
232149,Sunrise Senior Living Limited,5,0,0,0,2014-10-13,51.206808,-0.584141
232150,Superdrug Stores Plc,5,0,5,5,2013-11-25,51.235767,-0.573226
232151,Surrey Commercial Services,5,0,5,0,2011-10-05,51.257484,-0.531108
232152,Surrey Kebab,1,10,15,20,2014-09-18,,
232153,Surrey Research Centre,5,0,0,0,2014-01-09,51.239353,-0.605963
232154,Surrey Rifle Association,2,15,5,10,2012-07-10,51.310946,-0.655576
232155,Surrey Scouts,Exempt,nan,nan,nan,2011-12-13,,
232156,Sushi Nara,3,5,10,10,2014-10-22,51.236998,-0.573173
232157,Sweetdreams Candy,Exempt,nan,nan,nan,2013-08-15,51.260378,-0.585033
232158,T.G.I. Fridays,5,5,0,0,2011-09-20,,
232159,Taste Of India,1,15,10,20,2014-08-12,51.291461,-0.531343
232160,Taste of India,3,5,10,10,2013-10-01,51.270857,-0.722072
232161,Tasty Bar,2,15,15,10,2013-06-13,51.238329,-0.575396
232162,Tasty Tuckers,5,0,5,5,2014-05-07,51.19412,-0.412462
232163,Teriyaki Express,3,10,10,10,2013-10-25,,
232164,Tesco,5,0,0,0,2012-12-14,51.273542,-0.724277
232165,Tesco Express,5,5,0,0,2014-07-02,51.236779,-0.578094
232166,Tesco Stores Ltd,5,0,0,0,2015-01-20,51.233626,-0.612883
232167,Thai Express,5,5,5,5,2014-07-09,,
232168,Thai Terrace,5,5,0,0,2011-11-16,51.234989,-0.570671
232169,The Albany,3,10,10,5,2014-10-27,51.236932,-0.567044
232170,The Albury Cafe,4,10,0,10,2013-05-20,51.220732,-0.497151
232171,The Anchor,4,0,10,10,2014-02-25,51.299387,-0.49348
232172,The Angel Dining Rooms,3,10,10,10,2013-10-02,,
232173,The Angel Hotel Guildford Limited,5,5,5,0,2012-02-14,51.235767,-0.573226
232174,The Bakery,4,10,5,5,2014-03-12,51.277315,-0.435518
232175,The Bakery,3,10,10,5,2014-02-03,51.300497,-0.491665
232176,The Bakery,3,10,5,10,2014-11-18,51.269911,-0.399373
232177,The Bakery Shop,3,10,10,10,2013-07-01,51.258218,-0.545215
232178,The Barley Mow,3,10,10,5,2013-11-28,51.271387,-0.45298
232179,The Bench Bar,5,5,5,5,2013-10-23,51.235908,-0.607385
232180,The Boileroom/Sizzling Wok,2,0,15,10,2013-02-08,51.240477,-0.572335
232181,The Bombay Spice,5,5,5,5,2013-10-23,51.235057,-0.578505
232182,The Britannia,5,0,0,0,2014-11-20,51.233114,-0.576216
232183,The Chelsea Fishmonger,3,10,10,5,2013-09-27,51.258218,-0.545215
232184,The Cinnamon Tree,4,5,5,10,2013-10-02,51.245288,-0.576814
232185,The Clavadel,5,0,5,5,2014-07-29,51.241567,-0.55127
232186,The Corner Shop,5,5,5,5,2011-09-13,51.255798,-0.586965
232187,The County Club Ltd,5,0,5,0,2011-09-19,51.235837,-0.571605
232188,The Cricketers,3,10,10,10,2014-02-05,51.253789,-0.604667
232189,The Cupcake Fairy,Exempt,nan,nan,nan,2011-09-20,,
232190,The Curzon,3,10,10,10,2014-01-28,51.252829,-0.704201
232191,The Cyder House,4,10,5,5,2014-07-10,51.197388,-0.663249
232192,The Dabbling Duck,5,5,5,5,2014-12-16,51.219885,-0.464473
232193,The Drummond,5,5,5,0,2014-06-09,51.241664,-0.576023
232194,The Five And Lime,1,10,10,20,2014-12-09,51.23728,-0.574182
232195,The Garden Room,4,0,10,10,2013-09-26,51.234989,-0.570671
232196,The Good Intent,2,10,15,10,2014-01-22,51.222176,-0.666827
232197,The Greyhound Public House,5,5,0,0,2015-01-06,51.244972,-0.728219
232198,The Guildford Baptist Church,5,0,0,0,2012-07-12,,
232199,The Guildford Tup,5,5,0,0,2013-02-27,51.237522,-0.570421
232200,The Harrow,1,10,0,20,2014-10-14,51.213957,-0.632459
232201,The Homestead BNB,5,5,5,5,2011-09-21,51.236837,-0.587346
232202,The Keep,2,15,10,10,2014-10-15,51.234748,-0.573014
232203,The Keystone,3,10,10,10,2013-05-07,51.23452,-0.577905
232204,The Kings Head,4,10,5,5,2013-02-11,51.242564,-0.570221
232205,The Legacy Farnham Hogs Back Hotel,4,10,0,0,2014-03-20,51.226381,-0.722115
232206,The Little Market Co,3,5,10,10,2014-02-18,51.251785,-0.529842
232207,The Little Owl Pre School,Exempt,nan,nan,nan,2013-03-08,51.291152,-0.500648
232208,The Manor House Hotel,3,10,10,10,2013-07-16,51.2353,-0.505572
232209,The Merrow Dynasty,4,5,10,5,2014-09-26,51.245988,-0.530801
232210,The Mount News and Wine,5,0,0,5,2013-07-18,51.234509,-0.579224
232211,The New Inn,4,5,10,5,2013-10-28,51.294383,-0.540702
232212,The Oaks,4,5,5,10,2011-09-02,51.276359,-0.51042
232213,The Old Sergeants Mess,5,5,5,5,2011-10-28,51.310946,-0.655576
232214,The Orient Fish and Chips,4,5,5,10,2014-12-12,51.233422,-0.732004
232215,The Pantry Tea Room Ltd,5,5,5,5,2013-10-15,51.214594,-0.628503
232216,The Parrot,2,15,15,10,2014-09-01,51.211779,-0.572879
232217,The Plough,4,10,5,0,2013-06-24,51.272779,-0.401294
232218,The Queen Victoria,4,10,5,5,2013-07-18,51.215061,-0.566907
232219,The Raleigh School,5,0,0,0,2014-06-17,51.281935,-0.449528
232220,The Royal Oak P.H.,5,5,5,5,2013-08-13,51.188652,-0.413737
232221,The Salad Dodgers,5,0,5,5,2014-09-25,51.26693,-0.57358
232222,The Sea Horse Inn,5,5,0,0,2011-11-04,51.218315,-0.56904
232223,The Speckledy Hen,1,0,5,20,2012-02-21,,
232224,The Spike,Exempt,nan,nan,nan,2011-08-09,51.236142,-0.558388
232225,The Squirrel,4,0,5,10,2014-04-24,51.199137,-0.642502
232226,The Stag on the River,5,0,0,5,2014-09-18,51.186421,-0.648685
232227,The Stoke,5,5,0,0,2011-11-15,51.242554,-0.571555
232228,The Swan Public House,5,5,5,5,2015-01-13,51.265222,-0.719963
232229,The Tea Shop at Watts Gallery,4,0,10,10,2014-04-23,,
232230,The Tea Terrace Ltd,4,10,5,5,2014-06-04,,
232231,The Weyside,5,5,0,0,2014-05-19,51.231773,-0.573134
232232,The White Hart,5,5,5,0,2014-03-25,51.293381,-0.645935
232233,The White Lyon and Dragon,5,5,0,0,2013-09-17,51.272277,-0.609182
232234,The William Bray,5,0,0,0,2013-04-23,51.218743,-0.465126
232235,The Wisley Golf Club,5,5,5,5,2014-08-28,51.318849,-0.482453
232236,Three Pigeons,4,10,5,0,2013-10-18,51.236235,-0.571048
232237,Three Roses,5,5,5,5,2014-11-25,,
232238,Tiffins,3,5,10,10,2013-08-23,51.239078,-0.573367
232239,Tillingbourne Meats,4,10,5,5,2014-03-21,51.216882,-0.437295
232240,Tillingbourne Trout Farm,3,10,5,10,2014-02-13,51.216882,-0.437295
232241,Tillings Cafe,5,0,5,0,2013-07-16,51.218773,-0.44495
232242,Tillings Cornerhouse,4,5,10,5,2014-12-02,51.2353,-0.505572
232243,Tilthams Garage Ltd.,4,0,10,5,2011-09-27,51.245448,-0.725713
232244,Tithe Barn,4,10,5,5,2014-10-15,51.215297,-0.602781
232245,TK MAXX,Exempt,nan,nan,nan,2012-10-29,51.235321,-0.576477
232246,Toby Cottage Restaurant,5,5,5,5,2012-10-11,51.299085,-0.494436
232247,Tom Thumb Nursery School,Exempt,nan,nan,nan,2011-10-18,51.221805,-0.717244
232248,Tomato Stall,Exempt,nan,nan,nan,2012-04-23,,
232249,Tong Tong Takeaway,2,10,15,10,2013-09-12,51.24452,-0.576522
232250,Tongham Community Association,Exempt,nan,nan,nan,2011-06-30,51.233911,-0.727407
232251,Tongham Food and Wine,3,5,10,10,2013-11-04,51.239018,-0.733984
232252,Tongham Post Office,Exempt,nan,nan,nan,2013-12-17,51.233422,-0.732004
232253,Tony Fresko Ice Cream,5,0,0,5,2011-04-21,51.236473,-0.708456
232254,Top Table,3,5,10,10,2014-09-08,51.23658,-0.569147
232255,Tormead School,5,0,5,0,2013-09-18,51.24288,-0.555656
232256,Total Service Station,5,5,5,5,2011-08-22,51.248813,-0.57682
232257,Trading at North Street,5,5,5,5,2012-11-23,,
232258,Traditional Jacket Potato,5,0,5,5,2014-06-17,,
232259,Transformers & Rectifiers,Exempt,nan,nan,nan,2011-05-09,51.245561,-0.583009
232260,Travelodge,5,5,0,0,2012-09-13,51.245561,-0.583009
232261,Treats(Cakes),Exempt,nan,nan,nan,2011-08-18,,
232262,Truly Scrumptious,5,0,0,5,2011-04-07,,
232263,Tudor Lounge,4,10,5,5,2012-04-16,51.235837,-0.571605
232264,Turtle Bay,5,0,0,0,2014-11-20,51.23716,-0.571033
232265,University of Surrey,3,10,10,5,2014-07-16,51.242582,-0.587958
232266,University of Surrey,5,5,0,0,2014-11-21,51.242582,-0.587958
232267,University of Surrey,5,0,0,5,2014-11-21,51.242582,-0.587958
232268,UOP International (Staff Restaurant),5,5,0,0,2013-02-26,,
232269,Upper Crust,5,0,0,0,2012-07-23,,
232270,Vale Cafe,1,0,15,20,2013-02-21,51.257593,-0.72039
232271,Vaughan House,Exempt,nan,nan,nan,2014-08-01,51.237522,-0.570421
232272,Vegan Delights,5,5,5,5,2014-11-25,,
232273,Victoria Hall Management,Exempt,nan,nan,nan,2011-11-07,51.254821,-0.716111
232274,Village Supermarket,4,10,5,5,2013-09-03,51.269911,-0.399373
232275,Villanova,5,0,0,5,2014-08-15,,
232276,Vines Coffee Shop,4,5,10,5,2014-11-18,51.274127,-0.396674
232277,W H Smith,5,0,0,0,2013-10-11,,
232278,W H Smith & Son Ltd,Exempt,nan,nan,nan,2013-11-25,51.235132,-0.57432
232279,Waffle Station,5,0,0,0,2012-07-20,,
232280,Wagamama,5,0,0,0,2014-05-21,51.235365,-0.574986
232281,Waitrose Ltd,5,0,5,0,2014-10-13,51.256992,-0.594266
232282,Walsh C of E Junior School,5,0,0,0,2013-01-28,51.244717,-0.727954
232283,Wendy Reynolds,5,0,5,5,2014-08-19,,
232284,West Clandon Village Hall,Exempt,nan,nan,nan,2011-09-21,51.261114,-0.503875
232285,West Cornwall Pasty Company,5,5,0,0,2011-09-21,51.236441,-0.573964
232286,West Cornwall Pasty Company,5,0,0,0,2013-09-23,,
232287,West Horsley Village Hall,Exempt,nan,nan,nan,2011-09-07,51.266457,-0.456199
232288,Wey House School,5,0,0,0,2011-10-06,51.203239,-0.569407
232289,Wey Valley Bowls Assoc Ltd,5,0,5,5,2013-10-22,,
232290,Weyfield Primary School,5,0,0,0,2014-05-02,51.254039,-0.572488
232291,White Hart,5,0,0,5,2013-12-10,51.249554,-0.63755
232292,White Horse Inn,5,5,0,0,2013-02-25,51.218743,-0.465126
232293,White House Public House,2,15,10,10,2014-02-06,51.23452,-0.577905
232294,White Lodge Farm,Exempt,nan,nan,nan,2013-04-23,,
232295,White Stuff,Exempt,nan,nan,nan,2014-07-14,51.23684,-0.568365
232296,Wildcroft Rare Breeds,3,10,5,10,2012-12-10,51.221642,-0.660198
232297,William Bros,5,0,0,0,2014-11-18,51.234076,-0.600021
232298,William IV,5,5,5,0,2014-09-10,51.209554,-0.476269
232299,Wimpy,3,10,10,5,2014-04-08,51.24904,-0.562943
232300,Wine Rack,Exempt,nan,nan,nan,2014-10-16,51.257685,-0.545748
232301,Wing Hung,1,10,10,20,2014-11-12,51.213089,-0.563046
232302,Wisley North SF Connect,5,5,0,0,2012-01-19,51.293172,-0.489882
232303,Wisley South SF Connect,5,0,5,0,2014-06-10,51.293426,-0.487938
232304,Wispy Cakes,Exempt,nan,nan,nan,2012-06-25,,
232305,Without Wheat,Exempt,nan,nan,nan,2012-01-30,,
232306,Wood Street Infants School,5,0,0,0,2013-01-31,51.250031,-0.626002
232307,Wood Street P.O. and Store,3,10,5,10,2014-05-16,51.251017,-0.627348
232308,Woodbridge Cafe,5,0,5,0,2015-01-05,51.243472,-0.576111
232309,Woodbridge Hill W.M Club,5,0,0,0,2012-02-24,,
232310,Wooden Bridge,5,5,5,0,2014-12-18,51.248796,-0.585761
232311,Woodstock Stores,3,10,5,10,2011-09-27,51.279464,-0.724744
232312,Worplesdon Memorial Hall,Exempt,nan,nan,nan,2011-08-11,51.277305,-0.609288
232313,Worplesdon Place Hotel,5,5,0,0,2011-09-26,51.27472,-0.608205
232314,Worplesdon Road Cafe,4,5,5,10,2013-11-20,51.250567,-0.589475
232315,Worplesdon View Care Home,5,0,0,0,2014-03-25,51.265186,-0.598245
232316,Ye Olde Sandwich Shoppe,4,5,10,5,2014-12-16,51.219885,-0.464473
232317,Ye Olde Ship Inn,3,10,10,10,2012-11-27,51.22641,-0.579502
232318,YMCA,5,0,0,0,2011-09-22,51.236554,-0.578043
232319,Youth Hostel,5,5,0,0,2012-01-31,51.193807,-0.422562
232320,Yum Produce,5,5,5,5,2013-08-15,,
232321,Yumgie,5,0,5,5,2014-05-22,,
232322,Yvonne Arnaud Theatre,3,10,5,10,2014-04-07,51.233423,-0.575017
232323,Zizzi,5,5,0,0,2013-01-15,51.237354,-0.566988
