,addressline1,addressline2,addressline3,addressline4,businessname,businesstype,businesstypeid,confidenceinmanagement,extractdate,fhrsid,hygiene,itemcount,latitude,localauthoritybusinessid,localauthoritycode,localauthorityemailaddress,localauthorityname,localauthoritywebsite,longitude,postcode,ratingdate,ratingkey,ratingvalue,returncode,schemetype,structural
260145,,13 High Street,,Godstone,A Plus,Retailers - other,4613,10,,105249,10,,51.25023300000000,36137,313,fsa_enforcement@tandridge.gov.uk,Tandridge,http://www.tandridge.gov.uk/,-0.06676700000000,RH9 8LS,2014-01-09,fhrs_3_en-GB,3,,FHRS,10
260146,,,,,Acorn Deer Management Limited,Farmers/growers,7838,5,,372183,5,,,39872,313,fsa_enforcement@tandridge.gov.uk,Tandridge,http://www.tandridge.gov.uk/,,,2015-01-23,fhrs_5_en-GB,5,,FHRS,5
260147,Hillcroft Primary School,Chaldon Road,,Caterham,Acorns Afterschool & Breakfast Club,School/college/university,7845,5,,104422,0,,51.28593000000000,35569,313,fsa_enforcement@tandridge.gov.uk,Tandridge,http://www.tandridge.gov.uk/,-0.09334800000000,CR3 5PG,2012-02-08,fhrs_5_en-GB,5,,FHRS,0
260148,Community Centre,High Street,,Caterham,Age Concern (Weds Lunchclub),Other catering premises,7841,5,,104782,5,,51.28706700000000,35821,313,fsa_enforcement@tandridge.gov.uk,Tandridge,http://www.tandridge.gov.uk/,-0.08862600000000,CR3 5UE,2013-01-09,fhrs_4_en-GB,4,,FHRS,10
260149,Alexandra House,31 Pollards Oak Road,,Hurst Green,Alexandra House,Hospitals/Childcare/Caring Premises,5,5,,105833,5,,51.24262600000000,36506,313,fsa_enforcement@tandridge.gov.uk,Tandridge,http://www.tandridge.gov.uk/,0.01366300000000,RH8 0JL,2012-06-13,fhrs_5_en-GB,5,,FHRS,5
260150,,,,,Ali's Vintage,Mobile caterer,7846,5,,668361,5,,,100361,313,fsa_enforcement@tandridge.gov.uk,Tandridge,http://www.tandridge.gov.uk/,,,2014-09-19,fhrs_5_en-GB,5,,FHRS,5
260151,,633 Limpsfield Road,,Warlingham,Amano Caffe Deli,Restaurant/Cafe/Canteen,1,10,,189155,10,,51.30696100000000,36849,313,fsa_enforcement@tandridge.gov.uk,Tandridge,http://www.tandridge.gov.uk/,-0.04137100000000,CR6 9DZ,2014-04-10,fhrs_3_en-GB,3,,FHRS,10
260152,,11 Chalkpit Wood,,Oxted,Anbus Express,Retailers - other,4613,10,,105734,10,,51.26523800000000,36433,313,fsa_enforcement@tandridge.gov.uk,Tandridge,http://www.tandridge.gov.uk/,-0.01282800000000,RH8 0LT,2014-04-16,fhrs_3_en-GB,3,,FHRS,10
260153,,,,,Annies Cakes,Retailers - other,4613,5,,105520,5,,,36293,313,fsa_enforcement@tandridge.gov.uk,Tandridge,http://www.tandridge.gov.uk/,,,2014-03-12,fhrs_5_en-GB,5,,FHRS,5
260154,,,,,Aquila Catering Limited,Mobile caterer,7846,0,,105224,0,,,36115,313,fsa_enforcement@tandridge.gov.uk,Tandridge,http://www.tandridge.gov.uk/,,,2014-04-17,fhrs_5_en-GB,5,,FHRS,0
260155,Arawa,58 Granville Road,,Limpsfield,Arawa B & B,Hotel/bed & breakfast/guest house,7842,10,,105759,5,,51.26142400000000,36456,313,fsa_enforcement@tandridge.gov.uk,Tandridge,http://www.tandridge.gov.uk/,0.00829300000000,RH8 0BZ,2013-09-12,fhrs_4_en-GB,4,,FHRS,5
260156,Lingfield Park Racecourse,Racecourse Road,,Lingfield,Arena Racing Company,Restaurant/Cafe/Canteen,1,5,,105523,0,,51.17017500000000,36295,313,fsa_enforcement@tandridge.gov.uk,Tandridge,http://www.tandridge.gov.uk/,-0.00136800000000,RH7 6PQ,2014-02-04,fhrs_4_en-GB,4,,FHRS,10
260157,,,,,Asanka Food Company Limited,Retailers - other,4613,10,,682933,10,,,83586,313,fsa_enforcement@tandridge.gov.uk,Tandridge,http://www.tandridge.gov.uk/,,,2014-07-29,fhrs_3_en-GB,3,,FHRS,10
260158,Redehall Cottage,134 Redehall Road,,Smallfield,Ashcroft Care Services,Hospitals/Childcare/Caring Premises,5,5,,104387,5,,51.15482200000000,35540,313,fsa_enforcement@tandridge.gov.uk,Tandridge,http://www.tandridge.gov.uk/,-0.11168500000000,RH6 9RH,2013-11-19,fhrs_4_en-GB,4,,FHRS,10
260159,Audley County Primary School,Whyteleafe Road,,Caterham,Audley Primary School,School/college/university,7845,0,,104736,0,,51.29669600000000,35789,313,fsa_enforcement@tandridge.gov.uk,Tandridge,http://www.tandridge.gov.uk/,-0.08795300000000,CR3 5ED,2014-02-25,fhrs_5_en-GB,5,,FHRS,0
260160,"Unit 1, Blackberry Mead Farm",Blackberry Road,,Felcourt,B Prepared,Distributors/Transporters,7,5,,105126,5,,51.15863800000000,36041,313,fsa_enforcement@tandridge.gov.uk,Tandridge,http://www.tandridge.gov.uk/,-0.01516600000000,RH7 6NQ,2012-02-10,fhrs_5_en-GB,5,,FHRS,5
260161,Bletchingley Golf Club,Church Lane,,Bletchingley,Baldwin Catering Limited,Restaurant/Cafe/Canteen,1,5,,335200,10,,51.24129400000000,39716,313,fsa_enforcement@tandridge.gov.uk,Tandridge,http://www.tandridge.gov.uk/,-0.09863300000000,RH1 4LP,2013-11-13,fhrs_3_en-GB,3,,FHRS,10
260162,,50 Croydon Road,,Caterham,Balti Express,Takeaway/sandwich shop,7844,10,,104573,5,,51.28343100000000,35693,313,fsa_enforcement@tandridge.gov.uk,Tandridge,http://www.tandridge.gov.uk/,-0.07803600000000,CR3 6QB,2014-05-28,fhrs_4_en-GB,4,,FHRS,5
260163,Barley Mow,Tandridge Lane,,Tandridge,Barley Mow Public House,Pub/bar/nightclub,7843,5,,106166,5,,51.24117600000000,36789,313,fsa_enforcement@tandridge.gov.uk,Tandridge,http://www.tandridge.gov.uk/,-0.03326400000000,RH8 9NJ,2014-01-20,fhrs_4_en-GB,4,,FHRS,10
260164,"Unit 1, Blackberry Mead Farm",Blackberry Road,,Felcourt,Barn Buffets,Other catering premises,7841,5,,105125,5,,51.15863800000000,36040,313,fsa_enforcement@tandridge.gov.uk,Tandridge,http://www.tandridge.gov.uk/,-0.01516600000000,RH7 6NQ,2013-11-15,fhrs_5_en-GB,5,,FHRS,5
260165,,46 Crescent Road,,Caterham,Bed & Breakfast,Hotel/bed & breakfast/guest house,7842,10,,104519,5,,51.28112800000000,35647,313,fsa_enforcement@tandridge.gov.uk,Tandridge,http://www.tandridge.gov.uk/,-0.07416000000000,CR3 6LF,2013-11-04,fhrs_4_en-GB,4,,FHRS,5
260166,The Bell Inn,Outwood Lane,,Outwood,Bell Inn Ph,Pub/bar/nightclub,7843,5,,105694,5,,51.20139700000000,36401,313,fsa_enforcement@tandridge.gov.uk,Tandridge,http://www.tandridge.gov.uk/,-0.09778500000000,RH1 5PN,2013-11-05,fhrs_4_en-GB,4,,FHRS,10
260167,,128 High Street,,Godstone,Bell Inn Public House,Restaurant/Cafe/Canteen,1,5,,105282,10,,51.24639600000000,36156,313,fsa_enforcement@tandridge.gov.uk,Tandridge,http://www.tandridge.gov.uk/,-0.06589600000000,RH9 8DX,2013-08-06,fhrs_4_en-GB,4,,FHRS,5
260168,,,,,Bella's Stone Baked Pizza Co Ltd,Mobile caterer,7846,10,,657424,5,,,57504,313,fsa_enforcement@tandridge.gov.uk,Tandridge,http://www.tandridge.gov.uk/,,,2014-07-01,fhrs_4_en-GB,4,,FHRS,5
260169,,64 High Street,,Lingfield,Bengal Village,Restaurant/Cafe/Canteen,1,5,,105461,5,,51.17429600000000,36258,313,fsa_enforcement@tandridge.gov.uk,Tandridge,http://www.tandridge.gov.uk/,-0.01682600000000,RH7 6AA,2014-02-10,fhrs_4_en-GB,4,,FHRS,10
260170,,26 Godstone Road,,Lingfield,Best One,Retailers - other,4613,10,,589694,10,,51.17574000000000,100326,313,fsa_enforcement@tandridge.gov.uk,Tandridge,http://www.tandridge.gov.uk/,-0.02081300000000,RH7 6BW,2013-10-16,fhrs_3_en-GB,3,,FHRS,5
260171,,6 High Street,,Caterham,Best Zone Convenience Store,Retailers - other,4613,10,,104792,10,,51.28666900000000,35829,313,fsa_enforcement@tandridge.gov.uk,Tandridge,http://www.tandridge.gov.uk/,-0.08901500000000,CR3 5UA,2014-07-31,fhrs_3_en-GB,3,,FHRS,5
260172,,109 Whyteleafe Road,,Caterham,Bette & John Denham,Restaurant/Cafe/Canteen,1,0,,104994,5,,51.29437600000000,35964,313,fsa_enforcement@tandridge.gov.uk,Tandridge,http://www.tandridge.gov.uk/,-0.08796400000000,CR3 5EJ,2014-05-20,fhrs_5_en-GB,5,,FHRS,0
260173,Burstow Golf Course,Antlands Lane,,Shipley Bridge,Better Catering Limited,Other catering premises,7841,10,,680739,10,,51.14726900000000,100366,313,fsa_enforcement@tandridge.gov.uk,Tandridge,http://www.tandridge.gov.uk/,-0.12461800000000,RH6 9TF,2014-07-03,fhrs_3_en-GB,3,,FHRS,10
260174,,Godstone And,,Oxted,Big Ben Ice Cream,Retailers - other,4613,5,,105611,5,,51.25489000000000,36344,313,fsa_enforcement@tandridge.gov.uk,Tandridge,http://www.tandridge.gov.uk/,-0.00468000000000,,2012-04-25,fhrs_5_en-GB,5,,FHRS,5
260175,,,,,Billy Williams & Sons,Mobile caterer,7846,10,,576648,10,,,100320,313,fsa_enforcement@tandridge.gov.uk,Tandridge,http://www.tandridge.gov.uk/,,,2013-08-05,fhrs_3_en-GB,3,,FHRS,5
260176,"Football Pavilion, Grange Meadow Playing",High Street,,Bletchingley,Billys Bar (Bletchingley Sports And Social Club),Pub/bar/nightclub,7843,5,,104296,5,,51.24073300000000,35492,313,fsa_enforcement@tandridge.gov.uk,Tandridge,http://www.tandridge.gov.uk/,-0.09839800000000,RH1 4PE,2014-09-12,fhrs_5_en-GB,5,,FHRS,5
260177,,39 High Street,,Caterham,Blacksmiths Arms Ph,Pub/bar/nightclub,7843,5,,104830,5,,51.28706700000000,35851,313,fsa_enforcement@tandridge.gov.uk,Tandridge,http://www.tandridge.gov.uk/,-0.08862600000000,CR3 5UE,2012-02-08,fhrs_5_en-GB,5,,FHRS,5
260178,The Blacksmiths Head,Newchapel Road,,Lingfield,Blacksmiths Head,Pub/bar/nightclub,7843,5,,105484,10,,51.16576200000000,36270,313,fsa_enforcement@tandridge.gov.uk,Tandridge,http://www.tandridge.gov.uk/,-0.04568500000000,RH7 6LE,2014-07-04,fhrs_4_en-GB,4,,FHRS,5
260179,,16 High Street,,Caterham,Blends,Restaurant/Cafe/Canteen,1,5,,104800,5,,51.28666900000000,35835,313,fsa_enforcement@tandridge.gov.uk,Tandridge,http://www.tandridge.gov.uk/,-0.08901500000000,CR3 5UA,2013-09-18,fhrs_4_en-GB,4,,FHRS,10
260180,Bletchingley Golf Club,Church Lane,,Bletchingley,Bletchingley Golf Club,Pub/bar/nightclub,7843,5,,104287,5,,51.24129400000000,35487,313,fsa_enforcement@tandridge.gov.uk,Tandridge,http://www.tandridge.gov.uk/,-0.09863300000000,RH1 4LP,2012-07-17,fhrs_4_en-GB,4,,FHRS,10
260181,,19 Godstone Road,,Caterham,Bollywood,Restaurant/Cafe/Canteen,1,,,104674,,,51.28061500000000,35768,313,fsa_enforcement@tandridge.gov.uk,Tandridge,http://www.tandridge.gov.uk/,-0.07575900000000,CR3 6RE,2013-11-13,fhrs_5_en-GB,5,,FHRS,
260182,,48 Station Road East,,Oxted,Boots The Chemist,Retailers - other,4613,5,,105877,5,,51.25780800000000,36550,313,fsa_enforcement@tandridge.gov.uk,Tandridge,http://www.tandridge.gov.uk/,-0.00217000000000,RH8 0PG,2012-05-18,fhrs_5_en-GB,5,,FHRS,5
260183,Botley Hill Farm,Limpsfield Road,,Warlingham,Botley Hill Farmhouse,Pub/bar/nightclub,7843,10,,106272,5,,51.28123200000000,36850,313,fsa_enforcement@tandridge.gov.uk,Tandridge,http://www.tandridge.gov.uk/,0.00171400000000,CR6 9QH,2014-10-30,fhrs_4_en-GB,4,,FHRS,5
260184,"Motorway Service Area North, Motorway Service Area",Clacket Lane,,Westerham,BP Clacket Lane East Connect MWSA,Retailers - other,4613,5,,705141,5,,51.27102300000000,100379,313,fsa_enforcement@tandridge.gov.uk,Tandridge,http://www.tandridge.gov.uk/,0.03985000000000,TN16 2ER,2014-08-11,fhrs_5_en-GB,5,,FHRS,0
260185,"Motorway Service Area South, Motorway Service Area",Clacket Lane,,Westerham,BP Clacket Lane West Connect MWSA,Retailers - other,4613,10,,705142,5,,51.27102300000000,100380,313,fsa_enforcement@tandridge.gov.uk,Tandridge,http://www.tandridge.gov.uk/,0.03985000000000,TN16 2ER,2014-08-11,fhrs_4_en-GB,4,,FHRS,5
260186,Bracken Lodge,157 Foxon Lane,,Caterham,Bracken Lodge,Hospitals/Childcare/Caring Premises,5,5,,104652,5,,51.29635800000000,35749,313,fsa_enforcement@tandridge.gov.uk,Tandridge,http://www.tandridge.gov.uk/,-0.09364800000000,CR3 5SH,2013-08-15,fhrs_5_en-GB,5,,FHRS,5
260187,Bransfield Manor,Church Lane,,Godstone,Bransfield,Hospitals/Childcare/Caring Premises,5,5,,105223,5,,51.24699400000000,36112,313,fsa_enforcement@tandridge.gov.uk,Tandridge,http://www.tandridge.gov.uk/,-0.05691600000000,RH9 8BW,2014-01-10,fhrs_4_en-GB,4,,FHRS,10
260188,Bridge Farm,Bowerland Lane,,Lingfield,Bridge Farm,Manufacturers/packers,7839,10,,105119,10,,51.19108200000000,36037,313,fsa_enforcement@tandridge.gov.uk,Tandridge,http://www.tandridge.gov.uk/,-0.00970800000000,RH7 6DF,2014-08-06,fhrs_2_en-GB,2,,FHRS,15
260189,British Wildlife Centre,Eastbourne Road,,Newchapel,British Wildlife Centre,Restaurant/Cafe/Canteen,1,,,105640,,,51.16667400000000,36367,313,fsa_enforcement@tandridge.gov.uk,Tandridge,http://www.tandridge.gov.uk/,-0.05133900000000,RH7 6LF,,fhrs_awaitinginspection_en-GB,AwaitingInspection,,FHRS,
260190,Lodge Farm,Lower South Park,,South Godstone,Brookland White (Lodge Farm),Manufacturers/packers,7839,10,,106040,5,,51.20592300000000,36693,313,fsa_enforcement@tandridge.gov.uk,Tandridge,http://www.tandridge.gov.uk/,-0.07812900000000,RH9 8LF,2014-04-09,fhrs_2_en-GB,2,,FHRS,15
260191,3 The Parade,Westmore Green,,Tatsfield,Browns Greengrocers,Retailers - other,4613,10,,106205,5,,51.29344700000000,36805,313,fsa_enforcement@tandridge.gov.uk,Tandridge,http://www.tandridge.gov.uk/,0.02509400000000,TN16 2AQ,2013-07-23,fhrs_3_en-GB,3,,FHRS,10
260192,,52 Croydon Road,,Caterham,Bua Thai Restaurant,Restaurant/Cafe/Canteen,1,5,,104575,5,,51.28343100000000,35696,313,fsa_enforcement@tandridge.gov.uk,Tandridge,http://www.tandridge.gov.uk/,-0.07803600000000,CR3 6QB,2014-02-11,fhrs_5_en-GB,5,,FHRS,5
260193,The Bull Inn,High Street,,Limpsfield,Bull Inn,Pub/bar/nightclub,7843,10,,105030,5,,51.25901600000000,35988,313,fsa_enforcement@tandridge.gov.uk,Tandridge,http://www.tandridge.gov.uk/,0.01394900000000,RH8 0DR,2013-10-10,fhrs_4_en-GB,4,,FHRS,5
260194,,,,,Burger Grill and Coffee Shop Deli,Mobile caterer,7846,5,,105597,5,,,36337,313,fsa_enforcement@tandridge.gov.uk,Tandridge,http://www.tandridge.gov.uk/,,,2013-06-25,fhrs_5_en-GB,5,,FHRS,5
260195,,,,,Burgers U Like,Mobile caterer,7846,5,,105630,5,,,36356,313,fsa_enforcement@tandridge.gov.uk,Tandridge,http://www.tandridge.gov.uk/,,,2014-05-06,fhrs_5_en-GB,5,,FHRS,5
260196,Burntwood Lodge,84 Burntwood Lane,,Caterham,Burntwood Lodge,Hospitals/Childcare/Caring Premises,5,5,,104410,0,,51.29299900000000,35556,313,fsa_enforcement@tandridge.gov.uk,Tandridge,http://www.tandridge.gov.uk/,-0.07905600000000,CR3 6TA,2012-01-26,fhrs_5_en-GB,5,,FHRS,5
260197,Burstow Golf Course,Antlands Lane,,Shipley Bridge,Burstow Golf Club,Pub/bar/nightclub,7843,10,,104373,10,,51.14726900000000,35528,313,fsa_enforcement@tandridge.gov.uk,Tandridge,http://www.tandridge.gov.uk/,-0.12461800000000,RH6 9TF,2014-06-26,fhrs_3_en-GB,3,,FHRS,10
260198,Burstow Primary School,Wheelers Lane,,Smallfield,Burstow Primary School,School/college/university,7845,5,,106107,5,,51.17173200000000,36747,313,fsa_enforcement@tandridge.gov.uk,Tandridge,http://www.tandridge.gov.uk/,-0.11857600000000,RH6 9PT,2014-06-26,fhrs_5_en-GB,5,,FHRS,5
260199,Horne Village School,Church Road,,Horne,Butterflys Nursery School,Hospitals/Childcare/Caring Premises,5,5,,105315,5,,51.18280100000000,36175,313,fsa_enforcement@tandridge.gov.uk,Tandridge,http://www.tandridge.gov.uk/,-0.08797700000000,RH6 9LA,2015-01-15,fhrs_5_en-GB,5,,FHRS,5
260200,Buxton Lodge Care Home,53 Buxton Lane,,Caterham,Buxton Lodge Care Home,Hospitals/Childcare/Caring Premises,5,5,,104411,5,,51.29511300000000,35557,313,fsa_enforcement@tandridge.gov.uk,Tandridge,http://www.tandridge.gov.uk/,-0.09124600000000,CR3 5HL,2015-01-09,fhrs_5_en-GB,5,,FHRS,5
260201,,40 Croydon Road,,Caterham,Buzz Kebab,Takeaway/sandwich shop,7844,0,,618832,5,,51.28343100000000,77880,313,fsa_enforcement@tandridge.gov.uk,Tandridge,http://www.tandridge.gov.uk/,-0.07803600000000,CR3 6QB,2014-01-16,fhrs_5_en-GB,5,,FHRS,0
260202,Nags Hall Nursery,Oxted Road,,Godstone,C J Knight & Son Ltd,Restaurant/Cafe/Canteen,1,5,,105291,10,,51.24844200000000,36162,313,fsa_enforcement@tandridge.gov.uk,Tandridge,http://www.tandridge.gov.uk/,-0.04666700000000,RH9 8DB,2014-05-27,fhrs_4_en-GB,4,,FHRS,5
260203,Ivy Mill Nursery,Bletchingley Road,,Godstone,Cafe Nova (Formerly Coffee Shop),Restaurant/Cafe/Canteen,1,0,,105216,0,,51.24643000000000,36107,313,fsa_enforcement@tandridge.gov.uk,Tandridge,http://www.tandridge.gov.uk/,-0.07396200000000,RH9 8NB,2013-09-24,fhrs_5_en-GB,5,,FHRS,5
260204,,54 Station Road West,,Oxted,Cafe Papillon,Restaurant/Cafe/Canteen,1,0,,212947,0,,51.25738800000000,37472,313,fsa_enforcement@tandridge.gov.uk,Tandridge,http://www.tandridge.gov.uk/,-0.00547000000000,RH8 9EU,2014-08-27,fhrs_5_en-GB,5,,FHRS,0
260205,,24 Croydon Road,,Caterham,Caffe Bambino,Restaurant/Cafe/Canteen,1,10,,104549,10,,51.28323900000000,35669,313,fsa_enforcement@tandridge.gov.uk,Tandridge,http://www.tandridge.gov.uk/,-0.07782900000000,CR3 6YR,2014-05-27,fhrs_3_en-GB,3,,FHRS,5
260206,,139 Station Road East,,Oxted,Caffe Nero,Restaurant/Cafe/Canteen,1,0,,105940,5,,51.25842500000000,36608,313,fsa_enforcement@tandridge.gov.uk,Tandridge,http://www.tandridge.gov.uk/,-0.00456500000000,RH8 0QE,2013-01-24,fhrs_5_en-GB,5,,FHRS,5
260207,Former,2 Godstone Road,,Caterham,Caffe Nero,Restaurant/Cafe/Canteen,1,0,,104661,5,,51.28134000000000,35753,313,fsa_enforcement@tandridge.gov.uk,Tandridge,http://www.tandridge.gov.uk/,-0.07554200000000,CR3 6RA,2013-08-13,fhrs_5_en-GB,5,,FHRS,0
260208,,,,,Cake House,Retailers - other,4613,20,,189131,5,,,35747,313,fsa_enforcement@tandridge.gov.uk,Tandridge,http://www.tandridge.gov.uk/,,,2013-11-05,fhrs_1_en-GB,1,,FHRS,5
260209,,,,,Cake-Friday,Retailers - other,4613,5,,445826,5,,,100244,313,fsa_enforcement@tandridge.gov.uk,Tandridge,http://www.tandridge.gov.uk/,,,2014-11-25,fhrs_4_en-GB,4,,FHRS,10
260210,,,,,Cakes by Lauren Jane,Retailers - other,4613,5,,212944,5,,,39529,313,fsa_enforcement@tandridge.gov.uk,Tandridge,http://www.tandridge.gov.uk/,,,2012-07-13,fhrs_5_en-GB,5,,FHRS,5
260211,,,,,Cakewalk (Designer Cakes),Retailers - other,4613,5,,433726,5,,,100226,313,fsa_enforcement@tandridge.gov.uk,Tandridge,http://www.tandridge.gov.uk/,,,2012-09-10,fhrs_5_en-GB,5,,FHRS,5
260212,,,,,Cakey Ducky,Retailers - other,4613,5,,189235,5,,,39318,313,fsa_enforcement@tandridge.gov.uk,Tandridge,http://www.tandridge.gov.uk/,,,2012-07-20,fhrs_5_en-GB,5,,FHRS,5
260213,,8 West Street,,Dormansland,Campania Wines Limited,Retailers - other,4613,,,209052,,,51.16521900000000,39465,313,fsa_enforcement@tandridge.gov.uk,Tandridge,http://www.tandridge.gov.uk/,0.00341000000000,RH7 6QW,2012-02-03,fhrs_exempt_en-GB,Exempt,,FHRS,
260214,,4a The Green,,Warlingham,Captains Table,Takeaway/sandwich shop,7844,10,,106238,10,,51.30937700000000,36827,313,fsa_enforcement@tandridge.gov.uk,Tandridge,http://www.tandridge.gov.uk/,-0.05629100000000,CR6 9NA,2013-10-18,fhrs_3_en-GB,3,,FHRS,10
260215,,Godstone And,,Lingfield,Carnival Ices,Retailers - other,4613,5,,105612,5,,51.25006866455078,36346,313,fsa_enforcement@tandridge.gov.uk,Tandridge,http://www.tandridge.gov.uk/,-0.06697999686003,,2012-04-25,fhrs_5_en-GB,5,,FHRS,5
260216,,12 Tally Road,,Limpsfield,Carpenters Arms,Pub/bar/nightclub,7843,10,,105348,5,,51.24827700000000,36193,313,fsa_enforcement@tandridge.gov.uk,Tandridge,http://www.tandridge.gov.uk/,0.03994600000000,RH8 0TG,2014-09-19,fhrs_4_en-GB,4,,FHRS,5
260217,The Castle Inn,Millers Lane,,Outwood,Castle Inn,Pub/bar/nightclub,7843,10,,105672,10,,51.19235900000000,36398,313,fsa_enforcement@tandridge.gov.uk,Tandridge,http://www.tandridge.gov.uk/,-0.11670500000000,RH1 5QB,2014-07-17,fhrs_3_en-GB,3,,FHRS,10
260218,,83a Coulsdon Road,,Caterham,Caterham Arms,Restaurant/Cafe/Canteen,1,10,,104484,10,,51.28782300000000,35619,313,fsa_enforcement@tandridge.gov.uk,Tandridge,http://www.tandridge.gov.uk/,-0.09803100000000,CR3 5NF,2014-04-02,fhrs_3_en-GB,3,,FHRS,10
260219,Caterham Baptist Church,6 Beechwood Road,,Caterham,Caterham Baptist Church,Other catering premises,7841,5,,104392,0,,51.28841900000000,35547,313,fsa_enforcement@tandridge.gov.uk,Tandridge,http://www.tandridge.gov.uk/,-0.07616400000000,CR3 6NA,2014-01-21,fhrs_5_en-GB,5,,FHRS,0
260220,,17 Godstone Road,,Caterham,Caterham Cafe,Restaurant/Cafe/Canteen,1,10,,104673,5,,51.28061500000000,35766,313,fsa_enforcement@tandridge.gov.uk,Tandridge,http://www.tandridge.gov.uk/,-0.07575900000000,CR3 6RE,2013-08-15,fhrs_4_en-GB,4,,FHRS,5
260221,,75 High Street,,Caterham,Caterham Charcoal Grill,Takeaway/sandwich shop,7844,5,,104849,5,,51.28546400000000,35867,313,fsa_enforcement@tandridge.gov.uk,Tandridge,http://www.tandridge.gov.uk/,-0.08794600000000,CR3 5UF,2013-09-11,fhrs_5_en-GB,5,,FHRS,5
260222,Caterham Valley Chapel,84 Croydon Road,,Caterham,Caterham Christian Centre,Restaurant/Cafe/Canteen,1,5,,589691,5,,51.28562100000000,100323,313,fsa_enforcement@tandridge.gov.uk,Tandridge,http://www.tandridge.gov.uk/,-0.07883400000000,CR3 6QD,2014-11-04,fhrs_5_en-GB,5,,FHRS,5
260223,,10a Croydon Road,,Caterham,Caterham Club,Pub/bar/nightclub,7843,10,,104533,10,,51.28343100000000,35657,313,fsa_enforcement@tandridge.gov.uk,Tandridge,http://www.tandridge.gov.uk/,-0.07803600000000,CR3 6QB,2013-08-27,fhrs_3_en-GB,3,,FHRS,5
260224,,31 Banstead Road,,Caterham,Caterham Convenience Store,Retailers - other,4613,20,,104388,15,,51.29002700000000,35543,313,fsa_enforcement@tandridge.gov.uk,Tandridge,http://www.tandridge.gov.uk/,-0.09148600000000,CR3 5QH,2014-08-20,fhrs_1_en-GB,1,,FHRS,15
260225,"Day Nursery, De Stafford School",Burntwood Lane,,Caterham,Caterham Day Nursery,Hospitals/Childcare/Caring Premises,5,5,,104398,5,,51.29321600000000,35550,313,fsa_enforcement@tandridge.gov.uk,Tandridge,http://www.tandridge.gov.uk/,-0.08464100000000,CR3 5YX,2014-02-26,fhrs_4_en-GB,4,,FHRS,10
260226,,15 Town End,,Caterham,Caterham Ex-servicemen's Club,Pub/bar/nightclub,7843,5,,104956,0,,51.28914500000000,35939,313,fsa_enforcement@tandridge.gov.uk,Tandridge,http://www.tandridge.gov.uk/,-0.08869700000000,CR3 5UJ,2012-02-08,fhrs_5_en-GB,5,,FHRS,5
260227,,20 High Street,,Caterham,Caterham Fish Bar,Takeaway/sandwich shop,7844,5,,104801,5,,51.28666900000000,35836,313,fsa_enforcement@tandridge.gov.uk,Tandridge,http://www.tandridge.gov.uk/,-0.08901500000000,CR3 5UA,2014-09-10,fhrs_5_en-GB,5,,FHRS,5
260228,,16 Croydon Road,,Caterham,Caterham News,Retailers - other,4613,5,,104546,10,,51.28343100000000,35664,313,fsa_enforcement@tandridge.gov.uk,Tandridge,http://www.tandridge.gov.uk/,-0.07803600000000,CR3 6QB,2014-09-09,fhrs_3_en-GB,3,,FHRS,10
260229,Caterham United Reformed Church,Harestone Hill,,Caterham,Caterham United Reform Church Lunch Club,Restaurant/Cafe/Canteen,1,5,,104756,5,,51.27924500000000,35808,313,fsa_enforcement@tandridge.gov.uk,Tandridge,http://www.tandridge.gov.uk/,-0.08047600000000,CR3 6SX,2013-02-01,fhrs_5_en-GB,5,,FHRS,5
260230,De Stafford School,Burntwood Lane,,Caterham,Caterlink Limited,School/college/university,7845,5,,104407,5,,51.29321600000000,35554,313,fsa_enforcement@tandridge.gov.uk,Tandridge,http://www.tandridge.gov.uk/,-0.08464100000000,CR3 5YX,2014-09-10,fhrs_4_en-GB,4,,FHRS,10
260231,,,,,Ceci's Ice Lollies,Retailers - other,4613,5,,668368,5,,,80231,313,fsa_enforcement@tandridge.gov.uk,Tandridge,http://www.tandridge.gov.uk/,,,2014-06-05,fhrs_5_en-GB,5,,FHRS,5
260232,,95 Rook Lane,,Chaldon,Chaldon Preschool,Hospitals/Childcare/Caring Premises,5,0,,104894,5,,51.27936300000000,35896,313,fsa_enforcement@tandridge.gov.uk,Tandridge,http://www.tandridge.gov.uk/,-0.11654800000000,CR3 5BN,2014-02-25,fhrs_5_en-GB,5,,FHRS,5
260233,Chaldon Rise Mews,Rockshaw Road,,Merstham,Chaldon Rise Nursing Home,Hospitals/Childcare/Caring Premises,5,5,,105042,5,,51.26602100000000,35993,313,fsa_enforcement@tandridge.gov.uk,Tandridge,http://www.tandridge.gov.uk/,-0.12178000000000,RH1 3DE,2014-01-31,fhrs_5_en-GB,5,,FHRS,5
260234,"The Farm Shop, Priory Farm",Sandy Lane,,South Nutfield,Chalk Hills Bakery,Manufacturers/packers,7839,5,,106157,5,,51.23432200000000,36783,313,fsa_enforcement@tandridge.gov.uk,Tandridge,http://www.tandridge.gov.uk/,-0.13649400000000,RH1 4EJ,2014-01-24,fhrs_4_en-GB,4,,FHRS,10
260235,Champions Place,Kent Hatch Road,,Limpsfield,Champions Place,Hospitals/Childcare/Caring Premises,5,10,,105335,5,,51.24571500000000,36187,313,fsa_enforcement@tandridge.gov.uk,Tandridge,http://www.tandridge.gov.uk/,0.03888700000000,RH8 0TA,2013-09-12,fhrs_4_en-GB,4,,FHRS,5
260236,,,,,Charcombe Wills Limited,Other catering premises,7841,5,,589692,5,,,100324,313,fsa_enforcement@tandridge.gov.uk,Tandridge,http://www.tandridge.gov.uk/,,,2013-09-04,fhrs_5_en-GB,5,,FHRS,0
260237,,,,,Charlie'S Mum'S Cupcakes,Retailers - other,4613,,,189114,,,,36690,313,fsa_enforcement@tandridge.gov.uk,Tandridge,http://www.tandridge.gov.uk/,,,2014-09-09,fhrs_5_en-GB,5,,FHRS,
260238,,,,,Charters Restaurant/Bar/Care Home,Restaurant/Cafe/Canteen,1,10,,623154,5,,,100351,313,fsa_enforcement@tandridge.gov.uk,Tandridge,http://www.tandridge.gov.uk/,,,2014-05-15,fhrs_4_en-GB,4,,FHRS,5
260239,Chartham Park Golf Club,Felcourt Road,,East Grinstead,Chartham Park Golf & Country Club,Restaurant/Cafe/Canteen,1,0,,105198,5,,51.14870800000000,36099,313,fsa_enforcement@tandridge.gov.uk,Tandridge,http://www.tandridge.gov.uk/,-0.02678800000000,RH19 2JT,2014-03-25,fhrs_5_en-GB,5,,FHRS,5
260240,"North, Kings Mill",Kings Mill Lane,,South Nutfield,Chef On The Road Limited,Restaurant/Cafe/Canteen,1,5,,106132,10,,51.22280400000000,36768,313,fsa_enforcement@tandridge.gov.uk,Tandridge,http://www.tandridge.gov.uk/,-0.14227200000000,RH1 5NB,2014-01-10,fhrs_4_en-GB,4,,FHRS,5
260241,Chelsham Lodge,634 Limpsfield Road,,Warlingham,Chelsham Lodge,Hospitals/Childcare/Caring Premises,5,10,,106276,5,,51.30704000000000,36854,313,fsa_enforcement@tandridge.gov.uk,Tandridge,http://www.tandridge.gov.uk/,-0.04506900000000,CR6 9DS,2013-08-30,fhrs_4_en-GB,4,,FHRS,5
260242,Cherry Lodge Rest Home,75 Whyteleafe Road,,Caterham,Cherry Lodge Res Home,Hospitals/Childcare/Caring Premises,5,5,,104993,5,,51.29437600000000,35963,313,fsa_enforcement@tandridge.gov.uk,Tandridge,http://www.tandridge.gov.uk/,-0.08796400000000,CR3 5EJ,2013-03-11,fhrs_5_en-GB,5,,FHRS,5
260243,Cherry Tree Inn,Copthorne Bank,,Copthorne,Cherry Tree,Pub/bar/nightclub,7843,10,,104997,10,,51.14294200000000,35968,313,fsa_enforcement@tandridge.gov.uk,Tandridge,http://www.tandridge.gov.uk/,-0.11334200000000,RH10 3JG,2013-08-09,fhrs_3_en-GB,3,,FHRS,10
260244,,432 Limpsfield Road,,Warlingham,Chez Vous Hotel And Restaurant,Restaurant/Cafe/Canteen,1,5,,189099,5,,51.30917200000000,36889,313,fsa_enforcement@tandridge.gov.uk,Tandridge,http://www.tandridge.gov.uk/,-0.05426200000000,CR6 9LA,2014-02-05,fhrs_5_en-GB,5,,FHRS,5
260245,,183 Coulsdon Road,,Caterham,China Chef,Takeaway/sandwich shop,7844,5,,104514,5,,51.29107200000000,35643,313,fsa_enforcement@tandridge.gov.uk,Tandridge,http://www.tandridge.gov.uk/,-0.10042100000000,CR3 5NU,2014-01-09,fhrs_4_en-GB,4,,FHRS,10
260246,,94 Station Road East,,Oxted,China Garden,Takeaway/sandwich shop,7844,5,,105916,5,,51.25854200000000,36588,313,fsa_enforcement@tandridge.gov.uk,Tandridge,http://www.tandridge.gov.uk/,-0.00407300000000,RH8 0QA,2013-10-29,fhrs_4_en-GB,4,,FHRS,10
260247,,226 Godstone Road,,Whyteleafe,Chinese Fondue,Restaurant/Cafe/Canteen,1,10,,106397,5,,51.30932000000000,36956,313,fsa_enforcement@tandridge.gov.uk,Tandridge,http://www.tandridge.gov.uk/,-0.08009700000000,CR3 0EE,2013-03-13,fhrs_4_en-GB,4,,FHRS,5
260248,Christ Church,Kings Cross Lane,,South Nutfield,Christchurch C Of E,Pub/bar/nightclub,7843,10,,106123,5,,51.21969200000000,36761,313,fsa_enforcement@tandridge.gov.uk,Tandridge,http://www.tandridge.gov.uk/,-0.13545200000000,RH1 5NP,2012-02-10,fhrs_4_en-GB,4,,FHRS,5
260249,2 Brickfield Cottages,Plough Road,,Smallfield,Chuck Wagon,Mobile caterer,7846,10,,106091,10,,51.17163200000000,36732,313,fsa_enforcement@tandridge.gov.uk,Tandridge,http://www.tandridge.gov.uk/,-0.11069800000000,RH6 9JN,2014-08-02,fhrs_3_en-GB,3,,FHRS,10
260250,The Church Of Jesus Christ Of Latter Day,West Park Road,,Newchapel,Church Of Jesus Christ Of The Latter Day Saints,Restaurant/Cafe/Canteen,1,0,,105568,0,,51.16297900000000,36317,313,fsa_enforcement@tandridge.gov.uk,Tandridge,http://www.tandridge.gov.uk/,-0.05299700000000,RH7 6HW,2014-11-28,fhrs_5_en-GB,5,,FHRS,0
260251,,,,,Churromania,Retailers - other,4613,0,,508474,5,,,100282,313,fsa_enforcement@tandridge.gov.uk,Tandridge,http://www.tandridge.gov.uk/,,,2013-08-14,fhrs_5_en-GB,5,,FHRS,5
260252,,3 Clareville Road,,Caterham,Clareville House,Hospitals/Childcare/Caring Premises,5,5,,104480,5,,51.28014200000000,35615,313,fsa_enforcement@tandridge.gov.uk,Tandridge,http://www.tandridge.gov.uk/,-0.07706900000000,CR3 6LA,2013-09-17,fhrs_5_en-GB,5,,FHRS,0
260253,Claridge House,Dormans Road,,Dormansland,Claridge House Healing Cn,Hospitals/Childcare/Caring Premises,5,5,,105127,5,,51.16694700000000,36042,313,fsa_enforcement@tandridge.gov.uk,Tandridge,http://www.tandridge.gov.uk/,0.00544500000000,RH7 6QH,2013-05-13,fhrs_5_en-GB,5,,FHRS,5
260254,Clifton Hill School,Chaldon Road,,Caterham,Clifton Hill School,School/college/university,7845,5,,104420,5,,51.28305700000000,35567,313,fsa_enforcement@tandridge.gov.uk,Tandridge,http://www.tandridge.gov.uk/,-0.09917400000000,CR3 5PN,2014-06-27,fhrs_4_en-GB,4,,FHRS,10
260255,Bull Inn,Chelsham Common,,Chelsham,Coach House,Pub/bar/nightclub,7843,10,,106219,10,,51.31397300000000,36815,313,fsa_enforcement@tandridge.gov.uk,Tandridge,http://www.tandridge.gov.uk/,-0.03211800000000,CR6 9PB,2014-11-06,fhrs_3_en-GB,3,,FHRS,5
260256,Station Kiosk,20 Station Avenue,,Caterham,Colairo'S,Restaurant/Cafe/Canteen,1,5,,104925,10,,51.28194500000000,35911,313,fsa_enforcement@tandridge.gov.uk,Tandridge,http://www.tandridge.gov.uk/,-0.07789700000000,CR3 6LB,2014-09-10,fhrs_4_en-GB,4,,FHRS,5
260257,The College Of St Barnabas,Blackberry Lane,,Lingfield,College Of St Barnabas,Hospitals/Childcare/Caring Premises,5,0,,105374,5,,51.15697000000000,36200,313,fsa_enforcement@tandridge.gov.uk,Tandridge,http://www.tandridge.gov.uk/,-0.00538500000000,RH7 6NJ,2014-11-18,fhrs_5_en-GB,5,,FHRS,5
260258,Coltsford Mill,Mill Lane,,Hurst Green,Coltsford Mill,Other catering premises,7841,5,,565604,5,,51.23837900000000,100311,313,fsa_enforcement@tandridge.gov.uk,Tandridge,http://www.tandridge.gov.uk/,0.00336300000000,RH8 9DG,2013-07-31,fhrs_5_en-GB,5,,FHRS,5
260259,Coltsford Mill,Mill Lane,,Hurst Green,Coltsford Mill Fishery & Lodge,Pub/bar/nightclub,7843,0,,105813,0,,51.23837900000000,36499,313,fsa_enforcement@tandridge.gov.uk,Tandridge,http://www.tandridge.gov.uk/,0.00336300000000,RH8 9DG,2012-01-18,fhrs_5_en-GB,5,,FHRS,0
260260,,1a Coneybury,,Bletchingley,Coneybury Stores,Retailers - other,4613,20,,104288,5,,51.23819500000000,35489,313,fsa_enforcement@tandridge.gov.uk,Tandridge,http://www.tandridge.gov.uk/,-0.09389000000000,RH1 4PP,2014-02-18,fhrs_1_en-GB,1,,FHRS,5
260261,,82-84 Station Road East,,Oxted,Cook.,Retailers - other,4613,5,,105902,5,,51.25780800000000,36577,313,fsa_enforcement@tandridge.gov.uk,Tandridge,http://www.tandridge.gov.uk/,-0.00217000000000,RH8 0PG,2014-01-09,fhrs_4_en-GB,4,,FHRS,10
260262,,,,,Cookies Catering,Retailers - other,4613,10,,710663,5,,,100384,313,fsa_enforcement@tandridge.gov.uk,Tandridge,http://www.tandridge.gov.uk/,,,2014-11-11,fhrs_4_en-GB,4,,FHRS,0
260263,Coombe Dingle,14 Queens Park Road,,Caterham,Coombe Dingle,Hospitals/Childcare/Caring Premises,5,5,,104889,5,,51.28372800000000,35891,313,fsa_enforcement@tandridge.gov.uk,Tandridge,http://www.tandridge.gov.uk/,-0.08959600000000,CR3 5RB,2013-12-09,fhrs_4_en-GB,4,,FHRS,10
260264,3 The Parade,3 Redehall Road,,Smallfield,Co-Op Welcome,Retailers - supermarkets/hypermarkets,7840,10,,106095,10,,51.17185600000000,36735,313,fsa_enforcement@tandridge.gov.uk,Tandridge,http://www.tandridge.gov.uk/,-0.11565200000000,RH6 9PY,2014-07-30,fhrs_3_en-GB,3,,FHRS,10
260265,,52-58 The Green,,Warlingham,Co-Operative,Retailers - supermarkets/hypermarkets,7840,10,,106257,5,,51.30937700000000,36840,313,fsa_enforcement@tandridge.gov.uk,Tandridge,http://www.tandridge.gov.uk/,-0.05629100000000,CR6 9NA,2014-07-30,fhrs_4_en-GB,4,,FHRS,5
260266,,21-23 Station Road East,,Oxted,Co-Operative,Retailers - supermarkets/hypermarkets,7840,10,,105862,10,,51.25698200000000,36533,313,fsa_enforcement@tandridge.gov.uk,Tandridge,http://www.tandridge.gov.uk/,-0.00118800000000,RH8 0BD,2014-09-29,fhrs_3_en-GB,3,,FHRS,5
260267,,46-48 Croydon Road,,Caterham,Co-Operative,Retailers - other,4613,20,,104571,10,,51.28343100000000,35690,313,fsa_enforcement@tandridge.gov.uk,Tandridge,http://www.tandridge.gov.uk/,-0.07803600000000,CR3 6QB,2014-03-12,fhrs_1_en-GB,1,,FHRS,10
260268,19-21 Raglan Precinct and 16 -17 Raglan Precinct,Town End,,Caterham,Co-operative (Caterham),Retailers - supermarkets/hypermarkets,7840,5,,680742,10,,51.28809400000000,35566,313,fsa_enforcement@tandridge.gov.uk,Tandridge,http://www.tandridge.gov.uk/,-0.08983100000000,CR3 5UG,2014-12-04,fhrs_3_en-GB,3,,FHRS,10
260269,,1-3 High Street,,Lingfield,Co-operative Group Food Ltd,Retailers - supermarkets/hypermarkets,7840,5,,105434,5,,51.17429600000000,36241,313,fsa_enforcement@tandridge.gov.uk,Tandridge,http://www.tandridge.gov.uk/,-0.01682600000000,RH7 6AA,2014-08-08,fhrs_5_en-GB,5,,FHRS,5
260270,Coppice Lea,Bletchingley Road,,Merstham,Coppice Lea (Merstham) Limited,Hospitals/Childcare/Caring Premises,5,5,,105575,5,,51.25821700000000,36324,313,fsa_enforcement@tandridge.gov.uk,Tandridge,http://www.tandridge.gov.uk/,-0.13145700000000,RH1 3QN,2014-12-12,fhrs_5_en-GB,5,,FHRS,5
260271,Copthorne School,Effingham Lane,,Copthorne,Copthorne Preparatory School Limited,School/college/university,7845,5,,105011,5,,51.13884500000000,35971,313,fsa_enforcement@tandridge.gov.uk,Tandridge,http://www.tandridge.gov.uk/,-0.09802700000000,RH10 3HR,2015-01-15,fhrs_5_en-GB,5,,FHRS,5
260272,,30 Church Walk,,Caterham,Costa Coffee,Restaurant/Cafe/Canteen,1,5,,104465,5,,51.28150300000000,35600,313,fsa_enforcement@tandridge.gov.uk,Tandridge,http://www.tandridge.gov.uk/,-0.07727000000000,CR3 6RT,2014-06-12,fhrs_5_en-GB,5,,FHRS,5
260273,,62 Station Road East,,Oxted,Costa Coffee Shop,Restaurant/Cafe/Canteen,1,10,,105881,10,,51.25780800000000,36559,313,fsa_enforcement@tandridge.gov.uk,Tandridge,http://www.tandridge.gov.uk/,-0.00217000000000,RH8 0PG,2014-07-23,fhrs_3_en-GB,3,,FHRS,10
260274,,215 Godstone Road,,Whyteleafe,Costa Del Sol,Restaurant/Cafe/Canteen,1,,,106393,,,51.30924900000000,36952,313,fsa_enforcement@tandridge.gov.uk,Tandridge,http://www.tandridge.gov.uk/,-0.07965500000000,CR3 0EL,2014-05-14,fhrs_5_en-GB,5,,FHRS,
260275,,10 East Grinstead Road,,Lingfield,Costcutter (Mulraj Supermarkets (Lingfield) Limited,Retailers - other,4613,20,,105399,10,,51.17385900000000,36216,313,fsa_enforcement@tandridge.gov.uk,Tandridge,http://www.tandridge.gov.uk/,-0.01861900000000,RH7 6EP,2014-06-25,fhrs_1_en-GB,1,,FHRS,15
260276,,57b-59 Westway,,Caterham,Costercut,Retailers - other,4613,10,,104731,5,,51.28775200000000,35784,313,fsa_enforcement@tandridge.gov.uk,Tandridge,http://www.tandridge.gov.uk/,-0.09698700000000,CR3 5TQ,2013-08-21,fhrs_4_en-GB,4,,FHRS,5
260277,,40 Church Walk,,Caterham,Coughlans,Other catering premises,7841,0,,104469,5,,51.28150300000000,35603,313,fsa_enforcement@tandridge.gov.uk,Tandridge,http://www.tandridge.gov.uk/,-0.07727000000000,CR3 6RT,2013-05-28,fhrs_5_en-GB,5,,FHRS,5
260278,,401 Limpsfield Road,,Warlingham,Coughlans,Retailers - other,4613,5,,539777,10,,51.30995000000000,100299,313,fsa_enforcement@tandridge.gov.uk,Tandridge,http://www.tandridge.gov.uk/,-0.05564900000000,CR6 9HA,2014-11-03,fhrs_3_en-GB,3,,FHRS,10
260279,,76 Station Road East,,Oxted,Coughlans,Manufacturers/packers,7839,5,,105901,5,,51.25780800000000,36573,313,fsa_enforcement@tandridge.gov.uk,Tandridge,http://www.tandridge.gov.uk/,-0.00217000000000,RH8 0PG,2015-01-08,fhrs_4_en-GB,4,,FHRS,10
260280,,17 Croydon Road,,Caterham,Coughlans Bakeries,Retailers - other,4613,5,,680743,5,,51.28257300000000,35665,313,fsa_enforcement@tandridge.gov.uk,Tandridge,http://www.tandridge.gov.uk/,-0.07781400000000,CR3 6PA,2014-07-11,fhrs_4_en-GB,4,,FHRS,10
260281,Former,2 Chaldon Road,,Caterham,Coughlans Patisserie,Manufacturers/packers,7839,10,,104427,10,,51.28755600000000,35570,313,fsa_enforcement@tandridge.gov.uk,Tandridge,http://www.tandridge.gov.uk/,-0.09048400000000,CR3 5PE,2014-06-13,fhrs_3_en-GB,3,,FHRS,10
260282,Red Cross Centre,Hoskins Road,,Oxted,Country Market Oxted,Retailers - other,4613,5,,105795,0,,51.25600000000000,36484,313,fsa_enforcement@tandridge.gov.uk,Tandridge,http://www.tandridge.gov.uk/,-0.00583100000000,RH8 9HT,2012-12-13,fhrs_5_en-GB,5,,FHRS,0
260283,Courthill,2 Court Road,,Caterham,Courthill Care Home,Hospitals/Childcare/Caring Premises,5,5,,104501,0,,51.28495200000000,35632,313,fsa_enforcement@tandridge.gov.uk,Tandridge,http://www.tandridge.gov.uk/,-0.09020500000000,CR3 5RD,2015-01-05,fhrs_5_en-GB,5,,FHRS,0
260284,St Michaels Chapel,Guards Avenue,,Caterham,Cr3 Youth Project Skaterham The Tuck Shop,Restaurant/Cafe/Canteen,1,10,,189048,5,,51.29058000000000,35900,313,fsa_enforcement@tandridge.gov.uk,Tandridge,http://www.tandridge.gov.uk/,-0.10282200000000,CR3 5XL,2014-08-11,fhrs_4_en-GB,4,,FHRS,5
260285,,,,,CrafTea,Retailers - other,4613,0,,727162,0,,,75849,313,fsa_enforcement@tandridge.gov.uk,Tandridge,http://www.tandridge.gov.uk/,,,2014-11-28,fhrs_5_en-GB,5,,FHRS,0
260286,Cranmer Court,Farleigh Common,,Warlingham,Cranmer Court Care Home,Hospitals/Childcare/Caring Premises,5,0,,105098,0,,51.32626300000000,36014,313,fsa_enforcement@tandridge.gov.uk,Tandridge,http://www.tandridge.gov.uk/,-0.04320400000000,CR6 9PE,2014-05-21,fhrs_5_en-GB,5,,FHRS,0
260287,Crawley Down Garage,Snow Hill,,Crawley Down,Crawley Down Garage Service Station,Retailers - other,4613,10,,105171,10,,51.14212700000000,36077,313,fsa_enforcement@tandridge.gov.uk,Tandridge,http://www.tandridge.gov.uk/,-0.07546200000000,RH10 3EQ,2013-08-08,fhrs_3_en-GB,3,,FHRS,10
260288,,,,,Crazycrepes,Mobile caterer,7846,0,,106090,0,,,36731,313,fsa_enforcement@tandridge.gov.uk,Tandridge,http://www.tandridge.gov.uk/,,,2013-03-07,fhrs_5_en-GB,5,,FHRS,0
260289,"Club House, Sports Ground",Trenham Drive,,Warlingham,Croydon Post Office,Pub/bar/nightclub,7843,,,189115,,,51.31718000000000,36911,313,fsa_enforcement@tandridge.gov.uk,Tandridge,http://www.tandridge.gov.uk/,-0.06102700000000,CR6 9RU,2012-03-24,fhrs_exempt_en-GB,Exempt,,FHRS,
260290,,28-30 Station Road East,,Oxted,Cucina,Restaurant/Cafe/Canteen,1,5,,209055,5,,51.25780800000000,36538,313,fsa_enforcement@tandridge.gov.uk,Tandridge,http://www.tandridge.gov.uk/,-0.00217000000000,RH8 0PG,2014-07-16,fhrs_5_en-GB,5,,FHRS,5
260291,The Hedgehog Inn,Effingham Road,,Copthorne,Curious Pig in the Parlour,Pub/bar/nightclub,7843,5,,105013,5,,51.14600800000000,35974,313,fsa_enforcement@tandridge.gov.uk,Tandridge,http://www.tandridge.gov.uk/,-0.09441600000000,RH10 3HY,2014-08-01,fhrs_4_en-GB,4,,FHRS,10
260292,The Royal British Legion,Westerham Road,,Limpsfield,Curzon Catering,Pub/bar/nightclub,7843,5,,105353,5,,51.25776600000000,36196,313,fsa_enforcement@tandridge.gov.uk,Tandridge,http://www.tandridge.gov.uk/,0.01914000000000,RH8 0SJ,2014-07-09,fhrs_4_en-GB,4,,FHRS,10
260293,,,,,Custom Cakes Created by Emma,Retailers - other,4613,5,,565602,5,,,100308,313,fsa_enforcement@tandridge.gov.uk,Tandridge,http://www.tandridge.gov.uk/,,,2013-06-25,fhrs_5_en-GB,5,,FHRS,5
260294,,,,,D & E Catering,Mobile caterer,7846,5,,105581,5,,,36329,313,fsa_enforcement@tandridge.gov.uk,Tandridge,http://www.tandridge.gov.uk/,,,2013-11-18,fhrs_5_en-GB,5,,FHRS,5
260295,David Gresham House,2 Oak Close,,Hurst Green,David Gresham House,Hospitals/Childcare/Caring Premises,5,5,,105844,5,,51.24365600000000,36513,313,fsa_enforcement@tandridge.gov.uk,Tandridge,http://www.tandridge.gov.uk/,0.00554100000000,RH8 0BA,2014-03-17,fhrs_5_en-GB,5,,FHRS,5
260296,De Stafford School,Burntwood Lane,,Caterham,De Stafford High School Parent Staff Association,Restaurant/Cafe/Canteen,1,5,,104403,10,,51.29321600000000,35552,313,fsa_enforcement@tandridge.gov.uk,Tandridge,http://www.tandridge.gov.uk/,-0.08464100000000,CR3 5YX,2013-10-11,fhrs_3_en-GB,3,,FHRS,10
260297,De Stafford Sports Centre,Burntwood Lane,,Caterham,De Stafford Sports Centre (The Meeting Place ),Restaurant/Cafe/Canteen,1,5,,104405,10,,51.29321600000000,35553,313,fsa_enforcement@tandridge.gov.uk,Tandridge,http://www.tandridge.gov.uk/,-0.08464100000000,CR3 5YX,2013-07-30,fhrs_4_en-GB,4,,FHRS,5
260298,,,,,Debby'S Meringues,Retailers - other,4613,10,,189053,10,,,36518,313,fsa_enforcement@tandridge.gov.uk,Tandridge,http://www.tandridge.gov.uk/,,,2014-07-28,fhrs_3_en-GB,3,,FHRS,10
260299,,17-19 Station Road East,,Oxted,Deep Blue,Takeaway/sandwich shop,7844,0,,105861,0,,51.25698200000000,36532,313,fsa_enforcement@tandridge.gov.uk,Tandridge,http://www.tandridge.gov.uk/,-0.00118800000000,RH8 0BD,2014-03-18,fhrs_5_en-GB,5,,FHRS,0
260300,,188 Coulsdon Road,,Caterham,Dewan-E-Am,Restaurant/Cafe/Canteen,1,0,,104515,5,,51.29242500000000,35644,313,fsa_enforcement@tandridge.gov.uk,Tandridge,http://www.tandridge.gov.uk/,-0.10181400000000,CR3 5ND,2014-12-18,fhrs_5_en-GB,5,,FHRS,5
260301,,,,,Diane Edwards Catering,Mobile caterer,7846,10,,716347,10,,,61141,313,fsa_enforcement@tandridge.gov.uk,Tandridge,http://www.tandridge.gov.uk/,,,2014-11-25,fhrs_3_en-GB,3,,FHRS,10
260302,,,,,Domestic-Chef.Com,Retailers - other,4613,5,,105026,5,,,35985,313,fsa_enforcement@tandridge.gov.uk,Tandridge,http://www.tandridge.gov.uk/,,,2014-03-07,fhrs_5_en-GB,5,,FHRS,5
260303,,68 Croydon Road,,Caterham,Domino'S Pizza,Takeaway/sandwich shop,7844,0,,104599,0,,51.28562100000000,35707,313,fsa_enforcement@tandridge.gov.uk,Tandridge,http://www.tandridge.gov.uk/,-0.07883400000000,CR3 6QD,2014-11-27,fhrs_5_en-GB,5,,FHRS,0
260304,Donnington,73 Whyteleafe Road,,Caterham,Donnington,Hospitals/Childcare/Caring Premises,5,5,,104995,5,,51.29437600000000,35965,313,fsa_enforcement@tandridge.gov.uk,Tandridge,http://www.tandridge.gov.uk/,-0.08796400000000,CR3 5EJ,2013-07-15,fhrs_5_en-GB,5,,FHRS,5
260305,,,,,Dorapia,Retailers - other,4613,0,,414875,0,,,100213,313,fsa_enforcement@tandridge.gov.uk,Tandridge,http://www.tandridge.gov.uk/,,,2012-09-03,fhrs_5_en-GB,5,,FHRS,0
260306,,2 Plough Road,,Dormansland,Dormansland Memorial Club,Pub/bar/nightclub,7843,5,,105154,5,,51.16557200000000,36063,313,fsa_enforcement@tandridge.gov.uk,Tandridge,http://www.tandridge.gov.uk/,0.00798800000000,RH7 6PS,2013-10-16,fhrs_4_en-GB,4,,FHRS,10
260307,Parish Room,The Platt,,Dormansland,Dormansland Village Preschool Playgroup,Hospitals/Childcare/Caring Premises,5,5,,105158,5,,51.15989700000000,36067,313,fsa_enforcement@tandridge.gov.uk,Tandridge,http://www.tandridge.gov.uk/,0.00485300000000,RH7 6RA,2014-06-23,fhrs_5_en-GB,5,,FHRS,5
260308,Dormers Resource Centre,67 Foxon Lane,,Caterham,Dormers Resource Centre,Hospitals/Childcare/Caring Premises,5,5,,104649,5,,51.29148700000000,35748,313,fsa_enforcement@tandridge.gov.uk,Tandridge,http://www.tandridge.gov.uk/,-0.09389200000000,CR3 5SG,2014-09-22,fhrs_5_en-GB,5,,FHRS,5
260309,Douglas Brunton Day Centre,Park Road,,Caterham,Douglas Brunton Day Cntr,Other catering premises,7841,5,,104880,5,,51.28574600000000,35884,313,fsa_enforcement@tandridge.gov.uk,Tandridge,http://www.tandridge.gov.uk/,-0.09200800000000,CR3 5TA,2014-03-28,fhrs_4_en-GB,4,,FHRS,10
260310,Downs Way School,Downs Way,,Oxted,Downsway Primary School,School/college/university,7845,5,,105747,5,,51.26435300000000,36444,313,fsa_enforcement@tandridge.gov.uk,Tandridge,http://www.tandridge.gov.uk/,-0.00730400000000,RH8 0NZ,2015-01-19,fhrs_5_en-GB,5,,FHRS,5
260311,,,,,Dynamic Catering,Mobile caterer,7846,10,,105628,5,,,36355,313,fsa_enforcement@tandridge.gov.uk,Tandridge,http://www.tandridge.gov.uk/,,,2013-10-31,fhrs_4_en-GB,4,,FHRS,5
260312,,,,,E B Catering,Mobile caterer,7846,5,,189150,5,,,39387,313,fsa_enforcement@tandridge.gov.uk,Tandridge,http://www.tandridge.gov.uk/,,,2013-11-18,fhrs_5_en-GB,5,,FHRS,5
260313,,50 Church Walk,,Caterham,Eight,Restaurant/Cafe/Canteen,1,10,,104470,5,,51.28150300000000,35605,313,fsa_enforcement@tandridge.gov.uk,Tandridge,http://www.tandridge.gov.uk/,-0.07727000000000,CR3 6RT,2014-04-09,fhrs_4_en-GB,4,,FHRS,0
260314,,,,,Elaine Bakes,Retailers - other,4613,10,,445821,5,,,100237,313,fsa_enforcement@tandridge.gov.uk,Tandridge,http://www.tandridge.gov.uk/,,,2012-10-23,fhrs_4_en-GB,4,,FHRS,5
260315,,43-49 High Street,,Caterham,Elite Garages,Retailers - other,4613,5,,104831,5,,51.28546400000000,35857,313,fsa_enforcement@tandridge.gov.uk,Tandridge,http://www.tandridge.gov.uk/,-0.08794600000000,CR3 5UF,2015-02-03,fhrs_5_en-GB,5,,FHRS,5
260316,Elizabeth Court,Grenadier Place,,Caterham,Elizabeth Court,Hospitals/Childcare/Caring Premises,5,0,,104755,0,,51.28975200000000,35806,313,fsa_enforcement@tandridge.gov.uk,Tandridge,http://www.tandridge.gov.uk/,-0.10556700000000,CR3 5YJ,2014-02-13,fhrs_5_en-GB,5,,FHRS,5
260317,,,,,Elizabeth George Cakes,Retailers - other,4613,0,,486842,0,,,100266,313,fsa_enforcement@tandridge.gov.uk,Tandridge,http://www.tandridge.gov.uk/,,,2013-01-15,fhrs_5_en-GB,5,,FHRS,0
260318,,20-22 Station Road West,,Oxted,EM10 Express,Retailers - other,4613,10,,105969,10,,51.25673200000000,36637,313,fsa_enforcement@tandridge.gov.uk,Tandridge,http://www.tandridge.gov.uk/,-0.00658800000000,RH8 9EP,2014-09-11,fhrs_3_en-GB,3,,FHRS,10
260319,,20 Station Road,,Lingfield,Emperor Foods,Distributors/Transporters,7,10,,589698,10,,51.18080500000000,100332,313,fsa_enforcement@tandridge.gov.uk,Tandridge,http://www.tandridge.gov.uk/,-0.00980800000000,RH7 6DX,2014-01-08,fhrs_3_en-GB,3,,FHRS,10
260320,Essendene Lodge School,Essendene Road,,Caterham,Essendene Lodge School,School/college/university,7845,0,,104640,0,,51.28803500000000,35742,313,fsa_enforcement@tandridge.gov.uk,Tandridge,http://www.tandridge.gov.uk/,-0.08789700000000,CR3 5PB,2014-03-18,fhrs_4_en-GB,4,,FHRS,10
260321,,5-7 Station Road West,,Oxted,Everyman Oxted,Restaurant/Cafe/Canteen,1,5,,105957,5,,51.25763400000000,36623,313,fsa_enforcement@tandridge.gov.uk,Tandridge,http://www.tandridge.gov.uk/,-0.00566000000000,RH8 9EE,2014-09-29,fhrs_4_en-GB,4,,FHRS,10
260322,,,,,Expresso & More,Mobile caterer,7846,0,,105772,5,,,36469,313,fsa_enforcement@tandridge.gov.uk,Tandridge,http://www.tandridge.gov.uk/,,,2013-03-20,fhrs_5_en-GB,5,,FHRS,5
260323,Farleigh Court Golf Club,Farleigh Common,,Warlingham,Farleigh Court Golf Club,Pub/bar/nightclub,7843,5,,105100,5,,51.32626300000000,36016,313,fsa_enforcement@tandridge.gov.uk,Tandridge,http://www.tandridge.gov.uk/,-0.04320400000000,CR6 9PE,2014-09-12,fhrs_4_en-GB,4,,FHRS,10
260324,"Clubhouse, Parsonage Field",Green Lane,,Warlingham,Farleigh Rovers Football Club,Pub/bar/nightclub,7843,,,106259,,,51.31869000000000,36842,313,fsa_enforcement@tandridge.gov.uk,Tandridge,http://www.tandridge.gov.uk/,-0.04045500000000,CR6 9EY,2013-04-29,fhrs_exempt_en-GB,Exempt,,FHRS,
260325,Layby Southbound,Caterham Bypass A22,,Caterham,Fat Boys 2,Mobile caterer,7846,10,,105580,5,,51.27848500000000,36328,313,fsa_enforcement@tandridge.gov.uk,Tandridge,http://www.tandridge.gov.uk/,-0.07526000000000,CR3 6RF,2014-03-25,fhrs_4_en-GB,4,,FHRS,5
260326,,,,,Fat Boyz Food,Mobile caterer,7846,5,,335194,5,,,36327,313,fsa_enforcement@tandridge.gov.uk,Tandridge,http://www.tandridge.gov.uk/,,,2014-05-14,fhrs_5_en-GB,5,,FHRS,5
260327,,11 Croydon Road,,Caterham,Favorite Chicken And Ribs,Takeaway/sandwich shop,7844,5,,104542,5,,51.28257300000000,35660,313,fsa_enforcement@tandridge.gov.uk,Tandridge,http://www.tandridge.gov.uk/,-0.07781400000000,CR3 6PA,2014-07-24,fhrs_4_en-GB,4,,FHRS,10
260328,"North End, The Cricket Ground",London Road,,Felbridge,Felbridge & Sunnyside Cricket Club,Pub/bar/nightclub,7843,10,,189111,10,,51.14211600000000,36086,313,fsa_enforcement@tandridge.gov.uk,Tandridge,http://www.tandridge.gov.uk/,-0.03959300000000,RH19 2QS,2013-11-22,fhrs_3_en-GB,3,,FHRS,10
260329,,2 Crawley Down Road,,Felbridge,Felbridge Primary School,School/college/university,7845,5,,105178,5,,51.13958700000000,36081,313,fsa_enforcement@tandridge.gov.uk,Tandridge,http://www.tandridge.gov.uk/,-0.04484600000000,RH19 2NT,2013-11-11,fhrs_5_en-GB,5,,FHRS,5
260330,Horseshoes,86 Copthorne Road,,Felbridge,Felbridge Showground,Mobile caterer,7846,5,,105177,5,,51.14074900000000,36080,313,fsa_enforcement@tandridge.gov.uk,Tandridge,http://www.tandridge.gov.uk/,-0.04822800000000,RH19 2NU,2013-02-11,fhrs_5_en-GB,5,,FHRS,5
260331,Former,29 Crawley Down Road,,Felbridge,Felbridge Village Store,Retailers - other,4613,10,,105181,5,,51.13958700000000,36082,313,fsa_enforcement@tandridge.gov.uk,Tandridge,http://www.tandridge.gov.uk/,-0.04484600000000,RH19 2NT,2014-11-06,fhrs_4_en-GB,4,,FHRS,5
260332,,,,,Finger Lickin Food,Mobile caterer,7846,5,,633258,10,,,100354,313,fsa_enforcement@tandridge.gov.uk,Tandridge,http://www.tandridge.gov.uk/,,,2014-03-21,fhrs_3_en-GB,3,,FHRS,10
260333,,180 Coulsdon Road,,Caterham,Fisherman Chippy,Takeaway/sandwich shop,7844,10,,104510,5,,51.29242500000000,35640,313,fsa_enforcement@tandridge.gov.uk,Tandridge,http://www.tandridge.gov.uk/,-0.10181400000000,CR3 5ND,2014-09-16,fhrs_4_en-GB,4,,FHRS,5
260334,,,,,Flame Grill Uk Limited,Mobile caterer,7846,0,,105589,0,,,36333,313,fsa_enforcement@tandridge.gov.uk,Tandridge,http://www.tandridge.gov.uk/,,,2013-06-13,fhrs_5_en-GB,5,,FHRS,0
260335,Flint Cottage,Kings Mill Lane,,South Nutfield,Flint Cottage,Hospitals/Childcare/Caring Premises,5,0,,106130,0,,51.22280400000000,36767,313,fsa_enforcement@tandridge.gov.uk,Tandridge,http://www.tandridge.gov.uk/,-0.14227200000000,RH1 5NB,2012-03-07,fhrs_5_en-GB,5,,FHRS,5
260336,,121 Station Road East,,Oxted,Flourish Bakery,Retailers - other,4613,10,,618831,10,,51.25848200000000,36602,313,fsa_enforcement@tandridge.gov.uk,Tandridge,http://www.tandridge.gov.uk/,-0.00477800000000,RH8 0QE,2013-12-17,fhrs_3_en-GB,3,,FHRS,10
260337,Flower Farm,Flower Lane,,Godstone,Flower Farm Poultry,Manufacturers/packers,7839,5,,105227,5,,51.25491900000000,36119,313,fsa_enforcement@tandridge.gov.uk,Tandridge,http://www.tandridge.gov.uk/,-0.05489100000000,RH9 8DE,2012-12-17,fhrs_4_en-GB,4,,FHRS,10
260338,"Farm Shop, Flower Farm",Oxted Road,,Godstone,Flower Farm Shop,Retailers - other,4613,5,,105229,5,,51.25491900000000,36120,313,fsa_enforcement@tandridge.gov.uk,Tandridge,http://www.tandridge.gov.uk/,-0.05489100000000,RH9 8DE,2012-04-04,fhrs_4_en-GB,4,,FHRS,10
260339,Flower Farm,Oxted Road,,Godstone,Flower Farm Tea Shop,Restaurant/Cafe/Canteen,1,5,,335199,10,,51.25491900000000,39714,313,fsa_enforcement@tandridge.gov.uk,Tandridge,http://www.tandridge.gov.uk/,-0.05489100000000,RH9 8DE,2014-01-08,fhrs_3_en-GB,3,,FHRS,10
260340,,,,,Fluffy Fun,Mobile caterer,7846,5,,668367,0,,,69289,313,fsa_enforcement@tandridge.gov.uk,Tandridge,http://www.tandridge.gov.uk/,,,2014-09-12,fhrs_5_en-GB,5,,FHRS,0
260341,Unit 40b,Hobbs Industrial Estate,,Newchapel,Foodelity Limited,Distributors/Transporters,7,5,,539778,5,,51.15488900000000,100300,313,fsa_enforcement@tandridge.gov.uk,Tandridge,http://www.tandridge.gov.uk/,-0.05698400000000,RH7 6HN,2014-01-16,fhrs_5_en-GB,5,,FHRS,5
260342,Forman Institute,Eastbourne Road,,Blindley Heath,Forman Institute & Social Club,Pub/bar/nightclub,7843,10,,104250,10,,51.19221700000000,35456,313,fsa_enforcement@tandridge.gov.uk,Tandridge,http://www.tandridge.gov.uk/,-0.04986100000000,RH7 6JJ,2014-11-19,fhrs_3_en-GB,3,,FHRS,10
260343,Fox & Hounds,Tilburstow Hill Road,,Godstone,Fox & Hounds,Pub/bar/nightclub,7843,10,,106062,10,,51.22830600000000,36701,313,fsa_enforcement@tandridge.gov.uk,Tandridge,http://www.tandridge.gov.uk/,-0.06124100000000,RH9 8LY,2014-01-22,fhrs_3_en-GB,3,,FHRS,10
260344,Foxhole Farm House,Brickhouse Lane,,Newchapel,Foxhole Farmhouse,Hotel/bed & breakfast/guest house,7842,5,,105631,5,,51.17216400000000,36358,313,fsa_enforcement@tandridge.gov.uk,Tandridge,http://www.tandridge.gov.uk/,-0.06401100000000,RH7 6HY,2013-08-13,fhrs_5_en-GB,5,,FHRS,5
260345,28 The Plantation,West Park Road,,Newchapel,Freshly Ground Coffee Company,Mobile caterer,7846,5,,105610,5,,51.15491900000000,36341,313,fsa_enforcement@tandridge.gov.uk,Tandridge,http://www.tandridge.gov.uk/,-0.07242700000000,RH7 6HT,2012-03-27,fhrs_5_en-GB,5,,FHRS,5
260346,Caterham Dene Hospital,Church Road,,Caterham,G4S Integrated Services,Hospitals/Childcare/Caring Premises,5,0,,104442,0,,51.28414900000000,35590,313,fsa_enforcement@tandridge.gov.uk,Tandridge,http://www.tandridge.gov.uk/,-0.08559200000000,CR3 5RA,2014-11-18,fhrs_5_en-GB,5,,FHRS,0
260347,,,,,Gemcakes,Retailers - other,4613,0,,189168,0,,,35804,313,fsa_enforcement@tandridge.gov.uk,Tandridge,http://www.tandridge.gov.uk/,,,2013-02-12,fhrs_5_en-GB,5,,FHRS,0
260348,,52 High Street,,Oxted,George Inn,Pub/bar/nightclub,7843,5,,105769,5,,51.25277600000000,36465,313,fsa_enforcement@tandridge.gov.uk,Tandridge,http://www.tandridge.gov.uk/,-0.01561500000000,RH8 9LP,2014-10-23,fhrs_4_en-GB,4,,FHRS,10
260349,,,,,German Sausage,Mobile caterer,7846,5,,618828,10,,,100343,313,fsa_enforcement@tandridge.gov.uk,Tandridge,http://www.tandridge.gov.uk/,,,2014-10-27,fhrs_3_en-GB,3,,FHRS,10
260350,Golden Lion Car Park,,,Warlingham,Gillies Fish,Retailers - other,4613,,,189229,,,,36342,313,fsa_enforcement@tandridge.gov.uk,Tandridge,http://www.tandridge.gov.uk/,,,2014-02-18,fhrs_5_en-GB,5,,FHRS,
260351,Glebe House,Church Lane,,Chaldon,Glebe House Nursing Home,Hospitals/Childcare/Caring Premises,5,5,,104439,5,,51.28185000000000,35589,313,fsa_enforcement@tandridge.gov.uk,Tandridge,http://www.tandridge.gov.uk/,-0.12190900000000,CR3 5AL,2014-04-03,fhrs_5_en-GB,5,,FHRS,5
260352,"Unit 1, Priory Farm",Sandy Lane,,South Nutfield,Glorious Food Limited,Other catering premises,7841,0,,657422,5,,51.23432200000000,100359,313,fsa_enforcement@tandridge.gov.uk,Tandridge,http://www.tandridge.gov.uk/,-0.13649400000000,RH1 4EJ,2014-06-18,fhrs_5_en-GB,5,,FHRS,0
260353,Godstone Baptist Church,Godstone Hill,,Godstone,Godstone Baptist Church,Other catering premises,7841,5,,105244,5,,51.25342000000000,36131,313,fsa_enforcement@tandridge.gov.uk,Tandridge,http://www.tandridge.gov.uk/,-0.06697800000000,RH9 8AJ,2013-03-01,fhrs_5_en-GB,5,,FHRS,5
260354,Godstone Club & Institute,Godstone Green,,Godstone,Godstone Club & Institute,Pub/bar/nightclub,7843,5,,105232,5,,51.24644100000000,36126,313,fsa_enforcement@tandridge.gov.uk,Tandridge,http://www.tandridge.gov.uk/,-0.06696900000000,RH9 8DY,2012-03-01,fhrs_5_en-GB,5,,FHRS,5
260355,Godstone Farm,Tilburstow Hill Road,,Godstone,Godstone Farm,Restaurant/Cafe/Canteen,1,5,,105308,5,,51.24416300000000,36172,313,fsa_enforcement@tandridge.gov.uk,Tandridge,http://www.tandridge.gov.uk/,-0.06518800000000,RH9 8LX,2013-09-26,fhrs_5_en-GB,5,,FHRS,5
260356,Godstone Golf Club,Rooks Nest,,Godstone,Godstone Golf Course,Restaurant/Cafe/Canteen,1,,,105231,,,51.25291700000000,36125,313,fsa_enforcement@tandridge.gov.uk,Tandridge,http://www.tandridge.gov.uk/,-0.04965900000000,RH9 8BY,2012-03-07,fhrs_exempt_en-GB,Exempt,,FHRS,
260357,The Godstone Hotel,87 High Street,,Godstone,Godstone Hotel & Coach Hs,Hotel/bed & breakfast/guest house,7842,5,,105247,5,,51.24700300000000,36135,313,fsa_enforcement@tandridge.gov.uk,Tandridge,http://www.tandridge.gov.uk/,-0.06614300000000,RH9 8DT,2014-08-01,fhrs_4_en-GB,4,,FHRS,10
260358,,61 High Street,,Godstone,Godstone News,Retailers - other,4613,5,,105261,5,,51.24700300000000,36144,313,fsa_enforcement@tandridge.gov.uk,Tandridge,http://www.tandridge.gov.uk/,-0.06614300000000,RH9 8DT,2014-02-04,fhrs_5_en-GB,5,,FHRS,5
260359,,43-45 Godstone Road,,Whyteleafe,Godstone Road SF Connect,Retailers - other,4613,0,,106372,0,,51.31390800000000,36931,313,fsa_enforcement@tandridge.gov.uk,Tandridge,http://www.tandridge.gov.uk/,-0.08240200000000,CR3 0EG,2014-03-11,fhrs_5_en-GB,5,,FHRS,0
260360,Godstone Village School,Ivy Mill Lane,,Godstone,Godstone Village School,School/college/university,7845,0,,105285,5,,51.24646300000000,36157,313,fsa_enforcement@tandridge.gov.uk,Tandridge,http://www.tandridge.gov.uk/,-0.07050700000000,RH9 8NH,2013-01-30,fhrs_5_en-GB,5,,FHRS,5
260361,Godstone Vineyard,Quarry Road,,Godstone,Godstone Vineyards,Restaurant/Cafe/Canteen,1,10,,105292,5,,51.26394500000000,36163,313,fsa_enforcement@tandridge.gov.uk,Tandridge,http://www.tandridge.gov.uk/,-0.06230700000000,RH9 8DQ,2013-12-06,fhrs_4_en-GB,4,,FHRS,5
260362,,51 Station Road East,,Oxted,Golden Bengal Tandoori,Restaurant/Cafe/Canteen,1,,,105878,,,51.25763100000000,36552,313,fsa_enforcement@tandridge.gov.uk,Tandridge,http://www.tandridge.gov.uk/,-0.00286500000000,RH8 0AX,2015-01-13,fhrs_4_en-GB,4,,FHRS,
260363,,40 Station Road West,,Oxted,Golden Palace Restaurant,Restaurant/Cafe/Canteen,1,10,,105991,10,,51.25738800000000,36655,313,fsa_enforcement@tandridge.gov.uk,Tandridge,http://www.tandridge.gov.uk/,-0.00547000000000,RH8 9EU,2014-04-25,fhrs_3_en-GB,3,,FHRS,10
260364,2 The Parade,5 Redehall Road,,Smallfield,Gordons Greengrocers,Retailers - other,4613,5,,106093,5,,51.17185600000000,36734,313,fsa_enforcement@tandridge.gov.uk,Tandridge,http://www.tandridge.gov.uk/,-0.11565200000000,RH6 9PY,2014-07-17,fhrs_4_en-GB,4,,FHRS,10
260365,,,,,Graham's Catering,Mobile caterer,7846,,,457301,,,,100251,313,fsa_enforcement@tandridge.gov.uk,Tandridge,http://www.tandridge.gov.uk/,,,,fhrs_awaitinginspection_en-GB,AwaitingInspection,,FHRS,
260366,Warlingham Rugby Football Ground,Limpsfield Road,,Warlingham,Grand Slam Catering,Pub/bar/nightclub,7843,,,733862,,,51.31587100000000,100394,313,fsa_enforcement@tandridge.gov.uk,Tandridge,http://www.tandridge.gov.uk/,-0.06237300000000,CR6 9RB,,fhrs_awaitinginspection_en-GB,AwaitingInspection,,FHRS,
260367,Oaklands House,Coulsdon Road,,Caterham,Grandview,Hospitals/Childcare/Caring Premises,5,5,,104490,5,,51.28597100000000,35624,313,fsa_enforcement@tandridge.gov.uk,Tandridge,http://www.tandridge.gov.uk/,-0.09753400000000,CR3 5YA,2013-02-18,fhrs_4_en-GB,4,,FHRS,10
260368,The Grasshopper Inn,Westerham Road,,Westerham,Grasshopper Inn,Restaurant/Cafe/Canteen,1,5,,106365,5,,51.26178400000000,36927,313,fsa_enforcement@tandridge.gov.uk,Tandridge,http://www.tandridge.gov.uk/,0.04569000000000,TN16 2EU,2014-09-16,fhrs_4_en-GB,4,,FHRS,10
260369,Greathed Manor,Ford Manor Road,,Dormansland,Greathed Manor Nursing Home,Hospitals/Childcare/Caring Premises,5,5,,105129,5,,51.16255100000000,36044,313,fsa_enforcement@tandridge.gov.uk,Tandridge,http://www.tandridge.gov.uk/,0.01998600000000,RH7 6PA,2014-09-09,fhrs_5_en-GB,5,,FHRS,5
260370,,,,,Green Bean Catering Company,Retailers - other,4613,5,,209059,0,,,39490,313,fsa_enforcement@tandridge.gov.uk,Tandridge,http://www.tandridge.gov.uk/,,,2013-06-21,fhrs_5_en-GB,5,,FHRS,0
260371,"Green Dragons, Warren Barn Farm",Slines Oak Road,,Woldingham,Green Dragons Airsports,Retailers - other,4613,,,189088,,,51.29053100000000,36998,313,fsa_enforcement@tandridge.gov.uk,Tandridge,http://www.tandridge.gov.uk/,-0.02745500000000,CR3 7HN,2013-03-08,fhrs_exempt_en-GB,Exempt,,FHRS,
260372,"Pavilion, Greenacres Sports Ground",Limpsfield Road,,Warlingham,Greenacres (Warlingham) Ltd,Pub/bar/nightclub,7843,10,,106288,5,,51.32144300000000,36869,313,fsa_enforcement@tandridge.gov.uk,Tandridge,http://www.tandridge.gov.uk/,-0.06648700000000,CR6 9RE,2014-04-22,fhrs_3_en-GB,3,,FHRS,10
260373,Greyhound Inn,Plaistow Street,,Lingfield,Greyhound Inn,Pub/bar/nightclub,7843,5,,105511,5,,51.17466500000000,36283,313,fsa_enforcement@tandridge.gov.uk,Tandridge,http://www.tandridge.gov.uk/,-0.01950000000000,RH7 6AU,2014-09-19,fhrs_4_en-GB,4,,FHRS,10
260374,,111-113 Station Road East,,Oxted,Gurkha Kitchen,Restaurant/Cafe/Canteen,1,5,,105927,10,,51.25763100000000,36599,313,fsa_enforcement@tandridge.gov.uk,Tandridge,http://www.tandridge.gov.uk/,-0.00286500000000,RH8 0AX,2013-09-19,fhrs_3_en-GB,3,,FHRS,10
260375,"Junior Base, Hamsey Green Primary School",Tithepit Shaw Lane,,Warlingham,Hamsey Green Primary School,School/college/university,7845,5,,106339,10,,51.31525200000000,36906,313,fsa_enforcement@tandridge.gov.uk,Tandridge,http://www.tandridge.gov.uk/,-0.06951700000000,CR6 9AN,2013-09-27,fhrs_4_en-GB,4,,FHRS,5
260376,Hare & Hounds,Needles Bank,,Godstone,Hare & Hounds,Pub/bar/nightclub,7843,10,,105217,10,,51.24876600000000,36108,313,fsa_enforcement@tandridge.gov.uk,Tandridge,http://www.tandridge.gov.uk/,-0.06783200000000,RH9 8LN,2014-03-26,fhrs_2_en-GB,2,,FHRS,15
260377,The Hare & Hounds Inn,Lingfield Common Road,,Lingfield,Hare & Hounds,Restaurant/Cafe/Canteen,1,0,,105467,0,,51.18353100000000,36262,313,fsa_enforcement@tandridge.gov.uk,Tandridge,http://www.tandridge.gov.uk/,-0.01995000000000,RH7 6BZ,2014-04-15,fhrs_5_en-GB,5,,FHRS,5
260378,National Centre For Young People With Ep,St Piers Lane,,Lingfield,Harrison Catering Services,School/college/university,7845,5,,105547,5,,51.17475800000000,36304,313,fsa_enforcement@tandridge.gov.uk,Tandridge,http://www.tandridge.gov.uk/,0.00511100000000,RH7 6PW,2014-04-03,fhrs_4_en-GB,4,,FHRS,10
260379,,235 Stanstead Road,,Caterham,Harrow Inn,Pub/bar/nightclub,7843,5,,104939,10,,51.27101700000000,35920,313,fsa_enforcement@tandridge.gov.uk,Tandridge,http://www.tandridge.gov.uk/,-0.09818000000000,CR3 6AJ,2014-10-29,fhrs_4_en-GB,4,,FHRS,5
260380,Harrow Inn,309 Farleigh Road,,Warlingham,Harrow Inn,Restaurant/Cafe/Canteen,1,0,,105102,0,,51.31692000000000,36019,313,fsa_enforcement@tandridge.gov.uk,Tandridge,http://www.tandridge.gov.uk/,-0.04433400000000,CR6 9EL,2013-05-28,fhrs_4_en-GB,4,,FHRS,10
260381,Haskins Snowhill,Snowhill Lane,,Copthorne,Haskins Garden Centre,Restaurant/Cafe/Canteen,1,5,,105114,5,,51.14379400000000,36031,313,fsa_enforcement@tandridge.gov.uk,Tandridge,http://www.tandridge.gov.uk/,-0.08717300000000,RH10 3EL,2013-01-10,fhrs_5_en-GB,5,,FHRS,5
260382,Hazelwood School,Wolfs Hill,,Limpsfield,Hazelwood School,School/college/university,7845,5,,105357,5,,51.24935600000000,36198,313,fsa_enforcement@tandridge.gov.uk,Tandridge,http://www.tandridge.gov.uk/,0.00879900000000,RH8 0QU,2014-06-05,fhrs_5_en-GB,5,,FHRS,5
260383,Heatherley Cheshire Home,Effingham Lane,,Copthorne,Heatherley,Hospitals/Childcare/Caring Premises,5,5,,105012,5,,51.14455600000000,35973,313,fsa_enforcement@tandridge.gov.uk,Tandridge,http://www.tandridge.gov.uk/,-0.09802100000000,RH10 3HS,2014-10-29,fhrs_5_en-GB,5,,FHRS,5
260384,Layby Westbound,Godstone Road,,Oxted,Heathers,Mobile caterer,7846,5,,105627,5,,51.24917500000000,36353,313,fsa_enforcement@tandridge.gov.uk,Tandridge,http://www.tandridge.gov.uk/,-0.02177400000000,RH8 9NQ,2011-12-20,fhrs_5_en-GB,5,,FHRS,5
260385,,19 High Street,,Nutfield,Heaven Nutfield Limited,Restaurant/Cafe/Canteen,1,5,,105658,5,,51.23904800000000,36388,313,fsa_enforcement@tandridge.gov.uk,Tandridge,http://www.tandridge.gov.uk/,-0.12776400000000,RH1 4HH,2014-07-07,fhrs_5_en-GB,5,,FHRS,5
260386,,60 Croydon Road,,Caterham,Henry's Play Cafe Limited,Restaurant/Cafe/Canteen,1,10,,486849,5,,51.28343100000000,34145,313,fsa_enforcement@tandridge.gov.uk,Tandridge,http://www.tandridge.gov.uk/,-0.07803600000000,CR3 6QB,2014-01-25,fhrs_4_en-GB,4,,FHRS,5
260387,Heronswood,51 Harestone Hill,,Caterham,Heronswood Residential Home,Hospitals/Childcare/Caring Premises,5,10,,104757,10,,51.27588400000000,35809,313,fsa_enforcement@tandridge.gov.uk,Tandridge,http://www.tandridge.gov.uk/,-0.08063100000000,CR3 6DX,2014-06-25,fhrs_3_en-GB,3,,FHRS,5
260388,Hillcroft Primary School,Chaldon Road,,Caterham,Hillcroft Primary & Middle School,School/college/university,7845,0,,104421,0,,51.28593000000000,35568,313,fsa_enforcement@tandridge.gov.uk,Tandridge,http://www.tandridge.gov.uk/,-0.09334800000000,CR3 5PG,2015-01-12,fhrs_5_en-GB,5,,FHRS,5
260389,,259a Coulsdon Road,,Caterham,Hillside Care Home,Hospitals/Childcare/Caring Premises,5,5,,104517,5,,51.29389200000000,35645,313,fsa_enforcement@tandridge.gov.uk,Tandridge,http://www.tandridge.gov.uk/,-0.10298700000000,CR3 5QR,2014-08-08,fhrs_5_en-GB,5,,FHRS,5
260390,,102 Mid Street,,South Nutfield,Holborns Limited,Retailers - other,4613,5,,106145,5,,51.22947300000000,36775,313,fsa_enforcement@tandridge.gov.uk,Tandridge,http://www.tandridge.gov.uk/,-0.13129000000000,RH1 4JH,2014-11-18,fhrs_5_en-GB,5,,FHRS,5
260391,,44 Church Walk,,Caterham,Holland And Barrett,Retailers - other,4613,5,,104475,5,,51.28150300000000,35610,313,fsa_enforcement@tandridge.gov.uk,Tandridge,http://www.tandridge.gov.uk/,-0.07727000000000,CR3 6RT,2013-08-06,fhrs_5_en-GB,5,,FHRS,5
260392,Holland Junior School,Holland Road,,Hurst Green,Holland Junior School,School/college/university,7845,5,,105777,0,,51.23372400000000,36471,313,fsa_enforcement@tandridge.gov.uk,Tandridge,http://www.tandridge.gov.uk/,0.00995100000000,RH8 9BQ,2013-07-03,fhrs_5_en-GB,5,,FHRS,5
260393,"Sports Pavilion, Mill Lane Playing Field",Mill Lane,,Hurst Green,Holland Sports & Social Club,Pub/bar/nightclub,7843,10,,105809,10,,51.24060400000000,36497,313,fsa_enforcement@tandridge.gov.uk,Tandridge,http://www.tandridge.gov.uk/,0.00257200000000,RH8 9DF,2013-10-25,fhrs_3_en-GB,3,,FHRS,5
260394,"Woodview Bungalow, Oaklands House",Coulsdon Road,,Caterham,Holly Tree,Hospitals/Childcare/Caring Premises,5,10,,104499,10,,51.28597100000000,35630,313,fsa_enforcement@tandridge.gov.uk,Tandridge,http://www.tandridge.gov.uk/,-0.09753400000000,CR3 5YA,2013-02-05,fhrs_3_en-GB,3,,FHRS,5
260395,"Junior School, Lingfield Notre Dame Scho",Racecourse Road,,Lingfield,Holroyd Howe Independent Ltd (Notre Dame),School/college/university,7845,0,,105514,0,,51.17208100000000,36289,313,fsa_enforcement@tandridge.gov.uk,Tandridge,http://www.tandridge.gov.uk/,0.00021700000000,RH7 6PH,2013-10-07,fhrs_5_en-GB,5,,FHRS,0
260396,"Senior School, Lingfield Notre Dame Scho",St Piers Lane,,Lingfield,Holroyd Howe Independent Ltd (Notre Dame),School/college/university,7845,0,,105549,0,,51.17208100000000,36306,313,fsa_enforcement@tandridge.gov.uk,Tandridge,http://www.tandridge.gov.uk/,0.00021700000000,RH7 6PH,2013-07-01,fhrs_5_en-GB,5,,FHRS,0
260397,Lingfield Notre Dame School,Racecourse Road,,Lingfield,Holroyd Howe Independent Ltd (Sixth From Centre),School/college/university,7845,0,,105518,0,,51.17208100000000,36291,313,fsa_enforcement@tandridge.gov.uk,Tandridge,http://www.tandridge.gov.uk/,0.00021700000000,RH7 6PH,2012-06-28,fhrs_5_en-GB,5,,FHRS,0
260398,Hoopers,Moor Lane,,Marsh Green,Hoopers Farm,Retailers - other,4613,5,,105046,5,,51.16655500000000,35996,313,fsa_enforcement@tandridge.gov.uk,Tandridge,http://www.tandridge.gov.uk/,0.03955700000000,TN8 5QU,2012-03-23,fhrs_5_en-GB,5,,FHRS,5
260399,Beadles Lane Church Hall,Beadles Lane,,Oxted,Hopscotch Montessori,Hospitals/Childcare/Caring Premises,5,10,,105719,5,,51.25142300000000,36420,313,fsa_enforcement@tandridge.gov.uk,Tandridge,http://www.tandridge.gov.uk/,-0.01588800000000,RH8 9JJ,2014-06-25,fhrs_3_en-GB,3,,FHRS,10
260400,Horne Park Golf Club,Croydon Barn Lane,,Horne,Horne Park Golf Academy,Restaurant/Cafe/Canteen,1,0,,105316,0,,51.17963700000000,36176,313,fsa_enforcement@tandridge.gov.uk,Tandridge,http://www.tandridge.gov.uk/,-0.07106700000000,RH9 8JP,2015-01-20,fhrs_5_en-GB,5,,FHRS,0
260401,,5 Farleigh Road,,Warlingham,Horseshoe,Pub/bar/nightclub,7843,0,,106235,0,,51.30936400000000,36823,313,fsa_enforcement@tandridge.gov.uk,Tandridge,http://www.tandridge.gov.uk/,-0.05227400000000,CR6 9EG,2014-07-31,fhrs_5_en-GB,5,,FHRS,0
260402,,44-46 High Street,,Godstone,Horsley Catering,Mobile caterer,7846,5,,657419,5,,51.24952900000000,100355,313,fsa_enforcement@tandridge.gov.uk,Tandridge,http://www.tandridge.gov.uk/,-0.06715500000000,RH9 8LW,2014-04-08,fhrs_5_en-GB,5,,FHRS,5
260403,,,,,Horsley's Catering,Mobile caterer,7846,10,,209051,5,,,39395,313,fsa_enforcement@tandridge.gov.uk,Tandridge,http://www.tandridge.gov.uk/,,,2013-06-24,fhrs_4_en-GB,4,,FHRS,0
260404,Quince House,Caxton Lane,,Limpsfield,Hosts Catering,Mobile caterer,7846,0,,105024,0,,51.24562200000000,35983,313,fsa_enforcement@tandridge.gov.uk,Tandridge,http://www.tandridge.gov.uk/,0.03805200000000,RH8 0TD,2013-03-13,fhrs_5_en-GB,5,,FHRS,0
260405,,361 Croydon Road,,Caterham,Hot Spot,Restaurant/Cafe/Canteen,1,30,,401750,15,,51.29564600000000,35727,313,fsa_enforcement@tandridge.gov.uk,Tandridge,http://www.tandridge.gov.uk/,-0.07160200000000,CR3 6PN,2014-03-18,fhrs_0_en-GB,0,,FHRS,15
260406,,,,,Hot Temptations / Oodles Of Noodles/ Hog Roast,Mobile caterer,7846,0,,105579,5,,,36326,313,fsa_enforcement@tandridge.gov.uk,Tandridge,http://www.tandridge.gov.uk/,,,2014-05-11,fhrs_5_en-GB,5,,FHRS,5
260407,,,,,Hot Trotters - Hog Roast Company,Mobile caterer,7846,5,,480652,5,,,100257,313,fsa_enforcement@tandridge.gov.uk,Tandridge,http://www.tandridge.gov.uk/,,,2013-02-21,fhrs_5_en-GB,5,,FHRS,5
260408,Huggetts Day Nursery And Pre School,Eastbourne Road,,Blindley Heath,Huggetts Nursery,School/college/university,7845,5,,104259,5,,51.19546200000000,35461,313,fsa_enforcement@tandridge.gov.uk,Tandridge,http://www.tandridge.gov.uk/,-0.05300200000000,RH7 6JR,2014-02-19,fhrs_5_en-GB,5,,FHRS,5
260409,Hurst Green Railway Station,Greenhurst Lane,,Hurst Green,Hurst Bean,Retailers - other,4613,5,,530351,5,,51.24440300000000,100293,313,fsa_enforcement@tandridge.gov.uk,Tandridge,http://www.tandridge.gov.uk/,0.00395500000000,RH8 0LL,2013-04-26,fhrs_5_en-GB,5,,FHRS,5
260410,Evangelical Church,77 Hurst Green Road,,Hurst Green,Hurst Green Busy Bee Playgroup,Hospitals/Childcare/Caring Premises,5,5,,105806,5,,51.24213600000000,36492,313,fsa_enforcement@tandridge.gov.uk,Tandridge,http://www.tandridge.gov.uk/,0.00451500000000,RH8 9AJ,2013-04-19,fhrs_5_en-GB,5,,FHRS,5
260411,Hurst Green Community Centre,4 Oak Close,,Hurst Green,Hurst Green Community Centre,Other catering premises,7841,5,,105831,5,,51.24365600000000,36505,313,fsa_enforcement@tandridge.gov.uk,Tandridge,http://www.tandridge.gov.uk/,0.00554100000000,RH8 0BA,2008-07-08,fhrs_4_en-GB,4,,FHRS,10
260412,Hurst Green School,Wolfs Wood,,Hurst Green,Hurst Green Primary School,School/college/university,7845,0,,105085,0,,51.24458000000000,36005,313,fsa_enforcement@tandridge.gov.uk,Tandridge,http://www.tandridge.gov.uk/,0.00831800000000,RH8 0HJ,2013-02-27,fhrs_5_en-GB,5,,FHRS,5
260413,,63 Croydon Road,,Caterham,I Sapori Di Sorrento,Restaurant/Cafe/Canteen,1,10,,104597,5,,51.28440400000000,35704,313,fsa_enforcement@tandridge.gov.uk,Tandridge,http://www.tandridge.gov.uk/,-0.07924300000000,CR3 6PD,2014-09-04,fhrs_4_en-GB,4,,FHRS,5
260414,,55 Croydon Road,,Caterham,Imperial Dynasty (I D Restaurant),Restaurant/Cafe/Canteen,1,10,,104578,10,,51.28440400000000,35699,313,fsa_enforcement@tandridge.gov.uk,Tandridge,http://www.tandridge.gov.uk/,-0.07924300000000,CR3 6PD,2014-11-14,fhrs_2_en-GB,2,,FHRS,15
260415,,6 The Green,,Warlingham,India Dining,Restaurant/Cafe/Canteen,1,,,106239,,,51.30937700000000,36828,313,fsa_enforcement@tandridge.gov.uk,Tandridge,http://www.tandridge.gov.uk/,-0.05629100000000,CR6 9NA,2014-05-21,fhrs_4_en-GB,4,,FHRS,
260416,,1b Coneybury,,Bletchingley,India Village,Restaurant/Cafe/Canteen,1,10,,104294,15,,51.23819500000000,35490,313,fsa_enforcement@tandridge.gov.uk,Tandridge,http://www.tandridge.gov.uk/,-0.09389000000000,RH1 4PP,2014-11-28,fhrs_2_en-GB,2,,FHRS,15
260417,The Inn On The Pond,Nutfield Marsh Road,,Nutfield,Inn On The Pond,Pub/bar/nightclub,7843,10,,105659,10,,51.24956400000000,36389,313,fsa_enforcement@tandridge.gov.uk,Tandridge,http://www.tandridge.gov.uk/,-0.13531900000000,RH1 4EU,2013-02-26,fhrs_3_en-GB,3,,FHRS,5
260418,,,,,J & H's,Retailers - other,4613,10,,618829,10,,,100344,313,fsa_enforcement@tandridge.gov.uk,Tandridge,http://www.tandridge.gov.uk/,,,2013-11-20,fhrs_3_en-GB,3,,FHRS,5
260419,,,,,J Burdon,Mobile caterer,7846,10,,105586,5,,,36331,313,fsa_enforcement@tandridge.gov.uk,Tandridge,http://www.tandridge.gov.uk/,,,2010-03-05,fhrs_4_en-GB,4,,FHRS,5
260420,,25 Croydon Road,,Caterham,Jade House Chinese Takeaway,Takeaway/sandwich shop,7844,10,,104554,5,,51.28257300000000,35671,313,fsa_enforcement@tandridge.gov.uk,Tandridge,http://www.tandridge.gov.uk/,-0.07781400000000,CR3 6PA,2013-10-17,fhrs_3_en-GB,3,,FHRS,10
260421,1 The Parade,3 Redehall Road,,Smallfield,James Harris & Son,Manufacturers/packers,7839,5,,106092,5,,51.17185600000000,36733,313,fsa_enforcement@tandridge.gov.uk,Tandridge,http://www.tandridge.gov.uk/,-0.11565200000000,RH6 9PY,2014-12-05,fhrs_4_en-GB,4,,FHRS,10
260422,"Cafe Adjacent, Unit 20",Hobbs Industrial Estate,,Newchapel,Jayne Moore trading as The Cafe,Restaurant/Cafe/Canteen,1,10,,212943,10,,51.15414100000000,39485,313,fsa_enforcement@tandridge.gov.uk,Tandridge,http://www.tandridge.gov.uk/,-0.05692900000000,RH7 6HN,2014-10-02,fhrs_2_en-GB,2,,FHRS,15
260423,"Clubhouse, Sports Ground",Limpsfield Road,,Warlingham,John Fisher Sports Club,Pub/bar/nightclub,7843,20,,106266,10,,51.31504000000000,36848,313,fsa_enforcement@tandridge.gov.uk,Tandridge,http://www.tandridge.gov.uk/,-0.06160500000000,CR6 9RD,2014-03-18,fhrs_1_en-GB,1,,FHRS,10
260424,The Jolly Farmers,Whitewood Lane,,South Godstone,Jolly Farmer,Pub/bar/nightclub,7843,5,,105014,5,,51.18850600000000,35976,313,fsa_enforcement@tandridge.gov.uk,Tandridge,http://www.tandridge.gov.uk/,-0.07613500000000,RH9 8JR,2014-04-25,fhrs_5_en-GB,5,,FHRS,5
260425,,30-32 High Street,,Lingfield,Joyce's With Best Wishes,Restaurant/Cafe/Canteen,1,0,,105456,5,,51.17429600000000,36254,313,fsa_enforcement@tandridge.gov.uk,Tandridge,http://www.tandridge.gov.uk/,-0.01682600000000,RH7 6AA,2014-01-14,fhrs_5_en-GB,5,,FHRS,5
260426,Woldingham Village Institute,Upper Court Road,,Woldingham,Julie's Kitchen,Restaurant/Cafe/Canteen,1,5,,530348,5,,51.28288500000000,100290,313,fsa_enforcement@tandridge.gov.uk,Tandridge,http://www.tandridge.gov.uk/,-0.03218500000000,CR3 7BE,2014-11-14,fhrs_4_en-GB,4,,FHRS,10
260427,,228c Godstone Road,,Whyteleafe,Kebab Master,Retailers - other,4613,10,,106400,10,,51.30932000000000,36958,313,fsa_enforcement@tandridge.gov.uk,Tandridge,http://www.tandridge.gov.uk/,-0.08009700000000,CR3 0EE,2014-04-03,fhrs_3_en-GB,3,,FHRS,10
260428,Marden Lodge School,Croydon Road,,Caterham,Kestrels Children Centre,Hospitals/Childcare/Caring Premises,5,5,,104529,5,,51.29532200000000,35650,313,fsa_enforcement@tandridge.gov.uk,Tandridge,http://www.tandridge.gov.uk/,-0.07104200000000,CR3 6QH,2014-01-10,fhrs_5_en-GB,5,,FHRS,5
260429,,6 The Square,,Caterham,KFC Nexus Foods Limited,Restaurant/Cafe/Canteen,1,0,,104943,5,,51.28220700000000,35926,313,fsa_enforcement@tandridge.gov.uk,Tandridge,http://www.tandridge.gov.uk/,-0.07683900000000,CR3 6QA,2014-01-02,fhrs_4_en-GB,4,,FHRS,10
260430,,74 Station Road East,,Oxted,Kims Limited,Restaurant/Cafe/Canteen,1,5,,105898,5,,51.25780800000000,36570,313,fsa_enforcement@tandridge.gov.uk,Tandridge,http://www.tandridge.gov.uk/,-0.00217000000000,RH8 0PG,2014-01-09,fhrs_4_en-GB,4,,FHRS,10
260431,,34 High Street,,Caterham,King And Queen,Pub/bar/nightclub,7843,5,,104816,5,,51.28666900000000,35846,313,fsa_enforcement@tandridge.gov.uk,Tandridge,http://www.tandridge.gov.uk/,-0.08901500000000,CR3 5UA,2013-03-04,fhrs_5_en-GB,5,,FHRS,5
260432,,213 Croydon Road,,Caterham,King Fish,Takeaway/sandwich shop,7844,5,,104615,5,,51.28975800000000,35723,313,fsa_enforcement@tandridge.gov.uk,Tandridge,http://www.tandridge.gov.uk/,-0.07666700000000,CR3 6PH,2014-10-24,fhrs_5_en-GB,5,,FHRS,5
260433,Kings Lodge,Nutfield Park,,South Nutfield,Kings Lodge (Alum Care Ltd T/A Kings Lodge),Hospitals/Childcare/Caring Premises,5,5,,106117,5,,51.22114600000000,36759,313,fsa_enforcement@tandridge.gov.uk,Tandridge,http://www.tandridge.gov.uk/,-0.12347900000000,RH1 5PA,2014-10-20,fhrs_5_en-GB,5,,FHRS,5
260434,Rosedene Nurseries,Woldingham Road,,Woldingham,Knights Garden Centre,Retailers - other,4613,5,,106488,5,,51.29560400000000,37004,313,fsa_enforcement@tandridge.gov.uk,Tandridge,http://www.tandridge.gov.uk/,-0.05222500000000,CR3 7LA,2013-03-04,fhrs_5_en-GB,5,,FHRS,5
260435,,403-407 Limpsfield Road,,Warlingham,Kwiksave,Retailers - other,4613,10,,189151,5,,51.30995000000000,39393,313,fsa_enforcement@tandridge.gov.uk,Tandridge,http://www.tandridge.gov.uk/,-0.05564900000000,CR6 9HA,2014-07-23,fhrs_4_en-GB,4,,FHRS,5
260436,,2 The Green,,Warlingham,La Botija,Pub/bar/nightclub,7843,10,,106237,10,,51.30937700000000,36825,313,fsa_enforcement@tandridge.gov.uk,Tandridge,http://www.tandridge.gov.uk/,-0.05629100000000,CR6 9NA,2013-11-08,fhrs_3_en-GB,3,,FHRS,10
260437,The Ladybird,Guards Avenue,,Caterham,Ladybird,Restaurant/Cafe/Canteen,1,10,,104481,5,,51.29058000000000,35616,313,fsa_enforcement@tandridge.gov.uk,Tandridge,http://www.tandridge.gov.uk/,-0.10282200000000,CR3 5XL,2015-01-15,fhrs_4_en-GB,4,,FHRS,5
260438,The Lagham,Eastbourne Road,,South Godstone,Lal Akash (Indian Restaurant),Restaurant/Cafe/Canteen,1,10,,106031,5,,51.21959800000000,36683,313,fsa_enforcement@tandridge.gov.uk,Tandridge,http://www.tandridge.gov.uk/,-0.04863300000000,RH9 8EZ,2014-09-10,fhrs_3_en-GB,3,,FHRS,10
260439,,25 High Street,,Bletchingley,Lamingtons,Restaurant/Cafe/Canteen,1,5,,104311,5,,51.24049100000000,35501,313,fsa_enforcement@tandridge.gov.uk,Tandridge,http://www.tandridge.gov.uk/,-0.10070000000000,RH1 4PB,2014-11-17,fhrs_4_en-GB,4,,FHRS,10
260440,,41 Town End,,Caterham,Laurels Childrens Day Nursery,Hospitals/Childcare/Caring Premises,5,0,,104965,0,,51.28914500000000,35941,313,fsa_enforcement@tandridge.gov.uk,Tandridge,http://www.tandridge.gov.uk/,-0.08869700000000,CR3 5UJ,2013-09-04,fhrs_5_en-GB,5,,FHRS,0
260441,,,,,Let There Be Cake by Leanne,Retailers - other,4613,5,,589697,5,,,100331,313,fsa_enforcement@tandridge.gov.uk,Tandridge,http://www.tandridge.gov.uk/,,,2013-09-30,fhrs_5_en-GB,5,,FHRS,5
260442,Holland Field,Holland Road,,Hurst Green,Lifeline Fitness Centre,Pub/bar/nightclub,7843,5,,105779,5,,51.23372400000000,36473,313,fsa_enforcement@tandridge.gov.uk,Tandridge,http://www.tandridge.gov.uk/,0.00995100000000,RH8 9BQ,2012-06-18,fhrs_5_en-GB,5,,FHRS,0
260443,Limpsfield C Of E School,Westerham Road,,Limpsfield,Limpsfield C Of E Primary School,School/college/university,7845,5,,105355,5,,51.25610300000000,36197,313,fsa_enforcement@tandridge.gov.uk,Tandridge,http://www.tandridge.gov.uk/,0.01856600000000,RH8 0EA,2015-01-12,fhrs_5_en-GB,5,,FHRS,5
260444,Limpsfield Chart Golf Club,Westerham Road,,Limpsfield,Limpsfield Chart Golf Club,Pub/bar/nightclub,7843,5,,105349,5,,51.25657100000000,36194,313,fsa_enforcement@tandridge.gov.uk,Tandridge,http://www.tandridge.gov.uk/,0.02376000000000,RH8 0SL,2014-01-30,fhrs_5_en-GB,5,,FHRS,5
260445,,89 Bluehouse Lane,,Limpsfield,Limpsfield Grange School,School/college/university,7845,5,,105022,5,,51.26220200000000,35982,313,fsa_enforcement@tandridge.gov.uk,Tandridge,http://www.tandridge.gov.uk/,0.01067700000000,RH8 0RZ,2014-02-26,fhrs_5_en-GB,5,,FHRS,5
260446,Limpsfield Lawn Tennis Club,Detillens Lane,,Limpsfield,Limpsfield Lawn Tennis Club,Pub/bar/nightclub,7843,10,,105025,5,,51.25810000000000,35984,313,fsa_enforcement@tandridge.gov.uk,Tandridge,http://www.tandridge.gov.uk/,0.00862100000000,RH8 0DH,2014-09-12,fhrs_4_en-GB,4,,FHRS,5
260447,2 The Parade,Westmore Green,,Tatsfield,Lindas Stores,Retailers - other,4613,10,,106207,5,,51.29344700000000,36807,313,fsa_enforcement@tandridge.gov.uk,Tandridge,http://www.tandridge.gov.uk/,0.02509400000000,TN16 2AQ,2014-06-05,fhrs_4_en-GB,4,,FHRS,5
260448,Lindley House,Lindley Road,,Godstone,Lindley Stores,Retailers - other,4613,20,,105287,10,,51.25403200000000,36159,313,fsa_enforcement@tandridge.gov.uk,Tandridge,http://www.tandridge.gov.uk/,-0.06594900000000,RH9 8AS,2013-08-30,fhrs_1_en-GB,1,,FHRS,10
260449,Lingfield & Dormansland Community Centre,High Street,,Lingfield,Lingfield & Dormansland Community Centre,Other catering premises,7841,5,,105427,5,,51.17497400000000,36238,313,fsa_enforcement@tandridge.gov.uk,Tandridge,http://www.tandridge.gov.uk/,-0.01543800000000,RH7 6AB,2014-06-23,fhrs_5_en-GB,5,,FHRS,5
260450,Cricket Ground,West Park Road,,Newchapel,Lingfield Cricket Club,Pub/bar/nightclub,7843,,,189121,,,51.15491900000000,36318,313,fsa_enforcement@tandridge.gov.uk,Tandridge,http://www.tandridge.gov.uk/,-0.07242700000000,RH7 6HT,2013-07-29,fhrs_exempt_en-GB,Exempt,,FHRS,
260451,1 New Buildings,Newchapel Road,,Lingfield,Lingfield Fish & Chips,Takeaway/sandwich shop,7844,5,,105498,5,,51.17477700000000,36278,313,fsa_enforcement@tandridge.gov.uk,Tandridge,http://www.tandridge.gov.uk/,-0.02028200000000,RH7 6BA,2014-10-01,fhrs_5_en-GB,5,,FHRS,5
260452,Lingfield Day Centre,High Street,,Lingfield,Lingfield Meals on Wheels,Other catering premises,7841,5,,352766,5,,51.17497400000000,39818,313,fsa_enforcement@tandridge.gov.uk,Tandridge,http://www.tandridge.gov.uk/,-0.01543800000000,RH7 6AB,2014-09-08,fhrs_5_en-GB,5,,FHRS,5
260453,"Barn, Bank Farm",The Common,,Blindley Heath,Lingfield Nursery School,Hospitals/Childcare/Caring Premises,5,5,,104276,5,,51.19069300000000,35475,313,fsa_enforcement@tandridge.gov.uk,Tandridge,http://www.tandridge.gov.uk/,-0.04746400000000,RH7 6LH,2014-06-04,fhrs_5_en-GB,5,,FHRS,5
260454,Lingfield Park Racecourse,Racecourse Road,,Lingfield,Lingfield Park Marriott Hotel And Country Club,Hotel/bed & breakfast/guest house,7842,5,,105527,5,,51.17017500000000,36298,313,fsa_enforcement@tandridge.gov.uk,Tandridge,http://www.tandridge.gov.uk/,-0.00136800000000,RH7 6PQ,2013-10-25,fhrs_5_en-GB,5,,FHRS,5
260455,"Pavilion, Godstone Road Playing Field",Godstone Road,,Lingfield,Lingfield Sports Assoc,Pub/bar/nightclub,7843,10,,105411,10,,51.18071800000000,36226,313,fsa_enforcement@tandridge.gov.uk,Tandridge,http://www.tandridge.gov.uk/,-0.03178900000000,RH7 6JG,2013-11-01,fhrs_3_en-GB,3,,FHRS,10
260456,The John Flamsteed Hall,Church Road,,Burstow,Little House Montessori Nursery School,Hospitals/Childcare/Caring Premises,5,5,,104379,5,,51.15832700000000,35537,313,fsa_enforcement@tandridge.gov.uk,Tandridge,http://www.tandridge.gov.uk/,-0.12269600000000,RH6 9RG,2013-09-26,fhrs_5_en-GB,5,,FHRS,5
260457,,62 Croydon Road,,Caterham,Little India,Takeaway/sandwich shop,7844,5,,104594,5,,51.28343100000000,35703,313,fsa_enforcement@tandridge.gov.uk,Tandridge,http://www.tandridge.gov.uk/,-0.07803600000000,CR3 6QB,2014-01-23,fhrs_4_en-GB,4,,FHRS,10
260458,The Old Naafi,Weston Drive,,Caterham,Little Treasures Pre School & Nursery,Hospitals/Childcare/Caring Premises,5,5,,104493,5,,51.29219000000000,35629,313,fsa_enforcement@tandridge.gov.uk,Tandridge,http://www.tandridge.gov.uk/,-0.10668600000000,CR3 5XY,2014-02-20,fhrs_5_en-GB,5,,FHRS,5
260459,,46-48 The Green,,Warlingham,Lloyds Pharmacy,Retailers - other,4613,,,189140,,,51.30937700000000,36838,313,fsa_enforcement@tandridge.gov.uk,Tandridge,http://www.tandridge.gov.uk/,-0.05629100000000,CR6 9NA,2014-05-15,fhrs_exempt_en-GB,Exempt,,FHRS,
260460,,222 Pollards Oak Road,,Hurst Green,Londis,Retailers - other,4613,10,,105843,10,,51.24311900000000,36511,313,fsa_enforcement@tandridge.gov.uk,Tandridge,http://www.tandridge.gov.uk/,0.00642100000000,RH8 0JP,2014-02-04,fhrs_3_en-GB,3,,FHRS,10
260461,,1 Wheelers Lane,,Smallfield,Londis,Retailers - other,4613,5,,106111,5,,51.17173200000000,36750,313,fsa_enforcement@tandridge.gov.uk,Tandridge,http://www.tandridge.gov.uk/,-0.11857600000000,RH6 9PT,2013-07-31,fhrs_5_en-GB,5,,FHRS,5
260462,,97 Hurst Green Road,,Hurst Green,Londis,Retailers - other,4613,10,,105803,10,,51.24040100000000,36490,313,fsa_enforcement@tandridge.gov.uk,Tandridge,http://www.tandridge.gov.uk/,0.00710500000000,RH8 9AP,2013-09-04,fhrs_3_en-GB,3,,FHRS,10
260463,,209a Godstone Road,,Whyteleafe,Londis,Retailers - other,4613,5,,106390,10,,51.30924900000000,36949,313,fsa_enforcement@tandridge.gov.uk,Tandridge,http://www.tandridge.gov.uk/,-0.07965500000000,CR3 0EL,2014-01-07,fhrs_3_en-GB,3,,FHRS,10
260464,,46 High Street,,Bletchingley,Longhurst,Retailers - other,4613,10,,104317,15,,51.24087400000000,35505,313,fsa_enforcement@tandridge.gov.uk,Tandridge,http://www.tandridge.gov.uk/,-0.10154400000000,RH1 4PA,2013-10-21,fhrs_2_en-GB,2,,FHRS,10
260465,Longmead House,1 Buxton Lane,,Caterham,Longmead Residential Home,Hospitals/Childcare/Caring Premises,5,5,,104412,5,,51.29189700000000,35558,313,fsa_enforcement@tandridge.gov.uk,Tandridge,http://www.tandridge.gov.uk/,-0.09033300000000,CR3 5HG,2013-08-15,fhrs_5_en-GB,5,,FHRS,5
260466,,22 Godstone Road,,Lingfield,Louloujane,Restaurant/Cafe/Canteen,1,5,,618827,10,,51.17574000000000,100341,313,fsa_enforcement@tandridge.gov.uk,Tandridge,http://www.tandridge.gov.uk/,-0.02081300000000,RH7 6BW,2014-09-04,fhrs_3_en-GB,3,,FHRS,10
260467,,,,,Loving Hut Vegan Express,Mobile caterer,7846,30,,657425,10,,,79859,313,fsa_enforcement@tandridge.gov.uk,Tandridge,http://www.tandridge.gov.uk/,,,2014-04-30,fhrs_0_en-GB,0,,FHRS,5
260468,,,,,Makeup Masterclass with Lunch,Restaurant/Cafe/Canteen,1,5,,631791,5,,,64272,313,fsa_enforcement@tandridge.gov.uk,Tandridge,http://www.tandridge.gov.uk/,,,2014-01-16,fhrs_5_en-GB,5,,FHRS,5
260469,Stantons Hall Farm,Eastbourne Road,,Blindley Heath,Mallards Tea Rooms,Restaurant/Cafe/Canteen,1,5,,727160,5,,51.18250500000000,100389,313,fsa_enforcement@tandridge.gov.uk,Tandridge,http://www.tandridge.gov.uk/,-0.04394700000000,RH7 6LG,2014-12-05,fhrs_5_en-GB,5,,FHRS,5
260470,,,,,Manti,Retailers - other,4613,10,,705146,10,,,57577,313,fsa_enforcement@tandridge.gov.uk,Tandridge,http://www.tandridge.gov.uk/,,,2014-09-17,fhrs_3_en-GB,3,,FHRS,10
260471,,38 Station Road East,,Oxted,Maple Lounge,Restaurant/Cafe/Canteen,1,10,,105872,10,,51.25780800000000,36543,313,fsa_enforcement@tandridge.gov.uk,Tandridge,http://www.tandridge.gov.uk/,-0.00217000000000,RH8 0PG,2015-01-13,fhrs_3_en-GB,3,,FHRS,10
260472,Marden Lodge School,Croydon Road,,Caterham,Marden Lodge School,School/college/university,7845,5,,104522,5,,51.29532200000000,35649,313,fsa_enforcement@tandridge.gov.uk,Tandridge,http://www.tandridge.gov.uk/,-0.07104200000000,CR3 6QH,2014-09-18,fhrs_5_en-GB,5,,FHRS,5
260473,The Jolly Farmers,Whitewood Lane,,South Godstone,Marelli Management @ Jolly Farmer,Restaurant/Cafe/Canteen,1,10,,631789,10,,51.18850600000000,100352,313,fsa_enforcement@tandridge.gov.uk,Tandridge,http://www.tandridge.gov.uk/,-0.07613500000000,RH9 8JR,2014-01-10,fhrs_3_en-GB,3,,FHRS,10
260474,,31 High Street,,Lingfield,Martins,Retailers - other,4613,10,,105457,10,,51.17429600000000,36255,313,fsa_enforcement@tandridge.gov.uk,Tandridge,http://www.tandridge.gov.uk/,-0.01682600000000,RH7 6AA,2013-07-03,fhrs_3_en-GB,3,,FHRS,10
260475,,,,,Mary Skinner Catering,Mobile caterer,7846,10,,189055,15,,,36668,313,fsa_enforcement@tandridge.gov.uk,Tandridge,http://www.tandridge.gov.uk/,,,2014-10-13,fhrs_2_en-GB,2,,FHRS,15
260476,,82 Croydon Road,,Caterham,Masala Grill,Takeaway/sandwich shop,7844,20,,335193,15,,51.28562100000000,35712,313,fsa_enforcement@tandridge.gov.uk,Tandridge,http://www.tandridge.gov.uk/,-0.07883400000000,CR3 6QD,2014-03-25,fhrs_1_en-GB,1,,FHRS,10
260477,"Clacket Lane Services, Motorway Service",Clacket Lane,,Westerham,Mcdonalds,Restaurant/Cafe/Canteen,1,5,,106359,5,,51.27102300000000,36922,313,fsa_enforcement@tandridge.gov.uk,Tandridge,http://www.tandridge.gov.uk/,0.03985000000000,TN16 2ER,2013-03-27,fhrs_5_en-GB,5,,FHRS,5
260478,"Clacket Lane Services, Motorway Service",Clacket Lane,,Westerham,Mcdonalds,Restaurant/Cafe/Canteen,1,5,,106363,5,,51.27102300000000,36926,313,fsa_enforcement@tandridge.gov.uk,Tandridge,http://www.tandridge.gov.uk/,0.03985000000000,TN16 2ER,2013-03-27,fhrs_5_en-GB,5,,FHRS,5
260479,,23 Granville Road,,Limpsfield,Meads Bed & Breakfast,Hotel/bed & breakfast/guest house,7842,5,,105756,5,,51.25963500000000,36455,313,fsa_enforcement@tandridge.gov.uk,Tandridge,http://www.tandridge.gov.uk/,0.00408700000000,RH8 0BX,2014-07-16,fhrs_5_en-GB,5,,FHRS,5
260480,Memorial Stores,High Street,,Limpsfield,Memorial Stores - T/A Limpsfield Village Store Ass,Retailers - other,4613,10,,105040,5,,51.25812400000000,35991,313,fsa_enforcement@tandridge.gov.uk,Tandridge,http://www.tandridge.gov.uk/,0.01402500000000,RH8 0DT,2013-03-12,fhrs_4_en-GB,4,,FHRS,5
260481,,,,,Miche's Kitchen,Retailers - other,4613,5,,209047,5,,,39487,313,fsa_enforcement@tandridge.gov.uk,Tandridge,http://www.tandridge.gov.uk/,,,2013-12-09,fhrs_5_en-GB,5,,FHRS,5
260482,Middle West,Lower South Park,,South Godstone,Middle West Res Care Home,Hospitals/Childcare/Caring Premises,5,0,,106028,0,,51.20592300000000,36680,313,fsa_enforcement@tandridge.gov.uk,Tandridge,http://www.tandridge.gov.uk/,-0.07812900000000,RH9 8LF,2012-08-01,fhrs_5_en-GB,5,,FHRS,0
260483,,,,,Mini Pick 'N' Mix,Retailers - other,4613,,,733863,,,,51848,313,fsa_enforcement@tandridge.gov.uk,Tandridge,http://www.tandridge.gov.uk/,,,,fhrs_awaitinginspection_en-GB,AwaitingInspection,,FHRS,
260484,"Offices, Oxted Community Hall",53 Church Lane,,Oxted,Monday Market,Restaurant/Cafe/Canteen,1,10,,105737,10,,51.25857900000000,36439,313,fsa_enforcement@tandridge.gov.uk,Tandridge,http://www.tandridge.gov.uk/,-0.00728200000000,RH8 9NB,2013-10-21,fhrs_3_en-GB,3,,FHRS,5
260485,Moorhouse School,Mill Lane,,Hurst Green,Moor House School Trust,School/college/university,7845,5,,105811,5,,51.24208400000000,36498,313,fsa_enforcement@tandridge.gov.uk,Tandridge,http://www.tandridge.gov.uk/,0.00018600000000,RH8 9AQ,2014-10-16,fhrs_5_en-GB,5,,FHRS,5
260486,,,,,Movers and Shakers,Mobile caterer,7846,,,668365,,,,100365,313,fsa_enforcement@tandridge.gov.uk,Tandridge,http://www.tandridge.gov.uk/,,,,fhrs_awaitinginspection_en-GB,AwaitingInspection,,FHRS,
260487,Layby Eastbound,Westerham Road,,Westerham,Mr Colin Curtis,Mobile caterer,7846,10,,105595,5,,51.26178400000000,36336,313,fsa_enforcement@tandridge.gov.uk,Tandridge,http://www.tandridge.gov.uk/,0.04569000000000,TN16 2EU,2013-07-23,fhrs_4_en-GB,4,,FHRS,5
260488,,,,,Muddy Boots Farm,Farmers/growers,7838,10,,486848,5,,,100273,313,fsa_enforcement@tandridge.gov.uk,Tandridge,http://www.tandridge.gov.uk/,,,2013-03-27,fhrs_4_en-GB,4,,FHRS,5
260489,,20a High Street,,Caterham,My Fair Vintage,Restaurant/Cafe/Canteen,1,10,,605097,10,,51.28666900000000,54844,313,fsa_enforcement@tandridge.gov.uk,Tandridge,http://www.tandridge.gov.uk/,-0.08901500000000,CR3 5UA,2013-11-08,fhrs_3_en-GB,3,,FHRS,10
260490,4 New Buildings,Newchapel Road,,Lingfield,New Century Chinese,Takeaway/sandwich shop,7844,20,,105491,15,,51.17477700000000,36273,313,fsa_enforcement@tandridge.gov.uk,Tandridge,http://www.tandridge.gov.uk/,-0.02028200000000,RH7 6BA,2014-04-10,fhrs_1_en-GB,1,,FHRS,10
260491,,86a Limpsfield Road,,Warlingham,New Wonderful,Takeaway/sandwich shop,7844,5,,106286,5,,51.31793400000000,36867,313,fsa_enforcement@tandridge.gov.uk,Tandridge,http://www.tandridge.gov.uk/,-0.06363500000000,CR6 9RA,2014-10-31,fhrs_5_en-GB,5,,FHRS,5
260492,Layby Northbound,Godstone Road,,Caterham,Nick The Nosh,Mobile caterer,7846,5,,105625,5,,51.27848500000000,36352,313,fsa_enforcement@tandridge.gov.uk,Tandridge,http://www.tandridge.gov.uk/,-0.07526000000000,CR3 6RF,2013-06-25,fhrs_5_en-GB,5,,FHRS,5
260493,Scout Hut,Mint Walk,,Warlingham,Nippertime Preschool Nursery,School/college/university,7845,5,,106463,5,,51.31025200000000,36999,313,fsa_enforcement@tandridge.gov.uk,Tandridge,http://www.tandridge.gov.uk/,-0.05322600000000,CR6 9SA,2014-10-01,fhrs_5_en-GB,5,,FHRS,5
260494,,182-184 Coulsdon Road,,Caterham,Nisa Local,Retailers - other,4613,5,,104512,5,,51.29242500000000,35642,313,fsa_enforcement@tandridge.gov.uk,Tandridge,http://www.tandridge.gov.uk/,-0.10181400000000,CR3 5ND,2014-12-10,fhrs_4_en-GB,4,,FHRS,10
260495,,,,,No-No's,Retailers - other,4613,10,,508476,10,,,100284,313,fsa_enforcement@tandridge.gov.uk,Tandridge,http://www.tandridge.gov.uk/,,,2013-03-26,fhrs_3_en-GB,3,,FHRS,10
260496,North Downs Golf Club,Northdown Road,,Woldingham,North Downs Golf Club Limited - Bar,Pub/bar/nightclub,7843,5,,106456,5,,51.27680900000000,36993,313,fsa_enforcement@tandridge.gov.uk,Tandridge,http://www.tandridge.gov.uk/,-0.03288900000000,CR3 7AA,2013-03-13,fhrs_5_en-GB,5,,FHRS,5
260497,,46 Tupwood Lane,,Caterham,North Downs Hospital,Hospitals/Childcare/Caring Premises,5,5,,104968,10,,51.27355800000000,35945,313,fsa_enforcement@tandridge.gov.uk,Tandridge,http://www.tandridge.gov.uk/,-0.07917900000000,CR3 6DP,2014-01-29,fhrs_4_en-GB,4,,FHRS,5
260498,Nutfield Church Primary School,Mid Street,,South Nutfield,Nutfield C Of E Primary School,School/college/university,7845,5,,106140,5,,51.22930800000000,36772,313,fsa_enforcement@tandridge.gov.uk,Tandridge,http://www.tandridge.gov.uk/,-0.13055200000000,RH1 4JJ,2014-09-11,fhrs_5_en-GB,5,,FHRS,5
260499,Nutfield Cricket Ground,Nutfield Marsh Road,,Nutfield,Nutfield Cricket Club,Pub/bar/nightclub,7843,,,189051,,,51.24756300000000,36390,313,fsa_enforcement@tandridge.gov.uk,Tandridge,http://www.tandridge.gov.uk/,-0.13842300000000,RH1 4ES,2013-06-26,fhrs_exempt_en-GB,Exempt,,FHRS,
260500,"Day Nursery, Evelyns",Church Hill,,Nutfield,Nutfield Day Nursery,Hospitals/Childcare/Caring Premises,5,5,,105654,5,,51.24068700000000,36383,313,fsa_enforcement@tandridge.gov.uk,Tandridge,http://www.tandridge.gov.uk/,-0.12507600000000,RH1 4JA,2013-09-02,fhrs_5_en-GB,5,,FHRS,0
260501,Nutfield Priory Hotel,Nutfield Road,,Nutfield,Nutfield Priory Hotel,Hotel/bed & breakfast/guest house,7842,0,,105667,0,,51.23575900000000,36392,313,fsa_enforcement@tandridge.gov.uk,Tandridge,http://www.tandridge.gov.uk/,-0.14199400000000,RH1 4EL,2014-07-22,fhrs_5_en-GB,5,,FHRS,0
260502,,68 High Street,,Caterham,Oak Cafe,Restaurant/Cafe/Canteen,1,10,,189105,10,,51.28552500000000,39363,313,fsa_enforcement@tandridge.gov.uk,Tandridge,http://www.tandridge.gov.uk/,-0.08837400000000,CR3 5UB,2014-08-27,fhrs_3_en-GB,3,,FHRS,10
260503,Oakhurst Court Nursing Home,Tilburstow Hill Road,,South Godstone,Oakhurst Court Nursing Home,Hospitals/Childcare/Caring Premises,5,5,,106063,5,,51.21862500000000,36702,313,fsa_enforcement@tandridge.gov.uk,Tandridge,http://www.tandridge.gov.uk/,-0.06040200000000,RH9 8JY,2015-01-05,fhrs_5_en-GB,5,,FHRS,5
260504,,160 Stanstead Road,,Caterham,Oakhyrst Grange School,School/college/university,7845,0,,104931,5,,51.27233500000000,35918,313,fsa_enforcement@tandridge.gov.uk,Tandridge,http://www.tandridge.gov.uk/,-0.09792500000000,CR3 6AF,2013-10-08,fhrs_5_en-GB,5,,FHRS,5
260505,Oakleigh,Evelyn Gardens,,Godstone,Oakleigh,Hospitals/Childcare/Caring Premises,5,5,,105226,0,,51.25292600000000,36118,313,fsa_enforcement@tandridge.gov.uk,Tandridge,http://www.tandridge.gov.uk/,-0.06429000000000,RH9 8BD,2013-08-16,fhrs_5_en-GB,5,,FHRS,0
260506,Godstone Baptist Church,Godstone Hill,,Godstone,Oasis (Godstone Baptist Church),Restaurant/Cafe/Canteen,1,0,,105243,0,,51.25342000000000,36130,313,fsa_enforcement@tandridge.gov.uk,Tandridge,http://www.tandridge.gov.uk/,-0.06697800000000,RH9 8AJ,2012-09-11,fhrs_5_en-GB,5,,FHRS,0
260507,Nursery South Side,Lingfield Common Road,,Lingfield,Occasionally Yours Farm Shop,Retailers - other,4613,5,,105469,5,,51.18353100000000,36265,313,fsa_enforcement@tandridge.gov.uk,Tandridge,http://www.tandridge.gov.uk/,-0.01995000000000,RH7 6BZ,2012-02-15,fhrs_5_en-GB,5,,FHRS,5
260508,Brook Nursery,Eastbourne Road,,South Godstone,Occasionally Yours Farm Shop & Cafe,Restaurant/Cafe/Canteen,1,5,,445824,5,,51.21465700000000,100240,313,fsa_enforcement@tandridge.gov.uk,Tandridge,http://www.tandridge.gov.uk/,-0.05107500000000,RH9 8JB,2014-02-07,fhrs_4_en-GB,4,,FHRS,10
260509,The Diamond,Holland Road,,Hurst Green,O'Connors Kitchen,Pub/bar/nightclub,7843,10,,621318,10,,51.23372400000000,100350,313,fsa_enforcement@tandridge.gov.uk,Tandridge,http://www.tandridge.gov.uk/,0.00995100000000,RH8 9BQ,2014-01-07,fhrs_3_en-GB,3,,FHRS,10
260510,The Bakery,Westmore Green,,Tatsfield,Old Bakery,Restaurant/Cafe/Canteen,1,5,,106206,5,,51.29347200000000,36806,313,fsa_enforcement@tandridge.gov.uk,Tandridge,http://www.tandridge.gov.uk/,0.02468000000000,TN16 2AG,2013-05-08,fhrs_4_en-GB,4,,FHRS,10
260511,,68 High Street,,Oxted,Old Bell Ph,Pub/bar/nightclub,7843,5,,105771,5,,51.25277600000000,36467,313,fsa_enforcement@tandridge.gov.uk,Tandridge,http://www.tandridge.gov.uk/,-0.01561500000000,RH8 9LP,2013-07-17,fhrs_4_en-GB,4,,FHRS,10
260512,The Old Cage,Plaistow Street,,Lingfield,Old Cage Ph,Pub/bar/nightclub,7843,5,,105512,5,,51.17466500000000,36284,313,fsa_enforcement@tandridge.gov.uk,Tandridge,http://www.tandridge.gov.uk/,-0.01950000000000,RH7 6AU,2013-01-16,fhrs_4_en-GB,4,,FHRS,10
260513,"Pavilion, Rugby Field",Park Avenue,,Caterham,Old Caterhamians R F C,Pub/bar/nightclub,7843,5,,104878,0,,51.28036400000000,35883,313,fsa_enforcement@tandridge.gov.uk,Tandridge,http://www.tandridge.gov.uk/,-0.09063900000000,CR3 6AH,2013-11-04,fhrs_5_en-GB,5,,FHRS,0
260514,The Old Forge Deli Cafe,Godstone Green,,Godstone,Old Forge Deli Cafe,Restaurant/Cafe/Canteen,1,5,,105245,5,,51.24807400000000,36133,313,fsa_enforcement@tandridge.gov.uk,Tandridge,http://www.tandridge.gov.uk/,-0.06728800000000,RH9 8DZ,2013-07-29,fhrs_5_en-GB,5,,FHRS,5
260515,Old House at Home,63-65 West Street,,Dormansland,Old House at Home,Pub/bar/nightclub,7843,5,,621319,0,,51.16331500000000,37581,313,fsa_enforcement@tandridge.gov.uk,Tandridge,http://www.tandridge.gov.uk/,0.00375700000000,RH7 6QP,2014-01-28,fhrs_5_en-GB,5,,FHRS,5
260516,,Effingham Road,,Copthorne,Old House Inn,Restaurant/Cafe/Canteen,1,5,,105110,5,,51.15104700000000,36029,313,fsa_enforcement@tandridge.gov.uk,Tandridge,http://www.tandridge.gov.uk/,-0.10626200000000,RH10 3JB,2014-07-18,fhrs_4_en-GB,4,,FHRS,10
260517,,4 The Square,,Caterham,Old Surrey Hounds,Pub/bar/nightclub,7843,5,,104942,0,,51.28220700000000,35925,313,fsa_enforcement@tandridge.gov.uk,Tandridge,http://www.tandridge.gov.uk/,-0.07683900000000,CR3 6QA,2013-03-21,fhrs_5_en-GB,5,,FHRS,5
260518,,22a High Street,,Caterham,Olivi,Restaurant/Cafe/Canteen,1,5,,104805,5,,51.28666900000000,35839,313,fsa_enforcement@tandridge.gov.uk,Tandridge,http://www.tandridge.gov.uk/,-0.08901500000000,CR3 5UA,2014-12-11,fhrs_4_en-GB,4,,FHRS,10
260519,,39 Holland Road,,Hurst Green,One Stop Shop,Retailers - other,4613,5,,105778,5,,51.23914200000000,36472,313,fsa_enforcement@tandridge.gov.uk,Tandridge,http://www.tandridge.gov.uk/,0.00760900000000,RH8 9AU,2014-11-27,fhrs_5_en-GB,5,,FHRS,5
260520,Orchard Court,33 East Grinstead Road,,Lingfield,Orchard Court,Hospitals/Childcare/Caring Premises,5,0,,105408,5,,51.17292200000000,36221,313,fsa_enforcement@tandridge.gov.uk,Tandridge,http://www.tandridge.gov.uk/,-0.01744300000000,RH7 6ET,2014-08-12,fhrs_4_en-GB,4,,FHRS,10
260521,Reservoir,North Park Lane,,Godstone,Outdoor Leisure Pursuits Limited,Restaurant/Cafe/Canteen,1,5,,605092,10,,51.25528200000000,100328,313,fsa_enforcement@tandridge.gov.uk,Tandridge,http://www.tandridge.gov.uk/,-0.07852200000000,RH9 8ND,2013-10-04,fhrs_3_en-GB,3,,FHRS,10
260522,"Shop, Aberdeen House",Brickfield Road,,Outwood,Outwood Butchers Shop,Manufacturers/packers,7839,,,105670,,,51.19616400000000,36394,313,fsa_enforcement@tandridge.gov.uk,Tandridge,http://www.tandridge.gov.uk/,-0.10673200000000,RH1 5PX,2014-10-22,fhrs_4_en-GB,4,,FHRS,
260523,,25 Bluehouse Lane,,Oxted,Oxted & Limpsfield Barn Theatre,Pub/bar/nightclub,7843,0,,105725,0,,51.25990900000000,36426,313,fsa_enforcement@tandridge.gov.uk,Tandridge,http://www.tandridge.gov.uk/,-0.00410000000000,RH8 0AA,2013-02-18,fhrs_5_en-GB,5,,FHRS,0
260524,,91 Station Road East,,Oxted,Oxted Charcoal Grill,Takeaway/sandwich shop,7844,0,,105912,5,,51.25763100000000,36585,313,fsa_enforcement@tandridge.gov.uk,Tandridge,http://www.tandridge.gov.uk/,-0.00286500000000,RH8 0AX,2013-09-17,fhrs_5_en-GB,5,,FHRS,0
260525,,33 Bluehouse Lane,,Oxted,Oxted County School - Caterlink,School/college/university,7845,5,,105726,5,,51.26015500000000,36427,313,fsa_enforcement@tandridge.gov.uk,Tandridge,http://www.tandridge.gov.uk/,-0.00162400000000,RH8 0AB,2013-07-10,fhrs_4_en-GB,4,,FHRS,10
260526,,75 Station Road East,,Oxted,Oxted Health Foods,Retailers - other,4613,5,,189264,5,,51.25763100000000,36572,313,fsa_enforcement@tandridge.gov.uk,Tandridge,http://www.tandridge.gov.uk/,-0.00286500000000,RH8 0AX,2012-05-04,fhrs_5_en-GB,5,,FHRS,5
260527,,4 Hoskins Walk,,Oxted,Oxted Inn,Pub/bar/nightclub,7843,0,,105794,0,,51.25751700000000,36483,313,fsa_enforcement@tandridge.gov.uk,Tandridge,http://www.tandridge.gov.uk/,-0.00459000000000,RH8 9HR,2014-01-21,fhrs_5_en-GB,5,,FHRS,5
260528,,2-52 Bluehouse Lane,,Oxted,Oxted Lunch Club,Pub/bar/nightclub,7843,5,,105722,10,,51.25952200000000,36423,313,fsa_enforcement@tandridge.gov.uk,Tandridge,http://www.tandridge.gov.uk/,-0.00460400000000,RH8 0AD,2014-09-03,fhrs_3_en-GB,3,,FHRS,10
260529,,13 Station Road West,,Oxted,Oxted Mpso (Post Office),Retailers - other,4613,,,189097,,,51.25763400000000,36632,313,fsa_enforcement@tandridge.gov.uk,Tandridge,http://www.tandridge.gov.uk/,-0.00566000000000,RH8 9EE,2012-04-25,fhrs_exempt_en-GB,Exempt,,FHRS,
260530,Chelsham Place,Limpsfield Road,,Warlingham,Pantry Coffee Shop,Restaurant/Cafe/Canteen,1,5,,106275,5,,51.30696100000000,36852,313,fsa_enforcement@tandridge.gov.uk,Tandridge,http://www.tandridge.gov.uk/,-0.04137100000000,CR6 9DZ,2014-01-23,fhrs_4_en-GB,4,,FHRS,10
260531,,,,,Paprikash Foods,Manufacturers/packers,7839,10,,710664,10,,,52775,313,fsa_enforcement@tandridge.gov.uk,Tandridge,http://www.tandridge.gov.uk/,,,2014-12-18,fhrs_3_en-GB,3,,FHRS,10
