,businessname,ratingvalue,structural,hygiene,confidenceinmanagement,ratingdate,latitude,longitude
357346,5ives Barnsley,5,0,0,0,2012-11-02,53.537282,-1.448616
357347,8oz Burger Co,3,10,10,5,2014-08-20,53.553478,-1.480571
357348,9 Sweet Celebrations,4,10,0,0,2013-10-21,53.49723,-1.464707
357349,A Bit of a Do,5,0,0,5,2012-02-28,,
357350,A Hopkinson & Son,5,5,5,5,2014-04-24,53.580358,-1.479578
357351,A M Clark Ltd,Exempt,nan,nan,nan,2011-02-23,53.525982,-1.630531
357352,A61 Truck Stop,5,5,5,0,2014-11-11,53.497651,-1.46645
357353,Abbey Fisheries,4,10,0,10,2012-10-24,53.557737,-1.438493
357354,ABC Amy's Bakery and Confectionery,5,0,0,5,2014-05-27,,
357355,ABC Cafe,5,0,0,0,2014-03-27,53.548613,-1.475877
357356,Age UK Barnsley,Exempt,nan,nan,nan,2008-02-19,53.55357,-1.472933
357357,Alams Lounge,5,5,0,5,2014-08-20,53.557601,-1.527771
357358,Albert Street Cafe,5,5,5,0,2014-01-14,53.55139,-1.479903
357359,Albert's Diner,5,0,5,5,2012-01-16,53.55139,-1.479903
357360,Albions Takeaway,4,5,10,5,2014-01-30,53.599893,-1.450174
357361,Aldi,5,0,0,0,2011-09-27,53.546028,-1.440956
357362,Aldi,5,0,0,0,2012-06-26,,
357363,Alexandra W M C,5,5,5,5,2011-10-17,53.597935,-1.458328
357364,Alhambra News,Exempt,nan,nan,nan,2011-06-28,53.550889,-1.478324
357365,All Saints Academy,5,5,0,0,2014-04-30,53.535432,-1.372386
357366,All Seasons Fruit and Veg,5,0,0,0,2010-10-05,,
357367,Allendale Fisheries,5,0,0,5,2014-02-26,53.532507,-1.452103
357368,Allendale Stores,AwaitingInspection,nan,nan,nan,,53.532703,-1.451768
357369,Alric Food and Wine Limited,1,10,10,20,2014-07-18,53.575212,-1.375331
357370,Amber House,5,0,5,5,2010-08-20,53.575264,-1.417571
357371,American Fried Chicken,2,15,15,10,2014-12-18,53.52936,-1.410341
357372,Americanos Pizza,4,10,0,10,2014-03-26,53.553283,-1.481163
357373,Amore Venue Styling,AwaitingInspection,nan,nan,nan,,,
357374,Amy's Fish and Chips,3,10,10,10,2014-04-30,53.537171,-1.37322
357375,Andreas Cafe,5,0,0,0,2014-10-29,53.500794,-1.679413
357376,Andrew Nutbrown,5,0,0,0,2012-09-18,53.501189,-1.438109
357377,Andy's News,4,0,0,10,2012-12-17,53.534289,-1.303829
357378,Angela McArthur,5,0,0,5,2013-02-19,,
357379,Angies Express,4,10,0,10,2014-03-13,,
357380,Anglers Rest,4,10,5,5,2011-03-08,53.519426,-1.392093
357381,Ania's Cupcakes,4,0,0,10,2013-07-05,53.494873,-1.419923
357382,Antonio's,4,5,10,5,2015-01-14,53.531328,-1.463749
357383,Aqua Fish Bar,5,0,5,0,2012-08-09,53.585186,-1.500953
357384,Ardsley Luncheon Club,5,0,5,5,2014-03-27,53.546385,-1.427143
357385,Aroma Cafe Bar,5,5,5,5,2015-01-29,53.553478,-1.480571
357386,Arthurs House,3,10,5,10,2013-02-11,,
357387,Asda,5,5,0,0,2013-05-01,53.560636,-1.475215
357388,Asda,5,0,0,0,2014-08-01,53.600876,-1.444978
357389,Asda,4,5,10,0,2014-08-01,53.545603,-1.314268
357390,Asda,5,0,0,0,2014-02-06,53.531765,-1.468873
357391,Asda,4,0,10,0,2014-08-01,53.533436,-1.304085
357392,Asda,5,0,0,0,2014-08-01,53.575112,-1.378564
357393,Asda Cafe,5,0,0,0,2014-11-25,53.560636,-1.475215
357394,Ashfield W M C,4,10,0,5,2011-09-28,53.546279,-1.44868
357395,Ashiana,AwaitingInspection,nan,nan,nan,,53.569294,-1.441737
357396,Aspire in the Community,5,5,0,0,2013-01-16,53.568707,-1.429876
357397,Aspire in the Community,5,0,0,0,2014-04-17,53.547181,-1.520265
357398,Aspire in the Community,5,0,0,0,2014-03-27,,
357399,Athersley Arms,5,0,0,0,2014-09-22,53.57312,-1.468914
357400,Athersley Chippy,3,10,10,10,2014-08-04,53.577846,-1.46443
357401,Athersley North Primary School,5,0,0,0,2014-03-04,53.583797,-1.482904
357402,Athersley Social Club,5,5,5,5,2010-07-06,53.581121,-1.473194
357403,Athersley South Primary School,5,5,0,0,2014-09-24,53.576947,-1.476388
357404,Audreys Coffee House & Deli,1,15,15,20,2015-01-09,53.525039,-1.403657
357405,Autograph the Food People,5,5,0,0,2014-10-13,53.573742,-1.384715
357406,Autograph the Food People,5,0,0,0,2014-10-09,53.542829,-1.437377
357407,Autumn House,5,0,0,0,2015-01-27,53.529256,-1.454769
357408,Avid Farmshop,5,nan,nan,nan,2014-01-16,53.526945,-1.68445
357409,B and M Stores,5,0,0,0,2014-11-25,53.559047,-1.473559
357410,B&C Paperchain,5,0,0,0,2013-03-06,53.556879,-1.477299
357411,Backstreets Cafe & Takeaway,4,10,0,0,2014-10-06,53.552533,-1.488553
357412,Baileys Cafe,4,0,10,10,2013-04-12,,
357413,Bailey's Catering,5,5,0,0,2012-10-29,53.569965,-1.450788
357414,Baileys Coffee Shop,4,10,0,5,2013-02-11,53.552909,-1.479839
357415,Bains Premier News,2,15,5,0,2012-09-06,53.579519,-1.379043
357416,Ballfield Convenience Store,1,10,10,20,2014-03-14,53.584948,-1.547375
357417,Balti Palace,4,10,5,5,2014-11-18,53.523496,-1.400663
357418,Balti Palace,3,10,10,10,2014-03-12,53.586077,-1.530112
357419,Bank End Post Office,4,10,0,10,2013-09-02,53.534295,-1.457949
357420,Bank View Cafe,5,5,0,5,2014-03-12,53.500794,-1.679413
357421,Bargain Booze,Exempt,nan,nan,nan,2014-10-13,53.545171,-1.309506
357422,Bargain Booze,Exempt,nan,nan,nan,2014-10-07,53.577858,-1.416855
357423,Bargain Booze,Exempt,nan,nan,nan,2014-10-09,53.523374,-1.399473
357424,Bargain Booze Select Convenience,5,0,0,0,2012-10-30,53.583575,-1.531711
357425,Barkers,5,5,5,5,2011-07-06,,
357426,Barnardos Family Centre,AwaitingInspection,nan,nan,nan,,53.559535,-1.436642
357427,Barnbrooks Bar & Grill,5,5,5,0,2014-05-29,53.586765,-1.502506
357428,Barnsley Beef Company,3,10,10,5,2013-09-13,53.55223,-1.478896
357429,Barnsley Bowl,5,5,0,0,2013-07-23,53.573408,-1.462855
357430,Barnsley Central W.M.C.,5,5,0,5,2011-10-14,53.540573,-1.447079
357431,Barnsley Churches Drop-in Project,5,0,5,5,2014-01-16,53.54949,-1.479186
357432,Barnsley Coffee Beans Stall,5,0,0,0,2014-11-07,,
357433,Barnsley Conservative Club,4,10,0,0,2013-03-15,53.551531,-1.483508
357434,Barnsley East Dene Wmc,1,5,0,20,2013-02-18,53.548309,-1.4701
357435,Barnsley Food and Wine,4,0,5,10,2012-11-13,53.532245,-1.417618
357436,Barnsley Foodbank Partnership,5,0,0,0,2014-04-28,53.549389,-1.440867
357437,Barnsley Greenworks,5,5,0,0,2013-09-02,,
357438,Barnsley Hospice,5,5,0,0,2013-02-12,53.560695,-1.514768
357439,Barnsley Hospital (Ward Kitchens),4,5,10,5,2013-03-26,53.558323,-1.499594
357440,Barnsley House,2,10,15,10,2014-07-09,53.559535,-1.436642
357441,Barnsley Kebab and Pizza House,1,15,15,20,2014-11-20,53.54704,-1.473814
357442,Barnsley Mencap Centre,5,0,0,0,2014-07-17,53.56581,-1.448411
357443,Barnsley Norse,4,10,0,5,2012-11-19,53.547023,-1.488604
357444,Barnsley Norse Limited,5,0,0,0,2014-10-09,53.554162,-1.482873
357445,Barnsley North Unit,5,0,5,0,2014-02-27,53.583218,-1.480041
357446,Barnsley Pie Shop,AwaitingInspection,nan,nan,nan,,53.551732,-1.482057
357447,Barnsley Premier Leisure,4,10,5,5,2014-03-19,53.575766,-1.413743
357448,Barnsley Rugby Union Football Club Ltd,5,5,0,0,2014-02-13,53.550387,-1.493272
357449,Barnsley Tennis Club,5,0,0,5,2014-06-04,53.566535,-1.503075
357450,Barnsley Trades Council Club,5,5,5,5,2010-06-04,53.551389,-1.488083
357451,Barnsley YMCA,5,0,5,5,2014-08-19,53.551368,-1.483193
357452,Barrow W M C,5,5,5,5,2010-11-18,53.530746,-1.466186
357453,Bars Buns,4,5,5,10,2010-08-11,,
357454,Barugh Green Chippy,1,10,10,20,2014-07-31,53.566136,-1.51762
357455,Barugh Green Pre-School,5,0,0,5,2012-07-12,53.567769,-1.530375
357456,Barugh Green Primary,5,0,0,0,2012-07-12,53.567429,-1.533188
357457,Barugh Green W M C,4,10,0,5,2011-11-04,53.567429,-1.533188
357458,Baxter Storey,5,0,0,0,2014-02-27,53.579519,-1.454591
357459,Beatson House,5,5,0,0,2014-05-22,53.569059,-1.570013
357460,Beautiful Celebrations,5,0,0,0,2012-11-27,,
357461,Beaux Gateaux,AwaitingInspection,nan,nan,nan,,,
357462,Beggar And Gentleman,4,10,0,0,2013-03-21,53.501364,-1.438966
357463,Belchers,5,5,0,5,2014-05-22,53.578605,-1.529561
357464,Belle Green Court,5,0,0,0,2015-01-21,53.578245,-1.411413
357465,Belmont WMC,5,5,0,5,2011-10-01,53.499822,-1.4398
357466,Benedicts Coffee Shop,4,10,0,10,2013-07-23,53.559535,-1.436642
357467,Best Kebab & Pizza,4,0,0,10,2014-07-30,53.553841,-1.479269
357468,Best One,1,5,0,20,2014-08-28,53.547767,-1.467496
357469,Betty's Bed & Breakfast,4,5,5,10,2010-09-13,53.578508,-1.471822
357470,BFC Meals,4,5,5,10,2014-03-20,53.520437,-1.399952
357471,Big Kahuna Burger,3,10,10,10,2014-08-05,,
357472,Big Mamas,5,nan,nan,nan,2014-09-29,53.577261,-1.417951
357473,Billy's Hill Farm Shop,4,10,5,5,2014-03-28,53.51105,-1.410187
357474,Birchwood Price Tools,Exempt,nan,nan,nan,2014-10-09,53.552901,-1.45996
357475,Birchwood Price Tools,Exempt,nan,nan,nan,2014-11-25,53.562953,-1.468483
357476,Birdwell Kids' Club,5,0,0,0,2014-02-03,53.509712,-1.480217
357477,Birdwell Luncheon Club,4,0,0,10,2014-09-29,53.50451,-1.478712
357478,Birdwell Methodist Church,5,0,0,5,2013-06-25,53.509712,-1.480217
357479,Birdwell News,5,0,0,0,2014-01-27,53.507392,-1.480109
357480,Birdwell Primary School - Kitchen,5,0,5,0,2012-07-11,53.509757,-1.480216
357481,Birdwell Venue,1,10,5,20,2012-11-12,53.509193,-1.480796
357482,Birkinshaws,5,0,5,0,2013-04-30,,
357483,Birkwood Primary School,5,5,5,0,2014-07-16,53.568599,-1.407576
357484,Bistro Red and White,5,0,5,5,2013-09-27,53.549943,-1.475875
357485,Bistro Romanos,5,5,5,5,2014-12-01,53.553336,-1.482988
357486,Bite Me,5,0,5,0,2014-02-20,53.552293,-1.48922
357487,Bite to Eat,AwaitingInspection,nan,nan,nan,,,
357488,Black Bull,5,0,0,5,2014-02-04,53.545678,-1.439105
357489,Blackburns Cafe,3,10,10,5,2014-10-30,53.551177,-1.480539
357490,Blacksmith's Arms,4,5,5,10,2014-12-10,53.525042,-1.671854
357491,Bluu,1,0,5,20,2012-08-17,53.552678,-1.482528
357492,BMBC Wombwell Unit,5,0,0,0,2014-12-02,53.524856,-1.401066
357493,Boccellis,5,5,5,5,2014-10-02,53.55292,-1.440488
357494,Body Shop,Exempt,nan,nan,nan,2007-12-17,53.55145,-1.479193
357495,Bollingbroke House,5,0,0,0,2015-01-29,53.593529,-1.378354
357496,Bolton Fisheries,3,10,10,10,2014-03-12,53.519873,-1.315121
357497,Bolton On Dearne Ex-Servicemens Social Club,4,5,5,10,2012-02-01,53.518528,-1.315595
357498,Bolton On Dearne Post office,Exempt,nan,nan,nan,2011-09-21,53.520453,-1.322125
357499,Bon Appetit,4,5,5,10,2014-01-28,53.54891,-1.472025
357500,Bonjour Cupcakes,5,0,0,0,2012-08-08,,
357501,Boots The Chemist,Exempt,nan,nan,nan,2012-12-19,53.55139,-1.479903
357502,Brambles Tea Room,5,0,0,5,2013-03-01,53.494873,-1.419923
357503,Bridge End Fisheries,4,5,5,10,2014-03-12,53.527757,-1.631767
357504,Bridge End Garage,5,5,0,5,2011-04-07,53.529373,-1.634212
357505,Brierley Church of England Primary School,5,5,5,0,2012-10-10,53.595017,-1.377653
357506,Brierley Off Licence,3,10,5,10,2011-10-26,53.593712,-1.38083
357507,Brierley Playmates Pre-School,5,5,0,5,2011-11-09,53.596025,-1.374465
357508,Brierley Post Office,5,0,0,0,2010-06-16,53.595896,-1.384212
357509,Brierley Village Club,5,5,0,5,2011-10-27,53.593712,-1.38083
357510,Britannia Coffee Shop,5,5,0,5,2014-01-23,53.553298,-1.480483
357511,Brobot Petroleum,4,0,0,10,2011-01-31,53.59539,-1.450066
357512,Brownes Bar,4,5,5,10,2010-11-01,53.553018,-1.482388
357513,Bruce Mckendrick,5,0,0,5,2012-06-01,53.523558,-1.409365
357514,Bryan the Butchers,3,10,10,10,2014-11-05,53.547538,-1.482878
357515,Buckingham Care Home,5,5,5,5,2014-02-03,53.523333,-1.631247
357516,Buddies Children's Centre,5,0,5,0,2012-10-30,53.561606,-1.466764
357517,Budgens,5,5,0,0,2013-01-04,53.543277,-1.526179
357518,Bullet Sports & Social Club,4,10,0,5,2011-10-27,53.578967,-1.378357
357519,Burlington Arcade Fish and Chip Shop,3,10,5,10,2014-02-07,53.552909,-1.479839
357520,Burntwood Court Hotel,5,5,5,5,2014-11-28,53.591593,-1.364045
357521,Burntwood Hall Care Centre,5,5,0,5,2014-11-14,53.57812,-1.354174
357522,Burton Road Primary School,5,5,0,0,2014-07-11,53.561606,-1.466764
357523,Busy Bees Penistone,5,0,0,5,2014-06-26,53.52628,-1.628084
357524,Butchers Arms,5,5,0,5,2014-07-08,53.544633,-1.320788
357525,Buttercream Queen,AwaitingInspection,nan,nan,nan,,,
357526,Buttercup Childrens Centre,5,0,0,5,2014-11-04,53.568599,-1.407576
357527,Buttylicious,3,10,10,10,2014-03-26,53.520931,-1.39809
357528,C & W Charlesworth's,4,10,0,0,2013-02-28,53.55321,-1.478914
357529,C Birkinshaw,5,5,5,5,2013-03-08,53.586765,-1.502506
357530,C My Cake,5,0,5,5,2014-10-02,,
357531,Cafe @ Wellington House,5,0,5,5,2014-07-22,53.550864,-1.480845
357532,Cafe Bijou,5,0,0,0,2013-04-18,53.532846,-1.304607
357533,Cafe Cocoa,5,5,5,0,2012-10-26,53.541639,-1.523436
357534,Cafe Creme,4,5,0,10,2012-12-05,53.523637,-1.630702
357535,Cafe Delights,5,5,0,0,2014-04-07,53.58272,-1.454868
357536,Cafe Home Farm,4,10,0,0,2013-03-13,53.557737,-1.438493
357537,Cafe Life,5,0,0,0,2014-04-29,53.553142,-1.483987
357538,Cafe Lime,5,5,5,5,2015-01-07,53.549212,-1.489755
357539,Cafe Masala,1,5,5,20,2014-02-05,53.555063,-1.481277
357540,Cafe Plaza One,5,0,0,0,2014-06-19,53.553769,-1.485489
357541,Cafe Ruelle,5,5,5,5,2013-03-13,53.554148,-1.479507
357542,Cafe Zest,5,0,0,5,2014-03-21,53.575155,-1.379787
357543,Cafeccino,AwaitingInspection,nan,nan,nan,,53.547497,-1.483859
357544,Cake Couture,4,0,5,10,2011-09-12,,
357545,Cakes by Fi,5,0,0,0,2014-11-21,,
357546,Cambian Healthcare,5,0,0,5,2014-07-23,53.542673,-1.468013
357547,Cannon Hall Farm Shop,5,5,5,0,2013-02-26,53.571027,-1.590243
357548,Canton House,5,5,0,0,2013-01-09,53.525015,-1.617537
357549,Capones Pizzeria,2,10,15,10,2014-11-05,53.553886,-1.481397
357550,Card Factory,5,0,0,0,2012-11-12,53.524035,-1.400429
357551,Cardamom Lounge,5,nan,nan,nan,2014-10-01,53.546809,-1.450409
357552,Care Tech Holdings,1,0,0,20,2012-08-22,53.52183,-1.613553
357553,Carlton & Smithies Club,5,5,5,5,2012-04-18,53.575815,-1.462507
357554,Carlton Community College - Kitchen,5,0,5,5,2014-06-04,53.587507,-1.448204
357555,Carlton Kids Klub,5,0,0,0,2012-09-18,53.584284,-1.447023
357556,Carlton Primary Academy,5,0,0,5,2014-10-08,53.584284,-1.447023
357557,Carlton Village WMC & Inst,5,5,0,5,2011-10-13,53.586671,-1.454107
357558,Carol & Rob Field,5,5,0,5,2011-02-04,,
357559,Carol's Sandwich Bar,2,15,10,10,2014-02-19,53.56037,-1.494708
357560,Carr House,5,0,0,5,2010-09-10,53.529602,-1.672996
357561,Cater Link,5,0,5,0,2012-06-11,53.538879,-1.452035
357562,Cawthorne C of E Primary School,5,0,5,0,2014-06-13,53.567363,-1.573246
357563,Cawthorne Childrens Centre,5,0,0,0,2014-06-18,53.567363,-1.573246
357564,Cawthorne Club,5,5,0,5,2011-11-04,53.566245,-1.574934
357565,Cawthorne Cricket Club,4,0,0,10,2013-06-27,53.567818,-1.574827
357566,Cawthorne Road Day Nursery,5,0,5,0,2014-10-29,53.568311,-1.533435
357567,Cawthorne Tea Rooms,4,10,5,0,2013-07-19,53.568092,-1.571035
357568,Cawthorne Village Store & Tea Room,3,10,10,10,2014-02-17,53.569059,-1.570013
357569,Cazbar Snacks,5,5,0,0,2014-04-02,,
357570,Cecil Penny,5,0,0,5,2013-08-07,53.52183,-1.613553
357571,Centerplate UK,5,0,0,0,2014-03-19,53.552275,-1.468647
357572,Central Cafe,4,0,5,10,2014-02-25,53.600878,-1.447426
357573,Central Fisheries,4,10,0,5,2014-02-24,53.540747,-1.451544
357574,Central Library Coffee Shop,5,5,0,5,2013-08-14,53.55376,-1.483511
357575,Central Stores,1,5,0,20,2013-09-05,53.540747,-1.451544
357576,CGC Event Caters,4,10,0,0,2012-11-02,53.552275,-1.468647
357577,Cha Chaz,5,5,5,5,2014-01-15,53.54704,-1.473814
357578,Chambers,5,5,0,5,2014-01-21,53.552198,-1.48184
357579,Chapel View Nursing Home,4,5,5,10,2015-01-14,53.585556,-1.503411
357580,Chatterbox Day Nursery,5,5,0,0,2014-10-31,53.500427,-1.478235
357581,Che Bar & Coco,5,0,0,0,2011-03-15,53.552136,-1.484044
357582,Cheeky Monkies,5,0,0,5,2014-04-30,53.52425,-1.411241
357583,Chef for all Occasions,5,5,0,0,2012-11-09,53.567429,-1.533188
357584,Chennell's Bar,5,5,5,5,2014-01-22,53.551732,-1.482057
357585,Cherry Dale Primary School - Kitchen,5,0,5,0,2012-10-05,53.58372,-1.413512
357586,Cherry Tree Inn,5,5,0,5,2014-06-03,53.586768,-1.58852
357587,Cherry Trees Care Home,5,5,0,0,2014-07-15,53.555032,-1.44443
357588,Cherrycakes,1,5,0,20,2012-10-05,53.59795,-1.45372
357589,Cherrydale,4,0,5,10,2014-06-26,53.525678,-1.631076
357590,Chez Marshalls,5,0,0,0,2014-05-29,,
357591,Chicken Stop,5,0,0,0,2014-10-08,53.501364,-1.438966
357592,Chico's Pizza,5,5,5,5,2014-06-03,53.546004,-1.441726
357593,Childrens Resource Centre,5,0,0,0,2011-10-31,53.569624,-1.429864
357594,Childs Play Day Nursery,5,0,0,0,2014-06-26,53.516166,-1.639182
357595,Chilli and Grille,4,10,5,5,2014-02-18,53.551177,-1.480539
357596,China Court Restaurant,5,0,5,0,2012-09-12,53.584743,-1.49827
357597,China Dragon,4,5,5,10,2014-01-28,53.549894,-1.474986
357598,China Kitchen,4,0,5,10,2014-09-24,53.533783,-1.306478
357599,China Palace,4,0,10,0,2014-05-19,53.531479,-1.411699
357600,China Town,3,10,10,10,2014-08-28,53.601416,-1.443218
357601,Chiu Hing Chinese Takeaway,5,5,5,5,2013-10-16,53.518371,-1.411157
357602,Choc l'Art,5,0,0,0,2013-01-25,,
357603,Chop Suey House,5,nan,nan,nan,2014-05-29,53.545171,-1.309506
357604,Church Cafe,4,10,0,10,2013-01-14,53.559691,-1.437214
357605,Cinnamon Spice,5,5,5,5,2014-03-11,53.525678,-1.631076
357606,CJM Stores / News Barn,5,5,5,5,2013-04-26,53.543739,-1.529404
357607,Claire's Cakes,4,0,0,10,2013-05-02,,
357608,Clay Oven,5,5,5,5,2014-09-16,53.534686,-1.301077
357609,Clay oven creations,5,5,5,0,2015-01-16,,
357610,Clayton Croft Children's Home,5,0,0,5,2013-01-28,53.551906,-1.324098
357611,Cliff Nursery,5,0,0,5,2015-01-22,53.548083,-1.565758
357612,Clothiers Arms,4,10,0,5,2011-10-01,53.499576,-1.427819
357613,Clough & Parkinson,Exempt,nan,nan,nan,2011-10-20,53.586106,-1.503873
357614,Cobcar Mini Market,4,5,5,10,2014-12-02,53.49905,-1.419459
357615,Cobcar Sports & Social,1,5,0,20,2013-01-23,53.499561,-1.424714
357616,Coffee and Cake,4,0,0,10,2010-06-14,53.507442,-1.567214
357617,Coffee Nutz,5,5,0,0,2011-02-02,,
357618,Coffee Thyme,5,5,5,5,2014-10-09,53.523496,-1.400663
357619,Cohens Chemist,Exempt,nan,nan,nan,2011-03-22,53.556713,-1.490842
357620,Cole Bros' Cafe,5,5,5,5,2014-04-04,53.523496,-1.400663
357621,Colley Croft Cafe,5,0,5,5,2014-01-30,53.540573,-1.447079
357622,Colley Croft Stores,4,0,5,10,2014-01-30,53.540573,-1.447079
357623,Come Dine With Fi,4,0,0,10,2012-12-06,,
357624,Community Places,4,5,0,10,2011-07-22,53.550329,-1.342899
357625,Community Shop,5,0,0,0,2014-07-01,53.534101,-1.305552
357626,Company Shop,5,5,5,5,2014-02-14,53.498091,-1.484776
357627,Company Shop,5,0,0,0,2011-04-07,,
357628,Company Shop,5,0,5,0,2013-02-08,53.493255,-1.490969
357629,Connies Corner,5,0,0,0,2014-04-02,53.555273,-1.481938
357630,Conservative & Unionist Club,4,10,5,5,2010-07-23,53.520682,-1.395092
357631,Continental Saver,5,5,5,0,2010-09-03,53.522294,-1.397437
357632,Continental Shop,2,15,5,10,2014-07-21,53.547724,-1.474107
357633,Cookie Crumbs,5,5,0,5,2014-12-04,53.556666,-1.481876
357634,Co-op,5,5,0,0,2010-10-20,53.552518,-1.348631
357635,Co-op,4,10,0,0,2010-11-01,53.534469,-1.302363
357636,Coop Late Shop,5,5,5,0,2010-06-18,53.586077,-1.530112
357637,Co-op Late Shop,5,5,5,5,2011-04-27,53.537332,-1.385228
357638,Co-op Penistone,5,0,0,0,2014-03-06,53.525678,-1.631076
357639,Cooperative,5,5,0,0,2008-06-02,53.578828,-1.479204
357640,Co-operative,5,5,5,0,2011-02-14,53.520453,-1.322125
357641,Co-operative,5,5,0,0,2012-10-16,53.497381,-1.464268
357642,Co-operative,5,5,0,0,2010-10-07,53.511263,-1.479278
357643,Co-operative,5,0,0,0,2014-05-08,53.543575,-1.564507
357644,Co-operative,5,0,0,0,2014-04-30,53.500626,-1.438855
357645,Co-operative,4,10,5,0,2013-04-30,53.585186,-1.500953
357646,Co-operative,4,0,10,10,2013-09-19,53.597935,-1.458328
357647,Co-operative,5,5,0,5,2013-02-15,53.576624,-1.418156
357648,Co-operative,4,5,10,5,2013-10-16,53.53347,-1.355034
357649,Co-operative,5,5,5,5,2010-11-04,53.533845,-1.374793
357650,Co-operative Petrol Filling Station,5,5,5,0,2012-10-15,53.544002,-1.471844
357651,Cooplands,5,5,0,0,2014-02-10,53.534289,-1.303829
357652,Cooplands,4,10,5,5,2013-08-05,53.546442,-1.318058
357653,Cooplands,5,5,0,5,2013-01-31,53.500953,-1.43772
357654,Cooplands,5,5,5,0,2014-08-20,53.554381,-1.477466
357655,Cop Shop,4,0,0,10,2012-10-11,53.573344,-1.372066
357656,Corner Cafe,5,5,0,5,2014-05-22,53.586077,-1.530112
357657,Corner Cafe,5,5,5,0,2013-07-02,53.514478,-1.313187
357658,Corner Kitchen,5,5,0,5,2013-04-12,53.560629,-1.505213
357659,Corner Pin,5,5,5,5,2014-01-24,53.551732,-1.482057
357660,Corner Pocket Snooker Club,4,10,0,0,2013-07-25,53.552607,-1.458469
357661,Corner Shop,4,10,0,10,2013-07-03,53.509299,-1.44052
357662,Cosmic Cupcakes,5,5,0,5,2015-01-14,,
357663,Costa Coffee,5,0,0,0,2012-09-27,53.552722,-1.480354
357664,Costcutter,3,10,10,10,2014-02-18,53.590893,-1.404424
357665,Costcutter,5,5,0,5,2014-06-10,53.556056,-1.503545
357666,Costcutter,5,5,5,5,2010-07-01,53.582427,-1.54852
357667,Costcutters,5,0,0,5,2011-06-10,53.548459,-1.551341
357668,Cottage Bakery,5,0,0,5,2014-04-15,53.536548,-1.560173
357669,Cottage Bakery,5,5,5,5,2011-02-23,53.527484,-1.651712
357670,Cottage Kitchen,5,0,5,0,2014-05-13,53.497118,-1.425018
357671,Cottage Pizza,1,20,15,10,2014-07-21,53.549212,-1.489755
357672,Countess Tea Rooms,1,5,0,20,2013-07-16,53.490731,-1.537813
357673,Country Kitchen,4,5,5,10,2014-11-17,53.566136,-1.51762
357674,Couture Cakes By Christina,5,0,0,0,2012-03-26,,
357675,Cowpuccino,4,5,5,10,2014-01-17,53.554381,-1.477466
357676,Crane Moor W M C,4,0,0,10,2010-09-08,53.506718,-1.546309
357677,Crawshaw's Quality Meats,5,5,0,0,2014-09-16,,
357678,Creamys Coffee,5,0,0,5,2014-04-16,,
357679,Crest Supermarket,1,5,0,20,2013-01-31,53.534469,-1.302363
357680,Cross Inn,3,10,5,10,2013-01-10,53.600393,-1.463344
357681,Cross Keys Garage (Barnsley)Ltd,4,0,0,10,2013-01-11,53.499083,-1.46892
357682,Crown Filling Station,5,0,0,0,2008-06-10,53.46825,-1.508501
357683,Crown Inn,5,0,0,0,2011-02-18,53.46825,-1.508501
357684,Crumbs 2,4,0,5,10,2012-09-21,53.554872,-1.482773
357685,Crystal Palace Hotel,5,5,5,5,2011-12-19,53.528609,-1.649138
357686,Cubley Hall,5,5,5,0,2014-12-16,53.515535,-1.632506
357687,Cudworth Churchfields Primary School,5,5,0,0,2011-09-14,53.577342,-1.41437
357688,Cudworth Industrial Sports & Social Club,4,10,0,5,2011-10-25,53.585194,-1.409912
357689,Cudworth West End Institute & Club,4,10,0,5,2011-10-25,53.574918,-1.418587
357690,Cudworth Youth Centre,1,5,10,20,2012-04-18,53.575766,-1.413743
357691,Cupcake Corner,4,5,5,10,2011-08-04,,
357692,Curious Cakes,4,5,5,10,2013-09-10,53.550889,-1.478324
357693,Curry Mahal,2,15,15,10,2014-08-12,53.543277,-1.526179
357694,Curry Tonight,4,5,0,10,2014-11-06,53.522472,-1.398852
357695,Cybersnax,5,5,0,0,2012-08-15,53.553886,-1.481397
357696,D & NL Ward,5,5,5,0,2014-03-06,53.525739,-1.630518
357697,D H MacCabe,5,0,0,0,2011-09-23,53.54627,-1.316204
357698,D J Foods,5,5,0,5,2014-06-24,53.546442,-1.318058
357699,D Max Supplements,Exempt,nan,nan,nan,2013-11-19,53.554156,-1.479356
357700,D Slack,5,0,0,0,2014-03-26,,
357701,D Speed Butchers,5,5,0,0,2014-04-29,53.566303,-1.454052
357702,D&D Moxon,4,5,0,10,2010-05-18,53.550049,-1.487979
357703,Daisy Cakes,5,0,0,5,2013-06-03,,
357704,Daisy Chain Pre School,5,0,0,5,2014-06-26,53.529775,-1.651346
357705,Dale Farm,5,0,5,5,2013-04-30,,
357706,Dale Fisheries,4,10,0,10,2014-11-06,53.531391,-1.457759
357707,Dale Tavern,5,5,0,0,2013-05-01,53.529533,-1.458296
357708,Dantina Foods,4,5,0,10,2012-11-27,,
357709,Darfield Childrens Centre,4,5,0,10,2012-11-28,53.535432,-1.372386
357710,Darfield Community Centre,5,5,0,5,2008-04-14,53.537116,-1.37645
357711,Darfield Conservative Club,5,0,0,0,2008-07-08,53.537171,-1.37322
357712,Darfield Cricket Club,5,0,0,0,2013-03-22,53.537171,-1.37322
357713,Darfield Fish Bar,5,0,0,0,2014-05-07,53.532653,-1.380785
357714,Darfield Meet and Eat Group,4,5,0,10,2013-01-08,53.537116,-1.37645
357715,Darfield Road Fisheries,5,5,0,0,2013-02-04,53.568599,-1.407576
357716,Darfield Road Post Office,5,5,0,5,2011-10-24,53.567009,-1.405982
357717,Darfield Road Stores,5,5,0,5,2011-10-21,53.565971,-1.405045
357718,Darfield Road W M C,4,10,0,5,2011-10-25,53.566034,-1.405165
357719,Darfield Valley Primary School - Kitchen,5,0,0,5,2012-11-16,53.531982,-1.384747
357720,Darfield Village Club,4,5,0,10,2013-06-06,53.534603,-1.371945
357721,Darley Cottage,5,0,0,0,2013-01-10,53.531739,-1.451207
357722,Darn's Fish & Chips,4,10,5,0,2014-02-25,53.555203,-1.490936
357723,Darton College - Kitchen,5,5,0,0,2013-01-17,53.582427,-1.54852
357724,Darton Fisheries,5,0,0,5,2014-10-30,53.586077,-1.530112
357725,Darton Liberal W M C,4,5,5,10,2012-07-24,53.584464,-1.531505
357726,Darton Pharmacy,Exempt,nan,nan,nan,2013-05-20,53.586077,-1.530112
357727,Darton Primary School - Kitchen,5,5,0,0,2014-06-10,53.585146,-1.524171
357728,Dave & Dave,5,5,0,0,2013-05-21,,
357729,David Barker,AwaitingInspection,nan,nan,nan,,,
357730,Dawcroft Fish & Chips,AwaitingInspection,nan,nan,nan,,53.532203,-1.470527
357731,Day 2 Day Stores,4,10,0,10,2013-07-24,53.531422,-1.303952
357732,DC's Sandwich Bar,5,5,0,5,2013-08-30,53.551189,-1.479105
357733,Deangate Care Home,5,0,0,0,2015-01-23,53.586105,-1.503872
357734,Deanos,5,0,0,0,2014-02-17,,
357735,Dearne Advanced Learning Centre - Kitchen,5,0,5,5,2013-05-08,53.528913,-1.305275
357736,Dearne Carrfield Primary School,5,5,0,0,2014-02-05,53.524956,-1.315808
357737,Dearne Community Children's Centre,5,5,0,0,2013-03-21,53.523392,-1.325306
357738,Dearne Goldthorpe Primary,AwaitingInspection,nan,nan,nan,,53.534006,-1.303185
357739,Dearne Hall,5,nan,nan,nan,2013-07-04,53.520412,-1.322835
357740,Dearne Luncheon Club,5,0,0,5,2014-08-28,53.535409,-1.304746
357741,Dearne Playhouse,5,0,0,0,2014-04-02,53.529301,-1.308693
357742,Dearne Road Fisheries,5,5,0,0,2014-05-12,53.514719,-1.323875
357743,Dearne Valley Bulldogs ARLFC,1,5,0,20,2014-10-16,53.518482,-1.328204
357744,Dearne Valley Care Centre,5,0,0,0,2014-07-14,53.524554,-1.311652
357745,Dearne Valley Diner,5,5,5,5,2014-03-20,53.531805,-1.338177
357746,Dearne Youth Centre,4,0,0,10,2012-02-08,53.528078,-1.310192
357747,Dearnevale,5,0,5,0,2012-08-29,53.575352,-1.376174
357748,Dearnside Motor Company Ltd,5,5,5,0,2012-10-12,53.533112,-1.310231
357749,Deborah Yule's Swim School,Exempt,nan,nan,nan,2013-08-03,53.554586,-1.491622
357750,Delicious Pink Cakery,5,0,0,0,2014-12-11,,
357751,Deli'Licious,5,5,5,5,2014-02-13,53.534501,-1.47587
357752,Della Pizza,4,5,10,5,2014-05-12,53.600878,-1.447426
357753,Deniro's Pizza,3,10,10,10,2014-06-19,53.586025,-1.508255
357754,Desi Massala,1,15,10,20,2014-10-08,53.501364,-1.438966
357755,Desirable Cakes & Cupcakes Ltd,4,5,0,10,2010-06-04,,
357756,Devine Delights,4,0,0,10,2012-12-03,,
357757,Devlin's Corner Shop,5,5,0,5,2014-05-01,53.551022,-1.492586
357758,Digital Bar,AwaitingInspection,nan,nan,nan,,53.551732,-1.482057
357759,Dinner Parties by Janine,5,0,0,0,2014-07-15,,
357760,Dino's Pizzeria,2,15,10,10,2014-05-01,53.523496,-1.400663
357761,Dipya Bread Inn,1,10,10,20,2014-03-14,53.481353,-1.480247
357762,Divino's,5,0,0,0,2014-01-30,53.546115,-1.444275
357763,DLH Catering,5,5,0,0,2015-01-29,53.529533,-1.458296
357764,Dodworth Central Wmc,5,5,0,5,2011-11-02,53.543082,-1.527042
357765,Dodworth Discounts,5,0,0,0,2014-10-29,53.54163,-1.523346
357766,Dodworth Miners Welfare Sports & Social Club,4,5,0,10,2010-09-27,53.542372,-1.524831
357767,Dodworth Road Fish Bar & Pizza Bar,5,5,5,5,2013-07-29,53.552293,-1.48922
357768,Dodworth St John The Baptist Primary Academy,5,5,0,5,2014-05-14,53.545368,-1.525537
357769,Dodworth Valley,5,0,0,0,2014-05-21,53.547965,-1.518611
357770,Dog And Partridge,5,0,5,0,2014-03-10,53.50999,-1.711733
357771,Dolphin Fish Bar,2,5,15,10,2014-05-30,53.509377,-1.43984
357772,Dolphin Fish Bar,3,10,5,10,2014-03-13,53.52628,-1.628084
357773,Dominics Pizza,1,15,15,20,2014-04-08,53.533669,-1.305499
357774,Domino's Pizza,5,0,5,5,2015-01-06,53.552438,-1.485444
357775,Don Pepe's,5,5,5,5,2014-12-16,53.553943,-1.440203
357776,Don Valley Bakery,4,0,10,10,2013-09-04,,
357777,Doncaster Road Primary School,5,5,0,0,2012-07-13,53.548605,-1.472028
357778,Donna's Delicious Cupcakes,4,10,0,10,2012-11-21,,
357779,Dorothy House,5,5,5,5,2010-09-08,53.552085,-1.504014
357780,Dot's Shop,5,5,0,0,2013-08-14,53.558407,-1.47713
357781,Dotties Sweet Delights,5,0,0,5,2013-05-14,,
357782,Dove Adolescent Services,5,5,0,0,2013-08-15,53.513339,-1.445292
357783,Dove Inn,5,0,5,5,2012-06-25,53.54891,-1.472025
357784,Dragon House,3,10,5,10,2014-06-12,53.50058,-1.4367
357785,Dragon House,2,15,10,10,2014-01-13,53.544192,-1.311212
357786,D's Diner,5,0,0,0,2013-08-29,53.485803,-1.512352
357787,DW Sports Fitness,4,10,0,5,2013-04-29,53.557504,-1.470212
357788,E Clamp (Quality Cooked Meats),4,5,10,5,2012-04-19,,
357789,E. L. Mount & Co,5,5,0,0,2013-05-24,53.570768,-1.531898
357790,Eastern Spice,AwaitingInspection,nan,nan,nan,,53.601416,-1.443218
357791,Eastern Spices,5,5,5,5,2014-09-23,53.530919,-1.305499
357792,Eastfield Arms,5,5,0,0,2014-05-28,53.583214,-1.487261
357793,Eat Great Meat Limited,4,5,5,10,2014-01-07,53.490731,-1.537813
357794,EB Price & Son,5,5,5,5,2010-01-27,53.5534286499,-1.48336005211
357795,EB Price and Son,5,0,0,5,2011-10-20,,
357796,Ebenezer Community Church,5,0,0,0,2012-05-28,53.531391,-1.457759
357797,Eboracum House,5,5,0,5,2014-01-21,53.545101,-1.486907
357798,Edmunds Arms,4,5,0,10,2013-03-04,53.519824,-1.474015
357799,Elachi,5,5,5,5,2013-09-23,53.499573,-1.438643
357800,Eldon Arcade Cafe,5,5,5,5,2014-07-23,53.553551,-1.478699
357801,Elephant And Castle,4,10,0,0,2013-03-21,53.506545,-1.4063
357802,Elim Centre,4,0,0,10,2012-07-13,53.541158,-1.447162
357803,Elliott House,5,0,5,0,2012-08-30,53.551581,-1.346623
357804,Ellisons Chemist,Exempt,nan,nan,nan,2011-10-18,53.558174,-1.485647
357805,Ellison's Chemist,5,0,0,0,2012-07-17,53.548086,-1.484939
357806,Elm Court,AwaitingInspection,nan,nan,nan,,53.553943,-1.440203
357807,Elmhurst Farm Products,5,5,5,5,2014-04-24,53.53425,-1.301838
357808,Elsecar Cricket Club,4,10,0,10,2013-07-03,53.494816,-1.424853
357809,Elsecar Heritage Centre,AwaitingInspection,nan,nan,nan,,53.494873,-1.419923
357810,Elsecar Holy Trinity Primary School,5,nan,nan,nan,2014-12-10,53.497255,-1.420011
357811,Elsecar Railway Heritage Ltd,1,5,5,20,2012-04-23,53.494873,-1.419923
357812,Embankment Childrens Centre nursery,5,5,0,5,2013-02-04,53.545171,-1.309506
357813,Emily's Traditional Sweets,5,0,0,5,2013-07-25,53.494873,-1.419923
357814,Engineers Arms,5,0,0,5,2011-12-06,53.562223,-1.532792
357815,Epworth House Care Home,5,0,5,0,2014-06-23,53.545328,-1.316521
357816,Ernest Thorpe & Co Ltd,5,0,0,0,2013-01-09,53.503191,-1.557412
357817,Escape Pool Bar,4,0,0,10,2014-11-19,53.552438,-1.485444
357818,Esmeraldas,5,5,0,0,2013-04-04,53.552239,-1.482941
357819,Eurest Food Services,5,0,0,5,2014-12-16,53.504924,-1.443095
357820,Europes Minimart,1,0,5,20,2012-10-15,53.552438,-1.485444
357821,Everest Tandoori,4,5,5,10,2014-08-11,53.500695,-1.436276
357822,Extra Time Out Of School Club,5,0,0,0,2012-09-13,53.585146,-1.524171
357823,Fairycakes By Lisa,5,0,5,5,2012-10-17,,
357824,Faisal Asian Takeaway,3,5,10,10,2013-09-23,53.4975,-1.462654
357825,Family Shopper,5,0,0,0,2014-12-08,53.500513,-1.447314
357826,Fancy Bakes and Happy Cakes,4,5,0,10,2012-05-14,,
357827,Feel Good Breakfast Club,4,5,0,10,2012-12-06,53.557257,-1.437684
357828,Feinkost,3,10,10,10,2012-11-08,,
357829,Ficos,2,15,10,10,2014-09-30,53.578967,-1.378357
357830,Field View Care Home,AwaitingInspection,nan,nan,nan,,53.58602,-1.502711
357831,Fish Fella's,4,10,5,5,2014-03-13,53.530919,-1.305499
357832,Fitzwilliam Arms,2,15,15,10,2014-07-25,53.497918,-1.424977
357833,Five a Day,5,5,0,0,2011-10-19,53.579696,-1.48019
357834,Five A Day,4,5,10,5,2012-05-16,,
357835,Five Double 'O',5,5,5,5,2014-02-04,53.545989,-1.44236
357836,Fletchers Pig,AwaitingInspection,nan,nan,nan,,,
357837,Flouch Balti House,3,10,5,10,2014-05-06,53.50999,-1.711733
357838,Flying Pizza & Taste of India,1,5,10,20,2014-09-08,53.522458,-1.408672
357839,Food & Wine,5,5,0,0,2011-09-21,53.516399,-1.323773
357840,Food & Wine,5,5,5,5,2010-06-10,53.535411,-1.462174
357841,Food Weighhouse,4,0,0,10,2013-05-15,53.553012,-1.478811
357842,Food Zone,4,0,10,10,2014-07-21,53.572776,-1.454316
357843,Ford News Ltd (Costcutter),4,5,0,10,2012-12-20,53.551973,-1.492257
357844,Ford News Ltd t/a Costcutter,5,0,0,5,2014-06-09,53.547181,-1.520265
357845,Forget-Me-Not Cafe,4,10,0,5,2011-06-01,53.533418,-1.302516
357846,Forty Four,5,5,0,0,2013-08-30,53.553142,-1.483987
357847,Forward Steps,5,0,5,0,2015-01-14,53.522753,-1.406646
357848,Fosters Bakery,5,5,0,5,2012-11-15,53.586153,-1.502226
357849,Four Seasons,4,10,5,5,2010-11-01,53.576671,-1.418669
357850,Fox And Hounds,3,10,10,10,2014-02-18,53.589408,-1.405819
357851,Frankie & Benny's,5,5,0,0,2012-07-25,53.546028,-1.440956
357852,Franklins 2,3,10,10,10,2013-11-27,53.50058,-1.4367
357853,Fredders n Angies Food for Thought,5,5,0,0,2014-03-03,,
357854,Freddie & Henry's,3,10,10,10,2014-11-11,,
357855,Fresh n Fruity,4,5,0,10,2011-09-23,53.534469,-1.302363
357856,Fresh Today,5,5,5,5,2010-10-25,,
357857,Friendship Cafe,5,0,0,5,2014-09-05,53.500698,-1.4351
357858,From the Pink Kitchen Ltd,5,0,0,5,2013-05-10,,
357859,Frydays,5,5,5,5,2014-11-05,53.557211,-1.483243
357860,Fultons Foods,5,0,5,0,2011-06-28,53.55199,-1.481405
357861,Fultons Foods,3,10,10,10,2014-09-05,53.50058,-1.4367
357862,Fultons Foods,5,0,0,0,2010-07-19,53.600878,-1.447426
357863,Fultons Foods,5,5,0,0,2012-09-24,53.523374,-1.399473
357864,Fultons Foods,4,10,0,0,2010-07-08,53.578814,-1.413942
357865,Fultons Foods,4,10,0,0,2010-11-15,53.534006,-1.303185
357866,Fultons Foods,5,0,0,0,2008-01-30,53.57942,-1.47894
357867,Funeralcare,5,0,0,0,2008-02-25,53.561892,-1.489164
357868,Funky Buddha,3,10,10,10,2014-11-05,53.553251,-1.482189
357869,Furnace Inn,4,5,5,10,2012-01-31,53.497467,-1.438037
357870,FVF,5,0,5,5,2014-08-21,,
357871,G Fishers and Sons (1987) Ltd,3,10,10,10,2013-02-19,,
357872,G Haslehurst & Son,3,10,10,10,2014-02-10,53.593958,-1.40982
357873,G Wilkinson,4,5,5,10,2010-11-09,53.529481,-1.387906
357874,Gala Club,4,10,0,0,2013-07-25,53.553685,-1.476569
357875,Galaxy's Food Bar,5,5,0,5,2013-03-05,53.50058,-1.4367
357876,Galleon Fish Bar,5,0,0,0,2013-02-04,53.544192,-1.311212
357877,Galtee More Residential Home,5,nan,nan,nan,2013-11-07,53.548309,-1.4701
357878,Garden Cafe,5,nan,nan,nan,2014-07-17,53.534173,-1.375738
357879,Garry's Hot & Cold Foods,5,5,5,5,2014-06-24,,
357880,Gary Copley,4,5,10,0,2013-05-10,,
357881,Gary Copley Quality Butchers,5,5,5,5,2013-05-10,,
357882,Gary's Fisheries,3,10,5,10,2014-03-27,53.580279,-1.379968
357883,Gate of India,5,5,0,5,2014-06-30,53.558036,-1.493392
357884,Gateway Coffee Shop,5,0,0,0,2014-01-29,53.553333,-1.48649
357885,Gateway Foodbank,4,10,0,5,2013-07-18,53.556009,-1.475574
357886,Gather and Gather,5,5,5,5,2014-08-27,53.527879,-1.320966
357887,Gawber Pre-School,5,0,5,5,2014-11-04,53.560738,-1.51208
357888,Gawber Primary School,5,5,0,0,2014-01-27,53.560738,-1.51208
357889,Gawber Road WMC,5,5,5,5,2010-07-19,53.56035,-1.500792
357890,Generations,5,0,5,5,2014-12-11,,
357891,Geni's Pizzas,5,5,5,5,2011-12-19,53.576128,-1.380286
357892,George & Dragon,5,5,5,5,2010-11-02,53.554138,-1.489907
357893,Get Juiced (UK) Ltd,AwaitingInspection,nan,nan,nan,,53.514854,-1.414357
357894,Get Stuffed,5,5,0,5,2013-08-21,53.509712,-1.480217
357895,"GG's Cakes, Cupcakes & Treats",5,0,0,0,2014-12-09,,
357896,Gilroyd Butchers,4,5,5,10,2013-10-04,53.537185,-1.513256
357897,Gilroyd Social Club,5,5,0,0,2014-07-17,53.537366,-1.515955
357898,Gino's Pizzas,2,0,15,10,2014-03-27,53.561797,-1.459364
357899,Glass House,5,5,5,0,2014-01-29,53.553333,-1.48649
357900,Glen Royd Organics,5,0,5,0,2008-06-24,,
357901,Go Pop,4,0,0,10,2012-11-21,,
357902,Gold Leaf The Restaurant,5,5,5,5,2014-06-09,53.546028,-1.440956
357903,Golden City,3,10,10,10,2014-03-17,53.586106,-1.503873
357904,Golden City,3,10,10,5,2014-06-27,53.555084,-1.441909
357905,Golden Dragon,4,5,10,5,2014-01-16,53.549312,-1.475446
357906,Golden Kitchen,4,10,5,5,2014-03-04,53.530886,-1.31695
357907,Golden Lion Take-Away,5,5,5,5,2014-02-11,53.546442,-1.318058
357908,Golden Mountain,3,5,10,10,2014-08-19,53.586795,-1.529862
357909,Golden Nugget Wmc,4,10,5,5,2010-07-16,53.533587,-1.300672
357910,Goldthorpe Grill,1,15,10,20,2013-06-26,53.534424,-1.300855
357911,Goldthorpe Reform W M C,5,0,0,5,2010-12-17,53.5358,-1.297965
357912,Good Choice Chinese Cuisine,5,5,5,0,2014-10-15,53.500698,-1.442774
357913,Gooseacre Primary School - Kitchen,5,0,0,0,2014-02-04,53.550215,-1.31922
357914,Granny's Kitchen,5,0,5,5,2014-12-19,53.541386,-1.451716
357915,Great Houghton Service Station,1,5,5,20,2013-01-22,53.552518,-1.348631
357916,Great Houghton Welfare Hall,5,5,5,0,2012-08-01,53.551581,-1.346623
357917,Greaves Lane Poultry Farm,4,0,5,10,2013-09-03,,
357918,Green Dragon Inn,3,10,10,10,2014-04-03,53.502113,-1.56261
357919,Green Moor Sports Club,5,0,0,0,2013-06-18,53.491005,-1.577901
357920,Greenacre School,5,0,5,0,2014-10-23,53.543265,-1.498956
357921,Greenfield Primary School,4,10,5,0,2014-07-09,53.50153,-1.432315
357922,Greggs,5,5,0,0,2013-01-24,53.552656,-1.479721
357923,Greggs,5,5,5,5,2014-01-22,53.552711,-1.481939
357924,Greggs,5,5,5,0,2013-10-14,53.553551,-1.478699
357925,Greggs,5,0,0,0,2014-03-06,53.523637,-1.630702
357926,Greggs,5,5,0,0,2013-07-09,53.55199,-1.481405
357927,Greggs,5,0,0,0,2012-09-24,53.523374,-1.399473
357928,Greggs,5,0,0,0,2013-08-19,53.539938,-1.432405
357929,Grey Horse Inn,4,5,5,10,2013-01-07,53.559689,-1.493176
357930,Grill House,3,10,5,10,2014-07-29,53.54704,-1.473814
357931,Grill Pit,3,10,10,10,2015-01-05,53.553336,-1.482988
357932,Grimethorpe Pentecostal Church,5,0,0,0,2010-09-01,53.577811,-1.377301
357933,Grimethorpe Post Office,5,5,5,5,2011-06-17,53.575575,-1.381064
357934,Grimethorpe W M C,4,10,5,0,2011-10-26,53.577117,-1.376949
357935,GSK Convenience Store,1,10,5,20,2012-11-20,53.574101,-1.413343
357936,Gt News,5,0,0,0,2013-08-13,53.552937,-1.482193
357937,GT News,5,0,5,0,2011-10-11,53.554381,-1.477466
357938,GT Snax,5,5,5,5,2014-02-07,53.543528,-1.297596
357939,Guidepost,4,0,10,10,2014-10-27,53.515829,-1.383036
357940,H & A News,4,5,0,10,2013-02-21,53.55242,-1.479166
357941,H I Weldrick,Exempt,nan,nan,nan,2013-05-24,53.597935,-1.458328
357942,H I Weldrick Ltd,Exempt,nan,nan,nan,2013-05-31,53.534289,-1.303829
357943,H I Weldrick Ltd,Exempt,nan,nan,nan,2011-09-22,53.547523,-1.309091
357944,H I Weldrick Ltd,Exempt,nan,nan,nan,2013-05-31,53.528078,-1.310192
357945,H I Weldrick Ltd,Exempt,nan,nan,nan,2011-09-21,53.520453,-1.322125
357946,H I Weldricks,Exempt,nan,nan,nan,2013-05-24,53.545603,-1.314268
357947,H Potter & Son,5,0,0,0,2013-10-24,53.522472,-1.398852
357948,H S B C,5,5,5,0,2012-10-15,53.489922,-1.491355
357949,H. I. Weldrick,Exempt,nan,nan,nan,2013-05-20,53.600014,-1.451033
357950,Hacking Hill Event Caterers (Vehicle 1),5,0,0,0,2013-03-02,,
357951,Hacking Hill Farm Shop,4,5,0,10,2013-06-27,53.515447,-1.64228
357952,Hall Steads Residential & Nursing Home,5,5,0,0,2014-07-21,53.578111,-1.384894
357953,Hammerton's Funeral Service,1,0,0,20,2012-10-01,53.574251,-1.474578
357954,Hangs Fish & Chips,5,0,5,5,2014-03-26,53.559535,-1.436642
357955,Happy Garden,4,10,5,5,2013-09-23,53.559535,-1.436642
357956,Happy House,5,5,5,5,2014-08-27,53.576624,-1.418156
357957,Happy House,3,10,10,10,2014-03-10,53.524781,-1.402244
357958,Happy Kids Childcare,4,5,5,10,2014-05-15,53.57694,-1.41859
357959,Happy Kids Childcare,1,5,5,20,2014-11-10,53.541915,-1.455527
357960,Happy Kids Childcare,2,15,10,10,2014-04-29,53.580358,-1.479578
357961,Happy Kids Goldthorpe,3,10,10,10,2014-10-16,53.531226,-1.305841
357962,Harborough Hills W M C,5,5,0,0,2014-10-15,53.556778,-1.474644
357963,Hardy's Traditional Pie & Peas,5,0,5,5,2013-10-10,,
357964,Hare And Hounds,5,5,0,0,2014-05-01,53.497651,-1.46645
357965,Harringtons,5,0,5,5,2014-08-29,53.555273,-1.481938
357966,Harringtons,5,5,0,5,2014-12-11,53.525786,-1.628209
357967,Harrison Catering Services,5,5,0,0,2013-05-14,53.490621,-1.49293
357968,Harrisons Newsagents,5,0,0,0,2012-11-01,53.531008,-1.468641
357969,Haseeb's,3,10,5,10,2014-10-07,53.578814,-1.413942
357970,Hastelow's Ice Cream,4,0,0,10,2012-03-28,,
357971,Havenfield Lodge,4,10,0,10,2013-07-24,53.538443,-1.379191
357972,Haworth News,5,5,0,0,2013-01-17,53.584992,-1.410896
357973,Hayley's Sandwich Shop,5,5,5,5,2011-12-17,53.531188,-1.308512
357974,Hazel Fletcher,4,0,0,10,2011-03-11,53.54575,-1.470857
357975,Healthy Options,5,5,5,0,2014-07-22,,
357976,Heather Garth Primary Academy,5,0,0,5,2014-09-22,53.523392,-1.325306
357977,Heavenly Pizza,AwaitingInspection,nan,nan,nan,,53.547244,-1.47935
357978,Hemingfield Village Store,3,10,5,10,2012-12-13,53.50835,-1.411356
357979,Henshall Street Fisheries,4,5,10,5,2014-06-04,53.547196,-1.470491
357980,Heron Foods Ltd,4,10,0,5,2010-11-08,53.524035,-1.400429
357981,Hesley Group and Low Laithes Home Collection,5,0,0,0,2013-07-16,53.539148,-1.413947
357982,Hi Jinx,5,0,0,5,2014-10-13,53.538127,-1.308504
357983,Hickleton Youth Project,5,0,0,0,2014-02-14,53.544319,-1.306849
357984,Hideout,5,5,5,0,2014-02-27,53.553213,-1.473511
357985,High Royd Farm Shop,5,5,0,0,2013-05-07,53.534823,-1.604005
357986,High Street Butchers,4,5,5,10,2015-01-08,53.500626,-1.438855
357987,High Street Mini Mart,4,0,0,10,2011-01-27,53.599213,-1.462724
357988,High Street News,Exempt,nan,nan,nan,2010-11-03,53.522306,-1.39801
357989,High View Primary Learning - Kitchen,5,0,0,5,2014-07-02,53.52425,-1.411241
357990,Highfield Farm Residential Home,5,5,0,0,2010-08-17,53.537621,-1.463896
357991,Highgate Greyhound Stadium,5,0,0,5,2014-03-19,53.536336,-1.314282
357992,Highgate Primary Academy,5,5,5,0,2014-09-19,53.533654,-1.315397
357993,Highgate Social Centre,5,0,5,0,2014-02-10,53.534389,-1.313454
357994,Highgate Sports & Social Club,4,10,5,5,2010-07-16,53.533037,-1.315829
357995,Highgrove Care Home,5,5,5,0,2014-10-31,53.545223,-1.441918
357996,Highlands,5,0,0,5,2012-02-17,53.537765,-1.602122
357997,Highstone Mews Care Home,5,5,0,0,2014-10-15,53.543072,-1.474919
357998,Highstone Road Fisheries,5,5,5,5,2014-02-13,53.543741,-1.473809
357999,Highstone Road W M C,5,0,0,0,2008-06-10,53.543072,-1.474919
358000,Hillies Golf Centre,5,5,0,0,2014-11-10,53.516445,-1.399812
358001,"Hills Fruit and Veg (Units 7, 9 and 44)",5,0,0,0,2010-11-03,,
358002,Hillside Cafe,5,5,5,0,2014-03-10,53.50999,-1.711733
358003,Hilltop Garage,4,0,0,10,2012-09-07,53.509712,-1.480217
358004,Hiltons's Cafe,5,0,0,5,2014-11-07,,
358005,Hitchen's,5,0,5,0,2013-04-23,53.549894,-1.474986
358006,Hobsons Choice,5,5,5,5,2014-11-28,53.536859,-1.422005
358007,Holiday Inn,4,10,5,0,2011-12-07,53.545459,-1.523378
358008,Holland & Barrett,5,0,0,0,2013-08-13,53.551978,-1.478854
358009,Holly Tree Lodge,5,5,5,0,2014-10-02,53.595866,-1.410337
358010,Holy Rood Out of School Club,5,0,0,0,2012-09-12,53.549598,-1.491712
358011,Holy Trinity (Joint Faith 3-16) ALC - Kitchen,5,0,0,0,2013-03-20,53.577684,-1.45833
358012,Home Cooking,5,5,0,5,2014-12-11,53.522494,-1.613441
358013,Home Farm Bakery,5,5,5,0,2014-10-01,53.59795,-1.45372
358014,Home Farm Bakery,4,5,0,10,2013-05-07,53.576671,-1.418669
358015,Home Farm Bakery,5,5,5,5,2014-02-26,53.57942,-1.47894
358016,Home Farm Bakery Ltd,5,5,5,5,2014-03-24,53.575155,-1.379787
358017,Home Farm Bakery Ltd.,5,5,5,5,2014-09-25,53.557737,-1.438493
358018,Honey Cupcakes,5,0,0,0,2013-02-05,,
358019,Honeywell Inn,5,5,0,5,2011-10-08,53.559123,-1.47857
358020,Hope House Church,5,0,0,0,2012-09-27,53.551368,-1.483193
358021,Horizon Community College - Kitchen,5,0,0,0,2012-11-20,53.552085,-1.504014
358022,Horizon Community College Nursery,5,5,0,5,2013-07-08,53.552085,-1.504014
358023,Horizon Nursery,AwaitingInspection,nan,nan,nan,,53.552085,-1.504014
358024,Horse And Groom,4,10,0,0,2013-09-02,53.534101,-1.305552
358025,Horse And Jockey,1,5,0,20,2012-08-22,53.507442,-1.567214
358026,Hot Jacks,5,0,0,5,2014-09-18,53.550889,-1.478324
358027,Hot N Tasty Cafe,5,5,0,5,2013-04-29,53.553943,-1.440203
358028,Hot Spot Catering,5,0,0,0,2014-11-04,,
358029,Hough Lane Bakery,5,5,5,0,2014-07-02,53.519232,-1.403468
358030,Hough Lane Stores,1,10,10,20,2014-07-25,53.518371,-1.411157
358031,Houghton Arms,4,0,0,10,2012-10-12,53.554419,-1.351168
358032,Houghton Main Welfare & Sports Club Ltd,4,0,5,10,2010-10-21,53.54532,-1.360604
358033,House of Food,5,0,0,5,2014-07-23,,
358034,Hoyland & Jump Sure Start,5,5,5,5,2011-10-05,53.496293,-1.446479
358035,Hoyland Catholic Social Club,5,0,0,0,2011-11-08,53.500742,-1.444522
358036,Hoyland Common Childrens Centre,5,5,0,0,2012-11-14,53.49736,-1.46766
358037,Hoyland Common Primary School - Kitchen,5,0,0,0,2012-01-31,53.49736,-1.46766
358038,Hoyland Common Service Station,5,0,5,0,2011-10-06,53.496163,-1.465339
358039,Hoyland Common W.M.C.,5,0,0,5,2011-10-05,53.496417,-1.461838
358040,Hoyland Hall,5,5,5,0,2015-01-19,53.504924,-1.443095
358041,Hoyland House,4,0,0,10,2013-04-23,53.543576,-1.574632
358042,Hoyland Mini Market,4,0,0,10,2011-10-05,53.505673,-1.437929
358043,Hoyland Nether W M C,4,10,5,5,2011-10-06,53.499914,-1.446236
358044,Hoyland Sports Centre,Exempt,nan,nan,nan,2011-10-06,53.500434,-1.449757
358045,Hoyland Springwood Primary School,5,0,5,0,2014-07-09,53.495583,-1.442569
358046,Hoylandswaine Owls Out of School Club,5,0,5,5,2011-07-13,53.539577,-1.606601
358047,Hoylandswaine Primary School,5,0,5,0,2014-03-17,53.539577,-1.606601
358048,Hoylandswaine Sports & A Club,5,5,0,0,2013-08-22,53.539577,-1.606601
358049,Hoylandswaine Village Hall,5,5,5,5,2010-07-13,53.539577,-1.606601
358050,Hoyle Mill Inn,3,10,10,10,2013-10-07,53.554062,-1.456247
358051,Huby's,4,5,10,5,2014-08-21,53.546542,-1.314993
358052,Huddersfield Road Post Office,5,0,0,5,2008-08-28,53.563937,-1.494515
358053,Hudson Catering Ltd,5,0,0,0,2015-01-09,53.547311,-1.530466
358054,Hung Wah,3,10,10,10,2014-07-07,53.579819,-1.41349
358055,Hunni Bees Childrens Centre,5,0,0,5,2013-02-25,53.542104,-1.445762
358056,Hunningley Grange Care Home,5,5,5,0,2012-08-30,53.545665,-1.44404
358057,Hunningley Primary School,5,5,0,5,2014-06-05,53.542104,-1.445762
358058,Iceland,5,0,5,5,2011-08-03,53.552545,-1.483058
358059,Iceland,5,0,0,0,2012-12-19,53.5237197876,-1.54735004902
358060,Iceland Foods Ltd,5,0,0,0,2013-08-19,53.557737,-1.438493
358061,Iceland Foods Ltd,5,0,0,0,2013-08-19,53.561797,-1.459364
358062,Imperial Chinese Take-Away,1,10,5,20,2014-09-03,53.554799,-1.490956
358063,Impressions Coffee Lounge,5,5,5,5,2012-10-25,53.555273,-1.481938
358064,Independent Training Services,5,0,0,0,2014-02-03,53.546374,-1.475663
358065,India Gardens,1,15,0,20,2014-03-06,53.552198,-1.48184
358066,Ings Lane Sports & Social Club,5,0,0,0,2008-07-08,53.518482,-1.328204
358067,Intake 1,4,0,0,10,2013-01-15,53.55564,-1.504908
358068,Intake 2,5,0,0,5,2012-05-08,53.564461,-1.460024
358069,Intake 3,4,5,5,10,2014-01-24,53.546494,-1.474454
358070,Intake 3,AwaitingInspection,nan,nan,nan,,53.546494,-1.474454
358071,Intake 5,4,10,5,5,2014-02-26,53.56744,-1.447061
358072,Isabella Catering,5,0,5,5,2014-12-08,,
358073,ISS Facility Services (Healthcare) Limited,5,5,5,0,2013-03-04,53.558323,-1.499594
358074,Istanbul Kebab,4,5,5,10,2014-07-03,53.505673,-1.437929
358075,Ivors Fish and Chips,5,5,0,5,2013-01-24,53.546636,-1.320454
358076,Ivy Lodge,5,5,0,0,2012-12-17,53.545603,-1.314268
358077,Ivy Mead,5,5,0,0,2010-11-08,53.557485,-1.440277
358078,J & F Hall,4,10,0,5,2014-05-01,53.500626,-1.438855
358079,J A & M Holmes Village Store,4,0,0,10,2012-09-19,53.552076,-1.670875
358080,J Charlesworth,4,10,5,5,2013-08-08,53.549894,-1.474986
358081,J Durrans & Sons Ltd,5,5,0,0,2013-01-03,53.52683,-1.652622
358082,J J Chippy,5,0,0,0,2014-06-10,53.531822,-1.3031
358083,J M & F M Hall,5,5,0,0,2014-09-23,53.501189,-1.438109
358084,J R News,4,10,0,5,2012-02-06,53.549131,-1.489801
358085,Jade City,4,5,0,10,2014-05-20,53.542372,-1.524831
358086,Jade's Heavenly Buns,AwaitingInspection,nan,nan,nan,,,
358087,Jafran Indian Restaurant and Takeaway,5,nan,nan,nan,2014-01-28,53.521626,-1.396873
358088,Jalsa,1,10,5,20,2014-06-18,53.551934,-1.483186
358089,Jamie Attwood Family Butchers,5,5,5,5,2014-01-31,53.600878,-1.447426
358090,Janine Makes Cakes,5,0,0,5,2014-11-24,,
358091,Jay's,4,5,5,10,2014-01-21,53.547538,-1.482878
358092,Jessicas Cupcakes,4,0,5,10,2012-02-22,,
358093,Jet Petrol Station,4,0,5,10,2010-10-07,53.591263,-1.496954
358094,Jet Service Station,5,0,0,0,2010-06-02,53.502889,-1.440227
358095,Jim's Snack Bar,5,0,0,0,2014-08-20,,
358096,JJ Bakers,5,0,0,0,2012-08-21,53.600651,-1.470806
358097,JJ Bakers,5,0,5,0,2012-08-23,,
358098,JME Catering (Round Green Farm Venison Co),5,0,0,0,2010-09-11,53.524746,-1.498345
358099,John Boys Family Run Cafe and Takeaway,5,5,5,0,2014-05-13,53.597822,-1.455217
358100,John Crook and Son Quality Meat,4,5,0,10,2013-03-19,53.527879,-1.320966
358101,John Rideal House,5,0,0,0,2008-02-14,53.553614,-1.485113
358102,John Slack,5,5,0,0,2013-05-29,53.552247,-1.478639
358103,Jo-Jo's,4,5,5,10,2014-01-16,53.55199,-1.481405
358104,Jolly Tots Softplay,5,0,5,5,2014-03-12,53.514071,-1.632911
358105,Jong Ruay Thai Taste,AwaitingInspection,nan,nan,nan,,,
358106,Joseph Bramah,5,5,0,0,2013-08-12,53.552937,-1.482193
358107,Joseph Cliff,5,0,0,0,2008-07-08,,
358108,Joseph Cliff,5,0,5,0,2014-03-06,,
358109,Joseph Locke Primary School - Kitchen,5,0,0,0,2012-09-11,53.549598,-1.491712
358110,Jubilee Gardens Project,5,0,0,0,2014-10-03,53.603022,-1.444542
358111,Julie's Cafe,1,0,15,20,2014-03-04,53.526208,-1.631026
358112,Julie's Cafe & Takeaway,5,5,5,5,2013-02-15,53.569814,-1.520326
358113,Jumbo,1,10,10,20,2014-08-04,53.562311,-1.461637
358114,Jump Chippy,3,10,5,10,2014-03-26,53.505729,-1.428822
358115,Jump Primary School,5,5,0,0,2014-07-08,53.5079,-1.431702
358116,Jump W M C,5,0,0,0,2008-07-15,53.504985,-1.427399
358117,Junction Inn,4,10,5,5,2013-08-28,53.514196,-1.376635
358118,Jungle Jyms Play Centre,4,5,5,10,2014-12-01,53.557967,-1.475339
358119,K D A Wholesale,5,0,0,5,2014-04-08,53.545261,-1.534775
358120,Kabuki,4,0,0,10,2013-10-07,53.55565,-1.48613
358121,Kaleidoscope Kindergarden,4,0,0,10,2012-09-05,53.537793,-1.521608
358122,Kammyz Hut,0,20,20,30,2014-10-16,53.579665,-1.463093
358123,Kath's Caff,5,0,0,0,2014-07-04,53.533845,-1.374793
358124,Katrina's Cakes,5,0,0,0,2014-04-28,,
358125,Kat's Whiskers Youth Club,5,0,0,5,2014-04-30,53.584643,-1.481111
358126,Kayes Stores,5,0,0,0,2014-03-13,53.525559,-1.667234
358127,Kayra Fried Chicken Ltd,5,5,0,5,2013-02-04,53.546096,-1.449905
358128,Kays Cafe,4,5,5,10,2014-01-22,,
358129,Kebab Express Pizza,1,15,15,20,2013-09-25,53.552239,-1.482941
358130,Keel Inn,5,5,5,5,2010-06-24,53.559433,-1.475426
358131,Keel Inn,5,0,0,5,2010-09-01,53.544724,-1.437035
358132,Keel Inn Motel,5,5,0,0,2010-06-24,53.559551,-1.475636
358133,Keelings,5,5,0,0,2012-10-29,53.54672,-1.491339
358134,Keiths Quality Meats,5,5,0,5,2014-03-07,,
358135,Kelly's Bakery,4,10,5,5,2015-01-15,53.571146,-1.465632
358136,Kels Kwality Kakes,5,5,0,0,2014-02-25,53.552239,-1.482941
358137,Kendray Hospital Kitchen,5,0,0,5,2014-02-04,53.546963,-1.454633
358138,Kendray Post Office,4,0,0,10,2012-12-17,53.540958,-1.448689
358139,Keresforth Centre,5,0,5,0,2014-08-06,53.54592,-1.499891
358140,Keresforth Primary School,5,5,0,0,2014-05-08,53.540014,-1.51511
358141,Kexborough House,5,5,5,5,2015-01-28,53.582497,-1.543368
358142,Kexborough Methodist Church,4,0,0,10,2013-08-21,53.582497,-1.543368
358143,Kexborough Primary School,5,5,0,0,2013-03-13,53.582427,-1.54852
358144,Kexborough Social Club,4,10,5,5,2011-11-12,53.581587,-1.547577
358145,Kexbrough Cricket Club,5,0,0,0,2014-06-28,53.578605,-1.529561
358146,KFC,4,10,0,5,2013-02-20,53.568082,-1.471846
358147,KFC,5,0,0,0,2012-08-20,53.552438,-1.485444
358148,KG's Sports Bar & Social Club,5,5,5,5,2010-10-25,53.520804,-1.39782
358149,Khans Tandoori,AwaitingInspection,nan,nan,nan,,53.546028,-1.440956
358150,Khela Food & Wine,4,5,10,5,2012-10-17,53.53425,-1.301838
358151,Khela Food and Wines,5,5,5,5,2011-09-20,53.546442,-1.318058
358152,King Street Fisheries,5,5,0,0,2014-06-18,53.500213,-1.433252
358153,Kings Bacon Shop,5,5,5,5,2014-02-27,53.523374,-1.399473
358154,Kings Fried Chicken,3,5,10,10,2014-09-25,53.534469,-1.302363
358155,Kings Head Inn,5,0,5,0,2011-05-26,53.586641,-1.50716
358156,Kings Oak Children's Centre,5,0,5,0,2014-02-19,53.522069,-1.404695
358157,Kings Oak Primary School - Kitchen,5,0,0,0,2014-07-04,53.522069,-1.404695
358158,Kings Road News,4,5,5,10,2012-10-17,53.520381,-1.397856
358159,Kingstone United W M C,5,5,0,5,2011-11-04,53.54502,-1.495389
358160,Kingswood Peak Venture,5,nan,nan,nan,2014-01-30,53.549956,-1.664734
358161,Kirk Balk Community College,5,5,5,5,2014-04-29,53.500081,-1.453214
358162,Koffi Bean Company (no 6889081),5,0,0,5,2008-07-19,,
358163,Komplex Youth Club,5,0,0,0,2014-11-10,53.500081,-1.453214
358164,Korner Kabin,4,10,0,10,2014-09-25,53.553943,-1.440203
358165,Krusty Loaf,5,5,0,0,2011-03-09,,
358166,KT's,5,0,0,0,2013-02-07,,
358167,L Birkinshaw & Sons,4,5,0,10,2013-10-01,53.586106,-1.503873
358168,L Brown & Sons,4,10,5,5,2014-09-24,53.586005,-1.505536
358169,L S J Supermarket,2,5,15,10,2013-05-07,53.567009,-1.405982
358170,L. Birkinshaw & Sons,2,15,10,10,2014-03-21,53.585658,-1.526507
358171,Lacewood Primary School - Kitchen,5,5,0,0,2013-02-19,53.520432,-1.326364
358172,Ladywood Primary School,5,0,0,5,2014-09-29,53.573344,-1.372066
358173,Laithes Crescent Methodist Church Kids Club,5,5,0,0,2010-09-09,53.580358,-1.479578
358174,Laithes Day Centre,5,0,0,0,2014-09-25,53.579749,-1.476021
358175,Laki's & Christinas Fish Bar,5,0,5,0,2014-03-26,53.576671,-1.418669
358176,Lams Chemist,Exempt,nan,nan,nan,2008-09-03,53.559691,-1.437214
358177,Land of Cupcakes,5,0,0,0,2013-10-22,,
358178,Landons Diner,4,5,10,5,2014-10-16,53.58644,-1.502192
358179,Langdale Road Fisheries,4,5,5,10,2014-05-15,53.55127,-1.473172
358180,Last Orders,4,10,5,5,2010-10-26,53.519426,-1.392093
358181,Lazy Pasta,5,5,0,5,2015-01-08,53.553802,-1.480643
358182,Lean Living Ltd,AwaitingInspection,nan,nan,nan,,,
358183,Lebo's,AwaitingInspection,nan,nan,nan,,53.538174,-1.382861
358184,Lee Garden,5,5,0,0,2014-09-18,53.522885,-1.3137
358185,Lemon Tree,4,0,10,10,2013-11-26,53.552711,-1.481939
358186,Les Cadeaux,Exempt,nan,nan,nan,2014-12-01,53.586077,-1.530112
358187,Lesley Smith,Exempt,nan,nan,nan,2014-11-19,53.521855,-1.397805
358188,Liams Treasured Treats,5,0,0,0,2012-11-23,,
358189,Liannes Creative Cakes,5,0,0,0,2012-02-03,,
358190,Libby's Cafe,5,0,5,5,2014-11-27,53.575358,-1.382532
358191,Lidl,5,5,0,0,2012-11-19,53.552136,-1.484044
358192,Life Style Express,1,10,10,20,2014-06-05,53.561935,-1.501332
358193,Lifestyle Express,3,5,10,10,2014-01-27,53.545224,-1.481955
358194,Lifestyle Express,5,5,5,5,2010-08-12,53.543443,-1.473586
358195,Lifestyle Express Dawson's,1,5,5,20,2014-01-23,53.548199,-1.490386
358196,Lifestyle Fitness,Exempt,nan,nan,nan,,53.553142,-1.483987
358197,Lily Jane Cupcakes,4,5,5,10,2012-01-20,,
358198,Lin Kee,5,5,0,5,2014-01-14,53.551047,-1.487952
358199,Linda's Cafe,5,5,0,0,2014-03-18,53.524035,-1.400429
358200,Linda's Home Baking,2,5,15,10,2014-12-09,53.501189,-1.438109
358201,Linda's Home Baking,3,5,10,10,2014-12-15,,
358202,Lindhurst Fisheries,5,5,0,0,2014-03-04,53.582137,-1.469149
358203,Linwood Park,4,10,0,5,2013-03-25,53.578136,-1.481115
358204,Little Acorns 2 Nursery,4,5,5,10,2014-05-01,53.531317,-1.465303
358205,Little Acorns Nursery,5,0,0,0,2011-01-28,53.534501,-1.47587
358206,Little Fishes Pre-School (Wombwell )Ltd,5,5,0,0,2012-11-09,53.519149,-1.406727
358207,Little Freddies Nursery School,5,0,5,5,2014-06-27,53.52572,-1.61848
358208,Little Gems 2 Day Nursery,5,0,0,0,2012-06-11,53.511589,-1.443973
358209,Little Gems Day Nursery,5,5,0,0,2014-09-05,53.505729,-1.428822
358210,Little Giants Skool Club,5,0,0,0,2014-06-26,53.544682,-1.564963
358211,Little India,5,5,5,0,2014-04-23,53.567769,-1.530375
358212,Little Jo's Day Nursery,5,0,0,0,2015-01-13,53.549943,-1.475875
358213,Little Nippers Playgroup,4,10,5,0,2012-07-20,53.600014,-1.451033
358214,Littleworth Grange - Kitchen,5,5,0,0,2014-09-25,53.558175,-1.441793
358215,LJM Quality Meats,1,5,10,20,2012-07-31,53.501189,-1.438109
358216,Lloyds Pharmacy,5,0,0,5,2011-10-18,53.546602,-1.4724
358217,Lloyds Pharmacy,Exempt,nan,nan,nan,2012-02-03,53.54309,-1.456961
358218,Local Express,4,5,5,10,2012-09-18,53.569818,-1.470179
358219,Locke Park Cafe,5,0,0,0,2014-08-12,53.544596,-1.488603
358220,Locke Park Club & Institute Ltd.,4,0,0,10,2011-10-01,53.544994,-1.482864
358221,Locky's Bar,4,10,0,5,2013-10-28,53.521626,-1.396873
358222,Lok Yiu,5,5,0,5,2015-01-08,53.583686,-1.537011
358223,Longcar Inn,5,5,0,0,2011-09-28,53.548594,-1.490366
358224,Longfield Fisheries,4,10,0,10,2014-07-07,53.50315,-1.444129
358225,Lord Nelson,5,5,5,5,2014-04-28,53.538514,-1.603126
358226,Lorne Road Stores,5,5,0,5,2010-11-04,53.546251,-1.322302
358227,Lo's Chemist (Tripharm) Ltd,Exempt,nan,nan,nan,2011-06-02,53.552252,-1.492269
358228,Lo's Pharmacy Ltd,Exempt,nan,nan,nan,2011-10-07,53.530667,-1.456637
358229,Lottie Hedgerow Does Cakes !,4,5,0,10,2010-06-08,,
358230,Lou's Ice Cream,4,0,0,10,2012-10-31,,
358231,Low Laithes Village,5,0,5,5,2014-03-03,53.539148,-1.413947
358232,Low Valley Snack Bar,5,nan,nan,nan,2014-07-17,,
358233,L's Kitchen,5,5,0,5,2013-01-28,53.531328,-1.463749
358234,Lucky House,1,5,5,20,2015-01-13,53.505275,-1.4811
358235,Luigis Pizzeria,4,5,10,5,2014-07-15,53.560629,-1.505213
358236,Luncheon Club,5,0,5,5,2010-06-18,53.585186,-1.500953
358237,Lundhill Tavern,5,5,5,0,2014-11-06,53.511009,-1.394837
358238,Lundwood Fried Chicken,4,5,5,10,2014-07-09,53.558185,-1.438079
358239,Lundwood News,4,5,5,10,2010-06-02,53.557737,-1.438493
358240,Lundwood Premier Store,5,0,0,5,2014-02-25,53.559535,-1.436642
358241,Lundwood Working Mens Club,4,5,0,10,2011-01-26,53.557737,-1.438493
358242,M & J Off Licence,5,5,5,5,2010-11-01,53.572741,-1.418209
358243,M Wood General Stores,5,0,0,0,2012-12-13,53.522834,-1.410341
358244,Mad March Hare,AwaitingInspection,nan,nan,nan,,53.518528,-1.315595
358245,Mals,1,10,5,20,2014-02-14,53.572192,-1.446441
358246,Manny's Fisheries,3,10,5,10,2014-01-15,53.551189,-1.479105
358247,Manor Fisheries,4,5,0,10,2014-02-27,53.597889,-1.464192
358248,Mansfield Road Stores,5,5,5,5,2010-07-01,53.582301,-1.473678
358249,Maple Tree Cafe,AwaitingInspection,nan,nan,nan,,53.586025,-1.508255
358250,Mapplewell Manor Care Home,5,0,0,5,2013-10-30,53.587716,-1.499896
358251,Mapplewell Primary School,5,0,0,0,2012-09-13,53.587716,-1.499896
358252,Mapplewell Stores,4,0,10,10,2012-09-13,53.586106,-1.503873
358253,Market Hotel,1,5,5,20,2012-08-31,53.494192,-1.422118
358254,Marks & Spencer,5,0,0,0,2014-08-19,53.552391,-1.480721
358255,Marmaris,AwaitingInspection,nan,nan,nan,,53.500695,-1.436276
358256,Marmaris Grill and Pizza House,3,10,10,10,2014-03-25,53.522472,-1.398852
358257,Martins,4,10,0,0,2013-09-05,53.55223,-1.478896
358258,Mary Crone Baking,4,5,5,10,2011-01-31,,
358259,Mary's News,1,10,0,20,2013-05-08,53.496293,-1.446479
358260,Massarellas,4,10,0,0,2013-02-25,53.550889,-1.478324
358261,Massimo Pizza,4,10,5,5,2014-05-29,53.546251,-1.322302
358262,Master Chef,5,0,5,5,2014-02-26,53.57942,-1.47894
358263,Maurice Dobson Heritage Centre,5,0,0,5,2010-09-01,53.533395,-1.37139
358264,McColls,5,0,0,0,2013-08-13,53.546115,-1.444275
358265,McDonald's,5,0,0,0,2012-09-13,53.490621,-1.49293
358266,McDonald's,5,5,5,5,2014-02-07,53.55723,-1.483635
358267,McDonald's Restaurants Ltd,4,10,0,0,2013-02-18,53.544724,-1.437035
358268,McKay's Sandwich Shop,5,5,5,5,2013-07-15,53.551022,-1.492586
358269,McQuillans Family Butchers,5,5,5,5,2013-03-13,53.597822,-1.455217
358270,Meadow Meats Ltd,5,5,5,5,2011-06-16,53.513736,-1.527308
358271,Meadstead Childrens Centre,5,0,0,0,2014-07-15,53.597868,-1.461518
358272,Meat Feast Deliveries,5,0,0,5,2012-10-25,,
358273,Megabites,4,5,5,10,2014-02-04,53.557211,-1.483243
358274,Melanies Cakes,5,0,5,5,2014-10-24,53.579819,-1.41349
358275,Mellor's News,5,5,5,5,2010-11-01,53.57765,-1.416617
358276,Mels Little Bakery,5,5,0,5,2013-09-13,,
358277,Memory Lane Cafe,5,5,0,0,2013-08-12,53.52628,-1.628084
358278,Metro C21,4,5,5,10,2015-01-07,53.57502,-1.421002
358279,Metro Stores,5,0,0,0,2014-11-21,53.586025,-1.508255
358280,Mezzaluna Ristorante,5,0,0,5,2014-06-18,53.585603,-1.5019
358281,Mick Wood,4,0,5,10,2013-02-19,,
358282,Micks News,Exempt,nan,nan,nan,2014-08-21,53.534686,-1.301077
358283,Micks Plaice,5,5,5,0,2014-04-02,53.50835,-1.411356
358284,Middlecliffe W M C,1,5,5,20,2012-08-29,53.545861,-1.360913
358285,Milanos,4,10,0,10,2014-07-01,53.532653,-1.380785
358286,Milano's,4,10,0,0,2014-12-02,53.586077,-1.530112
358287,Milefield Primary School & Childrens Centre,5,0,0,0,2014-03-21,53.577129,-1.387868
358288,Millbrook,4,0,5,10,2013-01-07,53.524547,-1.671737
358289,Miller's Inn,4,10,0,0,2013-03-25,53.575801,-1.522811
358290,Millers Tea Room,4,5,0,10,2013-08-15,53.526389,-1.470841
358291,Millhouse Green Church,5,0,0,0,2014-04-29,53.525559,-1.667234
358292,Millhouse Green Post Office,4,0,0,10,2012-10-30,53.525255,-1.667719
358293,Millhouse Primary School,5,5,0,0,2012-11-23,53.52511,-1.673724
358294,Millies Cafe,5,5,5,5,2014-11-10,53.543487,-1.304358
358295,Milo's Diner,AwaitingInspection,nan,nan,nan,,53.567769,-1.530375
358296,Milton Arms,5,5,0,5,2014-05-22,53.494816,-1.424853
358297,Milton Hall,4,10,0,10,2012-07-26,53.494814,-1.422622
358298,Miners Rest,5,5,0,0,2010-07-06,53.559374,-1.495158
358299,Mini Me's Day Nursery,5,5,0,5,2015-01-06,53.557749,-1.4767
358300,Mint,4,10,5,5,2014-11-19,53.567769,-1.530375
358301,Mitchell & Darfield Social,5,5,5,5,2011-12-09,53.530908,-1.412522
358302,Mobile Shop,1,10,10,20,2014-03-19,,
358303,Mogul Room,1,15,15,20,2013-07-16,53.527148,-1.469655
358304,Monk Bretton Cricket Club,5,5,0,0,2013-07-11,53.563937,-1.453554
358305,Monk Bretton Methodist Church Luncheon Club,4,5,0,10,2013-02-06,53.566303,-1.454052
358306,Monk Bretton Working Mens Club,4,5,0,10,2014-02-27,53.565443,-1.454516
358307,Monkshill Service Station,4,0,10,5,2012-10-17,53.533338,-1.311962
358308,"Moorland Canteen, BGAS Limited",4,5,5,10,2013-11-07,53.547923,-1.508153
358309,Moorland Court,5,0,5,0,2012-11-01,53.557831,-1.491674
358310,Morley Meats,5,5,5,5,2011-10-10,,
358311,Morrell News 2,5,0,5,5,2014-02-12,53.549168,-1.304355
358312,Morrison Road Fisheries,5,5,0,0,2014-06-19,53.538174,-1.382862
358313,Mo's Plaice,5,5,5,5,2014-03-25,53.57523,-1.38045
358314,Moulders Arms,5,0,0,0,2011-10-07,53.555419,-1.488759
358315,Mount Vernon Hospital,5,0,5,0,2013-12-16,53.537319,-1.472742
358316,Mr Chicken,AwaitingInspection,nan,nan,nan,,53.551732,-1.482057
358317,Mr L Gambles,5,0,0,5,2011-10-20,,
358318,Mr Tony & Mrs Katrina Wogan,4,0,0,10,2011-02-07,,
358319,Mr Yung's Chinese Kitchen,5,5,0,0,2012-07-05,53.557811,-1.476639
358320,Mrs Doreen Liles,5,5,5,5,2010-08-17,,
358321,Mrs Elaine Hope,4,0,0,10,2011-02-16,,
358322,Mrs Eunice Miller,AwaitingInspection,nan,nan,nan,,,
358323,Mrs Macs Creative Cakes,4,0,0,10,2011-05-23,,
358324,Mrs Olga White,4,0,0,10,2012-10-22,,
358325,Mrs S Stewart,4,0,5,10,2014-08-21,,
358326,Mrs Susan Howell,5,0,0,5,2010-05-12,,
358327,MS Cakes4U,4,0,10,10,2013-09-04,,
358328,MSCakes4You,5,5,0,0,2013-02-04,53.58133,-1.471606
358329,MTC Wholesale,3,10,10,10,2014-07-31,53.568082,-1.471846
358330,Mumbai Lounge,5,nan,nan,nan,2014-01-30,53.535179,-1.361918
358331,Munch Box Cafe,5,0,0,5,2014-04-03,53.488181,-1.552746
358332,Munchies Van Limited,AwaitingInspection,nan,nan,nan,,,
358333,Munchys,5,5,0,5,2014-02-04,53.557211,-1.483243
358334,Munjacks,5,5,0,0,2014-07-29,53.55321,-1.478914
358335,Musgraves,1,20,10,20,2014-01-29,53.546809,-1.450409
358336,Nancy's Fancys,4,0,0,10,2010-09-29,,
358337,Naseebs,4,10,0,10,2013-01-07,53.582427,-1.54852
358338,Nassers Mini Market,5,0,0,0,2011-03-18,53.5845,-1.511097
358339,Naylor Drainage Ltd,5,5,5,5,2014-05-14,53.560837,-1.591247
358340,Netherwood Catering,5,0,0,5,2014-12-02,53.530738,-1.396457
358341,Neville Court Nursing Home,5,0,5,0,2012-08-23,53.545227,-1.450565
358342,New Hong Kong,4,5,5,10,2014-06-04,53.520381,-1.397856
358343,New Hope Methodist Church - Luncheon Club,5,5,0,5,2014-03-11,53.580358,-1.479578
358344,New Little M's,5,5,0,5,2013-08-07,53.500626,-1.438855
358345,New Lodge Working Mens Club,4,10,0,5,2012-12-14,53.575797,-1.476583
358346,New Options,Exempt,nan,nan,nan,2013-06-17,53.575874,-1.378085
358347,New Star,5,0,5,5,2013-03-27,53.522558,-1.396302
358348,Newsome Avenue - Short Breaks Unit,5,0,5,0,2013-04-12,53.52425,-1.411241
358349,Nibblers,5,5,0,0,2014-05-21,53.503904,-1.479971
358350,Nic Nocs,5,0,0,0,2014-11-27,53.575874,-1.378085
358351,Nice and Sweet,Exempt,nan,nan,nan,2014-10-13,53.542909,-1.425832
358352,Nigel Thorpe,5,0,0,0,2013-11-01,53.525968,-1.631737
358353,Nina's Mobile Shop,5,5,0,5,2013-02-11,,
358354,Nino's Pizza,3,10,10,10,2011-06-20,53.542372,-1.524831
358355,North Gawber Colliery Sports and Social Club,4,10,5,5,2011-10-20,53.585603,-1.5019
358356,Northern College - Home Farm Site,AwaitingInspection,nan,nan,nan,,53.524482,-1.519571
358357,Northern College Childrens Centre,AwaitingInspection,nan,nan,nan,,53.524482,-1.519571
358358,Northern College Restaurant & Bar,5,0,0,0,2014-05-28,53.524482,-1.519571
358359,Northern Direct Supplies,5,0,0,5,2010-06-22,53.553897,-1.496551
358360,Norwood News,2,15,10,10,2014-08-04,53.576671,-1.418669
358361,Not Just Coffee,5,0,5,0,2014-08-28,53.549943,-1.475875
358362,Oak House,5,0,0,0,2014-10-24,53.535677,-1.467361
358363,Oak Star Cafe at the Civic,5,5,5,5,2012-07-25,53.553802,-1.480643
358364,Oak Star Catering and Training,5,0,0,0,2013-02-05,,
358365,Oakhill Primary Academy,5,5,5,0,2014-03-05,53.546467,-1.435035
358366,Oakhill Primary School - Nursery,5,0,0,0,2014-03-05,53.546467,-1.435035
358367,Oaks Park Cafe,5,0,0,0,2014-11-06,53.54309,-1.456961
358368,Oaks WMC,4,5,0,10,2012-12-14,53.546385,-1.427143
358369,Oakwell Sandwich,5,5,0,0,2014-11-18,53.549938,-1.468586
358370,Oakwood Grange,5,0,0,5,2014-11-14,53.59927,-1.459399
358371,Occasions That Count,5,5,0,5,2014-05-01,,
358372,Ocean Fish Bar,5,5,5,5,2015-01-28,53.56703,-1.453665
358373,Ocean Fresh Fish,5,0,0,0,2008-07-08,,
358374,Oh My Cod,4,10,5,5,2012-08-08,53.560629,-1.505213
358375,Oh Sew Sweet Shop,5,0,0,5,2014-03-19,53.585603,-1.5019
358376,Old Cali Bed and Breakfast,5,0,0,5,2013-01-10,53.590579,-1.509728
358377,Old mill Lane Car Park,AwaitingInspection,nan,nan,nan,,,
358378,Olde Spice,5,0,0,5,2010-11-17,,
358379,Olive Coffee Shop & Bistro Ltd,5,5,5,5,2014-04-24,53.551934,-1.483186
358380,On A Roll Cafe,2,0,15,10,2014-03-07,53.581845,-1.462235
358381,One Stop,5,0,0,0,2011-09-22,53.544192,-1.311212
358382,One Stop,5,0,0,0,2010-07-05,53.500513,-1.447314
358383,One Stop Shop,5,0,0,0,2014-11-28,53.554677,-1.487591
358384,One Stop Stores,5,5,0,0,2013-09-02,53.567769,-1.530375
358385,One Stop Stores,5,0,0,0,2008-07-09,53.546096,-1.449905
358386,One Way and YF,5,0,0,0,2013-07-15,53.562768,-1.492158
358387,Opium No.10,4,5,0,10,2013-02-07,53.552613,-1.484325
358388,Orchard Views Residential Care Home,5,5,0,5,2015-01-30,53.55859,-1.49479
358389,Osaz Stores,1,10,0,20,2013-09-04,53.552235,-1.488375
358390,Oskars Mini Market,5,0,0,0,2013-09-03,53.547724,-1.474107
358391,Out of School Club,4,5,5,10,2014-12-18,53.506173,-1.566699
358392,Owd Alberts,4,0,5,10,2014-03-03,,
358393,Oxspring Post Office,4,10,0,0,2013-08-07,53.518271,-1.600102
358394,Oxspring Primary School - Kitchen,5,0,5,5,2013-10-08,53.518271,-1.600102
358395,P and A Food Management Ltd,AwaitingInspection,nan,nan,nan,,53.564579,-1.503959
358396,P and L Springs Ltd,5,5,5,5,2014-03-25,53.573742,-1.384715
358397,P Butterworth Family Butcher,3,10,10,10,2013-10-30,53.4975,-1.462654
358398,P J's Coffee Shop,2,15,10,10,2014-03-25,53.551177,-1.480539
358399,P Schofield Butchers,4,5,10,5,2013-03-06,53.525678,-1.631076
358400,P Turner & Sons,4,5,10,5,2014-04-10,53.505729,-1.428822
358401,P&J Millward,5,0,0,0,2013-05-29,,
358402,Pamela Thomson,5,0,0,5,2013-07-03,,
358403,Pam's Preserves,AwaitingInspection,nan,nan,nan,,,
358404,Papa Ginos,2,5,15,10,2014-07-24,53.54704,-1.473814
358405,Paper N Card,5,0,0,0,2012-08-02,53.552613,-1.484325
358406,Park Cottages,5,5,0,5,2012-03-07,53.545227,-1.450565
358407,Park Cottages Bed and Breakfast,5,5,5,0,2014-07-30,,
358408,Park Grange,5,5,5,0,2015-01-23,53.545227,-1.450565
358409,Park House Residential Home,5,0,5,0,2014-07-22,53.519824,-1.474015
358410,Park Road Family Butchers,2,15,10,10,2012-12-10,53.532738,-1.467413
358411,Park Road Fisheries,4,10,5,5,2014-02-03,53.545543,-1.480925
358412,Parklands Nursing Home,4,10,0,0,2014-07-04,53.520591,-1.393162
358413,Parkside,5,0,0,0,2014-01-28,53.490223,-1.457651
358414,Parkside Primary Academy,5,0,5,5,2014-10-17,53.598705,-1.453649
358415,Parkside Residential Home,AwaitingInspection,nan,nan,nan,,53.520591,-1.393162
358416,Parkway Cinema Barnsley Limited,4,10,0,0,2011-10-11,53.553841,-1.479269
358417,Pastures Green,3,5,10,10,2013-03-04,,
358418,Pastures Green,1,5,5,20,2013-05-20,53.579696,-1.48019
358419,Pat's Convenience Store,1,5,10,20,2014-04-29,53.538174,-1.382862
358420,Pat's Ices,5,5,0,0,2013-03-19,,
358421,Patti's Plaice,5,5,5,5,2013-10-03,53.538734,-1.455598
358422,Paul Coupland High Class Butcher,5,5,0,0,2014-03-26,53.546442,-1.318058
358423,Paul Edwards,5,5,5,5,2008-06-10,,
358424,Paul Wilks,4,5,10,5,2014-06-28,53.537171,-1.37322
358425,Pauls Place,4,10,5,5,2014-05-30,,
358426,Paul's Place,4,5,0,10,2013-05-10,53.551177,-1.480539
358427,Pausa Caffe Coffee Shop,5,5,5,0,2013-07-15,53.539938,-1.432405
358428,Pavilion Cafe,5,5,5,5,2014-06-09,53.571027,-1.590243
358429,Peace Garden,4,5,10,5,2014-03-27,53.575112,-1.378564
358430,Penistone Balti House,5,5,5,5,2014-03-06,53.525678,-1.631076
358431,Penistone Children's Centre,3,10,10,10,2014-01-28,53.52628,-1.628084
358432,Penistone Church Football Club,5,5,0,0,2013-06-11,53.524842,-1.625321
358433,Penistone Country Market,5,5,5,5,2010-08-18,,
358434,Penistone Country Market,5,5,5,5,2010-12-09,53.52628,-1.628084
358435,Penistone Cricket Club,4,5,0,10,2013-06-11,53.522408,-1.595448
358436,Penistone Grammar School Annex,4,5,0,10,2014-03-24,53.533958,-1.637567
358437,Penistone Paramount,4,10,0,0,2013-08-07,53.525786,-1.628209
358438,Penistone Pies,4,0,10,5,2012-11-29,,
358439,Penistone Post Office,Exempt,nan,nan,nan,2011-11-01,53.525271,-1.630069
358440,Penistone Puddings and Pies,5,5,5,5,2010-11-24,,
358441,Penistone Royal British Legion,5,0,0,0,2014-03-13,53.526208,-1.631026
358442,Penistone Wholefoods,5,0,5,5,2011-11-03,53.525968,-1.631737
358443,Penistone Youth Centre,Exempt,nan,nan,nan,2013-06-11,53.523333,-1.631247
358444,Pennine View,5,0,5,5,2012-07-19,53.590579,-1.509728
358445,Perfect Pop Ups,AwaitingInspection,nan,nan,nan,,,
358446,Peter Haigh Cooked Meats,4,5,10,5,2014-04-15,,
358447,Peter Hessey,5,0,0,0,2014-04-08,53.501189,-1.438109
358448,Pheasant Inn,4,0,5,10,2012-12-21,53.565443,-1.454516
358449,Pickles Farms Fine Foods,5,0,5,0,2008-07-15,,
358450,Pinfold Pumas,Exempt,nan,nan,nan,2013-10-29,53.569813,-1.40777
358451,Pink Sun Ltd,4,0,0,10,2014-12-08,53.527879,-1.320966
358452,Pinocchio's Ristorante Italliano,5,5,5,0,2014-01-17,53.551189,-1.479105
358453,Pipers Grove Primary School - Kitchen,5,0,0,0,2012-09-26,53.55357,-1.472933
358454,Pippys,5,0,0,0,2013-01-30,,
358455,Pirates Cove,5,5,0,0,2013-07-05,53.533182,-1.41246
358456,Pit Shop,4,10,0,10,2013-07-24,53.543923,-1.302026
358457,Pizza House,4,5,10,5,2014-11-13,53.499224,-1.427537
358458,Pizza Hut,5,5,0,0,2012-08-21,53.557504,-1.470212
358459,Pizza Max,5,0,5,5,2014-03-05,53.559535,-1.436642
358460,Pizza Palace,3,10,10,10,2014-04-08,53.533669,-1.305499
358461,Pizza Palace,3,10,10,10,2014-01-22,53.575155,-1.379787
358462,Pizza Perfection,5,0,5,0,2012-10-08,53.530919,-1.305499
358463,Pizza Roma,5,5,0,5,2014-04-24,53.549881,-1.476133
358464,Pizza Roma II,4,5,5,10,2015-01-15,53.554759,-1.352461
358465,Pizza Top,5,5,5,5,2014-03-20,53.522294,-1.397437
358466,Pizza Zone,1,10,5,20,2013-08-27,53.554138,-1.489907
358467,PJ Catering,5,5,0,0,2014-02-14,,
358468,Playmania,5,0,0,0,2014-05-06,53.494873,-1.419923
358469,Playworks,4,5,0,10,2013-03-25,53.591151,-1.403906
358470,Pocket Snooker Club,3,10,5,10,2014-07-15,53.600878,-1.447426
358471,Pog Lane Produce,AwaitingInspection,nan,nan,nan,,,
358472,Pogmoor News,4,nan,nan,nan,2013-04-30,53.553659,-1.510682
358473,Pogmoor Post Office,5,0,0,5,2011-09-19,53.55607,-1.502503
358474,Polish Social Centre,5,5,0,5,2012-02-07,53.557436,-1.495996
358475,Polka Dots,4,0,5,10,2013-05-23,,
358476,Pollyanna Cafe,3,10,10,10,2014-03-25,53.553283,-1.481163
358477,Popeyes Takeaway,AwaitingInspection,nan,nan,nan,,53.557749,-1.4767
358478,Poppy's Coffee Lounge,AwaitingInspection,nan,nan,nan,,53.577649,-1.416616
358479,Post Office,Exempt,nan,nan,nan,2011-10-31,53.525678,-1.631076
358480,Potters Wheel,4,5,0,10,2011-11-08,53.496293,-1.446479
358481,Potts (The Family Baker),5,0,5,0,2011-03-23,,
358482,Potts Bakers,5,0,5,0,2013-01-03,53.522306,-1.39801
358483,Potts Bakers,5,0,5,0,2014-08-27,53.546028,-1.440956
358484,Poundbakery,5,0,0,0,2014-08-29,53.55199,-1.481405
358485,Poundland,5,0,0,0,2014-07-31,53.55139,-1.479903
358486,Poundland,5,5,5,5,2013-08-28,53.523374,-1.399473
358487,Poundland,5,0,0,0,2012-06-25,53.551978,-1.478854
358488,Poundstretcher,5,5,5,5,2010-09-03,53.523496,-1.400663
358489,Poundstretcher,5,5,5,5,2011-06-28,53.550888,-1.478324
358490,Poundstretcher Ltd,5,0,0,5,2014-02-24,53.580358,-1.479578
358491,Prayosha,5,5,5,5,2012-01-18,53.50696,-1.426935
358492,Premier,5,5,0,0,2011-10-26,53.59176,-1.407055
358493,Premier,AwaitingInspection,nan,nan,nan,,53.533845,-1.374793
358494,Premier Express,4,5,0,10,2012-10-31,53.542658,-1.476811
358495,Premier Express,4,0,5,10,2012-02-22,53.53662,-1.47954
358496,Premier Rockingham Store,4,10,0,5,2013-04-29,53.561765,-1.480561
358497,Premises Unoccupied,AwaitingInspection,nan,nan,nan,,,
358498,Priceless Discount Stores Ltd,Exempt,nan,nan,nan,2011-09-28,53.500953,-1.43772
358499,Primark,Exempt,nan,nan,nan,2011-06-28,53.550889,-1.478324
358500,Prince Of Wales,1,10,5,20,2013-01-16,53.521855,-1.397805
358501,Princess Street Fisheries,5,5,0,5,2013-03-13,53.497519,-1.460995
358502,Prospect House,5,0,0,0,2014-07-03,53.576576,-1.417537
358503,Prospect Tavern,4,5,0,10,2014-11-10,53.500401,-1.440742
358504,Puccini's,4,10,0,5,2014-03-12,53.55227,-1.494337
358505,Pulse & Cocktails,Exempt,nan,nan,nan,2013-05-24,53.54641,-1.445826
358506,Pulse Bar,0,20,20,20,2014-04-07,53.550633,-1.481663
358507,Quality Save,4,0,5,10,2012-09-18,53.552545,-1.483058
358508,Quality Save,4,0,0,10,2013-01-18,,
358509,Queen Victoria,5,0,5,5,2011-04-14,53.532653,-1.380785
358510,Queen's Head,5,5,0,5,2014-11-17,53.500213,-1.433252
358511,Queensway Stores,3,10,5,10,2012-12-20,53.531328,-1.463749
358512,Quid Bake,3,10,10,5,2013-08-09,53.532738,-1.467413
358513,Quintessential Catering Company Ltd,5,0,5,5,2014-03-24,,
358514,R D Hill Chemist Ltd,Exempt,nan,nan,nan,2013-05-20,53.574785,-1.469196
358515,R L Barraclough & Son,5,0,0,0,2014-11-17,,
358516,R S D Stores,4,5,5,10,2014-02-12,53.576014,-1.462731
358517,R Warttig,AwaitingInspection,nan,nan,nan,,,
358518,R Warttig,AwaitingInspection,nan,nan,nan,,,
358519,R8 Snap,1,15,15,20,2014-12-04,,
358520,Railway Children Day Care Nursery,4,10,0,5,2013-03-12,53.494873,-1.419923
358521,Raimondos Bakery,4,0,5,10,2013-09-19,,
358522,Rainbow Community Centre,5,0,0,0,2014-11-14,53.546595,-1.311732
358523,Rainbow Express,1,15,15,20,2014-08-28,53.597822,-1.455217
358524,Rainbows Playgroup,4,0,10,10,2014-05-01,53.520453,-1.322125
358525,Raja Grill,5,5,5,5,2014-01-23,53.549881,-1.476133
358526,Raja Indian Cuisine,5,5,5,5,2014-02-24,53.554138,-1.489907
358527,Ramada Encore Barnsley,5,0,0,0,2014-05-21,53.547965,-1.518611
358528,Red Ginger Bar & Restaurant,5,5,5,5,2014-01-22,53.553142,-1.483987
358529,Red Lion,4,10,0,5,2011-11-04,53.546215,-1.563785
358530,Red Onion,0,20,20,30,2014-11-03,53.521321,-1.397043
358531,Red Rum,5,0,0,0,2011-10-31,53.573138,-1.373987
358532,Rhythm & Booze,Exempt,nan,nan,nan,2011-10-08,53.55607,-1.502503
358533,Rhythm & Booze,Exempt,nan,nan,nan,2011-10-11,53.57942,-1.47894
358534,Riccos Pizza,5,5,0,0,2014-05-29,53.585498,-1.500391
358535,Richard Newman Breakfast Club,5,0,5,5,2010-10-15,53.579749,-1.476021
358536,Richard Newman Primary School,AwaitingInspection,nan,nan,nan,,53.579749,-1.476021
358537,Ridge House,5,0,5,5,2011-03-17,53.560795,-1.493178
358538,Rigby's,5,5,5,0,2014-02-27,53.553213,-1.473511
358539,Rileys at The Potting Shed,4,10,0,0,2013-04-11,53.548027,-1.56022
358540,Ring O' Bells,5,5,5,5,2012-10-01,53.59539,-1.450066
358541,Rio's,1,5,0,20,2012-03-17,53.551732,-1.482057
358542,Rio's Nightclub,5,5,0,0,2012-10-03,53.551732,-1.482057
358543,RIPs Ices,AwaitingInspection,nan,nan,nan,,,
358544,Rising Stars Childrens Centre,5,5,0,0,2013-03-06,53.540689,-1.476729
358545,Riverside Cafe,5,0,5,5,2014-05-21,53.571027,-1.590243
358546,Riverside Care Home,5,0,5,5,2014-10-30,53.558843,-1.458012
358547,Rob Royd Farm Shop,5,5,0,5,2014-03-06,53.538207,-1.491154
358548,Roberts Family Butchers,3,10,10,10,2013-03-08,53.525678,-1.631076
358549,Robinsons News,Exempt,nan,nan,nan,2010-07-05,53.526208,-1.631026
358550,Rockingham Community Hall,4,0,5,10,2010-09-09,53.50451,-1.478712
358551,Rockley Dene Nursing Home,5,5,0,5,2014-11-06,53.531008,-1.468641
358552,Rockley Dene Residential Home,5,5,0,5,2014-11-06,53.530596,-1.468979
358553,Rocky's Plaice,3,10,10,10,2014-02-14,53.557811,-1.476639
358554,Rolands Gate Fisheries,4,5,0,10,2014-05-21,53.546514,-1.522008
358555,Ronksley's Ice Cream,5,5,0,5,2013-03-14,,
358556,Rose & Crown,5,5,5,5,2015-01-28,53.538514,-1.603126
358557,Rose & Crown Hotel,4,5,5,10,2014-10-29,53.584464,-1.531505
358558,Rose & Crown Inn,5,0,0,0,2011-04-18,53.543276,-1.472427
358559,Rose Bakers & Confectioners,5,5,5,5,2014-12-18,53.577261,-1.417951
358560,Rosehill House,5,5,5,5,2014-02-04,53.540054,-1.518293
358561,Roses Social Care,5,0,0,0,2015-01-07,53.548549,-1.469659
358562,Rosglen House,5,5,0,0,2012-08-31,53.540484,-1.377622
358563,Rossi's Cafe,4,0,0,10,2014-01-27,53.544628,-1.487667
358564,Rossi's Ice Cream F605 A0X,5,5,5,5,2011-07-28,,
358565,Rossi's Ice Cream G552 JOL,5,5,5,5,2011-07-28,,
358566,Rossi's Ice Cream K914 LUS,5,5,5,5,2011-07-28,,
358567,Rossi's Ice Cream L518 LWG,5,5,5,5,2011-07-28,,
358568,Rossi's Ice Cream L908 VTY,5,5,5,5,2011-07-28,,
358569,Rossi's Ice Cream LS52 VRZ,5,5,5,5,2011-07-28,,
358570,Rossi's Ice Cream P973 YJT,4,10,5,5,2011-07-28,,
358571,Rossi's Ice Cream T848 RNP,5,5,5,5,2011-07-28,,
358572,Round Green Deer Farm Venison Shop,5,0,0,0,2012-02-02,53.524746,-1.498345
358573,Rowlands Pharmacy,Exempt,nan,nan,nan,2014-03-26,53.521915,-1.398905
358574,Rowlands Pharmacy,Exempt,nan,nan,nan,2013-05-17,53.522186,-1.395734
358575,Royal Court Care Home,4,5,0,10,2015-01-19,53.500478,-1.432148
358576,Royal Oak,4,10,5,5,2010-10-26,53.520931,-1.39809
358577,Royal Tandoori,4,5,5,10,2014-06-23,53.584992,-1.410896
358578,Royston Civic Hall,4,10,0,0,2013-03-18,53.600541,-1.456225
358579,Royston Food & Wine,4,0,0,10,2011-02-24,53.602157,-1.457776
358580,Royston Meadstead Primary School,5,5,0,0,2014-05-15,53.597868,-1.461518
358581,Royston Midland Wmc,1,5,5,20,2012-10-04,53.60025,-1.441767
358582,Royston Pizza and Kebab House,3,10,5,10,2014-07-14,53.60114,-1.445775
358583,Royston Railwaymen Sports Club,5,5,0,5,2011-11-12,53.600293,-1.437581
358584,Royston St John The Baptist Primary School,5,0,0,0,2012-09-18,53.597527,-1.45161
358585,Royston W M C,3,10,10,10,2014-02-20,53.59795,-1.45372
358586,RSPB Old Moor Cafe,5,5,0,0,2012-12-03,53.515509,-1.364687
358587,Ruby Open Kitchen,4,5,10,5,2014-06-18,53.585603,-1.5019
358588,Ruby's,AwaitingInspection,nan,nan,nan,,,
358589,S & E M Meynell Ltd (Mobile),4,0,10,0,2012-12-13,,
358590,S & S General Store,5,5,5,5,2011-09-26,53.537185,-1.513256
358591,S E M Meynell Ltd,1,5,0,20,2012-11-27,53.560389,-1.397802
358592,S S Stores,1,10,10,20,2014-06-26,53.533669,-1.305499
358593,Sacred Heart Catholic Primary,5,0,0,0,2014-09-19,53.535731,-1.303006
358594,Sailor Sid (Units 48-49),4,10,5,5,2014-10-28,,
358595,Sainsburys,5,5,0,0,2011-10-20,53.600878,-1.447426
358596,Sainsbury's,5,5,0,0,2013-08-09,53.584643,-1.481111
358597,Sainsbury's,5,0,0,0,2010-07-08,53.59225,-1.408076
358598,Sainsburys Local,5,0,0,0,2012-10-24,53.569667,-1.448572
358599,Sainsbury's Supermarkets Ltd,5,5,0,0,2013-01-02,53.561117,-1.507909
358600,Sally's Yummy Bites,3,10,10,10,2014-08-07,,
358601,Salvation Army,4,10,5,0,2010-09-27,53.60056,-1.448669
358602,Samantha Ireland,4,10,5,0,2014-05-13,53.526676,-1.655158
358603,Sammies,5,5,5,5,2011-01-31,53.508493,-1.441224
358604,Sanchez,3,5,10,10,2014-11-24,53.497114,-1.46495
358605,Sandhill Golf Club,5,0,0,0,2014-03-28,53.549457,-1.347803
358606,Sandhill Primary School - Kitchen,5,0,5,0,2012-10-04,53.551737,-1.348825
358607,Sandhill Tavern,4,0,0,10,2012-01-11,53.549457,-1.347803
358608,Sandras Convenience Store,5,5,5,0,2014-09-22,53.58133,-1.471606
358609,Sandwich Box,5,5,5,5,2014-09-24,53.565161,-1.471898
358610,Sandwich Box,5,5,5,5,2014-09-05,53.501189,-1.438109
358611,Sarah Satisfactions,AwaitingInspection,nan,nan,nan,,53.562318,-1.509299
358612,Sarahs Kitchen,5,0,0,0,2014-10-14,53.554062,-1.456247
358613,Sarahs Pantry,5,5,0,5,2014-02-06,53.534469,-1.302363
358614,Sara's Flowers and Teas,3,10,10,10,2014-02-20,53.551934,-1.483186
358615,Sarni Xpress,2,10,15,10,2014-08-28,53.547538,-1.482878
358616,Savers Health and Beauty,4,10,0,0,2012-11-19,53.552656,-1.479721
358617,Saville Square,5,0,0,0,2011-02-28,53.497651,-1.46645
358618,Saxondale Nursing Home,5,5,5,0,2014-03-04,53.560607,-1.48924
358619,Schoffs,2,15,10,10,2014-03-17,53.554138,-1.489907
358620,Scorah's,1,15,5,20,2013-10-02,53.574251,-1.474578
358621,Scotts Corner Cafe,3,10,10,10,2014-06-23,53.546442,-1.318058
358622,SDS Meats,AwaitingInspection,nan,nan,nan,,,
358623,Sea Birds Fish & Chips,AwaitingInspection,nan,nan,nan,,53.522472,-1.398852
358624,Serendipity Crafts,4,0,5,10,2012-02-06,53.505275,-1.4811
358625,Servest Catering Ltd,5,0,0,0,2014-10-27,,
358626,Shaams,2,15,10,10,2014-04-14,53.521855,-1.397805
358627,Shafton ALC - Kitchen,5,0,0,0,2014-10-01,,
358628,Shafton Playgroup,5,0,0,0,2014-10-02,53.591151,-1.403906
358629,Shafton Primary School,5,5,0,0,2014-07-03,53.591259,-1.405763
358630,Shafton Village WMC,4,0,0,10,2012-03-02,53.591259,-1.405763
358631,Shaftsbury House,5,0,0,0,2012-08-09,53.541249,-1.47126
358632,Shakespeare Bar,4,5,5,10,2010-06-03,53.551732,-1.482057
358633,Shaw Inn,AwaitingInspection,nan,nan,nan,,53.54925,-1.490132
358634,Shawlands Primary,5,0,0,5,2014-09-30,53.549598,-1.491712
358635,Shaws Fish and Chips,5,0,0,0,2014-05-20,53.543276,-1.528217
358636,Shaws Petroleum Ltd,5,5,0,0,2010-07-06,53.58272,-1.454868
358637,Shayam Stores,3,5,10,10,2013-05-07,53.531904,-1.381972
358638,Sheffield Lazar Tag,5,0,0,0,2014-11-19,,
358639,Sheffield Road Baptist Church,5,0,5,0,2014-09-23,53.548613,-1.475877
358640,Shell Wentworth Park Service,4,5,0,10,2012-03-01,53.490621,-1.49293
358641,Shop 2 U,5,0,0,5,2012-11-06,,
358642,Shop No.1,AwaitingInspection,nan,nan,nan,,53.55319,-1.480454
358643,Shortwood Diner,5,0,5,5,2013-12-09,,
358644,Si Si,1,10,5,20,2013-09-11,53.534686,-1.301077
358645,Sidcop Community Nursery,5,0,0,0,2014-07-03,53.581588,-1.415022
358646,Sidcup Stores,5,0,0,5,2014-03-17,53.581259,-1.413909
358647,Signori's Pizzas,1,10,15,20,2012-10-16,53.546442,-1.318058
358648,Silkstone Common J & I School,5,0,0,5,2014-06-20,53.534545,-1.560586
358649,Silkstone Golf Club,5,5,0,0,2013-01-10,53.549121,-1.542867
358650,Silkstone Golf Club,5,5,0,5,2014-11-05,53.549121,-1.542867
358651,Silkstone Hotel,4,5,0,10,2014-11-24,53.546102,-1.479319
358652,Silkstone Lodge,2,15,10,10,2013-08-16,53.541383,-1.562432
358653,Silkstone Pre-School Play Group Ltd,5,0,0,0,2014-06-20,53.544682,-1.564963
358654,Silkstone Primary School,5,5,0,0,2014-05-08,53.544682,-1.564963
358655,Simply Delicious,5,5,0,0,2014-06-12,53.494873,-1.419923
358656,Simply Delicious,5,5,5,5,2014-06-12,53.575797,-1.476583
358657,Simply Yorkshire Ltd,4,0,0,10,2011-09-30,,
358658,Simpsons Chocolates,5,5,5,0,2013-10-30,53.494873,-1.419923
358659,Singh's Convenience Store,4,0,0,10,2011-06-10,53.499224,-1.427537
358660,Singhs News and Booze,4,10,0,10,2012-11-01,53.546494,-1.474454
358661,Sir George's Arms,4,5,0,10,2010-09-10,53.518371,-1.411157
358662,Sizzlers,1,5,15,20,2014-11-05,53.551101,-1.481657
358663,Small Fry,5,5,0,0,2014-06-11,53.559374,-1.495158
358664,Smalleys,5,5,5,5,2014-02-10,53.53478,-1.298631
358665,Smith's Fruit Stores,4,10,5,5,2010-10-26,53.523374,-1.399473
358666,Snack King,1,15,15,20,2014-09-15,,
358667,Snack Shack,AwaitingInspection,nan,nan,nan,,53.575815,-1.462507
358668,Snap Box,5,0,0,5,2014-04-07,53.525015,-1.617537
358669,Snax To Go,4,0,0,10,2014-07-30,,
358670,Snow White Ices,5,nan,nan,nan,2013-03-07,,
358671,Snowden Hill Water Buffalo - Stall,5,0,5,0,2014-06-30,53.500433,-1.601401
358672,Snydale Road Sports & Social Club,5,0,0,5,2012-01-23,53.574934,-1.414434
358673,Sodexo Limited (Staff Canteen),5,0,0,0,2015-01-08,53.571366,-1.437134
358674,Soul Lounge,4,5,0,10,2012-12-18,53.553336,-1.482988
358675,Spar,4,0,5,10,2012-09-17,53.582497,-1.543368
358676,Spar,5,5,5,5,2010-07-05,53.523333,-1.631247
358677,Spice,1,10,20,10,2014-01-14,53.537185,-1.513256
358678,Spice House,3,10,10,10,2013-10-30,53.578814,-1.413942
358679,Spice Night,4,5,5,10,2014-02-13,53.552678,-1.482528
358680,Spice of India,1,15,10,20,2012-04-02,53.553399,-1.456799
358681,Spirit,5,0,0,5,2014-05-08,,
358682,Spread Eagle Hotel,5,5,0,5,2014-10-28,53.525678,-1.631076
358683,Springvale Primary School - Kitchen,5,5,0,0,2012-11-22,53.522494,-1.613441
358684,Springwell Community Special School,5,0,0,0,2012-07-11,53.572642,-1.460403
358685,Spuds,5,0,0,5,2014-07-14,,
358686,St Andrews Fisheries,5,0,5,0,2012-08-10,53.520453,-1.322125
358687,St Andrew's Luncheon Club,5,0,0,0,2014-07-22,53.520453,-1.322125
358688,St Georges Church Hall,AwaitingInspection,nan,nan,nan,,53.551094,-1.486261
358689,St Helens Catholic Primary School,5,0,5,0,2012-09-25,53.500742,-1.444522
358690,St Helens Primary School,5,5,0,0,2014-07-11,53.569998,-1.448206
358691,St John The Baptist Junior School - Kitchen,5,5,0,5,2013-07-18,53.523333,-1.631247
358692,St Johns Bright Lights Out of School Club,4,5,0,10,2013-03-14,53.545368,-1.525537
358693,St Johns C of E Infant School,5,0,0,0,2014-03-12,53.521652,-1.637114
358694,St Johns Church Hall,Exempt,nan,nan,nan,2010-11-10,53.587757,-1.500998
358695,St John's Open Doors Project,5,0,5,0,2014-02-28,53.525786,-1.628209
358696,St Josephs Nursery,5,0,5,5,2014-09-23,53.546981,-1.460684
358697,St Martin's Private Day Nursery,4,0,0,10,2015-01-14,53.557737,-1.438493
358698,St Mary Magdalene Lunch Club (Mon),4,0,5,10,2010-05-10,53.559691,-1.437214
358699,St Marys C of E Primary School,5,5,5,5,2014-06-06,53.555209,-1.496596
358700,St Michaels Catholic Club,4,0,5,10,2010-09-30,53.521626,-1.396873
358701,St Michaels RC & All Angels Primary school,5,5,5,0,2014-04-04,53.528091,-1.388545
358702,St Thomas' Church Hall,5,5,5,5,2010-07-19,53.560738,-1.51208
358703,St. James Court Care Home,5,5,5,0,2014-07-07,53.49736,-1.46766
358704,Stainborough Cricket Club,5,0,0,0,2008-07-08,53.530188,-1.510304
358705,Staincross W M C,5,5,0,0,2011-10-18,53.58932,-1.50731
358706,Stairfoot & Ardsley Cons Club,4,10,5,0,2011-10-12,53.546115,-1.444275
358707,Stairfoot Post Office,Exempt,nan,nan,nan,2014-11-28,53.545989,-1.44236
358708,Staniforths,5,0,0,5,2012-09-20,53.533669,-1.305499
358709,Staniforths,5,0,5,5,2014-01-15,53.551189,-1.479105
358710,Staniforths,5,0,0,0,2014-03-18,53.523374,-1.399473
358711,Staniforths,5,0,5,0,2014-11-10,53.500953,-1.43772
358712,Staniforth's,5,5,0,5,2014-08-29,53.553298,-1.480483
358713,Star Butty,4,0,0,10,2013-01-08,,
358714,Station House,5,5,0,0,2014-06-23,53.544319,-1.306849
358715,Station Inn,4,10,5,5,2011-09-26,53.543082,-1.527042
358716,Station Inn,5,5,0,0,2014-05-20,53.534717,-1.563179
358717,Steels,5,0,5,5,2015-01-09,53.538288,-1.427388
358718,Stephen Slack,5,0,0,0,2015-01-06,,
358719,Storey's Amusements,5,0,0,5,2008-02-11,53.552711,-1.481939
358720,Storm in a Coffee Cup Cafe,5,5,0,0,2010-06-17,53.54637146,-1.31483995914
358721,Strafford Arms,2,10,15,10,2014-07-28,53.530188,-1.510304
358722,Strawberry Secret Vintage Tea Room,5,0,0,5,2014-08-18,53.561196,-1.490381
358723,Stuart the Butcher,5,0,5,5,2010-06-22,,
358724,Subway,5,5,5,0,2012-10-16,53.55199,-1.481405
358725,Subway,5,0,5,0,2014-04-07,53.539938,-1.432405
358726,Subway Interchange,5,5,5,0,2014-01-15,53.554381,-1.477466
358727,Summer Fields Primary Academy,5,0,0,5,2014-10-14,53.601746,-1.464294
358728,Summer Lane Fish Bar,5,0,0,0,2014-10-23,53.52178,-1.400762
358729,Summer Lane Out Of School Club,5,0,0,0,2011-11-15,53.557436,-1.495996
358730,Summer Lane Primary School,5,0,0,0,2012-09-17,53.557436,-1.495996
358731,Summer Lane Stores,AwaitingInspection,nan,nan,nan,,53.523223,-1.412522
358732,Sun Inn,5,0,0,5,2011-03-28,53.56581,-1.448411
358733,Sun Mei,4,10,5,5,2014-09-25,53.584296,-1.496613
358734,Sunbeams Funclub,5,0,0,5,2011-10-12,53.555209,-1.496596
358735,Sungari Chinese Take Away,3,10,10,5,2014-03-19,53.59795,-1.45372
358736,Sunnybank Childrens Centre,5,0,0,0,2014-07-14,53.535626,-1.456166
358737,Sunrise,5,0,5,5,2014-01-28,53.546728,-1.462302
358738,Sunshine Stars,4,0,5,10,2011-10-17,53.560738,-1.51208
358739,Supafruits,5,5,5,5,2010-10-25,,
358740,Superb Chinese Takeaway,4,10,0,10,2013-07-24,53.520453,-1.322125
358741,Superbodies,Exempt,nan,nan,nan,2010-06-07,53.597822,-1.455217
358742,Superdrug,Exempt,nan,nan,nan,2012-12-19,53.551921,-1.480062
358743,Supernews,5,5,0,0,2012-12-20,53.552198,-1.48184
358744,Supershop,1,10,15,20,2014-05-02,53.552216,-1.490096
358745,Supplement Hut,Exempt,nan,nan,nan,2010-07-27,53.546174,-1.491844
358746,Surestart,5,0,0,0,2013-05-17,53.496293,-1.446479
358747,Surf Bar,5,5,0,0,2014-04-08,53.551732,-1.482057
358748,Swaithe W.M.C.,4,10,5,5,2010-07-19,53.534979,-1.454062
358749,Sweet Dreams Ice Creams,5,5,5,5,2015-01-27,,
358750,Sweet Sisters Bakery,5,5,0,5,2014-08-22,53.579696,-1.48019
358751,Sweet Treats,4,10,5,5,2014-10-08,,
358752,Sweetarella,AwaitingInspection,nan,nan,nan,,,
358753,T & G Leisure,5,5,0,0,2013-08-29,53.521744,-1.397128
358754,T. Pickles Farms (Cheese and Eggs),5,0,5,5,2010-11-03,,
358755,T. Silverwood & Son,3,10,5,10,2013-07-03,53.579819,-1.41349
358756,TA Centre,5,5,0,0,2012-12-04,53.588289,-1.452001
358757,Take 2 Centre Cafe,4,0,5,10,2014-10-23,53.500427,-1.478235
358758,Take The Biscuit,5,0,0,0,2011-11-17,,
358759,Talbot Inn,3,10,10,5,2014-07-15,53.586005,-1.505536
358760,Tamale Kings,4,5,0,10,2012-11-22,,
358761,Tandoori Hut,5,5,5,5,2014-05-29,53.583214,-1.487261
358762,Tank Hill Cafe,4,10,5,0,2014-05-09,53.554083,-1.352064
358763,Tankersley Community Associati,5,0,0,0,2014-08-19,53.501635,-1.495904
358764,Tankersley Manor Hotel,5,0,0,5,2014-05-14,53.48957,-1.486944
358765,Tankersley News & Post Office,5,0,0,0,2011-02-03,53.501225,-1.494627
358766,Tankersley Park Golf Club,3,10,5,10,2013-07-18,53.481353,-1.480247
358767,Tankersley St Peters CofE Primary School,5,5,0,0,2014-03-18,53.497026,-1.479648
358768,Tankersley Welfare Hall,5,5,5,5,2010-07-07,53.501455,-1.495876
358769,Taste of China,5,5,5,5,2014-02-10,53.530667,-1.456637
358770,Taste Of India,3,10,5,10,2014-07-08,53.527757,-1.631767
358771,Tasteful Trotters,4,0,0,10,2014-07-24,,
358772,Tasty Chicken,AwaitingInspection,nan,nan,nan,,53.561935,-1.501332
358773,Taybarn,5,5,0,0,2014-06-04,,
358774,Taylors News,Exempt,nan,nan,nan,2011-10-26,53.575575,-1.381064
358775,Tee Cup,5,5,0,0,2013-03-08,53.492425,-1.4249
358776,Temple Gym,Exempt,nan,nan,nan,2014-03-18,53.522294,-1.397437
358777,Tennyson Road General Store,5,0,0,0,2013-07-18,53.562311,-1.461637
358778,Tesco,5,5,5,5,2014-04-29,53.525713,-1.63358
358779,Tesco,5,0,0,0,2012-11-22,53.564645,-1.49816
358780,Tesco Express,5,0,5,0,2012-08-10,53.522168,-1.314089
358781,Tesco Express,4,10,0,0,2010-11-01,53.524035,-1.400429
358782,Tesco Express,5,0,0,0,2011-03-18,53.570683,-1.468582
358783,Tesco Petrol Station,5,0,0,0,2013-08-12,53.539938,-1.432405
358784,Tesco Stores Ltd,5,5,0,0,2010-05-14,53.539938,-1.432405
358785,Tesco Stores Ltd,5,0,0,0,2014-12-16,53.504924,-1.443095
358786,Thaal,4,10,0,10,2015-01-07,53.536121,-1.368437
358787,Thai Zhong,3,10,10,10,2014-10-13,53.500317,-1.422939
358788,Thawleys,4,0,0,10,2010-09-10,53.525798,-1.390192
358789,The 99p Store,4,10,0,5,2010-12-17,53.55199,-1.481405
358790,The Acorn,5,5,5,5,2011-10-08,53.583019,-1.477506
358791,The Albion Inn,5,5,5,5,2010-11-18,53.509,-1.410201
358792,The Allotment Deli,5,0,0,5,2013-08-27,53.499426,-1.437966
358793,The Alma,4,10,5,5,2014-02-04,53.52156,-1.398156
358794,The Angel,1,10,5,20,2013-08-29,53.517049,-1.313236
358795,"The Arthouse Cafe, Deli & Gallery",AwaitingInspection,nan,nan,nan,,53.52628,-1.628084
358796,The Ash Inn,5,5,5,0,2014-04-04,53.536859,-1.422005
358797,The Baked Potato,5,nan,nan,nan,2014-12-10,,
358798,The Bakery Shop,1,15,15,20,2014-01-27,53.55223,-1.478896
358799,The Barley Sheaf,2,10,15,10,2013-08-06,53.523341,-1.416412
358800,The Bells Steakhouse,1,5,15,20,2014-12-08,53.545622,-1.563791
358801,The Blue Room,5,0,0,0,2012-10-03,53.551732,-1.482057
358802,The Boatmans Rest,3,10,10,10,2014-01-15,53.528011,-1.455615
358803,The Brambles,5,0,0,5,2011-07-07,53.538218,-1.519884
358804,The Bridge,5,5,0,0,2011-02-28,53.528762,-1.634142
358805,The Britannia Inn,4,5,5,10,2013-12-03,53.525015,-1.617537
358806,The Burntwood,5,5,5,5,2014-03-19,53.591593,-1.364045
358807,The Butchers Bar,5,0,0,0,2012-07-23,53.521855,-1.397805
358808,The Butterfly Cafe,5,0,0,0,2014-08-26,53.534469,-1.302363
358809,The Butty Box,4,0,0,10,2013-08-20,53.589701,-1.407009
358810,The Butty Box,5,0,0,0,2014-03-20,53.517923,-1.413169
358811,The Cabin,5,5,5,5,2014-11-20,,
358812,The Cake Fairy,4,0,0,10,2013-01-14,,
358813,The Chestnut Tree,5,5,5,5,2014-10-28,53.567806,-1.530737
358814,The Chilli Lodge,4,5,5,10,2014-07-22,53.530261,-1.566499
358815,The Civic,4,5,0,10,2013-03-07,53.553841,-1.479269
358816,The Club,4,10,5,5,2013-07-30,53.591593,-1.364045
358817,The Coach House Guest House,5,0,0,0,2011-10-12,53.546809,-1.450409
358818,The Cock Inn,4,5,5,10,2014-02-13,53.504561,-1.486326
358819,The Codfather,5,5,5,0,2014-10-16,53.57942,-1.47894
358820,The Coffee Shop,3,10,10,10,2014-02-18,53.577261,-1.417951
358821,The Collingwood,5,0,0,0,2013-09-02,53.519873,-1.315121
358822,The Commercial,5,0,0,0,2011-10-07,53.554799,-1.490956
358823,The Company Cafe,5,5,5,0,2014-11-11,53.493255,-1.490969
358824,The Conifers Nursing Home,4,10,0,0,2013-02-13,53.515829,-1.383036
358825,The Cooked Meat Deli,5,0,5,0,2013-11-13,,
358826,The Cooperative,5,0,0,0,2014-04-16,53.537599,-1.386386
358827,The Cooperative Pharmacy,Exempt,nan,nan,nan,,53.577791,-1.417838
358828,The Co-operative Pharmacy,Exempt,nan,nan,nan,2013-05-17,53.577261,-1.417951
358829,The Co-operative Pharmacy,Exempt,nan,nan,nan,,53.525678,-1.631076
358830,The Co-operative Pharmacy,5,0,0,0,2013-05-20,53.578228,-1.479694
358831,The Co-operative Pharmacy,Exempt,nan,nan,nan,2013-05-17,53.497114,-1.46495
358832,The Co-operative Pharmacy,Exempt,nan,nan,nan,2013-05-17,53.500401,-1.440742
358833,The Corner Shop Ltd,4,0,10,10,2015-01-06,53.554162,-1.482873
358834,The Court House,5,5,5,5,2014-01-28,53.554842,-1.480011
358835,The Cowlick,AwaitingInspection,nan,nan,nan,,,
358836,The Cross Keys Inn,5,5,5,5,2014-05-07,53.53385,-1.370734
358837,The Crown & Anchor,5,5,0,0,2014-09-23,53.571574,-1.529004
358838,The Crown Inn,5,5,0,5,2014-05-13,53.497918,-1.424977
358839,The Cup and Cake Bar,5,0,0,5,2014-04-16,53.552239,-1.482941
358840,The Darfield,AwaitingInspection,nan,nan,nan,,53.537391,-1.374016
358841,The Darley Inn,4,10,5,5,2010-10-28,53.531797,-1.458131
358842,The Dining Room,5,0,5,5,2013-02-07,53.545465,-1.473516
358843,The Earl of Sandwich,5,5,5,5,2014-02-06,53.533152,-1.457646
358844,The Ellis C of E Primary School,5,0,0,0,2014-10-24,53.508876,-1.40874
358845,The Elsecar Nursery,5,5,0,0,2013-03-12,53.497255,-1.420011
358846,The Fairway,5,5,5,0,2014-05-20,53.549121,-1.542867
358847,The Fat Pig Pork Shop,3,10,5,10,2013-02-11,,
358848,The Firs,5,0,0,0,2014-11-05,53.552085,-1.504014
358849,The Flying Dutchman,5,5,0,0,2014-10-08,53.507315,-1.427715
358850,The Forest Academy,AwaitingInspection,nan,nan,nan,,53.541915,-1.455527
358851,The Forge SYHA,5,0,5,0,2011-10-11,53.568499,-1.47468
358852,The Fountain Inn,2,15,10,10,2014-09-30,53.552076,-1.670875
358853,The Foxhouse Inn,5,0,5,0,2012-08-22,53.539292,-1.74728
358854,The Fudge Baker,5,0,5,5,2014-12-15,,
358855,The Full House,4,0,0,10,2014-03-13,53.563095,-1.460177
358856,The Fun Club,4,10,5,0,2011-10-05,53.49736,-1.46766
358857,The Gate Inn,4,10,5,5,2011-02-03,53.499573,-1.438643
358858,The General Store,5,0,5,0,2012-09-06,53.541257,-1.350585
358859,The George,5,0,5,5,2014-10-27,53.521915,-1.398905
358860,The Grange Residential Home,5,5,0,0,2014-04-23,53.553943,-1.440203
358861,The Grapevine,5,0,0,0,2011-01-28,53.563755,-1.495997
358862,The Greyhound,5,5,5,5,2010-10-28,53.530667,-1.456637
358863,The Groggers Rest,5,5,0,5,2014-01-14,53.55321,-1.478914
358864,The Grove Care Home,5,0,0,5,2015-01-21,53.540925,-1.312126
358865,The Health Services,4,5,0,10,2012-11-26,53.562768,-1.492158
358866,The Hill Primary Academy,5,0,0,5,2014-06-24,53.546942,-1.298747
358867,The Hill Toppers Daycare Nursery,5,0,0,5,2014-06-24,53.546942,-1.298747
358868,The Hope Inn,5,0,0,0,2008-08-05,53.556305,-1.447418
358869,The Horseshoe,5,5,0,0,2013-03-26,53.522306,-1.39801
358870,The Lamproom Theatre,5,0,0,5,2013-07-04,53.553482,-1.485673
358871,The Limes,5,0,5,0,2014-11-21,53.591023,-1.495446
358872,The Little Sandwich Shop,4,5,0,10,2013-08-23,53.553298,-1.480483
358873,The Little Tea Room,5,5,0,0,2013-08-27,53.58602,-1.502711
358874,The Loft Coffee Shop,5,0,0,0,2014-03-13,53.525968,-1.631737
358875,The Londoner,5,5,0,0,2013-01-08,53.553336,-1.482988
358876,The Lunch Club,5,5,0,5,2014-06-10,53.557064,-1.499503
358877,The Lunch Lady,AwaitingInspection,nan,nan,nan,,,
358878,The Maples,5,0,5,5,2014-11-13,53.579708,-1.535756
358879,The Marlborough Hotel,4,10,0,0,2013-09-05,53.552293,-1.48922
358880,The Masonic Hall,5,0,0,0,2014-11-17,53.560416,-1.486571
358881,The Masonic Hall,4,5,0,10,2013-02-22,53.554774,-1.480888
358882,The Meadows,5,5,0,0,2014-03-20,53.517114,-1.377618
358883,The Mill Academy,5,5,0,0,2014-06-04,53.532637,-1.464955
358884,The Mobile Unit,Exempt,nan,nan,nan,2012-03-14,53.525039,-1.403658
358885,The Monkey,5,5,0,5,2011-07-13,53.516616,-1.549204
358886,The Mount,AwaitingInspection,nan,nan,nan,,53.550149,-1.475631
358887,The Muscle Unit,Exempt,nan,nan,nan,2014-05-12,53.58272,-1.454868
358888,The New Inn,4,5,0,10,2012-01-02,53.561598,-1.509051
358889,The New Mayfair,5,0,0,5,2012-08-30,53.497114,-1.46495
358890,The New Orient Express,5,5,5,5,2014-11-27,53.547538,-1.482878
358891,The Norman Inn,5,5,5,0,2014-11-04,53.562364,-1.453468
358892,The Officials Club,4,10,5,5,2010-07-26,53.543923,-1.302026
358893,The Old Crown,3,10,5,10,2010-07-15,53.525678,-1.631076
358894,The Old Moor Tavern,5,5,5,5,2014-03-18,53.519612,-1.369015
358895,The Old Number 7,5,5,0,0,2014-08-28,53.552937,-1.482193
358896,The Old Post Office,4,10,5,5,2014-05-27,53.597947,-1.545393
358897,The Olde Bridge Inn,5,5,5,0,2012-10-08,53.570466,-1.438702
358898,The Original Dil Raj Tandoori Restaurant,5,5,0,0,2014-06-09,53.542372,-1.524831
358899,The Outpost,5,5,0,0,2014-03-24,53.549175,-1.472912
358900,The Ozone,Exempt,nan,nan,nan,2015-01-22,53.552275,-1.468647
358901,The Pack Horse,5,0,5,5,2013-09-03,53.596948,-1.452811
358902,The Pantry,4,5,5,10,2011-10-08,53.560629,-1.505213
358903,The Pantry,5,5,0,5,2011-01-12,53.494873,-1.419923
358904,The Pinfold Hotel,4,10,0,0,2011-10-24,53.570932,-1.410488
358905,The Play Village,5,0,0,0,2014-02-27,53.585186,-1.500953
358906,The Radley Cake Company,4,0,0,10,2014-06-03,,
358907,The Red Lion Country Inn,3,10,10,10,2014-10-28,53.526389,-1.470841
358908,The Robert Ogden School,5,0,5,0,2012-10-12,53.551906,-1.324098
358909,The Royal,3,10,10,10,2014-07-03,53.573822,-1.526775
358910,The Royal Albert Hotel,5,5,5,5,2010-06-21,53.513339,-1.445292
358911,The Royal Oak,5,5,0,5,2014-05-15,53.509217,-1.442255
358912,The Royal Spice,3,10,10,5,2014-04-16,53.587194,-1.528363
358913,The Rusty Dudley,4,0,10,5,2013-09-02,53.534686,-1.301077
358914,The Salvation Army,5,0,0,0,2014-10-03,53.531854,-1.307143
358915,"The Salvation Army, Hoyland Common Corps",4,5,5,10,2013-08-28,53.497757,-1.464052
358916,The Sandpit Nursery,5,5,5,0,2013-07-10,53.551934,-1.483186
358917,The Sandwich Shop,1,15,0,20,2014-05-20,53.542372,-1.524831
358918,The Sandwich Specialists,4,5,5,10,2014-05-01,53.4975,-1.462654
358919,The Secret Garden Childrens Centre,5,0,0,0,2014-09-22,53.583797,-1.482904
358920,The Ship Inn,5,5,0,0,2012-11-19,53.529083,-1.47028
