,addressline1,addressline2,addressline3,addressline4,businessname,businesstype,businesstypeid,confidenceinmanagement,extractdate,fhrsid,hygiene,itemcount,latitude,localauthoritybusinessid,localauthoritycode,localauthorityemailaddress,localauthorityname,localauthoritywebsite,longitude,postcode,ratingdate,ratingkey,ratingvalue,returncode,schemetype,structural
357346,Kendray Playing Fields,Hunningley Lane,,Stairfoot,5ives Barnsley,Pub/bar/nightclub,7843,0,,398094,0,,53.53728200000000,57279,401,regulatoryservices@barnsley.gov.uk,Barnsley,http://www.barnsley.gov.uk,-1.44861600000000,S70 3JR,2012-11-02,fhrs_5_en-GB,5,,FHRS,0
357347,,6 The Arcade,,Barnsley,8oz Burger Co,Restaurant/Cafe/Canteen,1,5,,696047,10,,53.55347800000000,9,401,regulatoryservices@barnsley.gov.uk,Barnsley,http://www.barnsley.gov.uk,-1.48057100000000,S70 2QN,2014-08-20,fhrs_3_en-GB,3,,FHRS,10
357348,,2b Hunt Street,,Hoyland Common,9 Sweet Celebrations,Other catering premises,7841,0,,605228,0,,53.49723000000000,62096,401,regulatoryservices@barnsley.gov.uk,Barnsley,http://www.barnsley.gov.uk,-1.46470700000000,S74 0ND,2013-10-21,fhrs_4_en-GB,4,,FHRS,10
357349,,,,,A Bit of a Do,Other catering premises,7841,5,,398058,0,,,54373,401,regulatoryservices@barnsley.gov.uk,Barnsley,http://www.barnsley.gov.uk,,,2012-02-28,fhrs_5_en-GB,5,,FHRS,0
357350,,22 Laithes Crescent,,Athersley North,A Hopkinson & Son,Retailers - other,4613,5,,397483,5,,53.58035800000000,1453,401,regulatoryservices@barnsley.gov.uk,Barnsley,http://www.barnsley.gov.uk,-1.47957800000000,S71 3AE,2014-04-24,fhrs_5_en-GB,5,,FHRS,5
357351,,1 Market Place,,Penistone,A M Clark Ltd,Retailers - other,4613,,,397534,,,53.52598200000000,1596,401,regulatoryservices@barnsley.gov.uk,Barnsley,http://www.barnsley.gov.uk,-1.63053100000000,S36 6DA,2011-02-23,fhrs_exempt_en-GB,Exempt,,FHRS,
357352,Transport Cafe,Westwood New Road,,Tankersley,A61 Truck Stop,Restaurant/Cafe/Canteen,1,0,,398926,5,,53.49765100000000,89915,401,regulatoryservices@barnsley.gov.uk,Barnsley,http://www.barnsley.gov.uk,-1.46645000000000,S74 0DQ,2014-11-11,fhrs_5_en-GB,5,,FHRS,5
357353,,234 Pontefract Road,,Lundwood,Abbey Fisheries,Takeaway/sandwich shop,7844,10,,397371,0,,53.55773700000000,1215,401,regulatoryservices@barnsley.gov.uk,Barnsley,http://www.barnsley.gov.uk,-1.43849300000000,S71 5PN,2012-10-24,fhrs_4_en-GB,4,,FHRS,10
357354,,,,,ABC Amy's Bakery and Confectionery,Other catering premises,7841,5,,605234,0,,,96691,401,regulatoryservices@barnsley.gov.uk,Barnsley,http://www.barnsley.gov.uk,,,2014-05-27,fhrs_5_en-GB,5,,FHRS,0
357355,The Baptist Church,Union Street,,Barnsley,ABC Cafe,Other catering premises,7841,0,,398909,0,,53.54861300000000,89284,401,regulatoryservices@barnsley.gov.uk,Barnsley,http://www.barnsley.gov.uk,-1.47587700000000,S70 1JJ,2014-03-27,fhrs_5_en-GB,5,,FHRS,0
357356,,36a Queens Road,,Barnsley,Age UK Barnsley,Retailers - other,4613,,,397705,,,53.55357000000000,25547,401,regulatoryservices@barnsley.gov.uk,Barnsley,http://www.barnsley.gov.uk,-1.47293300000000,S71 1AR,2008-02-19,fhrs_exempt_en-GB,Exempt,,FHRS,
357357,Alams Lounge,3 Hermit Lane,,"Higham, Barnsley",Alams Lounge,Restaurant/Cafe/Canteen,1,5,,398372,0,,53.55760100000000,71465,401,regulatoryservices@barnsley.gov.uk,Barnsley,http://www.barnsley.gov.uk,-1.52777100000000,S75 1PL,2014-08-20,fhrs_5_en-GB,5,,FHRS,5
357358,Albert Street Cafe,15 Albert Street East,,Barnsley,Albert Street Cafe,Restaurant/Cafe/Canteen,1,0,,397790,5,,53.55139000000000,3465,401,regulatoryservices@barnsley.gov.uk,Barnsley,http://www.barnsley.gov.uk,-1.47990300000000,S70 1RS,2014-01-14,fhrs_5_en-GB,5,,FHRS,5
357359,Alberts Diner,Albert Street,,Barnsley,Albert's Diner,Restaurant/Cafe/Canteen,1,5,,398606,5,,53.55139000000000,77876,401,regulatoryservices@barnsley.gov.uk,Barnsley,http://www.barnsley.gov.uk,-1.47990300000000,S70 1RS,2012-01-16,fhrs_5_en-GB,5,,FHRS,0
357360,,120 Midland Road,,Royston,Albions Takeaway,Takeaway/sandwich shop,7844,5,,397407,10,,53.59989300000000,1262,401,regulatoryservices@barnsley.gov.uk,Barnsley,http://www.barnsley.gov.uk,-1.45017400000000,S71 4QT,2014-01-30,fhrs_4_en-GB,4,,FHRS,5
357361,Aldi Foodstores Ltd,Hunningley Lane,,Stairfoot,Aldi,Retailers - supermarkets/hypermarkets,7840,0,,397895,0,,53.54602800000000,4426,401,regulatoryservices@barnsley.gov.uk,Barnsley,http://www.barnsley.gov.uk,-1.44095600000000,S70 3PE,2011-09-27,fhrs_5_en-GB,5,,FHRS,0
357362,Aldi Supermarket,Claycliffe Road,,Barugh,Aldi,Retailers - supermarkets/hypermarkets,7840,0,,398987,0,,,91765,401,regulatoryservices@barnsley.gov.uk,Barnsley,http://www.barnsley.gov.uk,,S75 1AP,2012-06-26,fhrs_5_en-GB,5,,FHRS,0
357363,Alexandra Working Mens Club,59 High Street,,Royston,Alexandra W M C,Pub/bar/nightclub,7843,5,,398726,5,,53.59793500000000,826,401,regulatoryservices@barnsley.gov.uk,Barnsley,http://www.barnsley.gov.uk,-1.45832800000000,S71 4RF,2011-10-17,fhrs_5_en-GB,5,,FHRS,5
357364,"Unit 33, The Alhambra Shopping Centre",Cheapside,,Barnsley,Alhambra News,Retailers - other,4613,,,398896,,,53.55088900000000,88935,401,regulatoryservices@barnsley.gov.uk,Barnsley,http://www.barnsley.gov.uk,-1.47832400000000,S70 1SB,2011-06-28,fhrs_exempt_en-GB,Exempt,,FHRS,
357365,All Saints Academy,School Street,,Darfield,All Saints Academy,School/college/university,7845,0,,398096,0,,53.53543200000000,573,401,regulatoryservices@barnsley.gov.uk,Barnsley,http://www.barnsley.gov.uk,-1.37238600000000,S73 9EU,2014-04-30,fhrs_5_en-GB,5,,FHRS,5
357366,"Stall 21, Hoyland Market",Market Street,,Hoyland,All Seasons Fruit and Veg,Retailers - other,4613,0,,398785,0,,,85209,401,regulatoryservices@barnsley.gov.uk,Barnsley,http://www.barnsley.gov.uk,,,2010-10-05,fhrs_5_en-GB,5,,FHRS,0
357367,3 Allendale Court,Allendale,,Worsbrough Dale,Allendale Fisheries,Takeaway/sandwich shop,7844,5,,418766,0,,53.53250700000000,4149,401,regulatoryservices@barnsley.gov.uk,Barnsley,http://www.barnsley.gov.uk,-1.45210300000000,S70 4RF,2014-02-26,fhrs_5_en-GB,5,,FHRS,0
357368,,2-4 Allendale,,Worsbrough Dale,Allendale Stores,Retailers - other,4613,,,721916,,,53.53270300000000,71932,401,regulatoryservices@barnsley.gov.uk,Barnsley,http://www.barnsley.gov.uk,-1.45176800000000,S70 4RE,,fhrs_awaitinginspection_en-GB,AwaitingInspection,,FHRS,
357369,,12 Cemetery Road,,Grimethorpe,Alric Food and Wine Limited,Retailers - other,4613,20,,397676,10,,53.57521200000000,2404,401,regulatoryservices@barnsley.gov.uk,Barnsley,http://www.barnsley.gov.uk,-1.37533100000000,S72 7JB,2014-07-18,fhrs_1_en-GB,1,,FHRS,10
357370,,9 Church Street,,Cudworth,Amber House,Hospitals/Childcare/Caring Premises,5,5,,397466,5,,53.57526400000000,14095,401,regulatoryservices@barnsley.gov.uk,Barnsley,http://www.barnsley.gov.uk,-1.41757100000000,S72 8DD,2010-08-20,fhrs_5_en-GB,5,,FHRS,0
357371,,199a Barnsley Road,,Wombwell,American Fried Chicken,Takeaway/sandwich shop,7844,10,,397398,15,,53.52936000000000,1254,401,regulatoryservices@barnsley.gov.uk,Barnsley,http://www.barnsley.gov.uk,-1.41034100000000,S73 8DR,2014-12-18,fhrs_2_en-GB,2,,FHRS,15
357372,,12 Market Hill,,Barnsley,Americanos Pizza,Takeaway/sandwich shop,7844,10,,397366,0,,53.55328300000000,1209,401,regulatoryservices@barnsley.gov.uk,Barnsley,http://www.barnsley.gov.uk,-1.48116300000000,S70 2QE,2014-03-26,fhrs_4_en-GB,4,,FHRS,10
357373,,,,,Amore Venue Styling,Other catering premises,7841,,,605232,,,,96641,401,regulatoryservices@barnsley.gov.uk,Barnsley,http://www.barnsley.gov.uk,,,,fhrs_awaitinginspection_en-GB,AwaitingInspection,,FHRS,
357374,,101 School Street,,Darfield,Amy's Fish and Chips,Takeaway/sandwich shop,7844,10,,398333,10,,53.53717100000000,69266,401,regulatoryservices@barnsley.gov.uk,Barnsley,http://www.barnsley.gov.uk,-1.37322000000000,S73 9EZ,2014-04-30,fhrs_3_en-GB,3,,FHRS,10
357375,Andrea's Cafe,Langsett,,"Stocksbridge, Sheffield",Andreas Cafe,Restaurant/Cafe/Canteen,1,0,,397791,0,,53.50079400000000,34961,401,regulatoryservices@barnsley.gov.uk,Barnsley,http://www.barnsley.gov.uk,-1.67941300000000,S36 4GY,2014-10-29,fhrs_5_en-GB,5,,FHRS,0
357376,Hoyland Market,Market Street,,Hoyland,Andrew Nutbrown,Retailers - other,4613,0,,397346,0,,53.50118900000000,11700,401,regulatoryservices@barnsley.gov.uk,Barnsley,http://www.barnsley.gov.uk,-1.43810900000000,S74 0EW,2012-09-18,fhrs_5_en-GB,5,,FHRS,0
357377,,18 Barnsley Road,,Goldthorpe,Andy's News,Retailers - other,4613,10,,397446,0,,53.53428900000000,1363,401,regulatoryservices@barnsley.gov.uk,Barnsley,http://www.barnsley.gov.uk,-1.30382900000000,S63 9NF,2012-12-17,fhrs_4_en-GB,4,,FHRS,0
357378,"Unit 11-13, Semi open Market",Barnsley Market,,,Angela McArthur,Retailers - other,4613,5,,447648,0,,,94049,401,regulatoryservices@barnsley.gov.uk,Barnsley,http://www.barnsley.gov.uk,,,2013-02-19,fhrs_5_en-GB,5,,FHRS,0
357379,,,,,Angies Express,Mobile caterer,7846,10,,638812,0,,,98008,401,regulatoryservices@barnsley.gov.uk,Barnsley,http://www.barnsley.gov.uk,,,2014-03-13,fhrs_4_en-GB,4,,FHRS,10
357380,Anglers Rest,66 Park Street,,Wombwell,Anglers Rest,Pub/bar/nightclub,7843,5,,398478,5,,53.51942600000000,74713,401,regulatoryservices@barnsley.gov.uk,Barnsley,http://www.barnsley.gov.uk,-1.39209300000000,S73 0HS,2011-03-08,fhrs_4_en-GB,4,,FHRS,10
357381,"Unit 15d, Elsecar Heritage Centre",Wath Road,,Elsecar,Ania's Cupcakes,Retailers - other,4613,10,,398758,0,,53.49487300000000,83757,401,regulatoryservices@barnsley.gov.uk,Barnsley,http://www.barnsley.gov.uk,-1.41992300000000,S74 8HJ,2013-07-05,fhrs_4_en-GB,4,,FHRS,0
357382,,15 Queensway,,Worsbrough Bridge,Antonio's,Takeaway/sandwich shop,7844,5,,397976,10,,53.53132800000000,490,401,regulatoryservices@barnsley.gov.uk,Barnsley,http://www.barnsley.gov.uk,-1.46374900000000,S70 5EN,2015-01-14,fhrs_4_en-GB,4,,FHRS,5
357383,,31a Blacker Road,,Staincross,Aqua Fish Bar,Takeaway/sandwich shop,7844,0,,398342,5,,53.58518600000000,69766,401,regulatoryservices@barnsley.gov.uk,Barnsley,http://www.barnsley.gov.uk,-1.50095300000000,S75 6BP,2012-08-09,fhrs_5_en-GB,5,,FHRS,0
357384,Christ Church,Doncaster Road,,Ardsley,Ardsley Luncheon Club,Other catering premises,7841,5,,399104,5,,53.54638500000000,9981,401,regulatoryservices@barnsley.gov.uk,Barnsley,http://www.barnsley.gov.uk,-1.42714300000000,S71 5EF,2014-03-27,fhrs_5_en-GB,5,,FHRS,0
357385,,8-10 The Arcade,,Barnsley,Aroma Cafe Bar,Restaurant/Cafe/Canteen,1,5,,397773,5,,53.55347800000000,33934,401,regulatoryservices@barnsley.gov.uk,Barnsley,http://www.barnsley.gov.uk,-1.48057100000000,S70 2QN,2015-01-29,fhrs_5_en-GB,5,,FHRS,5
357386,"Stall 5 Meat And Fish Section, Charter Market",Charter Arcade,,Barnsley,Arthurs House,Retailers - other,4613,10,,398821,5,,,87171,401,regulatoryservices@barnsley.gov.uk,Barnsley,http://www.barnsley.gov.uk,,S70 1RE,2013-02-11,fhrs_3_en-GB,3,,FHRS,10
357387,Asda,Old Mill Lane,,Barnsley,Asda,Retailers - supermarkets/hypermarkets,7840,0,,397672,0,,53.56063600000000,2398,401,regulatoryservices@barnsley.gov.uk,Barnsley,http://www.barnsley.gov.uk,-1.47521500000000,S71 1LN,2013-05-01,fhrs_5_en-GB,5,,FHRS,5
357388,Asda,The Lane,,Royston,Asda,Retailers - supermarkets/hypermarkets,7840,0,,398263,0,,53.60087600000000,66711,401,regulatoryservices@barnsley.gov.uk,Barnsley,http://www.barnsley.gov.uk,-1.44497800000000,S71 4BP,2014-08-01,fhrs_5_en-GB,5,,FHRS,0
357389,Asda,Welfare Road,,Thurnscoe,Asda,Retailers - supermarkets/hypermarkets,7840,0,,398419,10,,53.54560300000000,73612,401,regulatoryservices@barnsley.gov.uk,Barnsley,http://www.barnsley.gov.uk,-1.31426800000000,S63 0JZ,2014-08-01,fhrs_4_en-GB,4,,FHRS,5
357390,Asda,Thomas Street,,Worsbrough,Asda,Retailers - supermarkets/hypermarkets,7840,0,,398308,0,,53.53176500000000,68192,401,regulatoryservices@barnsley.gov.uk,Barnsley,http://www.barnsley.gov.uk,-1.46887300000000,S70 5AU,2014-02-06,fhrs_5_en-GB,5,,FHRS,0
357391,Asda,3-5 High Street,,Goldthorpe,Asda,Retailers - supermarkets/hypermarkets,7840,0,,397679,10,,53.53343600000000,2409,401,regulatoryservices@barnsley.gov.uk,Barnsley,http://www.barnsley.gov.uk,-1.30408500000000,S63 9NQ,2014-08-01,fhrs_4_en-GB,4,,FHRS,0
357392,Asda Supermarket,High Street,,Grimethorpe,Asda,Retailers - supermarkets/hypermarkets,7840,0,,398307,0,,53.57511200000000,68191,401,regulatoryservices@barnsley.gov.uk,Barnsley,http://www.barnsley.gov.uk,-1.37856400000000,S72 7LT,2014-08-01,fhrs_5_en-GB,5,,FHRS,0
357393,Asda,Old Mill Lane,,Barnsley,Asda Cafe,Restaurant/Cafe/Canteen,1,0,,707220,0,,53.56063600000000,158399,401,regulatoryservices@barnsley.gov.uk,Barnsley,http://www.barnsley.gov.uk,-1.47521500000000,S71 1LN,2014-11-25,fhrs_5_en-GB,5,,FHRS,0
357394,Ashfield Working Mens Club,Doncaster Road,,Kendray,Ashfield W M C,Pub/bar/nightclub,7843,5,,398407,0,,53.54627900000000,731,401,regulatoryservices@barnsley.gov.uk,Barnsley,http://www.barnsley.gov.uk,-1.44868000000000,S70 3HA,2011-09-28,fhrs_4_en-GB,4,,FHRS,10
357395,,325 Burton Road,,Monk Bretton,Ashiana,Takeaway/sandwich shop,7844,,,398052,,,53.56929400000000,537,401,regulatoryservices@barnsley.gov.uk,Barnsley,http://www.barnsley.gov.uk,-1.44173700000000,S71 2QF,,fhrs_awaitinginspection_en-GB,AwaitingInspection,,FHRS,
357396,,13 Station Road,,Lundwood,Aspire in the Community,Hospitals/Childcare/Caring Premises,5,0,,398051,0,,53.56870700000000,5336,401,regulatoryservices@barnsley.gov.uk,Barnsley,http://www.barnsley.gov.uk,-1.42987600000000,S71 5LA,2013-01-16,fhrs_5_en-GB,5,,FHRS,5
357397,Gate Inn,Barnsley Road,,Dodworth,Aspire in the Community,Hospitals/Childcare/Caring Premises,5,0,,576906,0,,53.54718100000000,80687,401,regulatoryservices@barnsley.gov.uk,Barnsley,http://www.barnsley.gov.uk,-1.52026500000000,S75 3JR,2014-04-17,fhrs_5_en-GB,5,,FHRS,0
357398,,,,,Aspire in the Community,Hospitals/Childcare/Caring Premises,5,0,,398998,0,,,91976,401,regulatoryservices@barnsley.gov.uk,Barnsley,http://www.barnsley.gov.uk,,,2014-03-27,fhrs_5_en-GB,5,,FHRS,0
357399,Athersley Arms,Rotherham Road,,Monk Bretton,Athersley Arms,Pub/bar/nightclub,7843,0,,397355,0,,53.57312000000000,1189,401,regulatoryservices@barnsley.gov.uk,Barnsley,http://www.barnsley.gov.uk,-1.46891400000000,S71 1UT,2014-09-22,fhrs_5_en-GB,5,,FHRS,0
357400,,26 Derwent Road,,Athersley South,Athersley Chippy,Takeaway/sandwich shop,7844,10,,398527,10,,53.57784600000000,75524,401,regulatoryservices@barnsley.gov.uk,Barnsley,http://www.barnsley.gov.uk,-1.46443000000000,S71 3QT,2014-08-04,fhrs_3_en-GB,3,,FHRS,10
357401,Athersley North Primary School,Lindhurst Road,,Athersley North,Athersley North Primary School,School/college/university,7845,0,,398206,0,,53.58379700000000,626,401,regulatoryservices@barnsley.gov.uk,Barnsley,http://www.barnsley.gov.uk,-1.48290400000000,S71 3NB,2014-03-04,fhrs_5_en-GB,5,,FHRS,0
357402,Athersley Working Mens Club,Mansfield Road,,Athersley North,Athersley Social Club,Pub/bar/nightclub,7843,5,,398506,5,,53.58112100000000,750,401,regulatoryservices@barnsley.gov.uk,Barnsley,http://www.barnsley.gov.uk,-1.47319400000000,S71 3AR,2010-07-06,fhrs_5_en-GB,5,,FHRS,5
357403,Athersley South Primary School,Wakefield Road,,Smithies,Athersley South Primary School,School/college/university,7845,0,,398236,0,,53.57694700000000,640,401,regulatoryservices@barnsley.gov.uk,Barnsley,http://www.barnsley.gov.uk,-1.47638800000000,S71 3TP,2014-09-24,fhrs_5_en-GB,5,,FHRS,5
357404,,1 Barnsley Road,,"Wombwell, Barnsley",Audreys Coffee House & Deli,Restaurant/Cafe/Canteen,1,20,,733114,15,,53.52503900000000,1874,401,regulatoryservices@barnsley.gov.uk,Barnsley,http://www.barnsley.gov.uk,-1.40365700000000,S73 8HT,2015-01-09,fhrs_1_en-GB,1,,FHRS,15
357405,Asos,Park Spring Road,,Little Houghton,Autograph the Food People,Restaurant/Cafe/Canteen,1,0,,398917,0,,53.57374200000000,89546,401,regulatoryservices@barnsley.gov.uk,Barnsley,http://www.barnsley.gov.uk,-1.38471500000000,S72 7GX,2014-10-13,fhrs_5_en-GB,5,,FHRS,5
357406,B And Q,Bleachcroft Way,,Stairfoot,Autograph the Food People,Restaurant/Cafe/Canteen,1,0,,398106,0,,53.54282900000000,57891,401,regulatoryservices@barnsley.gov.uk,Barnsley,http://www.barnsley.gov.uk,-1.43737700000000,S70 3PA,2014-10-09,fhrs_5_en-GB,5,,FHRS,0
357407,Autumn House,2 Station Road,,Worsbrough Dale,Autumn House,Hospitals/Childcare/Caring Premises,5,0,,397417,0,,53.52925600000000,1278,401,regulatoryservices@barnsley.gov.uk,Barnsley,http://www.barnsley.gov.uk,-1.45476900000000,S70 4SY,2015-01-27,fhrs_5_en-GB,5,,FHRS,0
357408,Hazlehead Hall,Lee Lane,,Millhouse Green,Avid Farmshop,Retailers - other,4613,,,398114,,,53.52694500000000,5850,401,regulatoryservices@barnsley.gov.uk,Barnsley,http://www.barnsley.gov.uk,-1.68445000000000,S36 9NN,2014-01-16,fhrs_5_en-GB,5,,FHRS,
357409,B And M Stores,Old Mill Lane,,Barnsley,B and M Stores,Retailers - supermarkets/hypermarkets,7840,0,,676465,0,,53.55904700000000,48614,401,regulatoryservices@barnsley.gov.uk,Barnsley,http://www.barnsley.gov.uk,-1.47355900000000,S71 1LP,2014-11-25,fhrs_5_en-GB,5,,FHRS,0
357410,,20 Eldon Street North,,Barnsley,B&C Paperchain,Retailers - other,4613,0,,397559,0,,53.55687900000000,1682,401,regulatoryservices@barnsley.gov.uk,Barnsley,http://www.barnsley.gov.uk,-1.47729900000000,S71 1LG,2013-03-06,fhrs_5_en-GB,5,,FHRS,0
357411,Newburgh House,Mclintock Way,,Barnsley,Backstreets Cafe & Takeaway,Restaurant/Cafe/Canteen,1,0,,397740,0,,53.55253300000000,31339,401,regulatoryservices@barnsley.gov.uk,Barnsley,http://www.barnsley.gov.uk,-1.48855300000000,S70 6BF,2014-10-06,fhrs_4_en-GB,4,,FHRS,10
357412,"Cafe 3, Charter Market",Charter Arcade,,Barnsley,Baileys Cafe,Restaurant/Cafe/Canteen,1,10,,397871,10,,,406,401,regulatoryservices@barnsley.gov.uk,Barnsley,http://www.barnsley.gov.uk,,S70 1RE,2013-04-12,fhrs_4_en-GB,4,,FHRS,0
357413,,37a Lamb Lane,,Monk Bretton,Bailey's Catering,Other catering premises,7841,0,,398835,0,,53.56996500000000,874,401,regulatoryservices@barnsley.gov.uk,Barnsley,http://www.barnsley.gov.uk,-1.45078800000000,S71 2PU,2012-10-29,fhrs_5_en-GB,5,,FHRS,5
357414,,9 Burlington Arcade,,Barnsley,Baileys Coffee Shop,Takeaway/sandwich shop,7844,5,,397744,0,,53.55290900000000,3183,401,regulatoryservices@barnsley.gov.uk,Barnsley,http://www.barnsley.gov.uk,-1.47983900000000,S70 1SZ,2013-02-11,fhrs_4_en-GB,4,,FHRS,10
357415,,77 Brierley Road,,Grimethorpe,Bains Premier News,Retailers - other,4613,0,,397823,5,,53.57951900000000,3758,401,regulatoryservices@barnsley.gov.uk,Barnsley,http://www.barnsley.gov.uk,-1.37904300000000,S72 7EL,2012-09-06,fhrs_2_en-GB,2,,FHRS,15
357416,,39 Ballfield Lane,,Kexbrough,Ballfield Convenience Store,Retailers - other,4613,20,,397980,10,,53.58494800000000,4913,401,regulatoryservices@barnsley.gov.uk,Barnsley,http://www.barnsley.gov.uk,-1.54737500000000,S75 5LJ,2014-03-14,fhrs_1_en-GB,1,,FHRS,10
357417,,77 High Street,,Wombwell,Balti Palace,Restaurant/Cafe/Canteen,1,5,,397883,5,,53.52349600000000,4281,401,regulatoryservices@barnsley.gov.uk,Barnsley,http://www.barnsley.gov.uk,-1.40066300000000,S73 8HS,2014-11-18,fhrs_4_en-GB,4,,FHRS,10
357418,,74 Church Street,,Darton,Balti Palace,Restaurant/Cafe/Canteen,1,10,,397516,10,,53.58607700000000,1543,401,regulatoryservices@barnsley.gov.uk,Barnsley,http://www.barnsley.gov.uk,-1.53011200000000,S75 5HQ,2014-03-12,fhrs_3_en-GB,3,,FHRS,10
357419,Post Office,2a Yews Avenue,,Worsbrough Dale,Bank End Post Office,Retailers - other,4613,10,,397996,0,,53.53429500000000,497,401,regulatoryservices@barnsley.gov.uk,Barnsley,http://www.barnsley.gov.uk,-1.45794900000000,S70 4BW,2013-09-02,fhrs_4_en-GB,4,,FHRS,10
357420,Bank View Cafe,Manchester Road,,Langsett,Bank View Cafe,Restaurant/Cafe/Canteen,1,5,,398351,0,,53.50079400000000,70104,401,regulatoryservices@barnsley.gov.uk,Barnsley,http://www.barnsley.gov.uk,-1.67941300000000,S36 4GY,2014-03-12,fhrs_5_en-GB,5,,FHRS,5
357421,,1 Station Road,,Thurnscoe,Bargain Booze,Retailers - other,4613,,,397682,,,53.54517100000000,2420,401,regulatoryservices@barnsley.gov.uk,Barnsley,http://www.barnsley.gov.uk,-1.30950600000000,S63 0JR,2014-10-13,fhrs_exempt_en-GB,Exempt,,FHRS,
357422,,266-268 Barnsley Road,,Cudworth,Bargain Booze,Retailers - other,4613,,,397873,,,53.57785800000000,409,401,regulatoryservices@barnsley.gov.uk,Barnsley,http://www.barnsley.gov.uk,-1.41685500000000,S72 8SU,2014-10-07,fhrs_exempt_en-GB,Exempt,,FHRS,
357423,Unit 2,50 High Street,,Wombwell,Bargain Booze,Retailers - other,4613,,,397881,,,53.52337400000000,4261,401,regulatoryservices@barnsley.gov.uk,Barnsley,http://www.barnsley.gov.uk,-1.39947300000000,S73 8BH,2014-10-09,fhrs_exempt_en-GB,Exempt,,FHRS,
357424,Central Garage,Barnsley Road,,Darton,Bargain Booze Select Convenience,Retailers - other,4613,0,,398828,0,,53.58357500000000,87328,401,regulatoryservices@barnsley.gov.uk,Barnsley,http://www.barnsley.gov.uk,-1.53171100000000,S75 5NN,2012-10-30,fhrs_5_en-GB,5,,FHRS,0
357425,"Stall 9 And 10 Meat And Fish Section, Charter Market",Charter Arcade,,,Barkers,Retailers - other,4613,5,,398151,5,,,60303,401,regulatoryservices@barnsley.gov.uk,Barnsley,http://www.barnsley.gov.uk,,,2011-07-06,fhrs_5_en-GB,5,,FHRS,5
357426,"Barnados Family Centre, Priory Campus",Pontefract Road,,Lundwood,Barnardos Family Centre,Hospitals/Childcare/Caring Premises,5,,,718578,,,53.55953500000000,88246,401,regulatoryservices@barnsley.gov.uk,Barnsley,http://www.barnsley.gov.uk,-1.43664200000000,S71 5HS,,fhrs_awaitinginspection_en-GB,AwaitingInspection,,FHRS,
357427,Barnbrooks Bar And Grill,Greenside,,Staincross,Barnbrooks Bar & Grill,Pub/bar/nightclub,7843,0,,397239,5,,53.58676500000000,1003,401,regulatoryservices@barnsley.gov.uk,Barnsley,http://www.barnsley.gov.uk,-1.50250600000000,S75 6AU,2014-05-29,fhrs_5_en-GB,5,,FHRS,5
357428,,13-15 May Day Green Arcade,,Barnsley,Barnsley Beef Company,Retailers - other,4613,5,,398334,10,,53.55223000000000,69302,401,regulatoryservices@barnsley.gov.uk,Barnsley,http://www.barnsley.gov.uk,-1.47889600000000,S70 1RG,2013-09-13,fhrs_3_en-GB,3,,FHRS,10
357429,Barnsley Bowl,Carlton Road,,Athersley South,Barnsley Bowl,Pub/bar/nightclub,7843,0,,398502,0,,53.57340800000000,74929,401,regulatoryservices@barnsley.gov.uk,Barnsley,http://www.barnsley.gov.uk,-1.46285500000000,S71 2AZ,2013-07-23,fhrs_5_en-GB,5,,FHRS,5
357430,Barnsley Central Wmc,Birk Avenue,,Kendray,Barnsley Central W.M.C.,Pub/bar/nightclub,7843,5,,398428,0,,53.54057300000000,740,401,regulatoryservices@barnsley.gov.uk,Barnsley,http://www.barnsley.gov.uk,-1.44707900000000,S70 3AL,2011-10-14,fhrs_5_en-GB,5,,FHRS,5
357431,Addaction,John Street,,Barnsley,Barnsley Churches Drop-in Project,Restaurant/Cafe/Canteen,1,5,,398970,5,,53.54949000000000,91327,401,regulatoryservices@barnsley.gov.uk,Barnsley,http://www.barnsley.gov.uk,-1.47918600000000,S70 1LL,2014-01-16,fhrs_5_en-GB,5,,FHRS,0
357432,"Stall 17, Semi Open Market",Market Parade,,,Barnsley Coffee Beans Stall,Retailers - other,4613,0,,499432,0,,,95017,401,regulatoryservices@barnsley.gov.uk,Barnsley,http://www.barnsley.gov.uk,,,2014-11-07,fhrs_5_en-GB,5,,FHRS,0
357433,,36 Pitt Street,,Barnsley,Barnsley Conservative Club,Pub/bar/nightclub,7843,0,,398416,0,,53.55153100000000,736,401,regulatoryservices@barnsley.gov.uk,Barnsley,http://www.barnsley.gov.uk,-1.48350800000000,S70 1AW,2013-03-15,fhrs_4_en-GB,4,,FHRS,10
357434,East Dene Wmc,111 Doncaster Road,,Barnsley,Barnsley East Dene Wmc,Pub/bar/nightclub,7843,20,,398412,0,,53.54830900000000,733,401,regulatoryservices@barnsley.gov.uk,Barnsley,http://www.barnsley.gov.uk,-1.47010000000000,S70 1UD,2013-02-18,fhrs_1_en-GB,1,,FHRS,5
357435,,2 Pearson Crescent,,Wombwell,Barnsley Food and Wine,Retailers - other,4613,10,,397606,5,,53.53224500000000,1886,401,regulatoryservices@barnsley.gov.uk,Barnsley,http://www.barnsley.gov.uk,-1.41761800000000,S73 8SN,2012-11-13,fhrs_4_en-GB,4,,FHRS,0
357436,"Unit 18, Grange Lane Industrial Estate",Carrwood Road,,Stairfoot,Barnsley Foodbank Partnership,Retailers - other,4613,0,,676471,0,,53.54938900000000,88596,401,regulatoryservices@barnsley.gov.uk,Barnsley,http://www.barnsley.gov.uk,-1.44086700000000,S71 5AS,2014-04-28,fhrs_5_en-GB,5,,FHRS,0
357437,,,,,Barnsley Greenworks,Retailers - other,4613,0,,553502,0,,,80228,401,regulatoryservices@barnsley.gov.uk,Barnsley,http://www.barnsley.gov.uk,,,2013-09-02,fhrs_5_en-GB,5,,FHRS,5
357438,Barnsley Hospice,104-106 Church Street,,Gawber,Barnsley Hospice,Hospitals/Childcare/Caring Premises,5,0,,397505,0,,53.56069500000000,1513,401,regulatoryservices@barnsley.gov.uk,Barnsley,http://www.barnsley.gov.uk,-1.51476800000000,S75 2RL,2013-02-12,fhrs_5_en-GB,5,,FHRS,5
357439,Barnsley District General Hospital,Gawber Road,,Old Town,Barnsley Hospital (Ward Kitchens),Hospitals/Childcare/Caring Premises,5,5,,397987,10,,53.55832300000000,4943,401,regulatoryservices@barnsley.gov.uk,Barnsley,http://www.barnsley.gov.uk,-1.49959400000000,S75 2EP,2013-03-26,fhrs_4_en-GB,4,,FHRS,5
357440,,347-349 Pontefract Road,,Lundwood,Barnsley House,Takeaway/sandwich shop,7844,10,,398060,15,,53.55953500000000,54504,401,regulatoryservices@barnsley.gov.uk,Barnsley,http://www.barnsley.gov.uk,-1.43664200000000,S71 5HS,2014-07-09,fhrs_2_en-GB,2,,FHRS,10
357441,,154 Sheffield Road,,Barnsley,Barnsley Kebab and Pizza House,Takeaway/sandwich shop,7844,20,,397368,15,,53.54704000000000,1212,401,regulatoryservices@barnsley.gov.uk,Barnsley,http://www.barnsley.gov.uk,-1.47381400000000,S70 1JH,2014-11-20,fhrs_1_en-GB,1,,FHRS,15
357442,Barnsley Mencap Centre,Burton Road,,Monk Bretton,Barnsley Mencap Centre,Hospitals/Childcare/Caring Premises,5,0,,398924,0,,53.56581000000000,89873,401,regulatoryservices@barnsley.gov.uk,Barnsley,http://www.barnsley.gov.uk,-1.44841100000000,S71 2JS,2014-07-17,fhrs_5_en-GB,5,,FHRS,0
357443,Longcar Conference Centre,Longcar Lane,,Barnsley,Barnsley Norse,School/college/university,7845,5,,398210,0,,53.54702300000000,629,401,regulatoryservices@barnsley.gov.uk,Barnsley,http://www.barnsley.gov.uk,-1.48860400000000,S70 6BB,2012-11-19,fhrs_4_en-GB,4,,FHRS,10
357444,Barnsley Town Hall,Church Street,,Barnsley,Barnsley Norse Limited,Other catering premises,7841,0,,681423,0,,53.55416200000000,883,401,regulatoryservices@barnsley.gov.uk,Barnsley,http://www.barnsley.gov.uk,-1.48287300000000,S70 2TA,2014-10-09,fhrs_5_en-GB,5,,FHRS,0
357445,Barnsley North Learning And Development Unit,Lindhurst Road,,Athersley North,Barnsley North Unit,Hospitals/Childcare/Caring Premises,5,0,,397801,5,,53.58321800000000,35832,401,regulatoryservices@barnsley.gov.uk,Barnsley,http://www.barnsley.gov.uk,-1.48004100000000,S71 3DQ,2014-02-27,fhrs_5_en-GB,5,,FHRS,0
357446,,24 Wellington Street,,Barnsley,Barnsley Pie Shop,Takeaway/sandwich shop,7844,,,397771,,,53.55173200000000,3376,401,regulatoryservices@barnsley.gov.uk,Barnsley,http://www.barnsley.gov.uk,-1.48205700000000,S70 1SS,,fhrs_awaitinginspection_en-GB,AwaitingInspection,,FHRS,
357447,Dorothy Hyman Sports Centre,Snydale Road,,Cudworth,Barnsley Premier Leisure,Pub/bar/nightclub,7843,5,,397834,5,,53.57576600000000,382,401,regulatoryservices@barnsley.gov.uk,Barnsley,http://www.barnsley.gov.uk,-1.41374300000000,S72 8LH,2014-03-19,fhrs_4_en-GB,4,,FHRS,10
357448,Shaw Lane Sports Ground,Shaw Lane,,Barnsley,Barnsley Rugby Union Football Club Ltd,Pub/bar/nightclub,7843,0,,397832,0,,53.55038700000000,380,401,regulatoryservices@barnsley.gov.uk,Barnsley,http://www.barnsley.gov.uk,-1.49327200000000,S70 6HZ,2014-02-13,fhrs_5_en-GB,5,,FHRS,5
357449,Barnsley Lawn Tennis Club,The Crescent,,Redbrook,Barnsley Tennis Club,Other catering premises,7841,5,,565916,0,,53.56653500000000,13668,401,regulatoryservices@barnsley.gov.uk,Barnsley,http://www.barnsley.gov.uk,-1.50307500000000,S75 1JH,2014-06-04,fhrs_5_en-GB,5,,FHRS,0
357450,,33 Racecommon Road,,Barnsley,Barnsley Trades Council Club,Pub/bar/nightclub,7843,5,,397842,5,,53.55138900000000,3880,401,regulatoryservices@barnsley.gov.uk,Barnsley,http://www.barnsley.gov.uk,-1.48808300000000,S70 6AA,2010-06-04,fhrs_5_en-GB,5,,FHRS,5
357451,Ymca,Blucher Street,,Barnsley,Barnsley YMCA,Hotel/bed & breakfast/guest house,7842,5,,397739,5,,53.55136800000000,3126,401,regulatoryservices@barnsley.gov.uk,Barnsley,http://www.barnsley.gov.uk,-1.48319300000000,S70 1AP,2014-08-19,fhrs_5_en-GB,5,,FHRS,0
357452,"Accommodation, Barrow Wmc",George Street,,Worsbrough Bridge,Barrow W M C,Pub/bar/nightclub,7843,5,,398669,5,,53.53074600000000,803,401,regulatoryservices@barnsley.gov.uk,Barnsley,http://www.barnsley.gov.uk,-1.46618600000000,S70 5EX,2010-11-18,fhrs_5_en-GB,5,,FHRS,5
357453,,,,,Bars Buns,Other catering premises,7841,10,,398801,5,,,86097,401,regulatoryservices@barnsley.gov.uk,Barnsley,http://www.barnsley.gov.uk,,,2010-08-11,fhrs_4_en-GB,4,,FHRS,5
357454,Barugh Green Chippy,Barugh Green Road,,Barugh Green,Barugh Green Chippy,Takeaway/sandwich shop,7844,20,,397538,10,,53.56613600000000,1621,401,regulatoryservices@barnsley.gov.uk,Barnsley,http://www.barnsley.gov.uk,-1.51762000000000,S75 1HH,2014-07-31,fhrs_1_en-GB,1,,FHRS,10
357455,Barugh Community Centre,Barugh Green Road,,Barugh Green,Barugh Green Pre-School,Hospitals/Childcare/Caring Premises,5,5,,397711,0,,53.56776900000000,26045,401,regulatoryservices@barnsley.gov.uk,Barnsley,http://www.barnsley.gov.uk,-1.53037500000000,S75 1JT,2012-07-12,fhrs_5_en-GB,5,,FHRS,0
357456,Barugh Green Primary School,Higham Common Road,,Barugh Green,Barugh Green Primary,School/college/university,7845,0,,398257,0,,53.56742900000000,663,401,regulatoryservices@barnsley.gov.uk,Barnsley,http://www.barnsley.gov.uk,-1.53318800000000,S75 1LD,2012-07-12,fhrs_5_en-GB,5,,FHRS,0
357457,Barugh Green Wmc,Higham Common Road,,Barugh Green,Barugh Green W M C,Pub/bar/nightclub,7843,5,,398747,0,,53.56742900000000,834,401,regulatoryservices@barnsley.gov.uk,Barnsley,http://www.barnsley.gov.uk,-1.53318800000000,S75 1LD,2011-11-04,fhrs_4_en-GB,4,,FHRS,10
357458,"Gist Ltd, Carlton Industrial Estate Plot 29 And 30",Industry Road,,Carlton,Baxter Storey,Restaurant/Cafe/Canteen,1,0,,398640,0,,53.57951900000000,79509,401,regulatoryservices@barnsley.gov.uk,Barnsley,http://www.barnsley.gov.uk,-1.45459100000000,S71 3LJ,2014-02-27,fhrs_5_en-GB,5,,FHRS,0
357459,Beatson House Restaurant,2 Darton Road,,Cawthorne,Beatson House,Restaurant/Cafe/Canteen,1,0,,397930,0,,53.56905900000000,4690,401,regulatoryservices@barnsley.gov.uk,Barnsley,http://www.barnsley.gov.uk,-1.57001300000000,S75 4HR,2014-05-22,fhrs_5_en-GB,5,,FHRS,5
357460,,,,,Beautiful Celebrations,Retailers - other,4613,0,,456970,0,,,94303,401,regulatoryservices@barnsley.gov.uk,Barnsley,http://www.barnsley.gov.uk,,,2012-11-27,fhrs_5_en-GB,5,,FHRS,0
357461,,,,,Beaux Gateaux,Other catering premises,7841,,,718575,,,,158703,401,regulatoryservices@barnsley.gov.uk,Barnsley,http://www.barnsley.gov.uk,,,,fhrs_awaitinginspection_en-GB,AwaitingInspection,,FHRS,
357462,"Managers Accommodation, The Beggar And Gentleman",Market Street,,Hoyland,Beggar And Gentleman,Pub/bar/nightclub,7843,0,,397298,0,,53.50136400000000,1090,401,regulatoryservices@barnsley.gov.uk,Barnsley,http://www.barnsley.gov.uk,-1.43896600000000,S74 9QR,2013-03-21,fhrs_4_en-GB,4,,FHRS,10
357463,,1 Bence Lane,,Darton,Belchers,Retailers - other,4613,5,,398472,0,,53.57860500000000,74650,401,regulatoryservices@barnsley.gov.uk,Barnsley,http://www.barnsley.gov.uk,-1.52956100000000,S75 5NX,2014-05-22,fhrs_5_en-GB,5,,FHRS,5
357464,Belle Green Court Nursing Home,Belle Green Lane,,Cudworth,Belle Green Court,Hospitals/Childcare/Caring Premises,5,0,,397441,0,,53.57824500000000,13393,401,regulatoryservices@barnsley.gov.uk,Barnsley,http://www.barnsley.gov.uk,-1.41141300000000,S72 8LU,2015-01-21,fhrs_5_en-GB,5,,FHRS,0
357465,Belmont Wmc,West Street,,Hoyland,Belmont WMC,Pub/bar/nightclub,7843,5,,398701,0,,53.49982200000000,818,401,regulatoryservices@barnsley.gov.uk,Barnsley,http://www.barnsley.gov.uk,-1.43980000000000,S74 9AH,2011-10-01,fhrs_5_en-GB,5,,FHRS,5
357466,"Cafeteria, Priory Campus",Pontefract Road,,Lundwood,Benedicts Coffee Shop,Restaurant/Cafe/Canteen,1,10,,398515,0,,53.55953500000000,75240,401,regulatoryservices@barnsley.gov.uk,Barnsley,http://www.barnsley.gov.uk,-1.43664200000000,S71 5HS,2013-07-23,fhrs_4_en-GB,4,,FHRS,10
357467,,70 Eldon Street,,Barnsley,Best Kebab & Pizza,Takeaway/sandwich shop,7844,10,,398692,0,,53.55384100000000,81475,401,regulatoryservices@barnsley.gov.uk,Barnsley,http://www.barnsley.gov.uk,-1.47926900000000,S70 2JL,2014-07-30,fhrs_4_en-GB,4,,FHRS,0
357468,,210-212 Doncaster Road,,Barnsley,Best One,Retailers - other,4613,20,,398512,0,,53.54776700000000,75195,401,regulatoryservices@barnsley.gov.uk,Barnsley,http://www.barnsley.gov.uk,-1.46749600000000,S70 1UH,2014-08-28,fhrs_1_en-GB,1,,FHRS,5
357469,,40 Wingfield Road,,Athersley South,Betty's Bed & Breakfast,Hotel/bed & breakfast/guest house,7842,10,,398233,5,,53.57850800000000,63957,401,regulatoryservices@barnsley.gov.uk,Barnsley,http://www.barnsley.gov.uk,-1.47182200000000,S71 3PR,2010-09-13,fhrs_4_en-GB,4,,FHRS,5
357470,"Shop 1, Nu Well Shopping Mall",Summer Lane,,Wombwell,BFC Meals,Takeaway/sandwich shop,7844,10,,398841,5,,53.52043700000000,8762,401,regulatoryservices@barnsley.gov.uk,Barnsley,http://www.barnsley.gov.uk,-1.39995200000000,S73 0DR,2014-03-20,fhrs_4_en-GB,4,,FHRS,5
357471,,,,,Big Kahuna Burger,Mobile caterer,7846,10,,676489,10,,,98375,401,regulatoryservices@barnsley.gov.uk,Barnsley,http://www.barnsley.gov.uk,,,2014-08-05,fhrs_3_en-GB,3,,FHRS,10
357472,Big Mamas,256 Barnsley Road,,"Cudworth, Barnsley",Big Mamas,Takeaway/sandwich shop,7844,,,397285,,,53.57726100000000,1064,401,regulatoryservices@barnsley.gov.uk,Barnsley,http://www.barnsley.gov.uk,-1.41795100000000,S72 8SS,2014-09-29,fhrs_5_en-GB,5,,FHRS,
357473,Hilltop Farm,Hemingfield Road,,Hemingfield,Billy's Hill Farm Shop,Retailers - other,4613,5,,398309,5,,53.51105000000000,68196,401,regulatoryservices@barnsley.gov.uk,Barnsley,http://www.barnsley.gov.uk,-1.41018700000000,S73 0PZ,2014-03-28,fhrs_4_en-GB,4,,FHRS,10
357474,"Unit 1, Beevor Street Industrial Estate",Beevor Street,,Hoyle Mill,Birchwood Price Tools,Retailers - other,4613,,,689633,,,53.55290100000000,158142,401,regulatoryservices@barnsley.gov.uk,Barnsley,http://www.barnsley.gov.uk,-1.45996000000000,S71 1HN,2014-10-09,fhrs_exempt_en-GB,Exempt,,FHRS,
357475,Wickes Building Supplies Ltd,Old Mill Lane,,Barnsley,Birchwood Price Tools,Retailers - other,4613,,,707222,,,53.56295300000000,158411,401,regulatoryservices@barnsley.gov.uk,Barnsley,http://www.barnsley.gov.uk,-1.46848300000000,S71 1LS,2014-11-25,fhrs_exempt_en-GB,Exempt,,FHRS,
357476,Birdwell Methodist Church,Sheffield Road,,Birdwell,Birdwell Kids' Club,Hospitals/Childcare/Caring Premises,5,0,,398630,0,,53.50971200000000,79024,401,regulatoryservices@barnsley.gov.uk,Barnsley,http://www.barnsley.gov.uk,-1.48021700000000,S70 5XB,2014-02-03,fhrs_5_en-GB,5,,FHRS,0
357477,Birdwell Community Centre,Rockingham Street,,Birdwell,Birdwell Luncheon Club,Other catering premises,7841,10,,397887,0,,53.50451000000000,4332,401,regulatoryservices@barnsley.gov.uk,Barnsley,http://www.barnsley.gov.uk,-1.47871200000000,S70 5TQ,2014-09-29,fhrs_4_en-GB,4,,FHRS,0
357478,Birdwell Methodist Church,Sheffield Road,,Birdwell,Birdwell Methodist Church,Other catering premises,7841,5,,397886,0,,53.50971200000000,4327,401,regulatoryservices@barnsley.gov.uk,Barnsley,http://www.barnsley.gov.uk,-1.48021700000000,S70 5XB,2013-06-25,fhrs_5_en-GB,5,,FHRS,0
357479,,107 Sheffield Road,,Birdwell,Birdwell News,Retailers - other,4613,0,,397594,0,,53.50739200000000,1850,401,regulatoryservices@barnsley.gov.uk,Barnsley,http://www.barnsley.gov.uk,-1.48010900000000,S70 5XF,2014-01-27,fhrs_5_en-GB,5,,FHRS,0
357480,Birdwell Primary School,Sheffield Road,,Birdwell,Birdwell Primary School - Kitchen,School/college/university,7845,0,,398251,5,,53.50975700000000,654,401,regulatoryservices@barnsley.gov.uk,Barnsley,http://www.barnsley.gov.uk,-1.48021600000000,S70 5XB,2012-07-11,fhrs_5_en-GB,5,,FHRS,0
357481,Birdwell Venue,Sheffield Road,,Birdwell,Birdwell Venue,Pub/bar/nightclub,7843,20,,397988,5,,53.50919300000000,4948,401,regulatoryservices@barnsley.gov.uk,Barnsley,http://www.barnsley.gov.uk,-1.48079600000000,S70 5UY,2012-11-12,fhrs_1_en-GB,1,,FHRS,10
357482,"Ground Floor Stall 32, Charter Market",Charter Arcade,,Barnsley,Birkinshaws,Retailers - other,4613,0,,398167,5,,,60423,401,regulatoryservices@barnsley.gov.uk,Barnsley,http://www.barnsley.gov.uk,,S70 1RE,2013-04-30,fhrs_5_en-GB,5,,FHRS,0
357483,Birkwood Primary,Darfield Road,,Cudworth,Birkwood Primary School,School/college/university,7845,0,,398424,5,,53.56859900000000,73978,401,regulatoryservices@barnsley.gov.uk,Barnsley,http://www.barnsley.gov.uk,-1.40757600000000,S72 8HG,2014-07-16,fhrs_5_en-GB,5,,FHRS,5
357484,,22-24 Doncaster Road,,Barnsley,Bistro Red and White,Restaurant/Cafe/Canteen,1,5,,589560,5,,53.54994300000000,67677,401,regulatoryservices@barnsley.gov.uk,Barnsley,http://www.barnsley.gov.uk,-1.47587500000000,S70 1TH,2013-09-27,fhrs_5_en-GB,5,,FHRS,0
357485,,24 Shambles Street,,Barnsley,Bistro Romanos,Restaurant/Cafe/Canteen,1,5,,397850,5,,53.55333600000000,39033,401,regulatoryservices@barnsley.gov.uk,Barnsley,http://www.barnsley.gov.uk,-1.48298800000000,S70 2SW,2014-12-01,fhrs_5_en-GB,5,,FHRS,5
357486,,28 Dodworth Road,,Barnsley,Bite Me,Takeaway/sandwich shop,7844,0,,452147,5,,53.55229300000000,85661,401,regulatoryservices@barnsley.gov.uk,Barnsley,http://www.barnsley.gov.uk,-1.48922000000000,S70 6DY,2014-02-20,fhrs_5_en-GB,5,,FHRS,0
357487,,,,,Bite to Eat,Mobile caterer,7846,,,676485,,,,98336,401,regulatoryservices@barnsley.gov.uk,Barnsley,http://www.barnsley.gov.uk,,,,fhrs_awaitinginspection_en-GB,AwaitingInspection,,FHRS,
357488,Black Bull Hotel,Grange Lane,,Stairfoot,Black Bull,Pub/bar/nightclub,7843,5,,397360,0,,53.54567800000000,1197,401,regulatoryservices@barnsley.gov.uk,Barnsley,http://www.barnsley.gov.uk,-1.43910500000000,S70 3NJ,2014-02-04,fhrs_5_en-GB,5,,FHRS,0
357489,,58 Market Street,,Barnsley,Blackburns Cafe,Restaurant/Cafe/Canteen,1,5,,398522,10,,53.55117700000000,75405,401,regulatoryservices@barnsley.gov.uk,Barnsley,http://www.barnsley.gov.uk,-1.48053900000000,S70 1SN,2014-10-30,fhrs_3_en-GB,3,,FHRS,10
357490,Blacksmiths Arms,Manchester Road,,Millhouse Green,Blacksmith's Arms,Pub/bar/nightclub,7843,10,,397328,5,,53.52504200000000,1135,401,regulatoryservices@barnsley.gov.uk,Barnsley,http://www.barnsley.gov.uk,-1.67185400000000,S36 9NQ,2014-12-10,fhrs_4_en-GB,4,,FHRS,5
357491,,7-9 Grahams Orchard,,Barnsley,Bluu,Pub/bar/nightclub,7843,20,,398313,5,,53.55267800000000,68462,401,regulatoryservices@barnsley.gov.uk,Barnsley,http://www.barnsley.gov.uk,-1.48252800000000,S70 2ST,2012-08-17,fhrs_1_en-GB,1,,FHRS,0
357492,The Wombwell Unit,Littlefield Lane,,Wombwell,BMBC Wombwell Unit,Hospitals/Childcare/Caring Premises,5,0,,701066,0,,53.52485600000000,92537,401,regulatoryservices@barnsley.gov.uk,Barnsley,http://www.barnsley.gov.uk,-1.40106600000000,S73 8DF,2014-12-02,fhrs_5_en-GB,5,,FHRS,0
357493,The Old Mill,Grange Lane,,Stairfoot,Boccellis,Restaurant/Cafe/Canteen,1,5,,397257,5,,53.55292000000000,1026,401,regulatoryservices@barnsley.gov.uk,Barnsley,http://www.barnsley.gov.uk,-1.44048800000000,S71 5QF,2014-10-02,fhrs_5_en-GB,5,,FHRS,5
357494,,42 Cheapside,,Barnsley,Body Shop,Retailers - other,4613,,,397736,,,53.55145000000000,3110,401,regulatoryservices@barnsley.gov.uk,Barnsley,http://www.barnsley.gov.uk,-1.47919300000000,S70 1RU,2007-12-17,fhrs_exempt_en-GB,Exempt,,FHRS,
357495,Bollingbroke House Care Home,Common Road,,Brierley,Bollingbroke House,Hospitals/Childcare/Caring Premises,5,0,,398388,0,,53.59352900000000,72238,401,regulatoryservices@barnsley.gov.uk,Barnsley,http://www.barnsley.gov.uk,-1.37835400000000,S72 9EA,2015-01-29,fhrs_5_en-GB,5,,FHRS,0
357496,,31 Furlong Road,,Bolton Upon Dearne,Bolton Fisheries,Takeaway/sandwich shop,7844,10,,398627,10,,53.51987300000000,789,401,regulatoryservices@barnsley.gov.uk,Barnsley,http://www.barnsley.gov.uk,-1.31512100000000,S63 8JA,2014-03-12,fhrs_3_en-GB,3,,FHRS,10
357497,Ex Servicesmans And Social Club,31 Station Road,,Bolton Upon Dearne,Bolton On Dearne Ex-Servicemens Social Club,Pub/bar/nightclub,7843,10,,398546,5,,53.51852800000000,764,401,regulatoryservices@barnsley.gov.uk,Barnsley,http://www.barnsley.gov.uk,-1.31559500000000,S63 8AA,2012-02-01,fhrs_4_en-GB,4,,FHRS,5
357498,Post Office,St Andrews Square,,Bolton Upon Dearne,Bolton On Dearne Post office,Retailers - other,4613,,,397249,,,53.52045300000000,10185,401,regulatoryservices@barnsley.gov.uk,Barnsley,http://www.barnsley.gov.uk,-1.32212500000000,S63 8BA,2011-09-21,fhrs_exempt_en-GB,Exempt,,FHRS,
357499,,126-128 Doncaster Road,,Barnsley,Bon Appetit,Restaurant/Cafe/Canteen,1,10,,397965,5,,53.54891000000000,4857,401,regulatoryservices@barnsley.gov.uk,Barnsley,http://www.barnsley.gov.uk,-1.47202500000000,S70 1TP,2014-01-28,fhrs_4_en-GB,4,,FHRS,5
357500,,,,,Bonjour Cupcakes,Other catering premises,7841,0,,427030,0,,,93677,401,regulatoryservices@barnsley.gov.uk,Barnsley,http://www.barnsley.gov.uk,,,2012-08-08,fhrs_5_en-GB,5,,FHRS,0
357501,,34-40 Cheapside,,Barnsley,Boots The Chemist,Retailers - other,4613,,,397520,,,53.55139000000000,1564,401,regulatoryservices@barnsley.gov.uk,Barnsley,http://www.barnsley.gov.uk,-1.47990300000000,S70 1RT,2012-12-19,fhrs_exempt_en-GB,Exempt,,FHRS,
357502,"Unit 9a, Elsecar Heritage Centre",Wath Road,,Elsecar,Brambles Tea Room,Restaurant/Cafe/Canteen,1,5,,397729,0,,53.49487300000000,30756,401,regulatoryservices@barnsley.gov.uk,Barnsley,http://www.barnsley.gov.uk,-1.41992300000000,S74 8HJ,2013-03-01,fhrs_5_en-GB,5,,FHRS,0
357503,Bridge End Fisheries,Bridge Street,,Penistone,Bridge End Fisheries,Takeaway/sandwich shop,7844,10,,398042,5,,53.52775700000000,526,401,regulatoryservices@barnsley.gov.uk,Barnsley,http://www.barnsley.gov.uk,-1.63176700000000,S36 6AJ,2014-03-12,fhrs_4_en-GB,4,,FHRS,5
357504,Bridge End Petrol Station,Barnsley Road,,Penistone,Bridge End Garage,Retailers - other,4613,5,,397940,0,,53.52937300000000,4738,401,regulatoryservices@barnsley.gov.uk,Barnsley,http://www.barnsley.gov.uk,-1.63421200000000,S36 7AH,2011-04-07,fhrs_5_en-GB,5,,FHRS,5
357505,Brierley Church Of England Primary School,Beech Close,,Brierley,Brierley Church of England Primary School,School/college/university,7845,0,,398069,5,,53.59501700000000,554,401,regulatoryservices@barnsley.gov.uk,Barnsley,http://www.barnsley.gov.uk,-1.37765300000000,S72 9EJ,2012-10-10,fhrs_5_en-GB,5,,FHRS,5
357506,,66 Church Street,,Brierley,Brierley Off Licence,Retailers - other,4613,10,,397590,5,,53.59371200000000,1818,401,regulatoryservices@barnsley.gov.uk,Barnsley,http://www.barnsley.gov.uk,-1.38083000000000,S72 9JG,2011-10-26,fhrs_3_en-GB,3,,FHRS,10
357507,Brierley Community Pavilion,Holgate View,,Brierley,Brierley Playmates Pre-School,Hospitals/Childcare/Caring Premises,5,5,,397747,0,,53.59602500000000,31930,401,regulatoryservices@barnsley.gov.uk,Barnsley,http://www.barnsley.gov.uk,-1.37446500000000,S72 9HN,2011-11-09,fhrs_5_en-GB,5,,FHRS,5
357508,Post Office,8 Church Street,,Brierley,Brierley Post Office,Retailers - other,4613,0,,397593,0,,53.59589600000000,1827,401,regulatoryservices@barnsley.gov.uk,Barnsley,http://www.barnsley.gov.uk,-1.38421200000000,S72 9JR,2010-06-16,fhrs_5_en-GB,5,,FHRS,0
357509,Brierley Village Club,Church Street,,Brierley,Brierley Village Club,Pub/bar/nightclub,7843,5,,398595,0,,53.59371200000000,773,401,regulatoryservices@barnsley.gov.uk,Barnsley,http://www.barnsley.gov.uk,-1.38083000000000,S72 9JG,2011-10-27,fhrs_5_en-GB,5,,FHRS,5
357510,,39 The Arcade,,Barnsley,Britannia Coffee Shop,Restaurant/Cafe/Canteen,1,5,,397859,0,,53.55329800000000,396,401,regulatoryservices@barnsley.gov.uk,Barnsley,http://www.barnsley.gov.uk,-1.48048300000000,S70 2QP,2014-01-23,fhrs_5_en-GB,5,,FHRS,5
357511,Petrol Station,Royston Lane,,Royston,Brobot Petroleum,Retailers - other,4613,10,,397640,0,,53.59539000000000,2058,401,regulatoryservices@barnsley.gov.uk,Barnsley,http://www.barnsley.gov.uk,-1.45006600000000,S71 4NJ,2011-01-31,fhrs_4_en-GB,4,,FHRS,0
357512,Browns Bar,Grahams Orchard,,Barnsley,Brownes Bar,Pub/bar/nightclub,7843,10,,397263,5,,53.55301800000000,1031,401,regulatoryservices@barnsley.gov.uk,Barnsley,http://www.barnsley.gov.uk,-1.48238800000000,S70 2SX,2010-11-01,fhrs_4_en-GB,4,,FHRS,5
357513,,36 West Street,,Wombwell,Bruce Mckendrick,Hospitals/Childcare/Caring Premises,5,5,,398394,0,,53.52355800000000,72415,401,regulatoryservices@barnsley.gov.uk,Barnsley,http://www.barnsley.gov.uk,-1.40936500000000,S73 8LA,2012-06-01,fhrs_5_en-GB,5,,FHRS,0
357514,,46 Agnes Road,,Barnsley,Bryan the Butchers,Retailers - other,4613,10,,397479,10,,53.54753800000000,1444,401,regulatoryservices@barnsley.gov.uk,Barnsley,http://www.barnsley.gov.uk,-1.48287800000000,S70 1NH,2014-11-05,fhrs_3_en-GB,3,,FHRS,10
357515,Buckingham Care Home,High Street,,Penistone,Buckingham Care Home,Hospitals/Childcare/Caring Premises,5,5,,435379,5,,53.52333300000000,93862,401,regulatoryservices@barnsley.gov.uk,Barnsley,http://www.barnsley.gov.uk,-1.63124700000000,S36 6BS,2014-02-03,fhrs_5_en-GB,5,,FHRS,5
357516,Burton Road Primary School,Burton Road,,Monk Bretton,Buddies Children's Centre,Hospitals/Childcare/Caring Premises,5,0,,398071,5,,53.56160600000000,55678,401,regulatoryservices@barnsley.gov.uk,Barnsley,http://www.barnsley.gov.uk,-1.46676400000000,S71 2AA,2012-10-30,fhrs_5_en-GB,5,,FHRS,0
357517,Budgens Supermarket,Barnsley Road,,Dodworth,Budgens,Retailers - supermarkets/hypermarkets,7840,0,,398061,0,,53.54327700000000,54515,401,regulatoryservices@barnsley.gov.uk,Barnsley,http://www.barnsley.gov.uk,-1.52617900000000,S75 3RN,2013-01-04,fhrs_5_en-GB,5,,FHRS,5
357518,Bullett Sports And Social Club,63 Brierley Road,,Grimethorpe,Bullet Sports & Social Club,Pub/bar/nightclub,7843,5,,398576,0,,53.57896700000000,771,401,regulatoryservices@barnsley.gov.uk,Barnsley,http://www.barnsley.gov.uk,-1.37835700000000,S72 7EJ,2011-10-27,fhrs_4_en-GB,4,,FHRS,10
357519,,11-19 Burlington Arcade,,Barnsley,Burlington Arcade Fish and Chip Shop,Restaurant/Cafe/Canteen,1,10,,397345,5,,53.55290900000000,1169,401,regulatoryservices@barnsley.gov.uk,Barnsley,http://www.barnsley.gov.uk,-1.47983900000000,S70 1SZ,2014-02-07,fhrs_3_en-GB,3,,FHRS,10
357520,"Burntwood Court Hotel, Burntwood Sports And Leisure Centre",Common Road,,Brierley,Burntwood Court Hotel,Hotel/bed & breakfast/guest house,7842,5,,397279,5,,53.59159300000000,1052,401,regulatoryservices@barnsley.gov.uk,Barnsley,http://www.barnsley.gov.uk,-1.36404500000000,S72 9ET,2014-11-28,fhrs_5_en-GB,5,,FHRS,5
357521,Burntwood Hall Care Centre,Moor Lane,,"Brierley, Barnsley",Burntwood Hall Care Centre,Hospitals/Childcare/Caring Premises,5,5,,398287,0,,53.57812000000000,67476,401,regulatoryservices@barnsley.gov.uk,Barnsley,http://www.barnsley.gov.uk,-1.35417400000000,S72 9HB,2014-11-14,fhrs_5_en-GB,5,,FHRS,5
357522,Burton Road Primary School,Burton Road,,Monk Bretton,Burton Road Primary School,School/college/university,7845,0,,398171,0,,53.56160600000000,605,401,regulatoryservices@barnsley.gov.uk,Barnsley,http://www.barnsley.gov.uk,-1.46676400000000,S71 2AA,2014-07-11,fhrs_5_en-GB,5,,FHRS,5
357523,Busy Bee Nursery,Church Street,,Penistone,Busy Bees Penistone,Hospitals/Childcare/Caring Premises,5,5,,398790,0,,53.52628000000000,85429,401,regulatoryservices@barnsley.gov.uk,Barnsley,http://www.barnsley.gov.uk,-1.62808400000000,S36 6AR,2014-06-26,fhrs_5_en-GB,5,,FHRS,0
357524,Butchers Arms,134 High Street,,Thurnscoe,Butchers Arms,Pub/bar/nightclub,7843,5,,399061,0,,53.54463300000000,954,401,regulatoryservices@barnsley.gov.uk,Barnsley,http://www.barnsley.gov.uk,-1.32078800000000,S63 0QY,2014-07-08,fhrs_5_en-GB,5,,FHRS,5
357525,,,,,Buttercream Queen,Other catering premises,7841,,,605233,,,,96674,401,regulatoryservices@barnsley.gov.uk,Barnsley,http://www.barnsley.gov.uk,,,,fhrs_awaitinginspection_en-GB,AwaitingInspection,,FHRS,
357526,Birkwood Primary,Darfield Road,,Cudworth,Buttercup Childrens Centre,Hospitals/Childcare/Caring Premises,5,5,,481415,0,,53.56859900000000,57778,401,regulatoryservices@barnsley.gov.uk,Barnsley,http://www.barnsley.gov.uk,-1.40757600000000,S72 8HG,2014-11-04,fhrs_5_en-GB,5,,FHRS,0
357527,,1 Church Street,,Wombwell,Buttylicious,Other catering premises,7841,10,,565918,10,,53.52093100000000,96207,401,regulatoryservices@barnsley.gov.uk,Barnsley,http://www.barnsley.gov.uk,-1.39809000000000,S73 0DQ,2014-03-26,fhrs_3_en-GB,3,,FHRS,10
357528,,3 Kendray Street,,Barnsley,C & W Charlesworth's,Retailers - other,4613,0,,398082,0,,53.55321000000000,56526,401,regulatoryservices@barnsley.gov.uk,Barnsley,http://www.barnsley.gov.uk,-1.47891400000000,S70 1DB,2013-02-28,fhrs_4_en-GB,4,,FHRS,10
357529,,1 Greenside,,Staincross,C Birkinshaw,Retailers - other,4613,5,,397513,5,,53.58676500000000,1529,401,regulatoryservices@barnsley.gov.uk,Barnsley,http://www.barnsley.gov.uk,-1.50250600000000,S75 6AU,2013-03-08,fhrs_5_en-GB,5,,FHRS,5
357530,,,,,C My Cake,Other catering premises,7841,5,,605230,5,,,96609,401,regulatoryservices@barnsley.gov.uk,Barnsley,http://www.barnsley.gov.uk,,,2014-10-02,fhrs_5_en-GB,5,,FHRS,0
357531,Wellington House,36 Wellington Street,,Barnsley,Cafe @ Wellington House,Restaurant/Cafe/Canteen,1,5,,676481,5,,53.55086400000000,98252,401,regulatoryservices@barnsley.gov.uk,Barnsley,http://www.barnsley.gov.uk,-1.48084500000000,S70 1WA,2014-07-22,fhrs_5_en-GB,5,,FHRS,0
357532,,26 High Street,,Goldthorpe,Cafe Bijou,Restaurant/Cafe/Canteen,1,0,,398497,0,,53.53284600000000,74880,401,regulatoryservices@barnsley.gov.uk,Barnsley,http://www.barnsley.gov.uk,-1.30460700000000,S63 9LL,2013-04-18,fhrs_5_en-GB,5,,FHRS,0
357533,,72 High Street,,Dodworth,Cafe Cocoa,Restaurant/Cafe/Canteen,1,0,,398922,5,,53.54163900000000,8983,401,regulatoryservices@barnsley.gov.uk,Barnsley,http://www.barnsley.gov.uk,-1.52343600000000,S75 3RG,2012-10-26,fhrs_5_en-GB,5,,FHRS,5
357534,,9 High Street,,Penistone,Cafe Creme,Restaurant/Cafe/Canteen,1,10,,397991,0,,53.52363700000000,4959,401,regulatoryservices@barnsley.gov.uk,Barnsley,http://www.barnsley.gov.uk,-1.63070200000000,S36 6BR,2012-12-05,fhrs_4_en-GB,4,,FHRS,5
357535,Unit 1,418 Carlton Road,,Carlton,Cafe Delights,Restaurant/Cafe/Canteen,1,0,,624973,0,,53.58272000000000,97295,401,regulatoryservices@barnsley.gov.uk,Barnsley,http://www.barnsley.gov.uk,-1.45486800000000,S71 3HX,2014-04-07,fhrs_5_en-GB,5,,FHRS,5
357536,,228 Pontefract Road,,Lundwood,Cafe Home Farm,Restaurant/Cafe/Canteen,1,0,,398212,0,,53.55773700000000,63,401,regulatoryservices@barnsley.gov.uk,Barnsley,http://www.barnsley.gov.uk,-1.43849300000000,S71 5PN,2013-03-13,fhrs_4_en-GB,4,,FHRS,10
357537,Lifestyle Fitness,Shambles Street,,Barnsley,Cafe Life,Restaurant/Cafe/Canteen,1,0,,676480,0,,53.55314200000000,98243,401,regulatoryservices@barnsley.gov.uk,Barnsley,http://www.barnsley.gov.uk,-1.48398700000000,S70 2SH,2014-04-29,fhrs_5_en-GB,5,,FHRS,0
357538,,100 Racecommon Road,,Barnsley,Cafe Lime,Takeaway/sandwich shop,7844,5,,397399,5,,53.54921200000000,12546,401,regulatoryservices@barnsley.gov.uk,Barnsley,http://www.barnsley.gov.uk,-1.48975500000000,S70 6AP,2015-01-07,fhrs_5_en-GB,5,,FHRS,5
357539,,8 Eastgate,,Barnsley,Cafe Masala,Restaurant/Cafe/Canteen,1,20,,397550,5,,53.55506300000000,16520,401,regulatoryservices@barnsley.gov.uk,Barnsley,http://www.barnsley.gov.uk,-1.48127700000000,S70 2EX,2014-02-05,fhrs_1_en-GB,1,,FHRS,5
357540,Westgate Plaza One,Westgate,,Barnsley,Cafe Plaza One,Restaurant/Cafe/Canteen,1,0,,398254,0,,53.55376900000000,65915,401,regulatoryservices@barnsley.gov.uk,Barnsley,http://www.barnsley.gov.uk,-1.48548900000000,S70 2DR,2014-06-19,fhrs_5_en-GB,5,,FHRS,0
357541,,8 Regent Street South,,Barnsley,Cafe Ruelle,Restaurant/Cafe/Canteen,1,5,,398097,5,,53.55414800000000,57359,401,regulatoryservices@barnsley.gov.uk,Barnsley,http://www.barnsley.gov.uk,-1.47950700000000,S70 2HT,2013-03-13,fhrs_5_en-GB,5,,FHRS,5
357542,,8 High Street,,Grimethorpe,Cafe Zest,Takeaway/sandwich shop,7844,5,,398268,0,,53.57515500000000,66991,401,regulatoryservices@barnsley.gov.uk,Barnsley,http://www.barnsley.gov.uk,-1.37978700000000,S72 7LS,2014-03-21,fhrs_5_en-GB,5,,FHRS,0
357543,,15 Agnes Road,,Barnsley,Cafeccino,Other catering premises,7841,,,466237,,,53.54749700000000,74804,401,regulatoryservices@barnsley.gov.uk,Barnsley,http://www.barnsley.gov.uk,-1.48385900000000,S70 1NJ,,fhrs_awaitinginspection_en-GB,AwaitingInspection,,FHRS,
357544,,,,,Cake Couture,Other catering premises,7841,10,,398962,5,,,90896,401,regulatoryservices@barnsley.gov.uk,Barnsley,http://www.barnsley.gov.uk,,,2011-09-12,fhrs_4_en-GB,4,,FHRS,0
357545,,,,,Cakes by Fi,Other catering premises,7841,0,,398957,0,,,90814,401,regulatoryservices@barnsley.gov.uk,Barnsley,http://www.barnsley.gov.uk,,,2014-11-21,fhrs_5_en-GB,5,,FHRS,0
357546,Pindar Oaks Hospital,Upper Sheffield Road,,Barnsley,Cambian Healthcare,Hospitals/Childcare/Caring Premises,5,5,,398681,0,,53.54267300000000,80710,401,regulatoryservices@barnsley.gov.uk,Barnsley,http://www.barnsley.gov.uk,-1.46801300000000,S70 4PX,2014-07-23,fhrs_5_en-GB,5,,FHRS,0
357547,Cannon Hall Open Farm,Bark House Lane,,Cawthorne,Cannon Hall Farm Shop,Retailers - other,4613,0,,397653,5,,53.57102700000000,21854,401,regulatoryservices@barnsley.gov.uk,Barnsley,http://www.barnsley.gov.uk,-1.59024300000000,S75 4AT,2013-02-26,fhrs_5_en-GB,5,,FHRS,5
357548,,61 Sheffield Road,,Spring Vale,Canton House,Takeaway/sandwich shop,7844,0,,397409,0,,53.52501500000000,1264,401,regulatoryservices@barnsley.gov.uk,Barnsley,http://www.barnsley.gov.uk,-1.61753700000000,S36 6HH,2013-01-09,fhrs_5_en-GB,5,,FHRS,5
357549,,5 Royal Street,,Barnsley,Capones Pizzeria,Takeaway/sandwich shop,7844,10,,398324,15,,53.55388600000000,69004,401,regulatoryservices@barnsley.gov.uk,Barnsley,http://www.barnsley.gov.uk,-1.48139700000000,S70 2ED,2014-11-05,fhrs_2_en-GB,2,,FHRS,10
357550,,58 High Street,,Wombwell,Card Factory,Retailers - other,4613,0,,428854,0,,53.52403500000000,4262,401,regulatoryservices@barnsley.gov.uk,Barnsley,http://www.barnsley.gov.uk,-1.40042900000000,S73 8DA,2012-11-12,fhrs_5_en-GB,5,,FHRS,0
357551,,265-267 Doncaster Road,,Barnsley,Cardamom Lounge,Restaurant/Cafe/Canteen,1,,,397484,,,53.54680900000000,1454,401,regulatoryservices@barnsley.gov.uk,Barnsley,http://www.barnsley.gov.uk,-1.45040900000000,S70 3RH,2014-10-01,fhrs_5_en-GB,5,,FHRS,
357552,,176 Sheffield Road,,Spring Vale,Care Tech Holdings,Hospitals/Childcare/Caring Premises,5,20,,447642,0,,53.52183000000000,53560,401,regulatoryservices@barnsley.gov.uk,Barnsley,http://www.barnsley.gov.uk,-1.61355300000000,S36 6HF,2012-08-22,fhrs_1_en-GB,1,,FHRS,0
357553,Carlton And Smithies Ex Servicemens Club,Haddon Road,,Athersley South,Carlton & Smithies Club,Pub/bar/nightclub,7843,5,,397829,5,,53.57581500000000,3782,401,regulatoryservices@barnsley.gov.uk,Barnsley,http://www.barnsley.gov.uk,-1.46250700000000,S71 3TA,2012-04-18,fhrs_5_en-GB,5,,FHRS,5
357554,Carlton Community College,Royston Lane,,Carlton,Carlton Community College - Kitchen,School/college/university,7845,5,,398925,5,,53.58750700000000,89879,401,regulatoryservices@barnsley.gov.uk,Barnsley,http://www.barnsley.gov.uk,-1.44820400000000,S71 3EW,2014-06-04,fhrs_5_en-GB,5,,FHRS,0
357555,Carlton Primary School,Fish Dam Lane,,Monk Bretton,Carlton Kids Klub,Hospitals/Childcare/Caring Premises,5,0,,398475,0,,53.58428400000000,74660,401,regulatoryservices@barnsley.gov.uk,Barnsley,http://www.barnsley.gov.uk,-1.44702300000000,S71 3HF,2012-09-18,fhrs_5_en-GB,5,,FHRS,0
357556,Carlton Primary School,Fish Dam Lane,,Monk Bretton,Carlton Primary Academy,School/college/university,7845,5,,398425,0,,53.58428400000000,73981,401,regulatoryservices@barnsley.gov.uk,Barnsley,http://www.barnsley.gov.uk,-1.44702300000000,S71 3HF,2014-10-08,fhrs_5_en-GB,5,,FHRS,0
357557,Carlton Village Working Mens Club,8 Crookes Lane,,Carlton,Carlton Village WMC & Inst,Pub/bar/nightclub,7843,5,,398443,0,,53.58667100000000,743,401,regulatoryservices@barnsley.gov.uk,Barnsley,http://www.barnsley.gov.uk,-1.45410700000000,S71 3JT,2011-10-13,fhrs_5_en-GB,5,,FHRS,5
357558,,,,,Carol & Rob Field,Retailers - other,4613,5,,398805,0,,,86168,401,regulatoryservices@barnsley.gov.uk,Barnsley,http://www.barnsley.gov.uk,,,2011-02-04,fhrs_5_en-GB,5,,FHRS,5
357559,,37 Greenfoot Lane,,Old Town,Carol's Sandwich Bar,Takeaway/sandwich shop,7844,10,,398305,10,,53.56037000000000,68011,401,regulatoryservices@barnsley.gov.uk,Barnsley,http://www.barnsley.gov.uk,-1.49470800000000,S75 2TA,2014-02-19,fhrs_2_en-GB,2,,FHRS,15
357560,Carr House,Royd Lane,,Millhouse Green,Carr House,Hotel/bed & breakfast/guest house,7842,5,,397475,0,,53.52960200000000,1433,401,regulatoryservices@barnsley.gov.uk,Barnsley,http://www.barnsley.gov.uk,-1.67299600000000,S36 9NY,2010-09-10,fhrs_5_en-GB,5,,FHRS,0
357561,The Barnsley Academy,Farm Road,,Kendray,Cater Link,School/college/university,7845,0,,398423,5,,53.53887900000000,73977,401,regulatoryservices@barnsley.gov.uk,Barnsley,http://www.barnsley.gov.uk,-1.45203500000000,S70 3DL,2012-06-11,fhrs_5_en-GB,5,,FHRS,0
357562,Cawthorne Church Of England Primary School,Taylor Hill,,Cawthorne,Cawthorne C of E Primary School,School/college/university,7845,0,,398133,5,,53.56736300000000,597,401,regulatoryservices@barnsley.gov.uk,Barnsley,http://www.barnsley.gov.uk,-1.57324600000000,S75 4HB,2014-06-13,fhrs_5_en-GB,5,,FHRS,0
357563,Cawthorne Pre School Playgroup,Taylor Hill,,Cawthorne,Cawthorne Childrens Centre,Hospitals/Childcare/Caring Premises,5,0,,397978,0,,53.56736300000000,49019,401,regulatoryservices@barnsley.gov.uk,Barnsley,http://www.barnsley.gov.uk,-1.57324600000000,S75 4HB,2014-06-18,fhrs_5_en-GB,5,,FHRS,0
357564,,10 Tivy Dale Close,,Cawthorne,Cawthorne Club,Pub/bar/nightclub,7843,5,,397982,0,,53.56624500000000,4921,401,regulatoryservices@barnsley.gov.uk,Barnsley,http://www.barnsley.gov.uk,-1.57493400000000,S75 4ER,2011-11-04,fhrs_5_en-GB,5,,FHRS,5
357565,Cawthorne Cricket Club,Dark Lane,,Cawthorne,Cawthorne Cricket Club,Pub/bar/nightclub,7843,10,,397906,0,,53.56781800000000,4565,401,regulatoryservices@barnsley.gov.uk,Barnsley,http://www.barnsley.gov.uk,-1.57482700000000,S75 4HA,2013-06-27,fhrs_4_en-GB,4,,FHRS,0
357566,,24a Cawthorne Road,,Barugh Green,Cawthorne Road Day Nursery,Hospitals/Childcare/Caring Premises,5,0,,399054,5,,53.56831100000000,9445,401,regulatoryservices@barnsley.gov.uk,Barnsley,http://www.barnsley.gov.uk,-1.53343500000000,S75 1LQ,2014-10-29,fhrs_5_en-GB,5,,FHRS,0
357567,,2 Church Street,,Cawthorne,Cawthorne Tea Rooms,Restaurant/Cafe/Canteen,1,0,,398338,5,,53.56809200000000,69520,401,regulatoryservices@barnsley.gov.uk,Barnsley,http://www.barnsley.gov.uk,-1.57103500000000,S75 4HP,2013-07-19,fhrs_4_en-GB,4,,FHRS,10
357568,,11-13 Darton Road,,Cawthorne,Cawthorne Village Store & Tea Room,Retailers - other,4613,10,,399069,10,,53.56905900000000,9645,401,regulatoryservices@barnsley.gov.uk,Barnsley,http://www.barnsley.gov.uk,-1.57001300000000,S75 4HR,2014-02-17,fhrs_3_en-GB,3,,FHRS,10
357569,,,,,Cazbar Snacks,Mobile caterer,7846,0,,398354,0,,,70151,401,regulatoryservices@barnsley.gov.uk,Barnsley,http://www.barnsley.gov.uk,,,2014-04-02,fhrs_5_en-GB,5,,FHRS,5
357570,"Cecil Penney Ltd, Springvale Service Station",Sheffield Road,,Spring Vale,Cecil Penny,Retailers - other,4613,5,,399103,0,,53.52183000000000,9973,401,regulatoryservices@barnsley.gov.uk,Barnsley,http://www.barnsley.gov.uk,-1.61355300000000,S36 6HF,2013-08-07,fhrs_5_en-GB,5,,FHRS,0
357571,Oakwell Stadium,Grove Street,,Barnsley,Centerplate UK,Pub/bar/nightclub,7843,0,,399065,0,,53.55227500000000,9609,401,regulatoryservices@barnsley.gov.uk,Barnsley,http://www.barnsley.gov.uk,-1.46864700000000,S71 1ET,2014-03-19,fhrs_5_en-GB,5,,FHRS,0
357572,,119 Midland Road,,Royston,Central Cafe,Restaurant/Cafe/Canteen,1,10,,397880,5,,53.60087800000000,426,401,regulatoryservices@barnsley.gov.uk,Barnsley,http://www.barnsley.gov.uk,-1.44742600000000,S71 4PX,2014-02-25,fhrs_4_en-GB,4,,FHRS,0
357573,Central Fisheries,Birk Avenue,,Kendray,Central Fisheries,Takeaway/sandwich shop,7844,5,,397525,0,,53.54074700000000,1573,401,regulatoryservices@barnsley.gov.uk,Barnsley,http://www.barnsley.gov.uk,-1.45154400000000,S70 3AQ,2014-02-24,fhrs_4_en-GB,4,,FHRS,10
357574,Barnsley Central Library,Shambles Street,,Barnsley,Central Library Coffee Shop,Restaurant/Cafe/Canteen,1,5,,586817,0,,53.55376000000000,96457,401,regulatoryservices@barnsley.gov.uk,Barnsley,http://www.barnsley.gov.uk,-1.48351100000000,S70 2JF,2013-08-14,fhrs_5_en-GB,5,,FHRS,5
357575,Central Stores,Birk Avenue,,Kendray,Central Stores,Retailers - other,4613,20,,397572,0,,53.54074700000000,1743,401,regulatoryservices@barnsley.gov.uk,Barnsley,http://www.barnsley.gov.uk,-1.45154400000000,S70 3AQ,2013-09-05,fhrs_1_en-GB,1,,FHRS,5
357576,Oakwell Stadium,Grove Street,,Barnsley,CGC Event Caters,Restaurant/Cafe/Canteen,1,0,,398914,0,,53.55227500000000,89516,401,regulatoryservices@barnsley.gov.uk,Barnsley,http://www.barnsley.gov.uk,-1.46864700000000,S71 1ET,2012-11-02,fhrs_4_en-GB,4,,FHRS,10
357577,,142-144 Sheffield Road,,Barnsley,Cha Chaz,Takeaway/sandwich shop,7844,5,,397367,5,,53.54704000000000,1210,401,regulatoryservices@barnsley.gov.uk,Barnsley,http://www.barnsley.gov.uk,-1.47381400000000,S70 1JH,2014-01-15,fhrs_5_en-GB,5,,FHRS,5
357578,The Chambers,18 Peel Square,,Barnsley,Chambers,Pub/bar/nightclub,7843,5,,397583,0,,53.55219800000000,1783,401,regulatoryservices@barnsley.gov.uk,Barnsley,http://www.barnsley.gov.uk,-1.48184000000000,S70 1YA,2014-01-21,fhrs_5_en-GB,5,,FHRS,5
357579,Chapel View,Spark Lane,,Mapplewell,Chapel View Nursing Home,Hospitals/Childcare/Caring Premises,5,10,,397434,5,,53.58555600000000,1315,401,regulatoryservices@barnsley.gov.uk,Barnsley,http://www.barnsley.gov.uk,-1.50341100000000,S75 6AA,2015-01-14,fhrs_4_en-GB,4,,FHRS,5
357580,Chatterbox Day Nursery,Sheffield Road,,Birdwell,Chatterbox Day Nursery,Hospitals/Childcare/Caring Premises,5,0,,397764,0,,53.50042700000000,33422,401,regulatoryservices@barnsley.gov.uk,Barnsley,http://www.barnsley.gov.uk,-1.47823500000000,S70 5TU,2014-10-31,fhrs_5_en-GB,5,,FHRS,5
357581,,34 Peel Street,,Barnsley,Che Bar & Coco,Pub/bar/nightclub,7843,0,,398649,0,,53.55213600000000,79820,401,regulatoryservices@barnsley.gov.uk,Barnsley,http://www.barnsley.gov.uk,-1.48404400000000,S70 2RE,2011-03-15,fhrs_5_en-GB,5,,FHRS,0
357582,High View Primary Learning Centre,Newsome Avenue,,Wombwell,Cheeky Monkies,Hospitals/Childcare/Caring Premises,5,5,,398225,0,,53.52425000000000,63489,401,regulatoryservices@barnsley.gov.uk,Barnsley,http://www.barnsley.gov.uk,-1.41124100000000,S73 8QS,2014-04-30,fhrs_5_en-GB,5,,FHRS,0
357583,Barugh Green WMC,Higham Common Road,,Barugh Green,Chef for all Occasions,Other catering premises,7841,0,,399034,0,,53.56742900000000,92934,401,regulatoryservices@barnsley.gov.uk,Barnsley,http://www.barnsley.gov.uk,-1.53318800000000,S75 1LD,2012-11-09,fhrs_5_en-GB,5,,FHRS,5
357584,Chennells Bar,Wellington Street,,Barnsley,Chennell's Bar,Pub/bar/nightclub,7843,5,,397932,5,,53.55173200000000,470,401,regulatoryservices@barnsley.gov.uk,Barnsley,http://www.barnsley.gov.uk,-1.48205700000000,S70 1SS,2014-01-22,fhrs_5_en-GB,5,,FHRS,5
357585,Cherry Dale Primary School,Royston Road,,Cudworth,Cherry Dale Primary School - Kitchen,School/college/university,7845,0,,398426,5,,53.58372000000000,73982,401,regulatoryservices@barnsley.gov.uk,Barnsley,http://www.barnsley.gov.uk,-1.41351200000000,S72 8AA,2012-10-05,fhrs_5_en-GB,5,,FHRS,0
357586,Cherry Tree Inn,Bank End Lane,,High Hoyland,Cherry Tree Inn,Pub/bar/nightclub,7843,5,,397323,0,,53.58676800000000,1130,401,regulatoryservices@barnsley.gov.uk,Barnsley,http://www.barnsley.gov.uk,-1.58852000000000,S75 4BE,2014-06-03,fhrs_5_en-GB,5,,FHRS,5
357587,Cherry Trees Nursing Home,Cherrys Road,,Cundy Cross,Cherry Trees Care Home,Hospitals/Childcare/Caring Premises,5,0,,397826,0,,53.55503200000000,3773,401,regulatoryservices@barnsley.gov.uk,Barnsley,http://www.barnsley.gov.uk,-1.44443000000000,S71 5QU,2014-07-15,fhrs_5_en-GB,5,,FHRS,5
357588,,3 Church Street,,Royston,Cherrycakes,Retailers - other,4613,20,,398891,0,,53.59795000000000,8882,401,regulatoryservices@barnsley.gov.uk,Barnsley,http://www.barnsley.gov.uk,-1.45372000000000,S71 4QU,2012-10-05,fhrs_1_en-GB,1,,FHRS,5
357589,,22 Market Street,,Penistone,Cherrydale,Takeaway/sandwich shop,7844,10,,397928,5,,53.52567800000000,4689,401,regulatoryservices@barnsley.gov.uk,Barnsley,http://www.barnsley.gov.uk,-1.63107600000000,S36 6BZ,2014-06-26,fhrs_4_en-GB,4,,FHRS,0
357590,,,,,Chez Marshalls,Retailers - other,4613,0,,576055,0,,,96314,401,regulatoryservices@barnsley.gov.uk,Barnsley,http://www.barnsley.gov.uk,,,2014-05-29,fhrs_5_en-GB,5,,FHRS,0
357591,,12 Market Street,,Hoyland,Chicken Stop,Takeaway/sandwich shop,7844,0,,398392,0,,53.50136400000000,72270,401,regulatoryservices@barnsley.gov.uk,Barnsley,http://www.barnsley.gov.uk,-1.43896600000000,S74 9QR,2014-10-08,fhrs_5_en-GB,5,,FHRS,0
357592,,506 Doncaster Road,,Barnsley,Chico's Pizza,Takeaway/sandwich shop,7844,5,,397379,5,,53.54600400000000,1225,401,regulatoryservices@barnsley.gov.uk,Barnsley,http://www.barnsley.gov.uk,-1.44172600000000,S70 3PY,2014-06-03,fhrs_5_en-GB,5,,FHRS,5
357593,Dove House,398 Pontefract Road,,Lundwood,Childrens Resource Centre,Hospitals/Childcare/Caring Premises,5,0,,397710,0,,53.56962400000000,2596,401,regulatoryservices@barnsley.gov.uk,Barnsley,http://www.barnsley.gov.uk,-1.42986400000000,S71 5JZ,2011-10-31,fhrs_5_en-GB,5,,FHRS,0
357594,Gravels Farm,Schole Hill Lane,,Penistone,Childs Play Day Nursery,Hospitals/Childcare/Caring Premises,5,0,,398063,0,,53.51616600000000,5476,401,regulatoryservices@barnsley.gov.uk,Barnsley,http://www.barnsley.gov.uk,-1.63918200000000,S36 9AW,2014-06-26,fhrs_5_en-GB,5,,FHRS,0
357595,,66-68 Market Street,,Barnsley,Chilli and Grille,Restaurant/Cafe/Canteen,1,5,,398095,5,,53.55117700000000,57297,401,regulatoryservices@barnsley.gov.uk,Barnsley,http://www.barnsley.gov.uk,-1.48053900000000,S70 1SN,2014-02-18,fhrs_4_en-GB,4,,FHRS,10
357596,,11 Hamble Court,,Mapplewell,China Court Restaurant,Restaurant/Cafe/Canteen,1,0,,398302,5,,53.58474300000000,6795,401,regulatoryservices@barnsley.gov.uk,Barnsley,http://www.barnsley.gov.uk,-1.49827000000000,S75 6FE,2012-09-12,fhrs_5_en-GB,5,,FHRS,0
357597,,60 Doncaster Road,,Barnsley,China Dragon,Takeaway/sandwich shop,7844,10,,398667,5,,53.54989400000000,80200,401,regulatoryservices@barnsley.gov.uk,Barnsley,http://www.barnsley.gov.uk,-1.47498600000000,S70 1TL,2014-01-28,fhrs_4_en-GB,4,,FHRS,5
357598,,39-41 Barnsley Road,,Goldthorpe,China Kitchen,Takeaway/sandwich shop,7844,10,,397393,5,,53.53378300000000,1248,401,regulatoryservices@barnsley.gov.uk,Barnsley,http://www.barnsley.gov.uk,-1.30647800000000,S63 9LT,2014-09-24,fhrs_4_en-GB,4,,FHRS,0
357599,28 Aldham Cottages,Barnsley Road,,Wombwell,China Palace,Takeaway/sandwich shop,7844,0,,397992,10,,53.53147900000000,496,401,regulatoryservices@barnsley.gov.uk,Barnsley,http://www.barnsley.gov.uk,-1.41169900000000,S73 8DZ,2014-05-19,fhrs_4_en-GB,4,,FHRS,0
357600,,252 Midland Road,,Royston,China Town,Takeaway/sandwich shop,7844,10,,398030,10,,53.60141600000000,515,401,regulatoryservices@barnsley.gov.uk,Barnsley,http://www.barnsley.gov.uk,-1.44321800000000,S71 4DN,2014-08-28,fhrs_3_en-GB,3,,FHRS,10
357601,,273 Hough Lane,,Wombwell,Chiu Hing Chinese Takeaway,Takeaway/sandwich shop,7844,5,,397402,5,,53.51837100000000,1257,401,regulatoryservices@barnsley.gov.uk,Barnsley,http://www.barnsley.gov.uk,-1.41115700000000,S73 0LP,2013-10-16,fhrs_5_en-GB,5,,FHRS,5
357602,,,,,Choc l'Art,Retailers - other,4613,0,,458064,0,,,94338,401,regulatoryservices@barnsley.gov.uk,Barnsley,http://www.barnsley.gov.uk,,,2013-01-25,fhrs_5_en-GB,5,,FHRS,0
357603,,19 Station Road,,Thurnscoe,Chop Suey House,Takeaway/sandwich shop,7844,,,397389,,,53.54517100000000,1241,401,regulatoryservices@barnsley.gov.uk,Barnsley,http://www.barnsley.gov.uk,-1.30950600000000,S63 0JR,2014-05-29,fhrs_5_en-GB,5,,FHRS,
357604,St Mary Magdalenes Church,Pontefract Road,,Lundwood,Church Cafe,Restaurant/Cafe/Canteen,1,10,,398411,0,,53.55969100000000,73292,401,regulatoryservices@barnsley.gov.uk,Barnsley,http://www.barnsley.gov.uk,-1.43721400000000,S71 5HR,2013-01-14,fhrs_4_en-GB,4,,FHRS,10
357605,,5 Market Street,,Penistone,Cinnamon Spice,Restaurant/Cafe/Canteen,1,5,,398385,5,,53.52567800000000,71993,401,regulatoryservices@barnsley.gov.uk,Barnsley,http://www.barnsley.gov.uk,-1.63107600000000,S36 6BZ,2014-03-11,fhrs_5_en-GB,5,,FHRS,5
357606,,23-25 Station Road,,Dodworth,CJM Stores / News Barn,Retailers - other,4613,5,,398243,5,,53.54373900000000,64275,401,regulatoryservices@barnsley.gov.uk,Barnsley,http://www.barnsley.gov.uk,-1.52940400000000,S75 3JE,2013-04-26,fhrs_5_en-GB,5,,FHRS,5
357607,,,,,Claire's Cakes,Other catering premises,7841,10,,553510,0,,,96051,401,regulatoryservices@barnsley.gov.uk,Barnsley,http://www.barnsley.gov.uk,,,2013-05-02,fhrs_4_en-GB,4,,FHRS,0
357608,,65 Doncaster Road,,Goldthorpe,Clay Oven,Takeaway/sandwich shop,7844,5,,397394,5,,53.53468600000000,1249,401,regulatoryservices@barnsley.gov.uk,Barnsley,http://www.barnsley.gov.uk,-1.30107700000000,S63 9HJ,2014-09-16,fhrs_5_en-GB,5,,FHRS,5
357609,,,,,Clay oven creations,Mobile caterer,7846,0,,709580,5,,,158434,401,regulatoryservices@barnsley.gov.uk,Barnsley,http://www.barnsley.gov.uk,,,2015-01-16,fhrs_5_en-GB,5,,FHRS,5
357610,"Clayton Croft Residential Unit, Robert Ogden School",Clayton Lane,,Thurnscoe,Clayton Croft Children's Home,Hospitals/Childcare/Caring Premises,5,5,,464406,0,,53.55190600000000,67122,401,regulatoryservices@barnsley.gov.uk,Barnsley,http://www.barnsley.gov.uk,-1.32409800000000,S63 0BG,2013-01-28,fhrs_5_en-GB,5,,FHRS,0
357611,Cliff Nursery,Martin Croft,,Silkstone,Cliff Nursery,Other catering premises,7841,5,,397403,0,,53.54808300000000,12583,401,regulatoryservices@barnsley.gov.uk,Barnsley,http://www.barnsley.gov.uk,-1.56575800000000,S75 4JS,2015-01-22,fhrs_5_en-GB,5,,FHRS,0
357612,Clothiers Arms,2 St Helens Street,,Elsecar,Clothiers Arms,Pub/bar/nightclub,7843,5,,399070,0,,53.49957600000000,966,401,regulatoryservices@barnsley.gov.uk,Barnsley,http://www.barnsley.gov.uk,-1.42781900000000,S74 8DE,2011-10-01,fhrs_4_en-GB,4,,FHRS,10
357613,,11-13 Towngate,,Mapplewell,Clough & Parkinson,Retailers - other,4613,,,397613,,,53.58610600000000,1931,401,regulatoryservices@barnsley.gov.uk,Barnsley,http://www.barnsley.gov.uk,-1.50387300000000,S75 6AT,2011-10-20,fhrs_exempt_en-GB,Exempt,,FHRS,
357614,Oakdene,34 Cobcar Lane,,Elsecar,Cobcar Mini Market,Retailers - other,4613,10,,397607,5,,53.49905000000000,1890,401,regulatoryservices@barnsley.gov.uk,Barnsley,http://www.barnsley.gov.uk,-1.41945900000000,S74 8AR,2014-12-02,fhrs_4_en-GB,4,,FHRS,5
357615,Cobcar Sports And Social Club,Cobcar Street,,Elsecar,Cobcar Sports & Social,Pub/bar/nightclub,7843,20,,398657,0,,53.49956100000000,801,401,regulatoryservices@barnsley.gov.uk,Barnsley,http://www.barnsley.gov.uk,-1.42471400000000,S74 8DA,2013-01-23,fhrs_1_en-GB,1,,FHRS,5
357616,Thurgoland Post Office,Roper Lane,,"Thurgoland, Sheffield",Coffee and Cake,Restaurant/Cafe/Canteen,1,10,,398789,0,,53.50744200000000,85275,401,regulatoryservices@barnsley.gov.uk,Barnsley,http://www.barnsley.gov.uk,-1.56721400000000,S35 7AA,2010-06-14,fhrs_4_en-GB,4,,FHRS,0
357617,,,,,Coffee Nutz,Mobile caterer,7846,0,,398866,0,,,88417,401,regulatoryservices@barnsley.gov.uk,Barnsley,http://www.barnsley.gov.uk,,,2011-02-02,fhrs_5_en-GB,5,,FHRS,5
357618,,67 High Street,,Wombwell,Coffee Thyme,Restaurant/Cafe/Canteen,1,5,,397465,5,,53.52349600000000,1400,401,regulatoryservices@barnsley.gov.uk,Barnsley,http://www.barnsley.gov.uk,-1.40066300000000,S73 8HS,2014-10-09,fhrs_5_en-GB,5,,FHRS,5
357619,Victoria Medical Centre,7 Victoria Crescent West,,Barnsley,Cohens Chemist,Retailers - other,4613,,,398843,,,53.55671300000000,87717,401,regulatoryservices@barnsley.gov.uk,Barnsley,http://www.barnsley.gov.uk,-1.49084200000000,S75 2AE,2011-03-22,fhrs_exempt_en-GB,Exempt,,FHRS,
357620,,69 High Street,,Wombwell,Cole Bros' Cafe,Restaurant/Cafe/Canteen,1,5,,399094,5,,53.52349600000000,9876,401,regulatoryservices@barnsley.gov.uk,Barnsley,http://www.barnsley.gov.uk,-1.40066300000000,S73 8HS,2014-04-04,fhrs_5_en-GB,5,,FHRS,5
357621,Colley Croft Stores,Birk Avenue,,Kendray,Colley Croft Cafe,Restaurant/Cafe/Canteen,1,5,,398795,5,,53.54057300000000,85951,401,regulatoryservices@barnsley.gov.uk,Barnsley,http://www.barnsley.gov.uk,-1.44707900000000,S70 3AL,2014-01-30,fhrs_5_en-GB,5,,FHRS,0
357622,Colley Croft Stores,Birk Avenue,,Kendray,Colley Croft Stores,Retailers - other,4613,10,,398458,5,,53.54057300000000,74607,401,regulatoryservices@barnsley.gov.uk,Barnsley,http://www.barnsley.gov.uk,-1.44707900000000,S70 3AL,2014-01-30,fhrs_4_en-GB,4,,FHRS,0
357623,,,,,Come Dine With Fi,Other catering premises,7841,10,,398980,0,,,91646,401,regulatoryservices@barnsley.gov.uk,Barnsley,http://www.barnsley.gov.uk,,,2012-12-06,fhrs_4_en-GB,4,,FHRS,0
357624,,43 John Street,,Great Houghton,Community Places,Hospitals/Childcare/Caring Premises,5,10,,397961,0,,53.55032900000000,4850,401,regulatoryservices@barnsley.gov.uk,Barnsley,http://www.barnsley.gov.uk,-1.34289900000000,S72 0EA,2011-07-22,fhrs_4_en-GB,4,,FHRS,5
357625,,40-42 Barnsley Road,,Goldthorpe,Community Shop,Retailers - supermarkets/hypermarkets,7840,0,,608573,0,,53.53410100000000,3478,401,regulatoryservices@barnsley.gov.uk,Barnsley,http://www.barnsley.gov.uk,-1.30555200000000,S63 9NE,2014-07-01,fhrs_5_en-GB,5,,FHRS,0
357626,,New Road,,"Tankersley, Barnsley",Company Shop,Retailers - supermarkets/hypermarkets,7840,5,,397536,5,,53.49809100000000,1604,401,regulatoryservices@barnsley.gov.uk,Barnsley,http://www.barnsley.gov.uk,-1.48477600000000,S75 3BQ,2014-02-14,fhrs_5_en-GB,5,,FHRS,5
357627,Manor Bakeries,Fish Dam Lane,,Carlton,Company Shop,Retailers - other,4613,0,,398792,0,,,85897,401,regulatoryservices@barnsley.gov.uk,Barnsley,http://www.barnsley.gov.uk,,S71 3HQ,2011-04-07,fhrs_5_en-GB,5,,FHRS,0
357628,"Shop And Warehouse, The Company Shop",Wentworth Way,,Tankersley,Company Shop,Retailers - supermarkets/hypermarkets,7840,0,,528073,5,,53.49325500000000,95233,401,regulatoryservices@barnsley.gov.uk,Barnsley,http://www.barnsley.gov.uk,-1.49096900000000,S75 3DH,2013-02-08,fhrs_5_en-GB,5,,FHRS,0
357629,,51 Church Street,,Barnsley,Connies Corner,Restaurant/Cafe/Canteen,1,0,,580046,0,,53.55527300000000,8892,401,regulatoryservices@barnsley.gov.uk,Barnsley,http://www.barnsley.gov.uk,-1.48193800000000,S70 2AH,2014-04-02,fhrs_5_en-GB,5,,FHRS,0
357630,,28 Park Street,,Wombwell,Conservative & Unionist Club,Pub/bar/nightclub,7843,5,,398646,5,,53.52068200000000,798,401,regulatoryservices@barnsley.gov.uk,Barnsley,http://www.barnsley.gov.uk,-1.39509200000000,S73 0HF,2010-07-23,fhrs_4_en-GB,4,,FHRS,10
357631,,19 Station Road,,Wombwell,Continental Saver,Retailers - other,4613,0,,398397,5,,53.52229400000000,72510,401,regulatoryservices@barnsley.gov.uk,Barnsley,http://www.barnsley.gov.uk,-1.39743700000000,S73 0AH,2010-09-03,fhrs_5_en-GB,5,,FHRS,5
357632,,136 Sheffield Road,,Barnsley,Continental Shop,Retailers - other,4613,10,,397994,5,,53.54772400000000,4966,401,regulatoryservices@barnsley.gov.uk,Barnsley,http://www.barnsley.gov.uk,-1.47410700000000,S70 1JB,2014-07-21,fhrs_2_en-GB,2,,FHRS,15
357633,Barnsley College,Church Street,,Barnsley,Cookie Crumbs,Restaurant/Cafe/Canteen,1,5,,696046,0,,53.55666600000000,158229,401,regulatoryservices@barnsley.gov.uk,Barnsley,http://www.barnsley.gov.uk,-1.48187600000000,S70 2AX,2014-12-04,fhrs_5_en-GB,5,,FHRS,5
357634,,6a Rotherham Road,,Great Houghton,Co-op,Retailers - supermarkets/hypermarkets,7840,0,,397909,0,,53.55251800000000,4586,401,regulatoryservices@barnsley.gov.uk,Barnsley,http://www.barnsley.gov.uk,-1.34863100000000,S72 0DB,2010-10-20,fhrs_5_en-GB,5,,FHRS,5
357635,,1-11 Doncaster Road,,Goldthorpe,Co-op,Retailers - supermarkets/hypermarkets,7840,0,,397669,0,,53.53446900000000,2388,401,regulatoryservices@barnsley.gov.uk,Barnsley,http://www.barnsley.gov.uk,-1.30236300000000,S63 9HG,2010-11-01,fhrs_4_en-GB,4,,FHRS,10
357636,Co-Operative Stores Ltd,Church Street,,Darton,Coop Late Shop,Retailers - supermarkets/hypermarkets,7840,0,,398050,5,,53.58607700000000,53324,401,regulatoryservices@barnsley.gov.uk,Barnsley,http://www.barnsley.gov.uk,-1.53011200000000,S75 5HQ,2010-06-18,fhrs_5_en-GB,5,,FHRS,5
357637,,166 Barnsley Road,,Darfield,Co-op Late Shop,Retailers - supermarkets/hypermarkets,7840,5,,397578,5,,53.53733200000000,1765,401,regulatoryservices@barnsley.gov.uk,Barnsley,http://www.barnsley.gov.uk,-1.38522800000000,S73 9DQ,2011-04-27,fhrs_5_en-GB,5,,FHRS,5
357638,Coop Supermarket,26 Market Street,,Penistone,Co-op Penistone,Retailers - supermarkets/hypermarkets,7840,0,,397686,0,,53.52567800000000,2434,401,regulatoryservices@barnsley.gov.uk,Barnsley,http://www.barnsley.gov.uk,-1.63107600000000,S36 6BZ,2014-03-06,fhrs_5_en-GB,5,,FHRS,0
357639,The Co Operative,Laithes Lane,,Athersley South,Cooperative,Retailers - supermarkets/hypermarkets,7840,0,,397674,0,,53.57882800000000,2401,401,regulatoryservices@barnsley.gov.uk,Barnsley,http://www.barnsley.gov.uk,-1.47920400000000,S71 3TY,2008-06-02,fhrs_5_en-GB,5,,FHRS,5
357640,,10-12 St Andrews Square,,Bolton Upon Dearne,Co-operative,Retailers - supermarkets/hypermarkets,7840,0,,397681,5,,53.52045300000000,2419,401,regulatoryservices@barnsley.gov.uk,Barnsley,http://www.barnsley.gov.uk,-1.32212500000000,S63 8BA,2011-02-14,fhrs_5_en-GB,5,,FHRS,5
357641,,16-22 Hoyland Road,,Hoyland,Co-operative,Retailers - supermarkets/hypermarkets,7840,0,,397835,0,,53.49738100000000,38316,401,regulatoryservices@barnsley.gov.uk,Barnsley,http://www.barnsley.gov.uk,-1.46426800000000,S74 0NE,2012-10-16,fhrs_5_en-GB,5,,FHRS,5
357642,,57 Greenspring Avenue,,Birdwell,Co-operative,Retailers - supermarkets/hypermarkets,7840,0,,397683,0,,53.51126300000000,2424,401,regulatoryservices@barnsley.gov.uk,Barnsley,http://www.barnsley.gov.uk,-1.47927800000000,S70 5SW,2010-10-07,fhrs_5_en-GB,5,,FHRS,5
357643,"Co Op Convenience Store, The Cross",Cone Lane,,Silkstone Common,Co-operative,Retailers - supermarkets/hypermarkets,7840,0,,397668,0,,53.54357500000000,2386,401,regulatoryservices@barnsley.gov.uk,Barnsley,http://www.barnsley.gov.uk,-1.56450700000000,S75 4LX,2014-05-08,fhrs_5_en-GB,5,,FHRS,0
357644,Co Operative Retail Services Ltd,High Street,,Hoyland,Co-operative,Retailers - supermarkets/hypermarkets,7840,0,,398418,0,,53.50062600000000,73605,401,regulatoryservices@barnsley.gov.uk,Barnsley,http://www.barnsley.gov.uk,-1.43885500000000,S74 9AB,2014-04-30,fhrs_5_en-GB,5,,FHRS,0
357645,Co Operative Stores,Mapplewell Drive,,Mapplewell,Co-operative,Retailers - supermarkets/hypermarkets,7840,0,,397825,5,,53.58518600000000,3770,401,regulatoryservices@barnsley.gov.uk,Barnsley,http://www.barnsley.gov.uk,-1.50095300000000,S75 6BP,2013-04-30,fhrs_4_en-GB,4,,FHRS,10
357646,Co Operative Stores,High Street,,Royston,Co-operative,Retailers - supermarkets/hypermarkets,7840,10,,398466,10,,53.59793500000000,74623,401,regulatoryservices@barnsley.gov.uk,Barnsley,http://www.barnsley.gov.uk,-1.45832800000000,S71 4RF,2013-09-19,fhrs_4_en-GB,4,,FHRS,0
357647,Co Operative Stores Ltd,Barnsley Road,,Cudworth,Co-operative,Retailers - supermarkets/hypermarkets,7840,5,,397680,0,,53.57662400000000,2412,401,regulatoryservices@barnsley.gov.uk,Barnsley,http://www.barnsley.gov.uk,-1.41815600000000,S72 8BU,2013-02-15,fhrs_5_en-GB,5,,FHRS,5
357648,"Coop Convenience Store, Petrol Station",Doncaster Road,,Darfield,Co-operative,Retailers - other,4613,5,,399062,10,,53.53347000000000,9568,401,regulatoryservices@barnsley.gov.uk,Barnsley,http://www.barnsley.gov.uk,-1.35503400000000,S73 9JG,2013-10-16,fhrs_4_en-GB,4,,FHRS,5
357649,Former Cooperative,Snape Hill Road,,Darfield,Co-operative,Retailers - supermarkets/hypermarkets,7840,5,,397814,5,,53.53384500000000,37151,401,regulatoryservices@barnsley.gov.uk,Barnsley,http://www.barnsley.gov.uk,-1.37479300000000,S73 9JU,2010-11-04,fhrs_5_en-GB,5,,FHRS,5
357650,Petrol Station,Upper Sheffield Road,,Barnsley,Co-operative Petrol Filling Station,Retailers - other,4613,0,,397281,5,,53.54400200000000,10573,401,regulatoryservices@barnsley.gov.uk,Barnsley,http://www.barnsley.gov.uk,-1.47184400000000,S70 4PJ,2012-10-15,fhrs_5_en-GB,5,,FHRS,5
357651,,30 Barnsley Road,,Goldthorpe,Cooplands,Retailers - other,4613,0,,397921,0,,53.53428900000000,4634,401,regulatoryservices@barnsley.gov.uk,Barnsley,http://www.barnsley.gov.uk,-1.30382900000000,S63 9NF,2014-02-10,fhrs_5_en-GB,5,,FHRS,5
357652,,109a Houghton Road,,Thurnscoe,Cooplands,Retailers - other,4613,5,,398134,5,,53.54644200000000,59882,401,regulatoryservices@barnsley.gov.uk,Barnsley,http://www.barnsley.gov.uk,-1.31805800000000,S63 0NG,2013-08-05,fhrs_4_en-GB,4,,FHRS,10
357653,,6 King Street,,Hoyland,Cooplands,Retailers - other,4613,5,,397910,0,,53.50095300000000,4589,401,regulatoryservices@barnsley.gov.uk,Barnsley,http://www.barnsley.gov.uk,-1.43772000000000,S74 9JP,2013-01-31,fhrs_5_en-GB,5,,FHRS,5
357654,"Cooplands Bakery, Barnsley Transport Interchange",Midland Street,,Barnsley,Cooplands,Takeaway/sandwich shop,7844,0,,398518,5,,53.55438100000000,75400,401,regulatoryservices@barnsley.gov.uk,Barnsley,http://www.barnsley.gov.uk,-1.47746600000000,S70 1SD,2014-08-20,fhrs_5_en-GB,5,,FHRS,5
357655,"The Cop Shop, Police House",Nancy Road,,Grimethorpe,Cop Shop,Retailers - other,4613,10,,397625,0,,53.57334400000000,20031,401,regulatoryservices@barnsley.gov.uk,Barnsley,http://www.barnsley.gov.uk,-1.37206600000000,S72 7JX,2012-10-11,fhrs_4_en-GB,4,,FHRS,0
357656,,60 Church Street,,Darton,Corner Cafe,Restaurant/Cafe/Canteen,1,5,,399059,0,,53.58607700000000,9535,401,regulatoryservices@barnsley.gov.uk,Barnsley,http://www.barnsley.gov.uk,-1.53011200000000,S75 5HQ,2014-05-22,fhrs_5_en-GB,5,,FHRS,5
357657,,62 Mexborough Road,,Bolton Upon Dearne,Corner Cafe,Restaurant/Cafe/Canteen,1,0,,398299,5,,53.51447800000000,67887,401,regulatoryservices@barnsley.gov.uk,Barnsley,http://www.barnsley.gov.uk,-1.31318700000000,S63 8LX,2013-07-02,fhrs_5_en-GB,5,,FHRS,5
357658,,146 Redbrook Road,,Gawber,Corner Kitchen,Restaurant/Cafe/Canteen,1,5,,397541,0,,53.56062900000000,1633,401,regulatoryservices@barnsley.gov.uk,Barnsley,http://www.barnsley.gov.uk,-1.50521300000000,S75 2RB,2013-04-12,fhrs_5_en-GB,5,,FHRS,5
357659,The Corner Pin,2 Wellington Street,,Barnsley,Corner Pin,Pub/bar/nightclub,7843,5,,397358,5,,53.55173200000000,1195,401,regulatoryservices@barnsley.gov.uk,Barnsley,http://www.barnsley.gov.uk,-1.48205700000000,S70 1SS,2014-01-24,fhrs_5_en-GB,5,,FHRS,5
357660,Corner Pocket,Elm Row,,Hoyle Mill,Corner Pocket Snooker Club,Pub/bar/nightclub,7843,0,,398510,0,,53.55260700000000,75168,401,regulatoryservices@barnsley.gov.uk,Barnsley,http://www.barnsley.gov.uk,-1.45846900000000,S71 1HR,2013-07-25,fhrs_4_en-GB,4,,FHRS,10
357661,,10 Wombwell Road,,Platts Common,Corner Shop,Takeaway/sandwich shop,7844,10,,398485,0,,53.50929900000000,74795,401,regulatoryservices@barnsley.gov.uk,Barnsley,http://www.barnsley.gov.uk,-1.44052000000000,S74 9SQ,2013-07-03,fhrs_4_en-GB,4,,FHRS,10
357662,,,,,Cosmic Cupcakes,Mobile caterer,7846,5,,633049,0,,,97739,401,regulatoryservices@barnsley.gov.uk,Barnsley,http://www.barnsley.gov.uk,,,2015-01-14,fhrs_5_en-GB,5,,FHRS,5
357663,,12 Queen Street,,Barnsley,Costa Coffee,Restaurant/Cafe/Canteen,1,0,,418771,0,,53.55272200000000,93525,401,regulatoryservices@barnsley.gov.uk,Barnsley,http://www.barnsley.gov.uk,-1.48035400000000,S70 1SJ,2012-09-27,fhrs_5_en-GB,5,,FHRS,0
357664,,16-18 High Street,,Shafton,Costcutter,Retailers - supermarkets/hypermarkets,7840,10,,397577,10,,53.59089300000000,1763,401,regulatoryservices@barnsley.gov.uk,Barnsley,http://www.barnsley.gov.uk,-1.40442400000000,S72 8QB,2014-02-18,fhrs_3_en-GB,3,,FHRS,10
357665,,15 Pogmoor Road,,Pogmoor,Costcutter,Retailers - other,4613,5,,397556,0,,53.55605600000000,1671,401,regulatoryservices@barnsley.gov.uk,Barnsley,http://www.barnsley.gov.uk,-1.50354500000000,S75 2EE,2014-06-10,fhrs_5_en-GB,5,,FHRS,5
357666,Kexborough Post Office,16 Ballfield Lane,,Kexbrough,Costcutter,Retailers - other,4613,5,,397614,5,,53.58242700000000,1940,401,regulatoryservices@barnsley.gov.uk,Barnsley,http://www.barnsley.gov.uk,-1.54852000000000,S75 5EF,2010-07-01,fhrs_5_en-GB,5,,FHRS,5
357667,The Old School House,Spark Lane,,"Mapplewell, Barnsley",Costcutters,Retailers - other,4613,5,,398868,0,,53.54845900000000,88447,401,regulatoryservices@barnsley.gov.uk,Barnsley,http://www.barnsley.gov.uk,-1.55134100000000,S75 6AB,2011-06-10,fhrs_5_en-GB,5,,FHRS,0
357668,,34-36 Ben Bank Road,,Silkstone Common,Cottage Bakery,Retailers - other,4613,5,,407291,0,,53.53654800000000,93222,401,regulatoryservices@barnsley.gov.uk,Barnsley,http://www.barnsley.gov.uk,-1.56017300000000,S75 4PB,2014-04-15,fhrs_5_en-GB,5,,FHRS,0
357669,,45 Manchester Road,,Thurlstone,Cottage Bakery,Retailers - other,4613,5,,398120,5,,53.52748400000000,59100,401,regulatoryservices@barnsley.gov.uk,Barnsley,http://www.barnsley.gov.uk,-1.65171200000000,S36 9QH,2011-02-23,fhrs_5_en-GB,5,,FHRS,5
357670,,4 Hill Street,,Elsecar,Cottage Kitchen,Restaurant/Cafe/Canteen,1,0,,398207,5,,53.49711800000000,62668,401,regulatoryservices@barnsley.gov.uk,Barnsley,http://www.barnsley.gov.uk,-1.42501800000000,S74 8EF,2014-05-13,fhrs_5_en-GB,5,,FHRS,0
357671,,94 Racecommon Road,,Barnsley,Cottage Pizza,Takeaway/sandwich shop,7844,10,,398110,15,,53.54921200000000,58037,401,regulatoryservices@barnsley.gov.uk,Barnsley,http://www.barnsley.gov.uk,-1.48975500000000,S70 6AP,2014-07-21,fhrs_1_en-GB,1,,FHRS,20
357672,The Countess Tea Room,Park Avenue,,Wortley,Countess Tea Rooms,Restaurant/Cafe/Canteen,1,20,,398464,0,,53.49073100000000,74615,401,regulatoryservices@barnsley.gov.uk,Barnsley,http://www.barnsley.gov.uk,-1.53781300000000,S35 7DB,2013-07-16,fhrs_1_en-GB,1,,FHRS,5
357673,,372 Barugh Green Road,,Barugh Green,Country Kitchen,Restaurant/Cafe/Canteen,1,10,,397958,5,,53.56613600000000,4828,401,regulatoryservices@barnsley.gov.uk,Barnsley,http://www.barnsley.gov.uk,-1.51762000000000,S75 1HH,2014-11-17,fhrs_4_en-GB,4,,FHRS,5
357674,,,,,Couture Cakes By Christina,Other catering premises,7841,0,,399016,0,,,92649,401,regulatoryservices@barnsley.gov.uk,Barnsley,http://www.barnsley.gov.uk,,,2012-03-26,fhrs_5_en-GB,5,,FHRS,0
357675,"Cowpuccino, Barnsley Transport Interchange",Midland Street,,Barnsley,Cowpuccino,Restaurant/Cafe/Canteen,1,10,,398802,5,,53.55438100000000,86098,401,regulatoryservices@barnsley.gov.uk,Barnsley,http://www.barnsley.gov.uk,-1.47746600000000,S70 1SD,2014-01-17,fhrs_4_en-GB,4,,FHRS,5
357676,Crane Moor Wmc,Crane Moor Road,,Crane Moor,Crane Moor W M C,Pub/bar/nightclub,7843,10,,397843,0,,53.50671800000000,3882,401,regulatoryservices@barnsley.gov.uk,Barnsley,http://www.barnsley.gov.uk,-1.54630900000000,S35 7AQ,2010-09-08,fhrs_4_en-GB,4,,FHRS,0
357677,"Stall 23 And 24 Fish And Meat Section, Charter Market",Charter Arcade,,Barnsley,Crawshaw's Quality Meats,Retailers - other,4613,0,,397667,0,,,2383,401,regulatoryservices@barnsley.gov.uk,Barnsley,http://www.barnsley.gov.uk,,S70 1RE,2014-09-16,fhrs_5_en-GB,5,,FHRS,5
357678,,,,,Creamys Coffee,Mobile caterer,7846,5,,628546,0,,,97518,401,regulatoryservices@barnsley.gov.uk,Barnsley,http://www.barnsley.gov.uk,,,2014-04-16,fhrs_5_en-GB,5,,FHRS,0
357679,,31-35 Doncaster Road,,Goldthorpe,Crest Supermarket,Retailers - other,4613,20,,397678,0,,53.53446900000000,2408,401,regulatoryservices@barnsley.gov.uk,Barnsley,http://www.barnsley.gov.uk,-1.30236300000000,S63 9HG,2013-01-31,fhrs_1_en-GB,1,,FHRS,5
357680,Cross Inn,7 Summer Lane,,Royston,Cross Inn,Pub/bar/nightclub,7843,10,,397246,5,,53.60039300000000,1015,401,regulatoryservices@barnsley.gov.uk,Barnsley,http://www.barnsley.gov.uk,-1.46334400000000,S71 4SE,2013-01-10,fhrs_3_en-GB,3,,FHRS,10
357681,Petrol Station,Sheffield Road,,Hoyland,Cross Keys Garage (Barnsley)Ltd,Retailers - other,4613,10,,397639,0,,53.49908300000000,2054,401,regulatoryservices@barnsley.gov.uk,Barnsley,http://www.barnsley.gov.uk,-1.46892000000000,S74 0PY,2013-01-11,fhrs_4_en-GB,4,,FHRS,0
357682,Crown Service Station,Sheffield Road,,Wortley,Crown Filling Station,Retailers - other,4613,0,,397643,0,,53.46825000000000,2075,401,regulatoryservices@barnsley.gov.uk,Barnsley,http://www.barnsley.gov.uk,-1.50850100000000,S35 4JB,2008-06-10,fhrs_5_en-GB,5,,FHRS,0
357683,The Crown Inn,Sheffield Road,,Wortley,Crown Inn,Pub/bar/nightclub,7843,0,,398045,0,,53.46825000000000,5285,401,regulatoryservices@barnsley.gov.uk,Barnsley,http://www.barnsley.gov.uk,-1.50850100000000,S35 4JB,2011-02-18,fhrs_5_en-GB,5,,FHRS,0
357684,Huddersfield University Centre,Church Street,,Barnsley,Crumbs 2,Restaurant/Cafe/Canteen,1,10,,398067,5,,53.55487200000000,552,401,regulatoryservices@barnsley.gov.uk,Barnsley,http://www.barnsley.gov.uk,-1.48277300000000,S70 2AN,2012-09-21,fhrs_4_en-GB,4,,FHRS,0
357685,"Flat Above, Crystal Palace Hotel",Towngate,,Thurlstone,Crystal Palace Hotel,Pub/bar/nightclub,7843,5,,397365,5,,53.52860900000000,1207,401,regulatoryservices@barnsley.gov.uk,Barnsley,http://www.barnsley.gov.uk,-1.64913800000000,S36 9RH,2011-12-19,fhrs_5_en-GB,5,,FHRS,5
357686,Cubley Hall,Mortimer Road,,Cubley,Cubley Hall,Pub/bar/nightclub,7843,0,,397330,5,,53.51553500000000,1139,401,regulatoryservices@barnsley.gov.uk,Barnsley,http://www.barnsley.gov.uk,-1.63250600000000,S36 9DF,2014-12-16,fhrs_5_en-GB,5,,FHRS,5
357687,Cudworth Churchfield Primary School,Snydale Road,,Cudworth,Cudworth Churchfields Primary School,School/college/university,7845,0,,398074,0,,53.57734200000000,560,401,regulatoryservices@barnsley.gov.uk,Barnsley,http://www.barnsley.gov.uk,-1.41437000000000,S72 8JR,2011-09-14,fhrs_5_en-GB,5,,FHRS,5
357688,Cudworth Industrial Sport And Social Club,James Street,,Cudworth,Cudworth Industrial Sports & Social Club,Pub/bar/nightclub,7843,5,,398615,0,,53.58519400000000,780,401,regulatoryservices@barnsley.gov.uk,Barnsley,http://www.barnsley.gov.uk,-1.40991200000000,S72 8AN,2011-10-25,fhrs_4_en-GB,4,,FHRS,10
357689,West End Club And Institute Society,St Johns Road,,Cudworth,Cudworth West End Institute & Club,Pub/bar/nightclub,7843,5,,398629,0,,53.57491800000000,790,401,regulatoryservices@barnsley.gov.uk,Barnsley,http://www.barnsley.gov.uk,-1.41858700000000,S72 8DB,2011-10-25,fhrs_4_en-GB,4,,FHRS,10
357690,Cudworth Youth Centre,Snydale Road,,Cudworth,Cudworth Youth Centre,Other catering premises,7841,20,,397762,10,,53.57576600000000,334,401,regulatoryservices@barnsley.gov.uk,Barnsley,http://www.barnsley.gov.uk,-1.41374300000000,S72 8LH,2012-04-18,fhrs_1_en-GB,1,,FHRS,5
357691,,,,,Cupcake Corner,Other catering premises,7841,10,,398929,5,,,90121,401,regulatoryservices@barnsley.gov.uk,Barnsley,http://www.barnsley.gov.uk,,,2011-08-04,fhrs_4_en-GB,4,,FHRS,5
357692,The Alhambra Shopping Centre,Cheapside,,Barnsley,Curious Cakes,Retailers - other,4613,10,,535166,5,,53.55088900000000,95350,401,regulatoryservices@barnsley.gov.uk,Barnsley,http://www.barnsley.gov.uk,-1.47832400000000,S70 1SB,2013-09-10,fhrs_4_en-GB,4,,FHRS,5
357693,Avro House,28 Barnsley Road,,Dodworth,Curry Mahal,Restaurant/Cafe/Canteen,1,10,,397957,15,,53.54327700000000,4827,401,regulatoryservices@barnsley.gov.uk,Barnsley,http://www.barnsley.gov.uk,-1.52617900000000,S75 3RN,2014-08-12,fhrs_2_en-GB,2,,FHRS,15
357694,,27 High Street,,Wombwell,Curry Tonight,Takeaway/sandwich shop,7844,10,,398113,0,,53.52247200000000,58429,401,regulatoryservices@barnsley.gov.uk,Barnsley,http://www.barnsley.gov.uk,-1.39885200000000,S73 8HB,2014-11-06,fhrs_4_en-GB,4,,FHRS,5
357695,,7 Royal Street,,Barnsley,Cybersnax,Restaurant/Cafe/Canteen,1,0,,398008,0,,53.55388600000000,5035,401,regulatoryservices@barnsley.gov.uk,Barnsley,http://www.barnsley.gov.uk,-1.48139700000000,S70 2ED,2012-08-15,fhrs_5_en-GB,5,,FHRS,5
357696,,53 Shrewsbury Road,,Penistone,D & NL Ward,Restaurant/Cafe/Canteen,1,0,,398491,5,,53.52573900000000,74811,401,regulatoryservices@barnsley.gov.uk,Barnsley,http://www.barnsley.gov.uk,-1.63051800000000,S36 6DZ,2014-03-06,fhrs_5_en-GB,5,,FHRS,5
357697,,91 Houghton Road,,Thurnscoe,D H MacCabe,Other catering premises,7841,0,,398540,0,,53.54627000000000,76178,401,regulatoryservices@barnsley.gov.uk,Barnsley,http://www.barnsley.gov.uk,-1.31620400000000,S63 0JX,2011-09-23,fhrs_5_en-GB,5,,FHRS,0
357698,,101 Houghton Road,,Thurnscoe,D J Foods,Retailers - other,4613,5,,399078,0,,53.54644200000000,9733,401,regulatoryservices@barnsley.gov.uk,Barnsley,http://www.barnsley.gov.uk,-1.31805800000000,S63 0NG,2014-06-24,fhrs_5_en-GB,5,,FHRS,5
357699,,9 Regent Street South,,Barnsley,D Max Supplements,Retailers - other,4613,,,582692,,,53.55415600000000,142,401,regulatoryservices@barnsley.gov.uk,Barnsley,http://www.barnsley.gov.uk,-1.47935600000000,S70 2HT,2013-11-19,fhrs_exempt_en-GB,Exempt,,FHRS,
357700,Unit 3,Semi Open Market,,Barnsley Markets,D Slack,Retailers - other,4613,0,,398157,0,,,60325,401,regulatoryservices@barnsley.gov.uk,Barnsley,http://www.barnsley.gov.uk,,,2014-03-26,fhrs_5_en-GB,5,,FHRS,0
357701,,1 High Street,,Monk Bretton,D Speed Butchers,Retailers - other,4613,0,,397482,0,,53.56630300000000,1452,401,regulatoryservices@barnsley.gov.uk,Barnsley,http://www.barnsley.gov.uk,-1.45405200000000,S71 2EL,2014-04-29,fhrs_5_en-GB,5,,FHRS,5
357702,,44 Pitt Street West,,Barnsley,D&D Moxon,Retailers - other,4613,10,,397564,0,,53.55004900000000,1715,401,regulatoryservices@barnsley.gov.uk,Barnsley,http://www.barnsley.gov.uk,-1.48797900000000,S70 1BN,2010-05-18,fhrs_4_en-GB,4,,FHRS,5
357703,,,,,Daisy Cakes,Retailers - other,4613,5,,528079,0,,,95430,401,regulatoryservices@barnsley.gov.uk,Barnsley,http://www.barnsley.gov.uk,,,2013-06-03,fhrs_5_en-GB,5,,FHRS,0
357704,Thurlstone Primary School,Royd Moor Road,,Thurlstone,Daisy Chain Pre School,Restaurant/Cafe/Canteen,1,5,,398778,0,,53.52977500000000,84653,401,regulatoryservices@barnsley.gov.uk,Barnsley,http://www.barnsley.gov.uk,-1.65134600000000,S36 9RD,2014-06-26,fhrs_5_en-GB,5,,FHRS,0
357705,"Stall 13 Meat And Fish Section, Charter Market",Charter Arcade,,Barnsley,Dale Farm,Retailers - other,4613,5,,398153,5,,,60307,401,regulatoryservices@barnsley.gov.uk,Barnsley,http://www.barnsley.gov.uk,,S70 1RE,2013-04-30,fhrs_5_en-GB,5,,FHRS,0
357706,,172 High Street,,Worsbrough Bridge,Dale Fisheries,Takeaway/sandwich shop,7844,10,,511025,0,,53.53139100000000,74601,401,regulatoryservices@barnsley.gov.uk,Barnsley,http://www.barnsley.gov.uk,-1.45775900000000,S70 4SG,2014-11-06,fhrs_4_en-GB,4,,FHRS,10
357707,The Dale Tavern,West Street,,Worsbrough Bridge,Dale Tavern,Pub/bar/nightclub,7843,0,,586813,0,,53.52953300000000,37155,401,regulatoryservices@barnsley.gov.uk,Barnsley,http://www.barnsley.gov.uk,-1.45829600000000,S70 5PG,2013-05-01,fhrs_5_en-GB,5,,FHRS,5
357708,"First Floor Stall 33 To 35, Charter Market",Charter Arcade,,Barnsley,Dantina Foods,Retailers - other,4613,10,,398719,0,,,82396,401,regulatoryservices@barnsley.gov.uk,Barnsley,http://www.barnsley.gov.uk,,S70 1RE,2012-11-27,fhrs_4_en-GB,4,,FHRS,5
357709,Darfield Childrens Centre,School Street,,Darfield,Darfield Childrens Centre,Hospitals/Childcare/Caring Premises,5,10,,398147,0,,53.53543200000000,60252,401,regulatoryservices@barnsley.gov.uk,Barnsley,http://www.barnsley.gov.uk,-1.37238600000000,S73 9EU,2012-11-28,fhrs_4_en-GB,4,,FHRS,5
357710,Darfield Community Centre,Illsley Road,,Darfield,Darfield Community Centre,Pub/bar/nightclub,7843,5,,397759,0,,53.53711600000000,331,401,regulatoryservices@barnsley.gov.uk,Barnsley,http://www.barnsley.gov.uk,-1.37645000000000,S73 9AJ,2008-04-14,fhrs_5_en-GB,5,,FHRS,5
357711,Darfield Conservative Club,School Street,,Darfield,Darfield Conservative Club,Pub/bar/nightclub,7843,0,,398019,0,,53.53717100000000,5070,401,regulatoryservices@barnsley.gov.uk,Barnsley,http://www.barnsley.gov.uk,-1.37322000000000,S73 9EZ,2008-07-08,fhrs_5_en-GB,5,,FHRS,0
357712,Darfield Cricket Club,School Street,,Darfield,Darfield Cricket Club,Pub/bar/nightclub,7843,0,,397902,0,,53.53717100000000,4519,401,regulatoryservices@barnsley.gov.uk,Barnsley,http://www.barnsley.gov.uk,-1.37322000000000,S73 9EZ,2013-03-22,fhrs_5_en-GB,5,,FHRS,0
357713,,114 Snape Hill Road,,Darfield,Darfield Fish Bar,Takeaway/sandwich shop,7844,0,,397952,0,,53.53265300000000,480,401,regulatoryservices@barnsley.gov.uk,Barnsley,http://www.barnsley.gov.uk,-1.38078500000000,S73 9LP,2014-05-07,fhrs_5_en-GB,5,,FHRS,0
357714,Darfield Community Centre,Illsley Road,,Darfield,Darfield Meet and Eat Group,Restaurant/Cafe/Canteen,1,10,,398744,0,,53.53711600000000,83302,401,regulatoryservices@barnsley.gov.uk,Barnsley,http://www.barnsley.gov.uk,-1.37645000000000,S73 9AJ,2013-01-08,fhrs_4_en-GB,4,,FHRS,5
357715,,91 Darfield Road,,Cudworth,Darfield Road Fisheries,Takeaway/sandwich shop,7844,0,,397926,0,,53.56859900000000,467,401,regulatoryservices@barnsley.gov.uk,Barnsley,http://www.barnsley.gov.uk,-1.40757600000000,S72 8HG,2013-02-04,fhrs_5_en-GB,5,,FHRS,5
357716,,130 Darfield Road,,Cudworth,Darfield Road Post Office,Retailers - other,4613,5,,397912,0,,53.56700900000000,4600,401,regulatoryservices@barnsley.gov.uk,Barnsley,http://www.barnsley.gov.uk,-1.40598200000000,S72 8RJ,2011-10-24,fhrs_5_en-GB,5,,FHRS,5
357717,,142 Darfield Road,,Cudworth,Darfield Road Stores,Retailers - other,4613,5,,397576,0,,53.56597100000000,1760,401,regulatoryservices@barnsley.gov.uk,Barnsley,http://www.barnsley.gov.uk,-1.40504500000000,S72 8RL,2011-10-21,fhrs_5_en-GB,5,,FHRS,5
357718,Darfield Road Wmc,Darfield Road,,Cudworth,Darfield Road W M C,Pub/bar/nightclub,7843,5,,398597,0,,53.56603400000000,775,401,regulatoryservices@barnsley.gov.uk,Barnsley,http://www.barnsley.gov.uk,-1.40516500000000,S72 8RL,2011-10-25,fhrs_4_en-GB,4,,FHRS,10
357719,Darfield Valley Primary School,Snape Hill Road,,Darfield,Darfield Valley Primary School - Kitchen,School/college/university,7845,5,,398200,0,,53.53198200000000,62208,401,regulatoryservices@barnsley.gov.uk,Barnsley,http://www.barnsley.gov.uk,-1.38474700000000,S73 9LT,2012-11-16,fhrs_5_en-GB,5,,FHRS,0
357720,Darfield Village Club,5 School Street,,Darfield,Darfield Village Club,Pub/bar/nightclub,7843,10,,398626,0,,53.53460300000000,788,401,regulatoryservices@barnsley.gov.uk,Barnsley,http://www.barnsley.gov.uk,-1.37194500000000,S73 9ET,2013-06-06,fhrs_4_en-GB,4,,FHRS,5
357721,Darley Cottage,Ardsley Road,,Worsbrough Dale,Darley Cottage,Hospitals/Childcare/Caring Premises,5,0,,398509,0,,53.53173900000000,75129,401,regulatoryservices@barnsley.gov.uk,Barnsley,http://www.barnsley.gov.uk,-1.45120700000000,S70 4RQ,2013-01-10,fhrs_5_en-GB,5,,FHRS,0
357722,,67 Summer Lane,,Barnsley,Darn's Fish & Chips,Takeaway/sandwich shop,7844,0,,397382,5,,53.55520300000000,1229,401,regulatoryservices@barnsley.gov.uk,Barnsley,http://www.barnsley.gov.uk,-1.49093600000000,S70 2PD,2014-02-25,fhrs_4_en-GB,4,,FHRS,10
357723,Darton Advanced Learning Centre,Ballfield Lane,,Kexbrough,Darton College - Kitchen,School/college/university,7845,0,,398928,0,,53.58242700000000,90010,401,regulatoryservices@barnsley.gov.uk,Barnsley,http://www.barnsley.gov.uk,-1.54852000000000,S75 5EF,2013-01-17,fhrs_5_en-GB,5,,FHRS,5
357724,,74 Church Street,,Darton,Darton Fisheries,Takeaway/sandwich shop,7844,5,,398484,0,,53.58607700000000,74771,401,regulatoryservices@barnsley.gov.uk,Barnsley,http://www.barnsley.gov.uk,-1.53011200000000,S75 5HQ,2014-10-30,fhrs_5_en-GB,5,,FHRS,0
357725,Darton And District Liberal Club,Barnsley Road,,Darton,Darton Liberal W M C,Pub/bar/nightclub,7843,10,,398720,5,,53.58446400000000,824,401,regulatoryservices@barnsley.gov.uk,Barnsley,http://www.barnsley.gov.uk,-1.53150500000000,S75 5NQ,2012-07-24,fhrs_4_en-GB,4,,FHRS,5
357726,Darton Pharmacy,65-67 Church Street,,Darton,Darton Pharmacy,Retailers - other,4613,,,398680,,,53.58607700000000,80562,401,regulatoryservices@barnsley.gov.uk,Barnsley,http://www.barnsley.gov.uk,-1.53011200000000,S75 5HQ,2013-05-20,fhrs_exempt_en-GB,Exempt,,FHRS,
357727,Darton Primary School,Station Road,,Darton,Darton Primary School - Kitchen,School/college/university,7845,0,,398300,0,,53.58514600000000,679,401,regulatoryservices@barnsley.gov.uk,Barnsley,http://www.barnsley.gov.uk,-1.52417100000000,S75 5AD,2014-06-10,fhrs_5_en-GB,5,,FHRS,5
357728,"Stall 59, Semi Open Market",Market Parade,,,Dave & Dave,Retailers - other,4613,0,,398161,0,,,60363,401,regulatoryservices@barnsley.gov.uk,Barnsley,http://www.barnsley.gov.uk,,,2013-05-21,fhrs_5_en-GB,5,,FHRS,5
357729,,,,,David Barker,Mobile caterer,7846,,,638804,,,,97904,401,regulatoryservices@barnsley.gov.uk,Barnsley,http://www.barnsley.gov.uk,,,,fhrs_awaitinginspection_en-GB,AwaitingInspection,,FHRS,
