,addressline1,addressline2,addressline3,addressline4,businessname,businesstype,businesstypeid,confidenceinmanagement,extractdate,fhrsid,hygiene,itemcount,latitude,localauthoritybusinessid,localauthoritycode,localauthorityemailaddress,localauthorityname,localauthoritywebsite,longitude,postcode,ratingdate,ratingkey,ratingvalue,returncode,schemetype,structural
359123,,10 Main Street,Haworth,Keighley,10 The Coffee House,Hotel/bed & breakfast/guest house,7842,0,,327005,0,,53.82956000000000,52980,404,food.safety@bradford.gov.uk,Bradford,http://www.bradford.gov.uk,-1.95444500000000,BD22 8DA,2013-08-15,fhrs_5_en-GB,5,,FHRS,0
359124,,Bradford Lane,Bradford,,147 Cabaret Bar (Bar Only),Pub/bar/nightclub,7843,0,,326620,0,,53.79317600000000,4285,404,food.safety@bradford.gov.uk,Bradford,http://www.bradford.gov.uk,-1.71687100000000,BD3 8LW,2014-02-03,fhrs_5_en-GB,5,,FHRS,5
359125,Menston Station,Station Road,Menston,Ilkley,1875,Restaurant/Cafe/Canteen,1,0,,410679,0,,53.89146300000000,183990,404,food.safety@bradford.gov.uk,Bradford,http://www.bradford.gov.uk,-1.73457300000000,LS29 6JH,2014-02-07,fhrs_5_en-GB,5,,FHRS,0
359126,Blackberry Bank,Spa Lane,Bingley,,2 Dine 4,Other catering premises,7841,0,,611143,0,,53.85624300000000,183711,404,food.safety@bradford.gov.uk,Bradford,http://www.bradford.gov.uk,-1.83103000000000,BD16 4EP,2013-11-21,fhrs_5_en-GB,5,,FHRS,0
359127,,59 Westgate,Bradford,,2 In 1 Diner,Restaurant/Cafe/Canteen,1,20,,631713,10,,53.79625400000000,215321,404,food.safety@bradford.gov.uk,Bradford,http://www.bradford.gov.uk,-1.75990400000000,BD1 2RD,2014-01-27,fhrs_1_en-GB,1,,FHRS,15
359128,Ground Floor,127 Killinghall Road,Bradford,,2001 Video,Retailers - other,4613,5,,324906,0,,53.79789400000000,119938,404,food.safety@bradford.gov.uk,Bradford,http://www.bradford.gov.uk,-1.72036100000000,BD3 8AA,2012-08-20,fhrs_4_en-GB,4,,FHRS,10
359129,,211 Bingley Road,Shipley,,211 The Deli,Restaurant/Cafe/Canteen,1,5,,327353,0,,53.83577800000000,65365,404,food.safety@bradford.gov.uk,Bradford,http://www.bradford.gov.uk,-1.79646600000000,BD18 4DH,2013-12-03,fhrs_5_en-GB,5,,FHRS,0
359130,,656 Halifax Road,Bradford,,A & J Off Licence & Post Office,Retailers - other,4613,10,,325228,0,,53.75848900000000,14826,404,food.safety@bradford.gov.uk,Bradford,http://www.bradford.gov.uk,-1.79570200000000,BD6 2EA,2013-01-09,fhrs_4_en-GB,4,,FHRS,0
359131,,15 Duckworth Lane,Bradford,,A & S Minimarket,Retailers - other,4613,10,,328121,5,,53.80607500000000,89100,404,food.safety@bradford.gov.uk,Bradford,http://www.bradford.gov.uk,-1.78696800000000,BD9 5ER,2014-06-05,fhrs_3_en-GB,3,,FHRS,10
359132,,507 Otley Road,Bradford,,A B Sea Take Away,Takeaway/sandwich shop,7844,5,,326199,5,,53.80883700000000,27112,404,food.safety@bradford.gov.uk,Bradford,http://www.bradford.gov.uk,-1.73020500000000,BD2 4QL,2014-08-14,fhrs_5_en-GB,5,,FHRS,5
359133,"Unit 219, The Oastler Shopping Centre",John Street,Bradford,,A J Pickup And Son,Retailers - other,4613,5,,324551,0,,53.79638400000000,100143,404,food.safety@bradford.gov.uk,Bradford,http://www.bradford.gov.uk,-1.75789900000000,BD1 3ST,2014-01-13,fhrs_5_en-GB,5,,FHRS,5
359134,,51 Haworth Road,Cross Roads,Keighley,A Snowden,Retailers - other,4613,0,,326860,0,,53.83524100000000,50042,404,food.safety@bradford.gov.uk,Bradford,http://www.bradford.gov.uk,-1.93497400000000,BD22 9DL,2012-07-02,fhrs_5_en-GB,5,,FHRS,0
359135,,,,,A Trail Of Crumbs - Cakes,Other catering premises,7841,5,,650470,5,,,217885,404,food.safety@bradford.gov.uk,Bradford,http://www.bradford.gov.uk,,,2014-04-15,fhrs_5_en-GB,5,,FHRS,0
359136,,,,,AA Fruit & Veg,Mobile caterer,7846,0,,326475,0,,,36507,404,food.safety@bradford.gov.uk,Bradford,http://www.bradford.gov.uk,,,2013-08-23,fhrs_5_en-GB,5,,FHRS,5
359137,,48 Saltaire Road,Shipley,,Aagrah Food Court,Takeaway/sandwich shop,7844,5,,327804,5,,53.83525000000000,78511,404,food.safety@bradford.gov.uk,Bradford,http://www.bradford.gov.uk,-1.78207900000000,BD18 3HN,2014-06-13,fhrs_5_en-GB,5,,FHRS,5
359138,10 The Moors Shopping Centre,South Hawksworth Street,Ilkley,,Aagrah Ilkley,Restaurant/Cafe/Canteen,1,5,,588905,5,,53.92560400000000,46178,404,food.safety@bradford.gov.uk,Bradford,http://www.bradford.gov.uk,-1.82563400000000,LS29 9LB,2013-09-25,fhrs_5_en-GB,5,,FHRS,5
359139,,4 Saltaire Road,Shipley,,Aagrah Restaurant,Restaurant/Cafe/Canteen,1,5,,325167,5,,53.83525000000000,144415,404,food.safety@bradford.gov.uk,Bradford,http://www.bradford.gov.uk,-1.78207900000000,BD18 3HN,2014-05-30,fhrs_5_en-GB,5,,FHRS,5
359140,,532 Great Horton Road,Bradford,,Aahil Halal Meat,Retailers - other,4613,10,,328203,5,,53.78322600000000,91478,404,food.safety@bradford.gov.uk,Bradford,http://www.bradford.gov.uk,-1.78157400000000,BD7 3HG,2013-10-22,fhrs_3_en-GB,3,,FHRS,10
359141,,16 Willow Street,Bradford,,Abaseem,Takeaway/sandwich shop,7844,10,,324809,10,,53.79990900000000,107600,404,food.safety@bradford.gov.uk,Bradford,http://www.bradford.gov.uk,-1.78734800000000,BD8 9NJ,2014-06-03,fhrs_3_en-GB,3,,FHRS,5
359142,,Stallabrass Street,Bradford,,Abbey Court Luncheon Club,Other catering premises,7841,0,,324614,0,,53.79920700000000,103361,404,food.safety@bradford.gov.uk,Bradford,http://www.bradford.gov.uk,-1.76728100000000,BD8 8EF,2009-12-15,fhrs_5_en-GB,5,,FHRS,0
359143,,Green Lane,Manningham,Bradford,Abbey Green Nursery School & Childrens Centre,School/college/university,7845,0,,328215,0,,53.80207300000000,91654,404,food.safety@bradford.gov.uk,Bradford,http://www.bradford.gov.uk,-1.76641500000000,BD8 8HT,2014-06-13,fhrs_5_en-GB,5,,FHRS,0
359144,,58-60 Kirkgate,Shipley,,Abbey Lodge Hotel,Hotel/bed & breakfast/guest house,7842,20,,327579,10,,53.83339700000000,72382,404,food.safety@bradford.gov.uk,Bradford,http://www.bradford.gov.uk,-1.78143500000000,BD18 3EL,2014-09-18,fhrs_1_en-GB,1,,FHRS,0
359145,,Grove Road,Ilkley,,Abbeydale Rest Home,Hospitals/Childcare/Caring Premises,5,0,,326832,0,,53.92374200000000,49329,404,food.safety@bradford.gov.uk,Bradford,http://www.bradford.gov.uk,-1.84417300000000,LS29 9QE,2014-01-10,fhrs_5_en-GB,5,,FHRS,0
359146,,23-24 North Park Road,Bradford,,Abbeyfield House,Hospitals/Childcare/Caring Premises,5,,,328488,,,53.81330300000000,98301,404,food.safety@bradford.gov.uk,Bradford,http://www.bradford.gov.uk,-1.77830500000000,BD9 4NU,2013-06-03,fhrs_exempt_en-GB,Exempt,,FHRS,
359147,,164 Queens Road,Keighley,,Abduls,Takeaway/sandwich shop,7844,20,,327120,10,,53.85630700000000,56899,404,food.safety@bradford.gov.uk,Bradford,http://www.bradford.gov.uk,-1.91777700000000,BD21 1BG,2014-02-11,fhrs_1_en-GB,1,,FHRS,5
359148,,1 Aberdeen Terrace,Clayton,Bradford,Aberdeen News & Off Licence,Retailers - other,4613,0,,327941,0,,53.78082000000000,82940,404,food.safety@bradford.gov.uk,Bradford,http://www.bradford.gov.uk,-1.80944900000000,BD14 6LS,2013-02-11,fhrs_5_en-GB,5,,FHRS,5
359149,,Foundry Hill,Bingley,,ABS Fast Food,Takeaway/sandwich shop,7844,10,,325766,10,,53.84831700000000,193918,404,food.safety@bradford.gov.uk,Bradford,http://www.bradford.gov.uk,-1.83797800000000,BD16 2NB,2013-03-19,fhrs_3_en-GB,3,,FHRS,10
359150,,141 Legrams Lane,Bradford,,Abubakar Food Store,Retailers - other,4613,10,,328350,0,,53.79118500000000,95101,404,food.safety@bradford.gov.uk,Bradford,http://www.bradford.gov.uk,-1.77908900000000,BD7 2AA,2012-06-12,fhrs_4_en-GB,4,,FHRS,10
359151,"Unit 4, Accent Business Centre",Barkerend Road,Bradford,,Accent Training Centre,Restaurant/Cafe/Canteen,1,10,,588902,0,,53.79619900000000,210738,404,food.safety@bradford.gov.uk,Bradford,http://www.bradford.gov.uk,-1.74209700000000,BD3 9BD,2013-08-07,fhrs_4_en-GB,4,,FHRS,10
359152,,The Green,Eldwick,Bingley,Acorn Inn,Pub/bar/nightclub,7843,10,,327843,10,,53.86247900000000,80089,404,food.safety@bradford.gov.uk,Bradford,http://www.bradford.gov.uk,-1.81184600000000,BD16 3AW,2014-09-04,fhrs_3_en-GB,3,,FHRS,10
359153,,Millennium Business Park,Steeton With Eastburn,,Acorn Mobility Services,Restaurant/Cafe/Canteen,1,0,,325450,5,,53.89995100000000,166530,404,food.safety@bradford.gov.uk,Bradford,http://www.bradford.gov.uk,-1.94963600000000,BD20 6RB,2013-01-08,fhrs_4_en-GB,4,,FHRS,10
359154,,46-48 All Saints Road,Bradford,,Acorn Nursing Home,Hospitals/Childcare/Caring Premises,5,5,,327944,10,,53.78445800000000,83309,404,food.safety@bradford.gov.uk,Bradford,http://www.bradford.gov.uk,-1.76737800000000,BD5 0NJ,2014-11-21,fhrs_4_en-GB,4,,FHRS,5
359155,,204 Swan Avenue,Bingley,,Acorns in Eldwick,Hospitals/Childcare/Caring Premises,5,10,,631714,5,,53.85440500000000,217517,404,food.safety@bradford.gov.uk,Bradford,http://www.bradford.gov.uk,-1.81566800000000,BD16 3PL,2014-12-15,fhrs_4_en-GB,4,,FHRS,0
359156,,48 Saxton Avenue,Bradford,,Acres,Hospitals/Childcare/Caring Premises,5,,,326310,,,53.76856400000000,31620,404,food.safety@bradford.gov.uk,Bradford,http://www.bradford.gov.uk,-1.79527400000000,BD6 3SP,2014-01-07,fhrs_exempt_en-GB,Exempt,,FHRS,
359157,,Canal Road,Bradford,,Acw Garden Centre,Retailers - other,4613,0,,327931,0,,53.81148800000000,82623,404,food.safety@bradford.gov.uk,Bradford,http://www.bradford.gov.uk,-1.75955900000000,BD2 1AL,2012-09-12,fhrs_5_en-GB,5,,FHRS,0
359158,,26 Commercial Street,Shipley,,Adaab Balti Rest & Take Away,Restaurant/Cafe/Canteen,1,5,,327448,5,,53.83477500000000,67620,404,food.safety@bradford.gov.uk,Bradford,http://www.bradford.gov.uk,-1.77825200000000,BD18 3SP,2014-09-09,fhrs_5_en-GB,5,,FHRS,5
359159,6 Milner House,Greenway Drive,Bradford,,Adam Spices,Takeaway/sandwich shop,7844,20,,324576,10,,53.79668600000000,101228,404,food.safety@bradford.gov.uk,Bradford,http://www.bradford.gov.uk,-1.82302500000000,BD15 7YZ,2014-01-06,fhrs_1_en-GB,1,,FHRS,10
359160,,81 Bradford Street,Keighley,,Adams Cafe,Takeaway/sandwich shop,7844,20,,693721,5,,53.87014400000000,111894,404,food.safety@bradford.gov.uk,Bradford,http://www.bradford.gov.uk,-1.90086900000000,BD21 3ED,2014-08-19,fhrs_1_en-GB,1,,FHRS,5
359161,13-14 New Market,Low Street,Keighley,,Adams Cafe,Restaurant/Cafe/Canteen,1,10,,326975,5,,53.86549400000000,52714,404,food.safety@bradford.gov.uk,Bradford,http://www.bradford.gov.uk,-1.90766200000000,BD21 3PQ,2014-02-06,fhrs_4_en-GB,4,,FHRS,5
359162,11 Arndale Shopping Centre,Market Square,Shipley,,Adams News,Retailers - other,4613,,,327690,,,53.83288600000000,74663,404,food.safety@bradford.gov.uk,Bradford,http://www.bradford.gov.uk,-1.77722900000000,BD18 3QQ,2007-04-17,fhrs_exempt_en-GB,Exempt,,FHRS,
359163,,Ilkley Road,Addingham,,Addingham Cricket Club,Pub/bar/nightclub,7843,10,,326892,0,,53.94199600000000,51077,404,food.safety@bradford.gov.uk,Bradford,http://www.bradford.gov.uk,-1.87559400000000,LS29 0LT,2008-04-09,fhrs_4_en-GB,4,,FHRS,0
359164,,117-119 Main Street,Addingham,,Addingham Post Office,Retailers - other,4613,0,,733759,0,,53.94439900000000,208413,404,food.safety@bradford.gov.uk,Bradford,http://www.bradford.gov.uk,-1.88849000000000,LS29 0PD,2015-02-03,fhrs_5_en-GB,5,,FHRS,0
359165,,Bolton Road,Addingham,,Addingham Preschool Playgroup,Hospitals/Childcare/Caring Premises,5,5,,327030,0,,53.94450200000000,53223,404,food.safety@bradford.gov.uk,Bradford,http://www.bradford.gov.uk,-1.88210700000000,LS29 0NR,2014-06-04,fhrs_5_en-GB,5,,FHRS,5
359166,,Bolton Road,Addingham,,Addingham Primary School,School/college/university,7845,0,,326614,0,,53.94450200000000,42600,404,food.safety@bradford.gov.uk,Bradford,http://www.bradford.gov.uk,-1.88210700000000,LS29 0NR,2014-11-18,fhrs_5_en-GB,5,,FHRS,5
359167,,139 Main Street,Addingham,,Addingham Sandwich Shop,Takeaway/sandwich shop,7844,0,,327025,5,,53.94369200000000,53112,404,food.safety@bradford.gov.uk,Bradford,http://www.bradford.gov.uk,-1.88143900000000,LS29 0LZ,2014-01-09,fhrs_5_en-GB,5,,FHRS,5
359168,,147a Main Street,Addingham,,Addingham Social Club,Pub/bar/nightclub,7843,0,,327026,5,,53.94369200000000,53122,404,food.safety@bradford.gov.uk,Bradford,http://www.bradford.gov.uk,-1.88143900000000,LS29 0LZ,2014-06-16,fhrs_5_en-GB,5,,FHRS,5
359169,,79 Fagley Road,Bradford,,Adeel Balti & Pizza Bar,Takeaway/sandwich shop,7844,10,,530372,10,,53.80633000000000,10815,404,food.safety@bradford.gov.uk,Bradford,http://www.bradford.gov.uk,-1.72296200000000,BD2 3LS,2014-12-17,fhrs_3_en-GB,3,,FHRS,10
359170,,56 Broadstone Way,Bradford,,Adeels Spice,Takeaway/sandwich shop,7844,5,,326837,5,,53.77055400000000,4950,404,food.safety@bradford.gov.uk,Bradford,http://www.bradford.gov.uk,-1.70966400000000,BD4 9SA,2013-10-24,fhrs_4_en-GB,4,,FHRS,10
359171,,6 Torre Road,Bradford,,ADR Off-Licence,Retailers - other,4613,0,,594488,0,,53.76803800000000,133873,404,food.safety@bradford.gov.uk,Bradford,http://www.bradford.gov.uk,-1.80879400000000,BD6 3PD,2013-10-17,fhrs_4_en-GB,4,,FHRS,10
359172,,8 Spencer Road,Bradford,,Afsar's News,Retailers - other,4613,10,,324609,10,,53.78839100000000,102910,404,food.safety@bradford.gov.uk,Bradford,http://www.bradford.gov.uk,-1.77945300000000,BD7 2DH,2014-10-20,fhrs_3_en-GB,3,,FHRS,5
359173,,71 Park Road,Little Horton,Bradford,AGA Foods,Retailers - other,4613,5,,328516,0,,53.78596600000000,99081,404,food.safety@bradford.gov.uk,Bradford,http://www.bradford.gov.uk,-1.75747300000000,BD5 0SG,2015-01-20,fhrs_5_en-GB,5,,FHRS,0
359174,,142 Bradford Road,Idle,Bradford,Agape House,Hotel/bed & breakfast/guest house,7842,5,,326642,0,,53.82468600000000,4334,404,food.safety@bradford.gov.uk,Bradford,http://www.bradford.gov.uk,-1.73576900000000,BD10 8SA,2014-11-10,fhrs_5_en-GB,5,,FHRS,5
359175,,Market Street,Keighley,,"Age UK Bradford & District, Keighley Over 50's Project",Other catering premises,7841,20,,327037,10,,53.86481200000000,53573,404,food.safety@bradford.gov.uk,Bradford,http://www.bradford.gov.uk,-1.90839400000000,BD21 5AD,2014-01-20,fhrs_1_en-GB,1,,FHRS,0
359176,,38 High Street,Keighley,,Agrani Restaurant,Restaurant/Cafe/Canteen,1,5,,326874,5,,53.86576700000000,50506,404,food.safety@bradford.gov.uk,Bradford,http://www.bradford.gov.uk,-1.91152400000000,BD21 2LJ,2013-10-15,fhrs_4_en-GB,4,,FHRS,10
359177,,1382-1388 Leeds Road,Bradford,,Ahmed Foods,Retailers - other,4613,5,,578432,0,,53.79778200000000,184680,404,food.safety@bradford.gov.uk,Bradford,http://www.bradford.gov.uk,-1.71114700000000,BD3 7AE,2013-08-13,fhrs_4_en-GB,4,,FHRS,10
359178,,14-16 Drewry Road,Keighley,,Ahmeds Food Store,Retailers - other,4613,20,,324892,5,,53.86839500000000,114917,404,food.safety@bradford.gov.uk,Bradford,http://www.bradford.gov.uk,-1.91667400000000,BD21 2PU,2013-09-10,fhrs_1_en-GB,1,,FHRS,5
359179,,263 Legrams Lane,Bradford,,Ahmeds Newsagents,Retailers - other,4613,0,,328357,5,,53.78938100000000,95167,404,food.safety@bradford.gov.uk,Bradford,http://www.bradford.gov.uk,-1.78535200000000,BD7 2EJ,2014-12-03,fhrs_5_en-GB,5,,FHRS,0
359180,,93-95 Little Horton Lane,Bradford,,Ahsan General Food Store,Retailers - other,4613,10,,328402,10,,53.78847600000000,95939,404,food.safety@bradford.gov.uk,Bradford,http://www.bradford.gov.uk,-1.75830900000000,BD5 0BU,2012-12-30,fhrs_3_en-GB,3,,FHRS,10
359181,"Unit 121, The Oastler Shopping Centre",John Street,Bradford,,Ailyia Food,Takeaway/sandwich shop,7844,5,,715000,0,,53.79638400000000,224702,404,food.safety@bradford.gov.uk,Bradford,http://www.bradford.gov.uk,-1.75789900000000,BD1 3ST,2014-11-10,fhrs_4_en-GB,4,,FHRS,10
359182,,Beech Street,Bingley,,Aire Valley Court Restuarant,Restaurant/Cafe/Canteen,1,5,,650460,5,,53.84376000000000,150575,404,food.safety@bradford.gov.uk,Bradford,http://www.bradford.gov.uk,-1.83840600000000,BD16 1HR,2014-03-19,fhrs_5_en-GB,5,,FHRS,5
359183,,Aire View,Silsden,,Aire View Infant School,School/college/university,7845,0,,326570,0,,53.91253800000000,40605,404,food.safety@bradford.gov.uk,Bradford,http://www.bradford.gov.uk,-1.93922300000000,BD20 0AW,2013-01-17,fhrs_5_en-GB,5,,FHRS,0
359184,,12-14 Prince Street,Silsden,,Aire View Stores LTD,Retailers - other,4613,5,,327118,0,,53.91262900000000,56651,404,food.safety@bradford.gov.uk,Bradford,http://www.bradford.gov.uk,-1.94117200000000,BD20 0AR,2013-01-17,fhrs_5_en-GB,5,,FHRS,0
359185,,Skipton Road,Steeton With Eastburn,,Airedale General Hospital,Hospitals/Childcare/Caring Premises,5,10,,327000,5,,53.89802400000000,52937,404,food.safety@bradford.gov.uk,Bradford,http://www.bradford.gov.uk,-1.96271100000000,BD20 6TD,2014-07-31,fhrs_4_en-GB,4,,FHRS,5
359186,,Bradford Road,Sandbeds,Keighley,Airedale Heifer,Pub/bar/nightclub,7843,5,,326627,5,,53.86818300000000,42953,404,food.safety@bradford.gov.uk,Bradford,http://www.bradford.gov.uk,-1.86241500000000,BD20 5LY,2015-01-08,fhrs_5_en-GB,5,,FHRS,5
359187,Airedale General Hospital,Skipton Road,Steeton With Eastburn,,Airedale New Venture,Retailers - other,4613,5,,327165,5,,53.89802400000000,58956,404,food.safety@bradford.gov.uk,Bradford,http://www.bradford.gov.uk,-1.96271100000000,BD20 6TD,2011-07-26,fhrs_5_en-GB,5,,FHRS,5
359188,,3 Aireworth Road,Keighley,,Aireworth Chemist,Retailers - other,4613,,,326572,,,53.87434200000000,40703,404,food.safety@bradford.gov.uk,Bradford,http://www.bradford.gov.uk,-1.89070000000000,BD21 4DH,2014-03-03,fhrs_exempt_en-GB,Exempt,,FHRS,
359189,,7-11 West Lane,Haworth,Keighley,Aitches Guest House,Hotel/bed & breakfast/guest house,7842,0,,325534,5,,53.83193400000000,174444,404,food.safety@bradford.gov.uk,Bradford,http://www.bradford.gov.uk,-1.95702600000000,BD22 8DU,2012-10-11,fhrs_5_en-GB,5,,FHRS,0
359190,,6-8 Fountain Street,Thornton,Bradford,AJs Fish & Chips,Takeaway/sandwich shop,7844,10,,687826,5,,53.79072000000000,90380,404,food.safety@bradford.gov.uk,Bradford,http://www.bradford.gov.uk,-1.85031200000000,BD13 3EW,2014-07-25,fhrs_4_en-GB,4,,FHRS,5
359191,,5 Cleckheaton Road,Bradford,,AJ's Fisheries,Takeaway/sandwich shop,7844,0,,327504,0,,53.76361200000000,6976,404,food.safety@bradford.gov.uk,Bradford,http://www.bradford.gov.uk,-1.76144000000000,BD6 1BD,2014-02-06,fhrs_5_en-GB,5,,FHRS,5
359192,,24 Prospect Road,Bradford,,AJ's General Store,Retailers - other,4613,5,,326237,0,,53.80282800000000,28656,404,food.safety@bradford.gov.uk,Bradford,http://www.bradford.gov.uk,-1.74456100000000,BD3 0HJ,2013-01-10,fhrs_4_en-GB,4,,FHRS,10
359193,,191b Otley Road,Bradford,,Akas Checkout,Retailers - other,4613,10,,325954,5,,53.80369600000000,207189,404,food.safety@bradford.gov.uk,Bradford,http://www.bradford.gov.uk,-1.74293100000000,BD3 0HY,2014-10-27,fhrs_2_en-GB,2,,FHRS,15
359194,,52 Donisthorpe Street,Bradford,,Akbars General Store,Retailers - other,4613,0,,328110,5,,53.77770700000000,88795,404,food.safety@bradford.gov.uk,Bradford,http://www.bradford.gov.uk,-1.75787000000000,BD5 7BX,2012-02-21,fhrs_5_en-GB,5,,FHRS,0
359195,,1272-1280 Leeds Road,Bradford,,Akbars Restaurant,Restaurant/Cafe/Canteen,1,10,,325990,10,,53.79467200000000,21108,404,food.safety@bradford.gov.uk,Bradford,http://www.bradford.gov.uk,-1.71476600000000,BD3 8LF,2014-12-18,fhrs_3_en-GB,3,,FHRS,10
359196,,18 North Parade,Bradford,,Aktiv Bodz,Retailers - other,4613,0,,325144,0,,53.79683000000000,142716,404,food.safety@bradford.gov.uk,Bradford,http://www.bradford.gov.uk,-1.75592300000000,BD1 3HT,2013-08-30,fhrs_5_en-GB,5,,FHRS,0
359197,,150-160 Manningham Lane,Bradford,,Al Falah Supermarket,Retailers - supermarkets/hypermarkets,7840,20,,326081,5,,53.80430300000000,23062,404,food.safety@bradford.gov.uk,Bradford,http://www.bradford.gov.uk,-1.76227200000000,BD8 7DT,2013-05-20,fhrs_1_en-GB,1,,FHRS,10
359198,,53 Church Street,Keighley,,Al Fe's Chinese Takeaway & Restaurant,Restaurant/Cafe/Canteen,1,5,,324888,10,,53.86483100000000,113409,404,food.safety@bradford.gov.uk,Bradford,http://www.bradford.gov.uk,-1.91037100000000,BD21 5HT,2011-09-08,fhrs_3_en-GB,3,,FHRS,10
359199,,453a Bradford Road,Sandbeds,Keighley,Al Habib,Takeaway/sandwich shop,7844,10,,326626,10,,53.86701000000000,42949,404,food.safety@bradford.gov.uk,Bradford,http://www.bradford.gov.uk,-1.85829800000000,BD20 5NH,2014-05-20,fhrs_3_en-GB,3,,FHRS,10
359200,Panorama House,Woodhead Road,Bradford,,Al Halal Supermarket,Retailers - supermarkets/hypermarkets,7840,5,,324819,10,,53.79046500000000,107863,404,food.safety@bradford.gov.uk,Bradford,http://www.bradford.gov.uk,-1.77368900000000,BD7 1PD,2014-10-27,fhrs_3_en-GB,3,,FHRS,10
359201,,283 Legrams Lane,Bradford,,Al Mobeens Pizza,Takeaway/sandwich shop,7844,5,,326034,5,,53.78856600000000,21594,404,food.safety@bradford.gov.uk,Bradford,http://www.bradford.gov.uk,-1.78705600000000,BD7 2HH,2015-01-09,fhrs_5_en-GB,5,,FHRS,5
359202,,34-44 Mortimer Street,Bradford,,Al Qaza Shisha Lounge,Restaurant/Cafe/Canteen,1,10,,466610,5,,53.79867700000000,207659,404,food.safety@bradford.gov.uk,Bradford,http://www.bradford.gov.uk,-1.79162100000000,BD8 9RL,2012-11-15,fhrs_4_en-GB,4,,FHRS,5
359203,,61 Duckworth Lane,Bradford,,Al Sahara,Restaurant/Cafe/Canteen,1,10,,328136,5,,53.80550600000000,89143,404,food.safety@bradford.gov.uk,Bradford,http://www.bradford.gov.uk,-1.79072100000000,BD9 5EU,2014-08-26,fhrs_4_en-GB,4,,FHRS,0
359204,,Bridge Street,Keighley,,Albert Hotel,Pub/bar/nightclub,7843,10,,326645,0,,53.86527200000000,43405,404,food.safety@bradford.gov.uk,Bradford,http://www.bradford.gov.uk,-1.91152500000000,BD21 1AA,2009-06-03,fhrs_4_en-GB,4,,FHRS,0
359205,,25 New Line,Bradford,,Albion Inn,Pub/bar/nightclub,7843,0,,326147,0,,53.83249400000000,25687,404,food.safety@bradford.gov.uk,Bradford,http://www.bradford.gov.uk,-1.71519300000000,BD10 9AS,2013-01-04,fhrs_5_en-GB,5,,FHRS,5
359206,,Common Road,Bradford,,Aldersgate Methodist Church,Other catering premises,7841,5,,327633,5,,53.75670900000000,7389,404,food.safety@bradford.gov.uk,Bradford,http://www.bradford.gov.uk,-1.76120600000000,BD12 0TW,2004-12-31,fhrs_5_en-GB,5,,FHRS,5
359207,,4 Tony Miller Approach,Shipley,,Aldi,Retailers - supermarkets/hypermarkets,7840,0,,324994,0,,53.83511300000000,132926,404,food.safety@bradford.gov.uk,Bradford,http://www.bradford.gov.uk,-1.77136700000000,BD17 7TS,2013-07-24,fhrs_5_en-GB,5,,FHRS,0
359208,,50 Valley Road,Bradford,,Aldi,Retailers - supermarkets/hypermarkets,7840,5,,324959,0,,53.80183700000000,130802,404,food.safety@bradford.gov.uk,Bradford,http://www.bradford.gov.uk,-1.75222000000000,BD1 4RX,2013-07-30,fhrs_5_en-GB,5,,FHRS,5
359209,,Gresley Road,Keighley,,Aldi,Retailers - supermarkets/hypermarkets,7840,5,,326829,5,,53.86595800000000,49177,404,food.safety@bradford.gov.uk,Bradford,http://www.bradford.gov.uk,-1.90288700000000,BD21 5JG,2013-10-21,fhrs_5_en-GB,5,,FHRS,0
359210,"Unit 3, Bradford Chamber Business Park",New Lane,Laisterdyke,Bradford,Alfresgo,Other catering premises,7841,0,,578434,5,,53.79087500000000,216915,404,food.safety@bradford.gov.uk,Bradford,http://www.bradford.gov.uk,-1.71694700000000,BD4 8BS,2013-07-30,fhrs_5_en-GB,5,,FHRS,0
359211,The Alhambra Theatre,Morley Street,Bradford,,Alhambra Restaurant,Restaurant/Cafe/Canteen,1,5,,328475,5,,53.79163700000000,97742,404,food.safety@bradford.gov.uk,Bradford,http://www.bradford.gov.uk,-1.75727400000000,BD7 1AJ,2014-01-17,fhrs_5_en-GB,5,,FHRS,5
359212,,,,,Ali Fresh Fruit & Veg,Retailers - other,4613,5,,638935,5,,,109840,404,food.safety@bradford.gov.uk,Bradford,http://www.bradford.gov.uk,,,2014-03-06,fhrs_5_en-GB,5,,FHRS,5
359213,,132 White Abbey Road,Bradford,,Ali News,Retailers - other,4613,5,,324805,10,,53.80050400000000,107478,404,food.safety@bradford.gov.uk,Bradford,http://www.bradford.gov.uk,-1.76851900000000,BD8 8DP,2013-09-25,fhrs_3_en-GB,3,,FHRS,10
359214,,12 Southbrook Terrace,Bradford,,Alif Baa Childcare,Hospitals/Childcare/Caring Premises,5,10,,324606,10,,53.79088700000000,102700,404,food.safety@bradford.gov.uk,Bradford,http://www.bradford.gov.uk,-1.75954000000000,BD7 1AD,2014-11-24,fhrs_3_en-GB,3,,FHRS,10
359215,,120 Crag Road,Shipley,,Alifs Self Service,Retailers - other,4613,5,,327463,0,,53.82758000000000,67825,404,food.safety@bradford.gov.uk,Bradford,http://www.bradford.gov.uk,-1.77096800000000,BD18 2ER,2012-01-19,fhrs_2_en-GB,2,,FHRS,15
359216,,,,,Ali's Fruit and Veg,Mobile caterer,7846,0,,581484,0,,,217236,404,food.safety@bradford.gov.uk,Bradford,http://www.bradford.gov.uk,,,2013-08-23,fhrs_5_en-GB,5,,FHRS,5
359217,,44 Station Road,Burley In Wharfedale,Ilkley,Ali's Spice,Takeaway/sandwich shop,7844,10,,327831,10,,53.91260200000000,79510,404,food.safety@bradford.gov.uk,Bradford,http://www.bradford.gov.uk,-1.75112400000000,LS29 7NE,2014-06-10,fhrs_2_en-GB,2,,FHRS,15
359218,,,,,All Caked Out,Retailers - other,4613,0,,664374,5,,,219459,404,food.safety@bradford.gov.uk,Bradford,http://www.bradford.gov.uk,,,2014-05-09,fhrs_5_en-GB,5,,FHRS,0
359219,,1 Little Horton Green,Bradford,,All Saints C of E Primary School,School/college/university,7845,0,,328322,0,,53.78493900000000,94294,404,food.safety@bradford.gov.uk,Bradford,http://www.bradford.gov.uk,-1.76505300000000,BD5 0NG,2012-10-17,fhrs_5_en-GB,5,,FHRS,0
359220,,Highfield Lane,Keighley,,All Saints Parish Church,Other catering premises,7841,,,326880,,,53.86944600000000,50674,404,food.safety@bradford.gov.uk,Bradford,http://www.bradford.gov.uk,-1.91621600000000,BD21 2PN,2012-11-16,fhrs_exempt_en-GB,Exempt,,FHRS,
359221,,Easby Drive,Ilkley,,All Saints Primary School,School/college/university,7845,0,,325236,0,,53.92739600000000,148641,404,food.safety@bradford.gov.uk,Bradford,http://www.bradford.gov.uk,-1.83459600000000,LS29 9BE,2011-03-28,fhrs_5_en-GB,5,,FHRS,0
359222,,51 Sticker Lane,Bradford,,Allan Waite Butchers,Retailers - other,4613,5,,326347,5,,53.78686200000000,33560,404,food.safety@bradford.gov.uk,Bradford,http://www.bradford.gov.uk,-1.71884100000000,BD4 8QA,2014-01-14,fhrs_5_en-GB,5,,FHRS,0
359223,,270 Allerton Road,Bradford,,Allerton Catholic Social Club,Pub/bar/nightclub,7843,0,,327950,5,,53.80407000000000,83425,404,food.safety@bradford.gov.uk,Bradford,http://www.bradford.gov.uk,-1.81957800000000,BD15 7QB,2013-02-11,fhrs_5_en-GB,5,,FHRS,5
359224,,257 Allerton Road,Bradford,,Allerton Conservative Club,Pub/bar/nightclub,7843,0,,327949,5,,53.80360200000000,83416,404,food.safety@bradford.gov.uk,Bradford,http://www.bradford.gov.uk,-1.81910900000000,BD15 7QU,2010-03-19,fhrs_5_en-GB,5,,FHRS,0
359225,,241 Allerton Road,Bradford,,Allerton Fisheries,Takeaway/sandwich shop,7844,0,,327946,5,,53.80360200000000,83404,404,food.safety@bradford.gov.uk,Bradford,http://www.bradford.gov.uk,-1.81910900000000,BD15 7QU,2013-05-28,fhrs_5_en-GB,5,,FHRS,5
359226,,8 The Square,Bradford,,Allerton Fried Chicken & Pizza,Takeaway/sandwich shop,7844,20,,324658,15,,53.79626000000000,104062,404,food.safety@bradford.gov.uk,Bradford,http://www.bradford.gov.uk,-1.81407000000000,BD8 0QB,2014-09-08,fhrs_1_en-GB,1,,FHRS,15
359227,,448 Allerton Road,Bradford,,Allerton Mini Market,Retailers - other,4613,0,,327958,5,,53.80553700000000,83486,404,food.safety@bradford.gov.uk,Bradford,http://www.bradford.gov.uk,-1.82751300000000,BD15 7DU,2014-12-01,fhrs_5_en-GB,5,,FHRS,5
359228,,39-41 Oaks Lane,Bradford,,Allerton Park Care Home,Hospitals/Childcare/Caring Premises,5,10,,328507,5,,53.79915500000000,98612,404,food.safety@bradford.gov.uk,Bradford,http://www.bradford.gov.uk,-1.81483200000000,BD15 7RT,2014-05-01,fhrs_3_en-GB,3,,FHRS,10
359229,,Garforth Street,Bradford,,Allerton Primary School,School/college/university,7845,0,,328160,0,,53.80468400000000,90556,404,food.safety@bradford.gov.uk,Bradford,http://www.bradford.gov.uk,-1.82191400000000,BD15 7HB,2014-02-06,fhrs_5_en-GB,5,,FHRS,5
359230,,162 Clayton Road,Bradford,,Alliance Pharmacy,Retailers - other,4613,,,327484,,,53.78420400000000,6914,404,food.safety@bradford.gov.uk,Bradford,http://www.bradford.gov.uk,-1.79560800000000,BD7 2RD,2005-11-08,fhrs_exempt_en-GB,Exempt,,FHRS,
359231,,161 Lumb Lane,Bradford,,Alliance Pharmacy,Retailers - other,4613,,,324879,,,53.80350000000000,109207,404,food.safety@bradford.gov.uk,Bradford,http://www.bradford.gov.uk,-1.76540500000000,BD8 7SW,2009-12-02,fhrs_exempt_en-GB,Exempt,,FHRS,
359232,,202 Haworth Road,Bradford,,Alliance Pharmacy,Retailers - other,4613,,,328227,,,53.81618000000000,92300,404,food.safety@bradford.gov.uk,Bradford,http://www.bradford.gov.uk,-1.81591100000000,BD9 6NJ,2014-08-01,fhrs_exempt_en-GB,Exempt,,FHRS,
359233,,Park Road,Little Horton,Bradford,Alliance Pharmacy,Retailers - other,4613,,,324872,,,53.78596600000000,109047,404,food.safety@bradford.gov.uk,Bradford,http://www.bradford.gov.uk,-1.75747300000000,BD5 0SG,2009-12-02,fhrs_exempt_en-GB,Exempt,,FHRS,
359234,,127 Leeds Road,Shipley,,Alma Hotel (bar),Pub/bar/nightclub,7843,0,,327597,0,,53.83648500000000,73072,404,food.safety@bradford.gov.uk,Bradford,http://www.bradford.gov.uk,-1.76043400000000,BD18 1DF,2013-02-20,fhrs_4_en-GB,4,,FHRS,10
359235,,4-8 All Saints Road,Bradford,,Al-Noor 99p Store,Retailers - other,4613,20,,664362,15,,53.78629600000000,140040,404,food.safety@bradford.gov.uk,Bradford,http://www.bradford.gov.uk,-1.77442500000000,BD7 3AZ,2014-04-17,fhrs_1_en-GB,1,,FHRS,15
359236,,37 Beckside Road,Bradford,,Al-Noor Bakery,Retailers - other,4613,10,,326108,10,,53.78701400000000,2392,404,food.safety@bradford.gov.uk,Bradford,http://www.bradford.gov.uk,-1.78847600000000,BD7 2JL,2014-11-18,fhrs_3_en-GB,3,,FHRS,10
359237,,109-111 Ravenscliffe Avenue,Bradford,,Alpa Local Convenience Stores,Retailers - other,4613,5,,326242,5,,53.81799500000000,29119,404,food.safety@bradford.gov.uk,Bradford,http://www.bradford.gov.uk,-1.71067400000000,BD10 0JJ,2014-11-10,fhrs_4_en-GB,4,,FHRS,10
359238,Four Lanes Business Park,Cemetery Road,Lidget Green,Bradford,Alphabet Zoo,Restaurant/Cafe/Canteen,1,10,,328050,10,,53.79798600000000,86878,404,food.safety@bradford.gov.uk,Bradford,http://www.bradford.gov.uk,-1.79271700000000,BD8 9RY,2014-06-06,fhrs_3_en-GB,3,,FHRS,10
359239,,191a Otley Road,Bradford,,Amaan Brothers Deghi Style,Takeaway/sandwich shop,7844,20,,325449,15,,53.80369600000000,166447,404,food.safety@bradford.gov.uk,Bradford,http://www.bradford.gov.uk,-1.74293100000000,BD3 0HY,2014-03-05,fhrs_1_en-GB,1,,FHRS,15
359240,,86A Leeds Old Road,Bradford,,Amaan Foods,Retailers - other,4613,20,,325960,0,,53.79983700000000,20754,404,food.safety@bradford.gov.uk,Bradford,http://www.bradford.gov.uk,-1.71374400000000,BD3 8JF,2013-09-25,fhrs_1_en-GB,1,,FHRS,20
359241,,543 Great Horton Road,Bradford,,Amaan's Fast Foods Ltd,Takeaway/sandwich shop,7844,5,,325076,10,,53.77972900000000,13818,404,food.safety@bradford.gov.uk,Bradford,http://www.bradford.gov.uk,-1.78590200000000,BD7 4EG,2013-10-30,fhrs_3_en-GB,3,,FHRS,10
359242,,12 Legrams Lane,Bradford,,Amaans Grill House,Restaurant/Cafe/Canteen,1,30,,631719,15,,53.79293500000000,95089,404,food.safety@bradford.gov.uk,Bradford,http://www.bradford.gov.uk,-1.77264400000000,BD7 1ND,2014-09-30,fhrs_0_en-GB,0,,FHRS,15
359243,,1 Gaythorne Road,Bradford,,Amaans Grill House,Takeaway/sandwich shop,7844,20,,324866,10,,53.77963200000000,108981,404,food.safety@bradford.gov.uk,Bradford,http://www.bradford.gov.uk,-1.75408000000000,BD5 7ES,2014-10-13,fhrs_1_en-GB,1,,FHRS,10
359244,,16 Russell Street,Keighley,,Amalgamated Engineering (Kly) Social Club (bar),Pub/bar/nightclub,7843,0,,327146,0,,53.86702500000000,57769,404,food.safety@bradford.gov.uk,Bradford,http://www.bradford.gov.uk,-1.91156700000000,BD21 2JP,2013-01-24,fhrs_5_en-GB,5,,FHRS,5
359245,,61 Main Street,Bingley,,Amano's,Takeaway/sandwich shop,7844,10,,327670,10,,53.84961200000000,74272,404,food.safety@bradford.gov.uk,Bradford,http://www.bradford.gov.uk,-1.83900600000000,BD16 2HZ,2014-10-15,fhrs_3_en-GB,3,,FHRS,10
359246,,216 Huddersfield Road,Bradford,,Amano's Pizza,Takeaway/sandwich shop,7844,10,,325638,5,,53.75587700000000,18340,404,food.safety@bradford.gov.uk,Bradford,http://www.bradford.gov.uk,-1.76764100000000,BD12 0AD,2014-08-12,fhrs_3_en-GB,3,,FHRS,10
359247,,1 Wheater Road,Bradford,,Amar Halal Meat,Retailers - other,4613,5,,325420,0,,53.78652700000000,163810,404,food.safety@bradford.gov.uk,Bradford,http://www.bradford.gov.uk,-1.78785600000000,BD7 2JJ,2012-03-05,fhrs_4_en-GB,4,,FHRS,10
359248,,60 Leeds Old Road,Bradford,,Amas Foods,Retailers - other,4613,20,,325956,10,,53.79946400000000,20734,404,food.safety@bradford.gov.uk,Bradford,http://www.bradford.gov.uk,-1.71537100000000,BD3 8HX,2013-09-25,fhrs_1_en-GB,1,,FHRS,20
359249,,205 Great Horton Road,Bradford,,Ambala Restaurant,Restaurant/Cafe/Canteen,1,5,,325686,5,,53.78742500000000,185920,404,food.safety@bradford.gov.uk,Bradford,http://www.bradford.gov.uk,-1.77261300000000,BD7 1RP,2014-10-14,fhrs_5_en-GB,5,,FHRS,0
359250,Ground Floor,118 Sunbridge Road,Bradford,,Ambrozja Forest Bar & Restaurant,Restaurant/Cafe/Canteen,1,20,,324628,10,,53.79434500000000,103535,404,food.safety@bradford.gov.uk,Bradford,http://www.bradford.gov.uk,-1.75809300000000,BD1 2NE,2014-06-20,fhrs_1_en-GB,1,,FHRS,15
359251,,105-107 East Parade,Keighley,,Amici Ristorante,Restaurant/Cafe/Canteen,1,5,,326786,5,,53.86669600000000,47450,404,food.safety@bradford.gov.uk,Bradford,http://www.bradford.gov.uk,-1.90487700000000,BD21 5HU,2015-01-22,fhrs_5_en-GB,5,,FHRS,5
359252,,32-34 Lapage Street,Bradford,,Amir Candy and Sweets,Mobile caterer,7846,,,657867,,,53.79414300000000,218112,404,food.safety@bradford.gov.uk,Bradford,http://www.bradford.gov.uk,-1.72301200000000,BD3 8EH,2014-05-02,fhrs_exempt_en-GB,Exempt,,FHRS,
359253,Carter Gate Works,Thornbury Road,Bradford,,Amman Halal Meat,Retailers - other,4613,20,,579761,10,,53.79539200000000,217163,404,food.safety@bradford.gov.uk,Bradford,http://www.bradford.gov.uk,-1.71506500000000,BD3 8HE,2015-01-12,fhrs_1_en-GB,1,,FHRS,10
359254,,211 Great Horton Road,Bradford,,Anams Restaurant Ltd,Restaurant/Cafe/Canteen,1,5,,328181,0,,53.78742500000000,91352,404,food.safety@bradford.gov.uk,Bradford,http://www.bradford.gov.uk,-1.77261300000000,BD7 1RP,2014-10-01,fhrs_5_en-GB,5,,FHRS,5
359255,Victoria Court,Victoria Avenue,Shipley,,Anchor Sheltered Housing,Restaurant/Cafe/Canteen,1,0,,327862,0,,53.83371200000000,80621,404,food.safety@bradford.gov.uk,Bradford,http://www.bradford.gov.uk,-1.79202400000000,BD18 4SG,2009-10-20,fhrs_5_en-GB,5,,FHRS,0
359256,,230 High Street,Wibsey,Bradford,Ancient Forresters Arms Inn,Pub/bar/nightclub,7843,0,,325521,0,,53.76692700000000,17307,404,food.safety@bradford.gov.uk,Bradford,http://www.bradford.gov.uk,-1.77440700000000,BD6 1QP,2013-07-17,fhrs_5_en-GB,5,,FHRS,0
359257,,21-23 Station Road,Cullingworth,Bingley,Andy's Club Grub,Pub/bar/nightclub,7843,0,,327827,0,,53.82778500000000,79428,404,food.safety@bradford.gov.uk,Bradford,http://www.bradford.gov.uk,-1.90083200000000,BD13 5HN,2014-07-02,fhrs_5_en-GB,5,,FHRS,0
359258,,,,,Angel Bakes,Retailers - other,4613,10,,693726,5,,,221872,404,food.safety@bradford.gov.uk,Bradford,http://www.bradford.gov.uk,,,2014-08-18,fhrs_4_en-GB,4,,FHRS,0
359259,,9 Northgate,Baildon,,Angel Hotel,Pub/bar/nightclub,7843,0,,327744,5,,53.85336500000000,75918,404,food.safety@bradford.gov.uk,Bradford,http://www.bradford.gov.uk,-1.76567400000000,BD17 6LX,2014-03-18,fhrs_5_en-GB,5,,FHRS,5
359260,,,,,Angelic Preserves,Other catering premises,7841,10,,671703,0,,,218088,404,food.safety@bradford.gov.uk,Bradford,http://www.bradford.gov.uk,,,2014-06-09,fhrs_4_en-GB,4,,FHRS,0
359261,,2 Beverley Street,Bradford,,Angie's Pantry,Takeaway/sandwich shop,7844,5,,326236,0,,53.78659300000000,2848,404,food.safety@bradford.gov.uk,Bradford,http://www.bradford.gov.uk,-1.71520000000000,BD4 8PU,2014-01-06,fhrs_5_en-GB,5,,FHRS,5
359262,,308 Harrogate Road,Bradford,,Ania's Minimarket,Retailers - supermarkets/hypermarkets,7840,0,,638940,0,,53.81909600000000,15683,404,food.safety@bradford.gov.uk,Bradford,http://www.bradford.gov.uk,-1.71652900000000,BD2 3TB,2014-03-14,fhrs_5_en-GB,5,,FHRS,0
359263,,40 Brunswick Arcade,Airedale Shopping Centre,Keighley,Anita's Eaters,Restaurant/Cafe/Canteen,1,0,,632532,0,,53.86686900000000,217923,404,food.safety@bradford.gov.uk,Bradford,http://www.bradford.gov.uk,-1.90699000000000,BD21 3QB,2014-01-27,fhrs_5_en-GB,5,,FHRS,0
359264,,8 The Parade,Cottingley,Bingley,Anmol Take Away,Takeaway/sandwich shop,7844,10,,327851,10,,53.82988000000000,80183,404,food.safety@bradford.gov.uk,Bradford,http://www.bradford.gov.uk,-1.82972300000000,BD16 1RP,2014-11-24,fhrs_2_en-GB,2,,FHRS,15
359265,,"Unit 16 Westgate Mall, Kirkgate Centre",Bradford,,Ann Summers Ltd,Retailers - other,4613,,,325848,,,53.79472600000000,198222,404,food.safety@bradford.gov.uk,Bradford,http://www.bradford.gov.uk,-1.75563200000000,BD1 1QR,2014-02-10,fhrs_exempt_en-GB,Exempt,,FHRS,
359266,,942 Thornton Road,Thornton,Bradford,Ann's Farmhouse,Hotel/bed & breakfast/guest house,7842,5,,325048,0,,53.79102900000000,135830,404,food.safety@bradford.gov.uk,Bradford,http://www.bradford.gov.uk,-1.87731500000000,BD13 3QE,2010-05-12,fhrs_5_en-GB,5,,FHRS,0
359267,Holroyd Business Centre,Carr Bottom Road,Little Horton,Bradford,Apetito Ltd,Other catering premises,7841,0,,325395,0,,53.77004100000000,161436,404,food.safety@bradford.gov.uk,Bradford,http://www.bradford.gov.uk,-1.76727500000000,BD5 9BP,2014-06-06,fhrs_5_en-GB,5,,FHRS,0
359268,,1 Acton Street,Bradford,,Apna General Store,Retailers - other,4613,5,,325585,0,,53.79421400000000,179,404,food.safety@bradford.gov.uk,Bradford,http://www.bradford.gov.uk,-1.72257200000000,BD3 8EQ,2013-01-09,fhrs_5_en-GB,5,,FHRS,0
359269,,58 Banner Street,Bradford,,Apna Khana,Other catering premises,7841,5,,325881,5,,53.79199100000000,200193,404,food.safety@bradford.gov.uk,Bradford,http://www.bradford.gov.uk,-1.73750800000000,BD3 9RH,2013-09-12,fhrs_5_en-GB,5,,FHRS,5
359270,,53 Victor Road,Bradford,,Apni Dokaan,Restaurant/Cafe/Canteen,1,10,,328240,10,,53.80990400000000,92480,404,food.safety@bradford.gov.uk,Bradford,http://www.bradford.gov.uk,-1.77762400000000,BD9 4QR,2013-12-16,fhrs_3_en-GB,3,,FHRS,10
359271,,86-90 Main Street,Haworth,Keighley,Apothecary Tea Rooms,Restaurant/Cafe/Canteen,1,0,,324986,0,,53.83114300000000,132320,404,food.safety@bradford.gov.uk,Bradford,http://www.bradford.gov.uk,-1.95526400000000,BD22 8DP,2014-02-14,fhrs_5_en-GB,5,,FHRS,5
359272,,110 Apperley Road,Bradford,,Apperley Lodge Day Nursery,Hospitals/Childcare/Caring Premises,5,5,,325154,5,,53.83575000000000,143559,404,food.safety@bradford.gov.uk,Bradford,http://www.bradford.gov.uk,-1.72362000000000,BD10 9SR,2014-05-12,fhrs_5_en-GB,5,,FHRS,5
359273,,76 Oak Lane,Bradford,,Appetisers,Takeaway/sandwich shop,7844,10,,328503,5,,53.80850100000000,98498,404,food.safety@bradford.gov.uk,Bradford,http://www.bradford.gov.uk,-1.77682700000000,BD9 4RE,2014-05-06,fhrs_3_en-GB,3,,FHRS,10
359274,,Banks Lane,Riddlesden,Keighley,Applegarth,Pub/bar/nightclub,7843,0,,326588,0,,53.87971100000000,41490,404,food.safety@bradford.gov.uk,Bradford,http://www.bradford.gov.uk,-1.88443400000000,BD20 5BN,2008-04-22,fhrs_5_en-GB,5,,FHRS,0
359275,,Woodside Road,Bradford,,Appleton Academy,School/college/university,7845,0,,463331,0,,53.74259100000000,172579,404,food.safety@bradford.gov.uk,Bradford,http://www.bradford.gov.uk,-1.77167200000000,BD12 8AL,2012-11-06,fhrs_5_en-GB,5,,FHRS,0
359276,Appleton Academy,Woodside Road,Bradford,,Appleton Academy,School/college/university,7845,0,,325487,0,,53.74257300000000,17089,404,food.safety@bradford.gov.uk,Bradford,http://www.bradford.gov.uk,-1.77162600000000,BD12 8AL,2011-12-09,fhrs_5_en-GB,5,,FHRS,5
359277,"Appleton Science Building, Bradford College",Smith Street,Listerhills,Bradford,Appleton Cafe,Restaurant/Cafe/Canteen,1,10,,328045,10,,,86776,404,food.safety@bradford.gov.uk,Bradford,http://www.bradford.gov.uk,,BD7 1DE,2015-01-19,fhrs_3_en-GB,3,,FHRS,5
359278,,151 Legrams Lane,Bradford,,Arcadian Newsagent,Retailers - other,4613,0,,328352,5,,53.79118500000000,95108,404,food.safety@bradford.gov.uk,Bradford,http://www.bradford.gov.uk,-1.77908900000000,BD7 2AA,2014-12-02,fhrs_5_en-GB,5,,FHRS,0
359279,Keighley Bus Station,Lawkholme Crescent,Keighley,,Arden News,Retailers - other,4613,,,326935,,,53.86756200000000,51856,404,food.safety@bradford.gov.uk,Bradford,http://www.bradford.gov.uk,-1.90882900000000,BD21 3PB,2013-06-25,fhrs_exempt_en-GB,Exempt,,FHRS,
359280,,,,,Are-Jay-Bargie Canal Boat Cafe,Mobile caterer,7846,5,,325653,10,,,183775,404,food.safety@bradford.gov.uk,Bradford,http://www.bradford.gov.uk,,,2014-07-24,fhrs_4_en-GB,4,,FHRS,5
359281,"Unit 3, Glydegate Square",Morley Street,Bradford,,Arena & Sin,Pub/bar/nightclub,7843,0,,325177,0,,53.79059800000000,145774,404,food.safety@bradford.gov.uk,Bradford,http://www.bradford.gov.uk,-1.75872200000000,BD5 0AF,2009-12-02,fhrs_5_en-GB,5,,FHRS,5
359282,"Unit 15, Forster Square Retail",53 Valley Road,Bradford,,Argos,Retailers - other,4613,,,325051,,,53.80086400000000,135968,404,food.safety@bradford.gov.uk,Bradford,http://www.bradford.gov.uk,-1.75532300000000,BD1 4RN,2009-12-02,fhrs_exempt_en-GB,Exempt,,FHRS,
359283,,3-7 Cooke Lane,Keighley,,Argos Ltd,Retailers - other,4613,,,326746,,,53.86655600000000,45595,404,food.safety@bradford.gov.uk,Bradford,http://www.bradford.gov.uk,-1.90877000000000,BD21 3PF,2003-10-08,fhrs_exempt_en-GB,Exempt,,FHRS,
359284,,34 Great Horton Road,Bradford,,Ariya Restaurant & Bar,Restaurant/Cafe/Canteen,1,20,,384938,10,,53.79153300000000,91405,404,food.safety@bradford.gov.uk,Bradford,http://www.bradford.gov.uk,-1.75894400000000,BD7 1AL,2014-07-03,fhrs_1_en-GB,1,,FHRS,15
359285,,490 Halifax Road,Bradford,,Ark Day Nursery,Hospitals/Childcare/Caring Premises,5,5,,325211,5,,53.75979200000000,14783,404,food.safety@bradford.gov.uk,Bradford,http://www.bradford.gov.uk,-1.78507800000000,BD6 2LH,2014-08-26,fhrs_5_en-GB,5,,FHRS,5
359286,,252 Barkerend Road,Bradford,,Arkle Filling Station,Retailers - other,4613,0,,325821,0,,53.79723400000000,1965,404,food.safety@bradford.gov.uk,Bradford,http://www.bradford.gov.uk,-1.73450000000000,BD3 9DB,2013-01-09,fhrs_5_en-GB,5,,FHRS,0
359287,,262 Barkerend Road,Bradford,,Arkle Spar,Retailers - other,4613,0,,638965,0,,53.79723400000000,220277,404,food.safety@bradford.gov.uk,Bradford,http://www.bradford.gov.uk,-1.73450000000000,BD3 9DB,2014-02-28,fhrs_5_en-GB,5,,FHRS,0
359288,,528 Thornton Road,Bradford,,Arome,Takeaway/sandwich shop,7844,10,,356588,10,,53.79931700000000,209213,404,food.safety@bradford.gov.uk,Bradford,http://www.bradford.gov.uk,-1.78795900000000,BD8 9NB,2014-10-21,fhrs_4_en-GB,4,,FHRS,0
359289,,963 Leeds Road,Bradford,,Arome Steak Bar,Takeaway/sandwich shop,7844,20,,638949,10,,53.79757700000000,21477,404,food.safety@bradford.gov.uk,Bradford,http://www.bradford.gov.uk,-1.71196800000000,BD3 8JB,2014-03-20,fhrs_1_en-GB,1,,FHRS,10
359290,,183 Morley Street,Bradford,,Arome's,Restaurant/Cafe/Canteen,1,20,,622571,10,,53.78922900000000,97718,404,food.safety@bradford.gov.uk,Bradford,http://www.bradford.gov.uk,-1.76182600000000,BD7 1BE,2014-10-23,fhrs_1_en-GB,1,,FHRS,5
359291,,6 Campbell Street,Keighley,,Aroush Cafe,Takeaway/sandwich shop,7844,0,,325160,5,,53.86951300000000,144171,404,food.safety@bradford.gov.uk,Bradford,http://www.bradford.gov.uk,-1.90995000000000,BD21 2SR,2014-08-01,fhrs_4_en-GB,4,,FHRS,10
359292,,3a Whetley Terrace,Bradford,,Arshad Halal Meat,Retailers - other,4613,0,,324801,0,,53.80129500000000,107353,404,food.safety@bradford.gov.uk,Bradford,http://www.bradford.gov.uk,-1.76878800000000,BD8 8HG,2012-04-23,fhrs_5_en-GB,5,,FHRS,0
359293,,29 Hall Lane,Bradford,,AS Grocers,Retailers - other,4613,5,,671710,5,,53.78750300000000,91934,404,food.safety@bradford.gov.uk,Bradford,http://www.bradford.gov.uk,-1.74447200000000,BD4 7AB,2014-06-10,fhrs_4_en-GB,4,,FHRS,10
359294,Oats Royd Bakery,Brighouse Road,Denholme,Bradford,Asa Nicholsons and Sons,Manufacturers/packers,7839,10,,328321,5,,53.78790200000000,94283,404,food.safety@bradford.gov.uk,Bradford,http://www.bradford.gov.uk,-1.88688600000000,BD13 4HH,2014-03-25,fhrs_4_en-GB,4,,FHRS,5
359295,,Bingley Street,Keighley,,Asda,Retailers - supermarkets/hypermarkets,7840,0,,325749,0,,53.86901300000000,192609,404,food.safety@bradford.gov.uk,Bradford,http://www.bradford.gov.uk,-1.90201300000000,BD21 3ER,2011-03-29,fhrs_5_en-GB,5,,FHRS,0
359296,,Manor Lane,Shipley,,Asda,Retailers - supermarkets/hypermarkets,7840,0,,327684,0,,53.83231400000000,74407,404,food.safety@bradford.gov.uk,Bradford,http://www.bradford.gov.uk,-1.77888800000000,BD18 3RY,2010-11-08,fhrs_5_en-GB,5,,FHRS,5
359297,,147 New Line,Bradford,,Asda,Retailers - supermarkets/hypermarkets,7840,5,,326140,5,,53.83160100000000,25650,404,food.safety@bradford.gov.uk,Bradford,http://www.bradford.gov.uk,-1.71375600000000,BD10 9AP,2009-12-02,fhrs_5_en-GB,5,,FHRS,0
359298,,Town Gate,Wyke,Bradford,Asda,Retailers - supermarkets/hypermarkets,7840,0,,326451,5,,53.73770400000000,35848,404,food.safety@bradford.gov.uk,Bradford,http://www.bradford.gov.uk,-1.76816600000000,BD12 9JQ,2014-01-15,fhrs_5_en-GB,5,,FHRS,0
359299,,76 Canterbury Avenue,Bradford,,Asda,Retailers - supermarkets/hypermarkets,7840,0,,328024,5,,53.78120000000000,86558,404,food.safety@bradford.gov.uk,Bradford,http://www.bradford.gov.uk,-1.76982400000000,BD5 0PX,2014-01-13,fhrs_5_en-GB,5,,FHRS,0
359300,,Bingley Street,Keighley,,Asda Customer Cafe,Restaurant/Cafe/Canteen,1,10,,325760,10,,53.86901300000000,193431,404,food.safety@bradford.gov.uk,Bradford,http://www.bradford.gov.uk,-1.90201300000000,BD21 3ER,2012-12-07,fhrs_4_en-GB,4,,FHRS,0
359301,Forster Square Retail Park,53 Valley Road,Bradford,,Asda Living,Retailers - other,4613,,,729209,,,53.79528700000000,224372,404,food.safety@bradford.gov.uk,Bradford,http://www.bradford.gov.uk,-1.74879700000000,BD1 4JB,2015-01-07,fhrs_exempt_en-GB,Exempt,,FHRS,
359302,,Rooley Lane,Bradford,,Asda Superstore,Retailers - supermarkets/hypermarkets,7840,0,,325035,5,,53.77241300000000,134996,404,food.safety@bradford.gov.uk,Bradford,http://www.bradford.gov.uk,-1.73209200000000,BD4 7SR,2014-04-25,fhrs_5_en-GB,5,,FHRS,5
359303,,Kelvin Way,Bradford,,Ashcroft Care Home,Hospitals/Childcare/Caring Premises,5,10,,325744,10,,53.80870500000000,19230,404,food.safety@bradford.gov.uk,Bradford,http://www.bradford.gov.uk,-1.72763900000000,BD2 3EF,2014-11-17,fhrs_3_en-GB,3,,FHRS,5
359304,,,,,Ashfaq Hussain,Mobile caterer,7846,5,,325580,0,,,178368,404,food.safety@bradford.gov.uk,Bradford,http://www.bradford.gov.uk,,,2012-11-02,fhrs_5_en-GB,5,,FHRS,5
359305,Ashfield House,Stewart Close,Bradford,,Ashfield House Day Nursery,Other catering premises,7841,5,,638969,0,,53.82067700000000,33531,404,food.safety@bradford.gov.uk,Bradford,http://www.bradford.gov.uk,-1.72384000000000,BD2 2EE,2014-03-13,fhrs_5_en-GB,5,,FHRS,0
359306,,46 Ashgrove,Great Horton,Bradford,Ashgrove General Store and Off Licence,Retailers - other,4613,5,,327970,10,,53.78945800000000,84114,404,food.safety@bradford.gov.uk,Bradford,http://www.bradford.gov.uk,-1.76390400000000,BD7 1BN,2014-10-13,fhrs_3_en-GB,3,,FHRS,10
359307,,Leeds Road,Ilkley,,Ashlands Primary School,School/college/university,7845,10,,326952,5,,53.92821000000000,52222,404,food.safety@bradford.gov.uk,Bradford,http://www.bradford.gov.uk,-1.81365300000000,LS29 8JY,2014-09-17,fhrs_4_en-GB,4,,FHRS,5
359308,,17 Ashfield Road,Shipley,,Ashmoor Day Nursery,Hospitals/Childcare/Caring Premises,5,5,,327336,5,,53.83132500000000,64676,404,food.safety@bradford.gov.uk,Bradford,http://www.bradford.gov.uk,-1.79907100000000,BD18 4JX,2013-12-02,fhrs_5_en-GB,5,,FHRS,0
359309,,Mytholmes Lane,Haworth,Keighley,Ashmount,Hotel/bed & breakfast/guest house,7842,10,,327063,5,,53.83417900000000,54650,404,food.safety@bradford.gov.uk,Bradford,http://www.bradford.gov.uk,-1.95152300000000,BD22 8EZ,2014-06-10,fhrs_4_en-GB,4,,FHRS,5
359310,,75 Landscove Avenue,Bradford,,Ashs Ryecroft Store,Retailers - other,4613,0,,325906,0,,53.77288800000000,20191,404,food.safety@bradford.gov.uk,Bradford,http://www.bradford.gov.uk,-1.70112100000000,BD4 0NQ,2013-07-17,fhrs_5_en-GB,5,,FHRS,0
359311,,58 Sandmoor Garth,Bradford,,Ashville Care Home,Hospitals/Childcare/Caring Premises,5,10,,326308,5,,53.84044100000000,31538,404,food.safety@bradford.gov.uk,Bradford,http://www.bradford.gov.uk,-1.73123300000000,BD10 8PW,2014-12-11,fhrs_3_en-GB,3,,FHRS,10
359312,,121 Fairbank Road,Bradford,,Asia Superstore,Retailers - supermarkets/hypermarkets,7840,20,,324821,15,,53.80403700000000,107913,404,food.safety@bradford.gov.uk,Bradford,http://www.bradford.gov.uk,-1.78319700000000,BD8 9JT,2013-08-29,fhrs_1_en-GB,1,,FHRS,15
359313,,8 Osbourne Drive,Queensbury,Bradford,Assura Pharmacy Ltd,Retailers - other,4613,,,325696,,,53.76864400000000,187300,404,food.safety@bradford.gov.uk,Bradford,http://www.bradford.gov.uk,-1.84945000000000,BD13 2GD,2009-11-27,fhrs_exempt_en-GB,Exempt,,FHRS,
359314,,4 Glenholme Park,Bradford,,Assura Pharmacy Ltd,Retailers - other,4613,,,325550,,,53.77919200000000,176243,404,food.safety@bradford.gov.uk,Bradford,http://www.bradford.gov.uk,-1.81454000000000,BD14 6NF,2009-12-30,fhrs_exempt_en-GB,Exempt,,FHRS,
359315,,15 Clarendon Street,Ingrow,Keighley,Ataha Food Store,Retailers - other,4613,20,,326735,5,,53.86031300000000,45008,404,food.safety@bradford.gov.uk,Bradford,http://www.bradford.gov.uk,-1.91358800000000,BD21 1DT,2013-07-03,fhrs_1_en-GB,1,,FHRS,10
359316,"Units 12 - 16, Kirkgate Market",Kirkgate,Bradford,,Athenium Coffee House,Restaurant/Cafe/Canteen,1,5,,328337,0,,53.79472600000000,94675,404,food.safety@bradford.gov.uk,Bradford,http://www.bradford.gov.uk,-1.75563200000000,BD1 1TE,2014-01-16,fhrs_5_en-GB,5,,FHRS,5
359317,,2 Silverdale Road,Bradford,,Atique Food Stores,Retailers - other,4613,0,,326320,0,,53.77359800000000,32334,404,food.safety@bradford.gov.uk,Bradford,http://www.bradford.gov.uk,-1.75713500000000,BD5 8DR,2014-09-15,fhrs_5_en-GB,5,,FHRS,0
359318,,Lincoln Close,Bradford,,Atlas Community Primary School,School/college/university,7845,0,,328374,0,,53.80221500000000,95496,404,food.safety@bradford.gov.uk,Bradford,http://www.bradford.gov.uk,-1.77037700000000,BD8 8DL,2014-02-07,fhrs_5_en-GB,5,,FHRS,0
359319,University Of Bradford,Richmond Road,Bradford,,Atrium Coffee Bar,Restaurant/Cafe/Canteen,1,0,,325253,0,,53.79171000000000,149961,404,food.safety@bradford.gov.uk,Bradford,http://www.bradford.gov.uk,-1.76214600000000,BD7 1DP,2007-12-11,fhrs_5_en-GB,5,,FHRS,0
359320,,38 Bingley Road,Shipley,,Atticus Coffee House & Dessert Bar,Takeaway/sandwich shop,7844,5,,536108,5,,53.83487200000000,65393,404,food.safety@bradford.gov.uk,Bradford,http://www.bradford.gov.uk,-1.79211000000000,BD18 4RU,2014-07-11,fhrs_5_en-GB,5,,FHRS,5
359321,,41A Murgatroyd Street,Bradford,,Attock Halal Meat,Retailers - other,4613,20,,324917,0,,53.77413400000000,122481,404,food.safety@bradford.gov.uk,Bradford,http://www.bradford.gov.uk,-1.75526600000000,BD5 8EE,2014-10-20,fhrs_1_en-GB,1,,FHRS,0
359322,,93 Whetley Lane,Bradford,,Attock Sweet Centre,Retailers - other,4613,10,,324799,10,,53.80269900000000,107340,404,food.safety@bradford.gov.uk,Bradford,http://www.bradford.gov.uk,-1.77898300000000,BD8 9DS,2013-11-13,fhrs_3_en-GB,3,,FHRS,10
359323,,494-496 Thornton Road,Thornton,Bradford,Atwal News,Retailers - other,4613,0,,324680,5,,53.79066100000000,104450,404,food.safety@bradford.gov.uk,Bradford,http://www.bradford.gov.uk,-1.85321200000000,BD13 3JD,2013-02-13,fhrs_5_en-GB,5,,FHRS,5
359324,,8 Church Street,Ilkley,,Avalons,Takeaway/sandwich shop,7844,0,,326721,0,,53.92642100000000,44855,404,food.safety@bradford.gov.uk,Bradford,http://www.bradford.gov.uk,-1.82509700000000,LS29 9DS,2014-03-05,fhrs_5_en-GB,5,,FHRS,0
359325,,6 The Grove Promenade,Ilkley,,Avanti Coffee House,Restaurant/Cafe/Canteen,1,5,,327247,0,,53.92492800000000,60837,404,food.safety@bradford.gov.uk,Bradford,http://www.bradford.gov.uk,-1.82435700000000,LS29 8AF,2014-10-03,fhrs_5_en-GB,5,,FHRS,0
359326,"Unit 6, Bowland Street Industrial Estate",Bowland Street,Bradford,,Awami Express,Retailers - other,4613,10,,328031,15,,53.80104800000000,86661,404,food.safety@bradford.gov.uk,Bradford,http://www.bradford.gov.uk,-1.76163800000000,BD1 3BW,2014-08-12,fhrs_2_en-GB,2,,FHRS,10
359327,,96 Smiddles Lane,Bradford,,Awami Foods,Retailers - other,4613,20,,326854,10,,53.77402900000000,4989,404,food.safety@bradford.gov.uk,Bradford,http://www.bradford.gov.uk,-1.76608500000000,BD5 9NX,2013-10-14,fhrs_1_en-GB,1,,FHRS,15
359328,,308 Keighley Road,Bradford,,Awan's Spices,Takeaway/sandwich shop,7844,20,,327934,15,,53.81974900000000,82632,404,food.safety@bradford.gov.uk,Bradford,http://www.bradford.gov.uk,-1.77421500000000,BD9 4EY,2014-11-18,fhrs_1_en-GB,1,,FHRS,5
359329,,89-91 South Street,Keighley,,Azeem Restaurant Ltd,Restaurant/Cafe/Canteen,1,0,,327186,0,,53.86353700000000,59188,404,food.safety@bradford.gov.uk,Bradford,http://www.bradford.gov.uk,-1.91125500000000,BD21 1AD,2012-03-26,fhrs_5_en-GB,5,,FHRS,0
359330,,36 Clayton Road,Bradford,,Aziz Halal Meat,Retailers - supermarkets/hypermarkets,7840,5,,581482,5,,53.78704300000000,162973,404,food.safety@bradford.gov.uk,Bradford,http://www.bradford.gov.uk,-1.79002400000000,BD7 2LT,2013-09-02,fhrs_5_en-GB,5,,FHRS,5
359331,,198-200 West Lane,Keighley,,B - Roti House,Takeaway/sandwich shop,7844,5,,327293,5,,53.86645500000000,62380,404,food.safety@bradford.gov.uk,Bradford,http://www.bradford.gov.uk,-1.91927800000000,BD21 2NE,2014-11-06,fhrs_4_en-GB,4,,FHRS,10
359332,Rawson Quarter,James Street,Bradford,,B & M,Retailers - supermarkets/hypermarkets,7840,0,,325409,0,,53.79594800000000,162689,404,food.safety@bradford.gov.uk,Bradford,http://www.bradford.gov.uk,-1.75548800000000,BD1 3QQ,2014-09-17,fhrs_5_en-GB,5,,FHRS,0
359333,"Unit 2, Cavendish Retail Park",Cavendish Street,Keighley,,B & M,Retailers - other,4613,,,326705,,,,44519,404,food.safety@bradford.gov.uk,Bradford,http://www.bradford.gov.uk,,BD21 3TE,2013-06-21,fhrs_exempt_en-GB,Exempt,,FHRS,
359334,,122A Morley Street,Bradford,,B and U Fisheries,Takeaway/sandwich shop,7844,10,,328469,10,,53.78979400000000,97707,404,food.safety@bradford.gov.uk,Bradford,http://www.bradford.gov.uk,-1.76136800000000,BD7 1BB,2014-09-09,fhrs_3_en-GB,3,,FHRS,10
359335,,,,,B J Richardson,Mobile caterer,7846,0,,702279,0,,,155913,404,food.safety@bradford.gov.uk,Bradford,http://www.bradford.gov.uk,,,2014-09-17,fhrs_5_en-GB,5,,FHRS,0
359336,,204 Hollingwood Lane,Bradford,,B R News and Off Licence,Retailers - other,4613,0,,325588,10,,53.77951100000000,17927,404,food.safety@bradford.gov.uk,Bradford,http://www.bradford.gov.uk,-1.80006200000000,BD7 4BJ,2013-01-13,fhrs_4_en-GB,4,,FHRS,0
359337,,,,,B Sanderson,Mobile caterer,7846,0,,328180,5,,,9134,404,food.safety@bradford.gov.uk,Bradford,http://www.bradford.gov.uk,,,2007-01-17,fhrs_5_en-GB,5,,FHRS,0
359338,,74 Carlisle Road,Bradford,,B4 Takeaway,Takeaway/sandwich shop,7844,10,,328035,5,,53.80570500000000,86679,404,food.safety@bradford.gov.uk,Bradford,http://www.bradford.gov.uk,-1.77175500000000,BD8 8BB,2014-05-27,fhrs_3_en-GB,3,,FHRS,10
359339,,6-8 Town End,Bradford,,Baba Roti House,Takeaway/sandwich shop,7844,20,,324735,5,,53.78274300000000,105315,404,food.safety@bradford.gov.uk,Bradford,http://www.bradford.gov.uk,-1.78260900000000,BD7 3HD,2014-11-07,fhrs_1_en-GB,1,,FHRS,15
359340,,155 Bierley Lane,Bradford,,Babs Diner,Restaurant/Cafe/Canteen,1,10,,710168,5,,53.76440400000000,217864,404,food.safety@bradford.gov.uk,Bradford,http://www.bradford.gov.uk,-1.73200600000000,BD4 6DU,2014-10-20,fhrs_4_en-GB,4,,FHRS,0
359341,,372 Manchester Road,Bradford,,Babylon Pizza Balti Takeaway,Takeaway/sandwich shop,7844,20,,521225,15,,53.78397800000000,96598,404,food.safety@bradford.gov.uk,Bradford,http://www.bradford.gov.uk,-1.75624000000000,BD5 7RA,2014-02-25,fhrs_0_en-GB,0,,FHRS,20
359342,,,,,Bagel Van,Mobile caterer,7846,5,,656771,5,,,220307,404,food.safety@bradford.gov.uk,Bradford,http://www.bradford.gov.uk,,,2014-04-24,fhrs_5_en-GB,5,,FHRS,5
359343,"Units 3 To 4, Titan Shopping Centre",Town Gate,Wyke,Bradford,Baguettes,Restaurant/Cafe/Canteen,1,5,,594496,5,,53.73871100000000,35856,404,food.safety@bradford.gov.uk,Bradford,http://www.bradford.gov.uk,-1.76834200000000,BD12 9JF,2014-04-03,fhrs_5_en-GB,5,,FHRS,0
359344,Heygate Community Centre,Heygate Close,Baildon,,Baildon A P W Association,Other catering premises,7841,,,327543,,,53.85530800000000,71226,404,food.safety@bradford.gov.uk,Bradford,http://www.bradford.gov.uk,-1.76177100000000,BD17 6RT,2014-03-10,fhrs_exempt_en-GB,Exempt,,FHRS,
359345,,Coverdale Way,Baildon,,Baildon CE Primary School,School/college/university,7845,0,,327461,0,,53.85438100000000,67808,404,food.safety@bradford.gov.uk,Bradford,http://www.bradford.gov.uk,-1.75247200000000,BD17 6TE,2011-05-06,fhrs_5_en-GB,5,,FHRS,5
359346,,35 Cliffe Avenue,Baildon,,Baildon Community Link,Other catering premises,7841,0,,327437,0,,53.84820500000000,67359,404,food.safety@bradford.gov.uk,Bradford,http://www.bradford.gov.uk,-1.76971500000000,BD17 6NX,2012-05-05,fhrs_5_en-GB,5,,FHRS,0
359347,,Moorgate,Baildon,,Baildon Golf Club  (bar only),Pub/bar/nightclub,7843,0,,327714,0,,53.85616900000000,75224,404,food.safety@bradford.gov.uk,Bradford,http://www.bradford.gov.uk,-1.76994500000000,BD17 5PP,2014-07-01,fhrs_5_en-GB,5,,FHRS,0
359348,,Moorgate,Baildon,,Baildon Golf Club Catering,Restaurant/Cafe/Canteen,1,10,,682551,5,,53.85616900000000,222597,404,food.safety@bradford.gov.uk,Bradford,http://www.bradford.gov.uk,-1.76994500000000,BD17 5PP,2014-07-01,fhrs_4_en-GB,4,,FHRS,0
359349,,38-42 Cliffe Lane West,Baildon,,Baildon Green Convenience Store,Retailers - other,4613,5,,327439,5,,53.84286200000000,67467,404,food.safety@bradford.gov.uk,Bradford,http://www.bradford.gov.uk,-1.77243400000000,BD17 5QP,2014-09-12,fhrs_5_en-GB,5,,FHRS,0
359350,,31 Heaton Drive,Baildon,,Baildon House Nursery,Hospitals/Childcare/Caring Premises,5,5,,327541,5,,53.85529700000000,71133,404,food.safety@bradford.gov.uk,Bradford,http://www.bradford.gov.uk,-1.77480000000000,BD17 5PQ,2014-12-19,fhrs_5_en-GB,5,,FHRS,0
359351,Hoyle Court,Otley Road,Charlestown,Baildon,Baildon Masonic Hall,Pub/bar/nightclub,7843,5,,327762,5,,53.85062500000000,76497,404,food.safety@bradford.gov.uk,Bradford,http://www.bradford.gov.uk,-1.75252500000000,BD17 6JS,2014-07-01,fhrs_5_en-GB,5,,FHRS,0
359352,,Green Lane,Baildon Green,Baildon,Baildon Recreation Centre,Other catering premises,7841,,,327511,,,53.83830200000000,70102,404,food.safety@bradford.gov.uk,Bradford,http://www.bradford.gov.uk,-1.77522500000000,BD17 5JH,2009-12-02,fhrs_exempt_en-GB,Exempt,,FHRS,
359353,,Heygate Lane,Baildon,,Baildon Rugby And Cricket Club,Pub/bar/nightclub,7843,5,,327561,5,,53.85455300000000,72030,404,food.safety@bradford.gov.uk,Bradford,http://www.bradford.gov.uk,-1.76195800000000,BD17 6SH,2014-10-21,fhrs_5_en-GB,5,,FHRS,0
359354,,3 Cliffe Avenue,Baildon,,Baildon Spice,Takeaway/sandwich shop,7844,20,,327436,5,,53.84820500000000,67357,404,food.safety@bradford.gov.uk,Bradford,http://www.bradford.gov.uk,-1.76971500000000,BD17 6NX,2014-07-15,fhrs_1_en-GB,1,,FHRS,15
359355,,99 Coach Road,Baildon,,Baildon Stores,Retailers - other,4613,5,,327444,0,,53.84114800000000,67568,404,food.safety@bradford.gov.uk,Bradford,http://www.bradford.gov.uk,-1.78844700000000,BD17 7LT,2014-04-29,fhrs_4_en-GB,4,,FHRS,10
359356,,67 Baildon Bridge,Otley Road,Baildon,Baildon Woodbottom WMC,Pub/bar/nightclub,7843,5,,638943,0,,53.83741800000000,194665,404,food.safety@bradford.gov.uk,Bradford,http://www.bradford.gov.uk,-1.77345200000000,BD17 7EP,2014-02-26,fhrs_5_en-GB,5,,FHRS,5
359357,,832 Manchester Road,Bradford,,Bains Newsagents,Retailers - other,4613,0,,326069,0,,53.77455800000000,22941,404,food.safety@bradford.gov.uk,Bradford,http://www.bradford.gov.uk,-1.76083200000000,BD5 8DJ,2012-12-30,fhrs_5_en-GB,5,,FHRS,0
359358,,,,,Bait Box,Mobile caterer,7846,0,,325468,5,,,168382,404,food.safety@bradford.gov.uk,Bradford,http://www.bradford.gov.uk,,,2011-05-27,fhrs_5_en-GB,5,,FHRS,0
359359,,,,,Baked By Lisa,Other catering premises,7841,0,,697083,0,,,40207,404,food.safety@bradford.gov.uk,Bradford,http://www.bradford.gov.uk,,,2014-08-28,fhrs_5_en-GB,5,,FHRS,0
359360,,78 Godwin Street,Bradford,,Balanga Polish Bar & Restaurant,Restaurant/Cafe/Canteen,1,10,,328172,10,,53.79472600000000,90989,404,food.safety@bradford.gov.uk,Bradford,http://www.bradford.gov.uk,-1.75563200000000,BD1 3PT,2013-12-20,fhrs_3_en-GB,3,,FHRS,5
359361,,9 Browgate,Baildon,,Balti House,Restaurant/Cafe/Canteen,1,5,,516032,5,,53.85270200000000,66561,404,food.safety@bradford.gov.uk,Bradford,http://www.bradford.gov.uk,-1.76639200000000,BD17 6BP,2014-10-06,fhrs_5_en-GB,5,,FHRS,5
359362,Brooks Building,Albert Street,Keighley,,Balti House,Restaurant/Cafe/Canteen,1,0,,325414,0,,53.86865100000000,163528,404,food.safety@bradford.gov.uk,Bradford,http://www.bradford.gov.uk,-1.91097100000000,BD21 2AT,2014-06-23,fhrs_5_en-GB,5,,FHRS,0
359363,,16 Rooley Lane,Bradford,,Balti Ranch,Takeaway/sandwich shop,7844,5,,326259,5,,53.76802400000000,30044,404,food.safety@bradford.gov.uk,Bradford,http://www.bradford.gov.uk,-1.76086900000000,BD5 8LX,2015-01-13,fhrs_5_en-GB,5,,FHRS,5
359364,,355 Tong Street,Bradford,,Bamboo Bear,Takeaway/sandwich shop,7844,5,,325729,0,,53.76869300000000,190385,404,food.safety@bradford.gov.uk,Bradford,http://www.bradford.gov.uk,-1.71319700000000,BD4 9QY,2014-08-07,fhrs_5_en-GB,5,,FHRS,5
359365,,23 North Road,Bradford,,Bang Bang Bakery,Other catering premises,7841,0,,634075,0,,53.76617700000000,180668,404,food.safety@bradford.gov.uk,Bradford,http://www.bradford.gov.uk,-1.77715700000000,BD6 1TR,2014-02-19,fhrs_5_en-GB,5,,FHRS,0
359366,,18 East Parade,Bradford,,Bangkok Thai Restaurant,Restaurant/Cafe/Canteen,1,5,,328481,10,,53.79384700000000,9817,404,food.safety@bradford.gov.uk,Bradford,http://www.bradford.gov.uk,-1.74378100000000,BD1 5EE,2015-01-09,fhrs_4_en-GB,4,,FHRS,5
359367,,21 Leeds Road,Shipley,,Banjo's,Takeaway/sandwich shop,7844,0,,327592,0,,53.83457600000000,73034,404,food.safety@bradford.gov.uk,Bradford,http://www.bradford.gov.uk,-1.76783000000000,BD18 1BP,2014-03-13,fhrs_5_en-GB,5,,FHRS,0
359368,,10 Bank,Bradford,,Bank Stores,Retailers - other,4613,0,,325408,0,,53.82438200000000,1626,404,food.safety@bradford.gov.uk,Bradford,http://www.bradford.gov.uk,-1.72074700000000,BD10 8BN,2013-02-15,fhrs_5_en-GB,5,,FHRS,0
359369,,,,,Bank Walk Bake House,Other catering premises,7841,0,,327842,0,,,80034,404,food.safety@bradford.gov.uk,Bradford,http://www.bradford.gov.uk,,,2011-05-06,fhrs_5_en-GB,5,,FHRS,0
359370,,Bradford Road,Bingley,,Bankfield Hotel,Hotel/bed & breakfast/guest house,7842,10,,327391,10,,53.83466800000000,66054,404,food.safety@bradford.gov.uk,Bradford,http://www.bradford.gov.uk,-1.81590600000000,BD16 1TU,2013-12-11,fhrs_3_en-GB,3,,FHRS,10
359371,,Cleckheaton Road,Bradford,,Bankfoot Cricket Club,Pub/bar/nightclub,7843,0,,327536,0,,53.76171200000000,7081,404,food.safety@bradford.gov.uk,Bradford,http://www.bradford.gov.uk,-1.75979700000000,BD6 1BG,2012-04-13,fhrs_5_en-GB,5,,FHRS,0
359372,,Bolingbroke Street,Bradford,,Bankfoot Primary School,School/college/university,7845,0,,326472,0,,53.77315200000000,3628,404,food.safety@bradford.gov.uk,Bradford,http://www.bradford.gov.uk,-1.76335800000000,BD5 9NR,2014-01-29,fhrs_5_en-GB,5,,FHRS,5
359373,,,,,Bannie's Snack Bar,Mobile caterer,7846,5,,325480,5,,,169647,404,food.safety@bradford.gov.uk,Bradford,http://www.bradford.gov.uk,,,2014-07-03,fhrs_5_en-GB,5,,FHRS,0
359374,,92 Manningham Lane,Bradford,,Banoful Sweet House,Retailers - other,4613,10,,723805,10,,53.80120500000000,185800,404,food.safety@bradford.gov.uk,Bradford,http://www.bradford.gov.uk,-1.75957200000000,BD1 3ES,2014-12-10,fhrs_2_en-GB,2,,FHRS,15
359375,,7 Cunliffe Road,Ilkley,,Bar Tat,Hotel/bed & breakfast/guest house,7842,5,,326760,5,,53.92584700000000,46199,404,food.safety@bradford.gov.uk,Bradford,http://www.bradford.gov.uk,-1.82647000000000,LS29 9DZ,2014-11-18,fhrs_5_en-GB,5,,FHRS,5
359376,,26 Sackville Street,Bradford,,Bar UBER (bar),Pub/bar/nightclub,7843,0,,324575,0,,53.79465700000000,101220,404,food.safety@bradford.gov.uk,Bradford,http://www.bradford.gov.uk,-1.75696800000000,BD1 2AJ,2013-02-13,fhrs_5_en-GB,5,,FHRS,5
359377,,213 South Street,Keighley,,Bardgetts Fish And Chips,Takeaway/sandwich shop,7844,5,,327182,5,,53.85946500000000,59149,404,food.safety@bradford.gov.uk,Bradford,http://www.bradford.gov.uk,-1.91033600000000,BD21 1AG,2014-06-26,fhrs_5_en-GB,5,,FHRS,5
359378,,30 Cavendish Street,Keighley,,Bargain Booze,Retailers - other,4613,0,,733764,0,,53.86790000000000,44457,404,food.safety@bradford.gov.uk,Bradford,http://www.bradford.gov.uk,-1.90470600000000,BD21 3RG,2015-01-31,fhrs_5_en-GB,5,,FHRS,0
359379,,86 Rufford Street,Bradford,,Bargain Foods,Retailers - other,4613,5,,326277,0,,53.79429800000000,30585,404,food.safety@bradford.gov.uk,Bradford,http://www.bradford.gov.uk,-1.72387700000000,BD3 8AY,2013-01-10,fhrs_5_en-GB,5,,FHRS,5
359380,,59-61 Saltaire Road,Shipley,,Bargin Booze,Retailers - other,4613,5,,327805,5,,53.83632100000000,78521,404,food.safety@bradford.gov.uk,Bradford,http://www.bradford.gov.uk,-1.78825800000000,BD18 3JN,2012-12-10,fhrs_5_en-GB,5,,FHRS,0
359381,,292 Barkerend Road,Bradford,,Barkerend Butcher,Retailers - other,4613,10,,690589,10,,53.79758200000000,1850,404,food.safety@bradford.gov.uk,Bradford,http://www.bradford.gov.uk,-1.73326800000000,BD3 9DF,2014-08-05,fhrs_3_en-GB,3,,FHRS,5
359382,,16 Duckworth Lane,Bradford,,Barkerend Fisheries,Takeaway/sandwich shop,7844,5,,328122,0,,53.80623800000000,89101,404,food.safety@bradford.gov.uk,Bradford,http://www.bradford.gov.uk,-1.78806000000000,BD9 5EP,2013-10-25,fhrs_4_en-GB,4,,FHRS,10
359383,,276 Barkerend Road,Bradford,,Barkerend Fisheries,Takeaway/sandwich shop,7844,5,,325661,10,,53.79758200000000,1841,404,food.safety@bradford.gov.uk,Bradford,http://www.bradford.gov.uk,-1.73326800000000,BD3 9DF,2014-12-15,fhrs_4_en-GB,4,,FHRS,5
359384,,210 Otley Road,Bradford,,Barkerend Fisheries,Takeaway/sandwich shop,7844,10,,325558,5,,53.80384800000000,177265,404,food.safety@bradford.gov.uk,Bradford,http://www.bradford.gov.uk,-1.74236900000000,BD3 0JH,2015-01-20,fhrs_3_en-GB,3,,FHRS,10
359385,,Hendford Drive,Bradford,,Barkerend Primary School,School/college/university,7845,0,,325532,0,,53.79776800000000,174299,404,food.safety@bradford.gov.uk,Bradford,http://www.bradford.gov.uk,-1.73628800000000,BD3 0QT,2012-11-29,fhrs_5_en-GB,5,,FHRS,5
359386,,266 Barkerend Road,Bradford,,Barkerend Road Newsagents,Retailers - other,4613,,,325642,,,53.79723400000000,1835,404,food.safety@bradford.gov.uk,Bradford,http://www.bradford.gov.uk,-1.73450000000000,BD3 9DB,2013-01-09,fhrs_exempt_en-GB,Exempt,,FHRS,
359387,,12 Sunbridge Road,Bradford,,Barkers Newsagents,Retailers - other,4613,,,324629,,,53.79387900000000,103536,404,food.safety@bradford.gov.uk,Bradford,http://www.bradford.gov.uk,-1.75474100000000,BD1 2AA,2004-08-03,fhrs_exempt_en-GB,Exempt,,FHRS,
359388,,5 The Parade,Cottingley,Bingley,Barnes High Class Family Butcher,Retailers - other,4613,5,,327848,0,,53.82988000000000,80178,404,food.safety@bradford.gov.uk,Bradford,http://www.bradford.gov.uk,-1.82972300000000,BD16 1RP,2014-08-18,fhrs_5_en-GB,5,,FHRS,5
359389,,Cleckheaton Road,Bradford,,BASF Performance Chemicals,Restaurant/Cafe/Canteen,1,0,,327529,0,,53.75059600000000,7064,404,food.safety@bradford.gov.uk,Bradford,http://www.bradford.gov.uk,-1.76058900000000,BD12 0RQ,2012-03-09,fhrs_5_en-GB,5,,FHRS,0
359390,,Roydsdale Way,Euroway Industrial Estate,Bradford,Batleys Cash & Carry,Retailers - supermarkets/hypermarkets,7840,0,,325570,0,,53.75437800000000,177607,404,food.safety@bradford.gov.uk,Bradford,http://www.bradford.gov.uk,-1.73822700000000,BD4 6RY,2010-07-22,fhrs_5_en-GB,5,,FHRS,5
359391,"Units 17 - 19, Kirkgate Market",Kirkgate,Bradford,,Baxandalls Cafe,Restaurant/Cafe/Canteen,1,5,,328333,5,,53.79472600000000,94649,404,food.safety@bradford.gov.uk,Bradford,http://www.bradford.gov.uk,-1.75563200000000,BD1 1TE,2014-06-03,fhrs_5_en-GB,5,,FHRS,5
359392,Salts Mill,Victoria Road,Saltaire,Shipley,Baxter Storey,Restaurant/Cafe/Canteen,1,0,,325656,0,,53.83885700000000,183978,404,food.safety@bradford.gov.uk,Bradford,http://www.bradford.gov.uk,-1.78914200000000,BD18 3LF,2012-07-04,fhrs_5_en-GB,5,,FHRS,0
359393,,Hebden Bridge Road,Oxenhope,Keighley,Bay Horse Inn,Pub/bar/nightclub,7843,20,,327268,10,,53.80977800000000,61287,404,food.safety@bradford.gov.uk,Bradford,http://www.bradford.gov.uk,-1.95338800000000,BD22 9LN,2014-10-23,fhrs_1_en-GB,1,,FHRS,5
359394,,145 Toller Lane,Bradford,,Bbq Express Bradford,Takeaway/sandwich shop,7844,5,,704386,0,,53.80582900000000,105155,404,food.safety@bradford.gov.uk,Bradford,http://www.bradford.gov.uk,-1.78552700000000,BD8 9HL,2014-09-29,fhrs_4_en-GB,4,,FHRS,10
359395,,211 Gain Lane,Bradford,,BBQ Hut,Takeaway/sandwich shop,7844,10,,324944,10,,53.80651200000000,12793,404,food.safety@bradford.gov.uk,Bradford,http://www.bradford.gov.uk,-1.71992400000000,BD2 3LW,2014-11-25,fhrs_3_en-GB,3,,FHRS,10
359396,,6-8 Quebec Street,Bradford,,BC Buffet Restaurant,Restaurant/Cafe/Canteen,1,10,,325176,10,,53.79244800000000,145745,404,food.safety@bradford.gov.uk,Bradford,http://www.bradford.gov.uk,-1.75807400000000,BD1 2ER,2013-11-15,fhrs_4_en-GB,4,,FHRS,0
359397,,,,,BDC Foods,Mobile caterer,7846,20,,690594,10,,,223090,404,food.safety@bradford.gov.uk,Bradford,http://www.bradford.gov.uk,,,2014-07-31,fhrs_1_en-GB,1,,FHRS,10
359398,Westfield House,Ingleby Road,Bradford,,BDS Store,Retailers - other,4613,,,328281,,,53.79249800000000,93819,404,food.safety@bradford.gov.uk,Bradford,http://www.bradford.gov.uk,-1.78418300000000,BD99 2XE,2009-12-02,fhrs_exempt_en-GB,Exempt,,FHRS,
359399,,,,,Be Happy Bakery,Other catering premises,7841,0,,325872,0,,,199355,404,food.safety@bradford.gov.uk,Bradford,http://www.bradford.gov.uk,,,2011-10-07,fhrs_5_en-GB,5,,FHRS,0
359400,,47 Beacon Road,Bradford,,Beacon Road Fisheries,Takeaway/sandwich shop,7844,0,,326066,0,,53.76845300000000,2293,404,food.safety@bradford.gov.uk,Bradford,http://www.bradford.gov.uk,-1.78809900000000,BD6 3ET,2014-07-14,fhrs_5_en-GB,5,,FHRS,5
359401,Hanover House,79 Low Street,Keighley,,Beales,Restaurant/Cafe/Canteen,1,5,,326988,0,,,52771,404,food.safety@bradford.gov.uk,Bradford,http://www.bradford.gov.uk,,BD21 3PU,2014-04-23,fhrs_4_en-GB,4,,FHRS,10
359402,,72 West End,Queensbury,Bradford,Bean Riding,Restaurant/Cafe/Canteen,1,0,,650479,0,,53.76691900000000,37457,404,food.safety@bradford.gov.uk,Bradford,http://www.bradford.gov.uk,-1.85003300000000,BD13 2ER,2014-03-25,fhrs_5_en-GB,5,,FHRS,5
359403,,31 Cornwall Road,Bradford,,BEAP womens lunch club(Wed),Other catering premises,7841,20,,327775,5,,53.80248100000000,7674,404,food.safety@bradford.gov.uk,Bradford,http://www.bradford.gov.uk,-1.75923100000000,BD8 7JN,2014-10-22,fhrs_1_en-GB,1,,FHRS,0
359404,,70 Bolton Lane,Bradford,,Beckfield Residential Home,Hospitals/Childcare/Caring Premises,5,5,,326501,5,,53.81122900000000,3750,404,food.safety@bradford.gov.uk,Bradford,http://www.bradford.gov.uk,-1.75192100000000,BD2 4BN,2013-12-19,fhrs_5_en-GB,5,,FHRS,0
359405,,Wagon Lane,Bingley,,Beckfoot School And Hazelbeck Schools,School/college/university,7845,0,,327392,0,,53.84124900000000,66055,404,food.safety@bradford.gov.uk,Bradford,http://www.bradford.gov.uk,-1.82911400000000,BD16 1EE,2011-11-21,fhrs_5_en-GB,5,,FHRS,0
359406,Millennium Business Park,Station Road,Steeton With Eastburn,Keighley,Beckside Design Centre,Retailers - other,4613,,,325406,,,53.89851400000000,162405,404,food.safety@bradford.gov.uk,Bradford,http://www.bradford.gov.uk,-1.95027700000000,BD20 6QW,2005-09-22,fhrs_exempt_en-GB,Exempt,,FHRS,
359407,,1 Main Street,Cottingley,Bingley,Beckside Fisheries,Takeaway/sandwich shop,7844,5,,327650,0,,53.82886100000000,74090,404,food.safety@bradford.gov.uk,Bradford,http://www.bradford.gov.uk,-1.82153800000000,BD16 1SE,2015-01-08,fhrs_5_en-GB,5,,FHRS,0
359408,,Bedale Drive,Bradford,,Bedale Luncheon Club,Other catering premises,7841,0,,326569,0,,53.76799900000000,40458,404,food.safety@bradford.gov.uk,Bradford,http://www.bradford.gov.uk,-1.79591400000000,BD6 3ST,2011-11-23,fhrs_5_en-GB,5,,FHRS,0
359409,,20 Beech Grove,Undercliffe,Bradford,Beech Stores,Retailers - other,4613,10,,326129,5,,53.80310700000000,2470,404,food.safety@bradford.gov.uk,Bradford,http://www.bradford.gov.uk,-1.73235200000000,BD3 0PW,2014-07-30,fhrs_4_en-GB,4,,FHRS,5
359410,,3 Beech Road,Bradford,,Beech Stores,Retailers - other,4613,0,,326131,0,,53.75987500000000,2505,404,food.safety@bradford.gov.uk,Bradford,http://www.bradford.gov.uk,-1.76705800000000,BD6 1EB,2013-01-06,fhrs_5_en-GB,5,,FHRS,0
359411,,19 Arctic Street,Keighley,,Beechcliffe Store,Retailers - other,4613,10,,702277,5,,53.87729800000000,143195,404,food.safety@bradford.gov.uk,Bradford,http://www.bradford.gov.uk,-1.91107400000000,BD20 6AH,2014-09-17,fhrs_3_en-GB,3,,FHRS,10
359412,,44 Swain House Road,Bradford,,Beijing City,Restaurant/Cafe/Canteen,1,0,,326375,0,,53.82170800000000,34159,404,food.safety@bradford.gov.uk,Bradford,http://www.bradford.gov.uk,-1.74274500000000,BD2 1JW,2012-02-02,fhrs_5_en-GB,5,,FHRS,5
359413,,41 Bracewell Avenue,Bradford,,Bell a Pizza,Restaurant/Cafe/Canteen,1,20,,650462,5,,53.79802400000000,196954,404,food.safety@bradford.gov.uk,Bradford,http://www.bradford.gov.uk,-1.82783200000000,BD15 7TD,2014-04-04,fhrs_1_en-GB,1,,FHRS,10
359414,,206 Saltaire Road,Shipley,,Bella Mia,Restaurant/Cafe/Canteen,1,20,,327802,0,,53.83591000000000,78505,404,food.safety@bradford.gov.uk,Bradford,http://www.bradford.gov.uk,-1.78976500000000,BD18 3JQ,2013-11-28,fhrs_1_en-GB,1,,FHRS,15
359415,,5 Belle Isle Road,Haworth,Keighley,Belle Isle Extra Care Services LLP,Other catering premises,7841,0,,325581,0,,53.82946900000000,178461,404,food.safety@bradford.gov.uk,Bradford,http://www.bradford.gov.uk,-1.94981100000000,BD22 8QQ,2007-11-21,fhrs_5_en-GB,5,,FHRS,0
359416,,Thorn Lane,Bradford,,Belle Vue Boys School,School/college/university,7845,10,,493638,10,,53.81863700000000,104154,404,food.safety@bradford.gov.uk,Bradford,http://www.bradford.gov.uk,-1.81251300000000,BD9 6ND,2014-01-07,fhrs_3_en-GB,3,,FHRS,10
359417,,Thorn Lane,Bradford,,Belle Vue Girls High School,School/college/university,7845,0,,324663,0,,53.81990600000000,104155,404,food.safety@bradford.gov.uk,Bradford,http://www.bradford.gov.uk,-1.81346500000000,BD9 6NA,2011-01-14,fhrs_5_en-GB,5,,FHRS,5
359418,,367 Tong Street,Bradford,,Belly Buster,Takeaway/sandwich shop,7844,0,,326411,5,,53.76823000000000,35565,404,food.safety@bradford.gov.uk,Bradford,http://www.bradford.gov.uk,-1.71119800000000,BD4 9RU,2014-02-11,fhrs_5_en-GB,5,,FHRS,5
359419,,3 Belmont Avenue,Bradford,,Belmont Mini Market,Retailers - other,4613,5,,326206,0,,53.76063000000000,2719,404,food.safety@bradford.gov.uk,Bradford,http://www.bradford.gov.uk,-1.75780100000000,BD12 0PD,2014-08-06,fhrs_5_en-GB,5,,FHRS,5
359420,,Ben Rhydding Drive,Ilkley,,Ben Rhydding Methodist Church,Other catering premises,7841,,,327307,,,53.92395700000000,63032,404,food.safety@bradford.gov.uk,Bradford,http://www.bradford.gov.uk,-1.79567300000000,LS29 8AY,2014-03-10,fhrs_exempt_en-GB,Exempt,,FHRS,
359421,,Bolling Road,Ilkley,,Ben Rhydding Primary School,School/college/university,7845,0,,326608,0,,53.92475700000000,42430,404,food.safety@bradford.gov.uk,Bradford,http://www.bradford.gov.uk,-1.80104400000000,LS29 8QH,2011-05-17,fhrs_5_en-GB,5,,FHRS,0
359422,,Coutances Way,Burley In Wharfedale,Ilkley,Ben Rhydding Sports Club,Pub/bar/nightclub,7843,0,,327459,0,,53.92827500000000,67799,404,food.safety@bradford.gov.uk,Bradford,http://www.bradford.gov.uk,-1.78799200000000,LS29 8AW,2010-03-10,fhrs_5_en-GB,5,,FHRS,5
359423,1 Druids View,Keighley Road,Bingley,,Bengal Tiffin,Takeaway/sandwich shop,7844,0,,325179,0,,53.86471900000000,146031,404,food.safety@bradford.gov.uk,Bradford,http://www.bradford.gov.uk,-1.85134100000000,BD16 2DY,2014-03-21,fhrs_5_en-GB,5,,FHRS,5
359424,,20 Killinghall Road,Bradford,,Berries Bagel & Shakes,Restaurant/Cafe/Canteen,1,20,,723806,15,,53.79464600000000,19436,404,food.safety@bradford.gov.uk,Bradford,http://www.bradford.gov.uk,-1.71916800000000,BD3 8DS,2014-12-12,fhrs_0_en-GB,0,,FHRS,20
359425,,54 Town Gate,Wyke,Bradford,Bert Marshall Bakers,Retailers - other,4613,0,,326443,0,,53.73970900000000,35809,404,food.safety@bradford.gov.uk,Bradford,http://www.bradford.gov.uk,-1.76882200000000,BD12 9JA,2014-01-30,fhrs_5_en-GB,5,,FHRS,0
359426,,15-17 Folly Hall Road,Bradford,,Bert Marshall Bakers Ltd,Retailers - other,4613,5,,324921,5,,53.76573400000000,12371,404,food.safety@bradford.gov.uk,Bradford,http://www.bradford.gov.uk,-1.77579400000000,BD6 1UL,2013-12-11,fhrs_5_en-GB,5,,FHRS,5
359427,,48 Stony Lane,Bradford,,Best One,Retailers - supermarkets/hypermarkets,7840,5,,326367,0,,53.82077000000000,33826,404,food.safety@bradford.gov.uk,Bradford,http://www.bradford.gov.uk,-1.72520700000000,BD2 2HN,2014-04-23,fhrs_5_en-GB,5,,FHRS,5
359428,,158 Woodside Road,Bradford,,Best One Delph Hill Newsagents,Retailers - other,4613,0,,326540,5,,53.74809100000000,39084,404,food.safety@bradford.gov.uk,Bradford,http://www.bradford.gov.uk,-1.77144500000000,BD12 8DA,2013-02-08,fhrs_5_en-GB,5,,FHRS,5
359429,,206-210 Leeds Road,Shipley,,Best One Express,Retailers - other,4613,5,,327593,5,,53.83610600000000,73035,404,food.safety@bradford.gov.uk,Bradford,http://www.bradford.gov.uk,-1.75995000000000,BD18 2NX,2014-11-13,fhrs_5_en-GB,5,,FHRS,0
359430,,1067-1069 Bolton Road,Bradford,,Best One Store,Retailers - other,4613,5,,326516,0,,53.81476900000000,3783,404,food.safety@bradford.gov.uk,Bradford,http://www.bradford.gov.uk,-1.73839900000000,BD2 4HP,2013-01-22,fhrs_5_en-GB,5,,FHRS,0
359431,,14 Carlisle Road,Bradford,,Bestway Foods,Retailers - other,4613,5,,328029,0,,53.80570800000000,86651,404,food.safety@bradford.gov.uk,Bradford,http://www.bradford.gov.uk,-1.76849000000000,BD8 8AD,2014-06-23,fhrs_4_en-GB,4,,FHRS,10
359432,,51 Westgate,Bradford,,Betty Charles Retail Outlet,Retailers - other,4613,5,,324776,10,,53.79625400000000,106988,404,food.safety@bradford.gov.uk,Bradford,http://www.bradford.gov.uk,-1.75990400000000,BD1 2RD,2012-09-06,fhrs_4_en-GB,4,,FHRS,5
359433,,32-34 The Grove,Ilkley,,Bettys Cafe Tea Room,Restaurant/Cafe/Canteen,1,0,,327238,5,,53.92479500000000,60761,404,food.safety@bradford.gov.uk,Bradford,http://www.bradford.gov.uk,-1.82559100000000,LS29 9EE,2014-05-01,fhrs_5_en-GB,5,,FHRS,5
359434,,Wagon Lane,Bingley,,Bfd & Bingley Sports Club,Pub/bar/nightclub,7843,5,,327874,5,,53.83885600000000,80772,404,food.safety@bradford.gov.uk,Bradford,http://www.bradford.gov.uk,-1.82793900000000,BD16 1LT,2014-09-12,fhrs_4_en-GB,4,,FHRS,10
359435,,City Park,Bradford,,Bfd Magistrates Court,Restaurant/Cafe/Canteen,1,5,,324659,5,,53.79177500000000,104063,404,food.safety@bradford.gov.uk,Bradford,http://www.bradford.gov.uk,-1.75419200000000,BD1 1LA,2014-12-17,fhrs_4_en-GB,4,,FHRS,10
359436,,498-502 Great Horton Road,Bradford,,Bharat Bar & Grill,Restaurant/Cafe/Canteen,1,5,,328197,5,,53.78442700000000,91463,404,food.safety@bradford.gov.uk,Bradford,http://www.bradford.gov.uk,-1.77932200000000,BD7 3HR,2014-10-21,fhrs_5_en-GB,5,,FHRS,5
359437,,518 Great Horton Road,Bradford,,Bharat Sweet and Pann House,Restaurant/Cafe/Canteen,1,0,,328200,0,,53.78322600000000,91471,404,food.safety@bradford.gov.uk,Bradford,http://www.bradford.gov.uk,-1.78157400000000,BD7 3HG,2011-03-24,fhrs_5_en-GB,5,,FHRS,0
359438,,6-8 Carlisle Road,Bradford,,Bhatti Newsagent,Retailers - other,4613,5,,328037,0,,53.80570800000000,86698,404,food.safety@bradford.gov.uk,Bradford,http://www.bradford.gov.uk,-1.76849000000000,BD8 8AD,2013-10-21,fhrs_5_en-GB,5,,FHRS,5
359439,,206 Old Road,Horton Bank Top,Bradford,Biddy's Diner,Restaurant/Cafe/Canteen,1,20,,326179,0,,53.77458700000000,26830,404,food.safety@bradford.gov.uk,Bradford,http://www.bradford.gov.uk,-1.80110200000000,BD7 4ND,2014-05-16,fhrs_1_en-GB,1,,FHRS,10
359440,,49a Bierley Lane,Bradford,,Bierley Court,Hospitals/Childcare/Caring Premises,5,0,,326296,0,,53.76851200000000,3119,404,food.safety@bradford.gov.uk,Bradford,http://www.bradford.gov.uk,-1.73213200000000,BD4 6AD,2014-01-13,fhrs_5_en-GB,5,,FHRS,5
359441,,120 Bierley Lane,Bradford,,Bierley Fisheries,Takeaway/sandwich shop,7844,0,,326269,0,,53.76619400000000,3030,404,food.safety@bradford.gov.uk,Bradford,http://www.bradford.gov.uk,-1.73275300000000,BD4 6AS,2014-04-07,fhrs_5_en-GB,5,,FHRS,5
359442,,28 Dawson Lane,Bierley,Bradford,Bierley Mini Market,Retailers - other,4613,5,,328115,0,,53.76999800000000,8904,404,food.safety@bradford.gov.uk,Bradford,http://www.bradford.gov.uk,-1.72153300000000,BD4 6HN,2013-01-08,fhrs_5_en-GB,5,,FHRS,5
359443,,67-73 Hambledon Avenue,Bradford,,Bierley Superstore and Post Office,Retailers - other,4613,5,,325262,0,,53.76674700000000,15052,404,food.safety@bradford.gov.uk,Bradford,http://www.bradford.gov.uk,-1.73055000000000,BD4 6AX,2013-01-08,fhrs_5_en-GB,5,,FHRS,0
359444,,,,,Big Burger Bar,Mobile caterer,7846,5,,325691,0,,,186239,404,food.safety@bradford.gov.uk,Bradford,http://www.bradford.gov.uk,,,2013-06-28,fhrs_4_en-GB,4,,FHRS,10
359445,,5-7 New Brook Street,Ilkley,,Big Catch,Takeaway/sandwich shop,7844,5,,327068,5,,53.92656200000000,54808,404,food.safety@bradford.gov.uk,Bradford,http://www.bradford.gov.uk,-1.82317800000000,LS29 8DQ,2015-02-10,fhrs_5_en-GB,5,,FHRS,5
359446,,3-5 Parry Lane,Bradford,,Big Geoffs Cafe,Restaurant/Cafe/Canteen,1,5,,326222,5,,53.78662700000000,27794,404,food.safety@bradford.gov.uk,Bradford,http://www.bradford.gov.uk,-1.72599100000000,BD4 8TJ,2014-02-11,fhrs_5_en-GB,5,,FHRS,0
359447,,Springfield Mills,Oakworth Road,Keighley,Big Soup Bistro,Restaurant/Cafe/Canteen,1,5,,325876,5,,53.86459200000000,199809,404,food.safety@bradford.gov.uk,Bradford,http://www.bradford.gov.uk,-1.91526700000000,BD21 1SL,2014-12-04,fhrs_5_en-GB,5,,FHRS,0
359448,,55 Kirkgate,Silsden,,Bilaluci,Restaurant/Cafe/Canteen,1,5,,326921,5,,53.91320300000000,51686,404,food.safety@bradford.gov.uk,Bradford,http://www.bradford.gov.uk,-1.93791300000000,BD20 0AQ,2014-09-11,fhrs_5_en-GB,5,,FHRS,0
359449,,Main Street,Bingley,,Bingley Arts Centre,Retailers - other,4613,,,327673,,,53.84783300000000,74298,404,food.safety@bradford.gov.uk,Bradford,http://www.bradford.gov.uk,-1.83908900000000,BD16 2LZ,2013-12-01,fhrs_exempt_en-GB,Exempt,,FHRS,
359450,,Park Road,Bingley,,Bingley Baptist Church,Other catering premises,7841,,,327781,,,53.85054200000000,76912,404,food.safety@bradford.gov.uk,Bradford,http://www.bradford.gov.uk,-1.83553700000000,BD16 4LJ,2014-08-13,fhrs_exempt_en-GB,Exempt,,FHRS,
359451,Princess Hall,Myrtle Place,Bingley,,Bingley Baths,Retailers - other,4613,,,327726,,,53.84721300000000,75444,404,food.safety@bradford.gov.uk,Bradford,http://www.bradford.gov.uk,-1.83936500000000,BD16 2LF,2009-12-02,fhrs_exempt_en-GB,Exempt,,FHRS,
359452,10 Ashfield Terrace,Bradford Road,Bingley,,Bingley Fisheries,Takeaway/sandwich shop,7844,10,,327337,10,,53.84368300000000,64689,404,food.safety@bradford.gov.uk,Bradford,http://www.bradford.gov.uk,-1.83422600000000,BD16 1EQ,2014-07-16,fhrs_3_en-GB,3,,FHRS,10
359453,Westfield,Bromley Road,Bingley,,Bingley Kashmiri Korner,Other catering premises,7841,5,,650467,5,,53.85412000000000,213446,404,food.safety@bradford.gov.uk,Bradford,http://www.bradford.gov.uk,-1.83566000000000,BD16 4DA,2014-03-19,fhrs_5_en-GB,5,,FHRS,5
359454,,Main Street,Bingley,,Bingley Little Theatre,Retailers - other,4613,,,327674,,,53.84783300000000,74299,404,food.safety@bradford.gov.uk,Bradford,http://www.bradford.gov.uk,-1.83908900000000,BD16 2LZ,2009-12-02,fhrs_exempt_en-GB,Exempt,,FHRS,
359455,,Charles Street,Bingley,,Bingley Masonic Hall,Pub/bar/nightclub,7843,0,,327425,0,,53.85110700000000,67060,404,food.safety@bradford.gov.uk,Bradford,http://www.bradford.gov.uk,-1.83480500000000,BD16 4LG,2012-05-15,fhrs_5_en-GB,5,,FHRS,5
359456,,Mornington Road,Bingley,,Bingley Methodist Church,Other catering premises,7841,0,,325281,0,,53.85050300000000,152463,404,food.safety@bradford.gov.uk,Bradford,http://www.bradford.gov.uk,-1.83345500000000,BD16 4NT,2014-02-12,fhrs_5_en-GB,5,,FHRS,0
359457,,156 Main Street,Bingley,,Bingley Newsagent,Retailers - other,4613,,,327668,,,53.84877600000000,74255,404,food.safety@bradford.gov.uk,Bradford,http://www.bradford.gov.uk,-1.83890300000000,BD16 2HR,2004-09-23,fhrs_exempt_en-GB,Exempt,,FHRS,
359458,,Keighley Road,Harden,Bingley,Bingley St Ives Golf Club,Pub/bar/nightclub,7843,5,,406929,5,,53.84723900000000,70704,404,food.safety@bradford.gov.uk,Bradford,http://www.bradford.gov.uk,-1.86067500000000,BD16 1AT,2014-03-21,fhrs_5_en-GB,5,,FHRS,5
359459,8 Ashfield Terrace,Bradford Road,Bingley,,Bingley Wines,Retailers - other,4613,0,,327342,0,,53.84368300000000,64704,404,food.safety@bradford.gov.uk,Bradford,http://www.bradford.gov.uk,-1.83422600000000,BD16 1EQ,2012-06-22,fhrs_5_en-GB,5,,FHRS,0
359460,,Wingfield Court,Bingley,,Bingley Wingfield Nursing Home,Hospitals/Childcare/Caring Premises,5,10,,327786,5,,53.85288000000000,77385,404,food.safety@bradford.gov.uk,Bradford,http://www.bradford.gov.uk,-1.82982700000000,BD16 4TE,2014-11-07,fhrs_4_en-GB,4,,FHRS,5
359461,,22 Bingley Road,Shipley,,Binns Butchers,Retailers - other,4613,10,,327355,10,,53.83475400000000,65369,404,food.safety@bradford.gov.uk,Bradford,http://www.bradford.gov.uk,-1.79147200000000,BD18 4RS,2014-05-14,fhrs_3_en-GB,3,,FHRS,10
359462,"Units 208 To 209, The Oastler Shopping Centre",John Street,Bradford,,Binns Quality Meats,Retailers - other,4613,5,,324555,0,,53.79638400000000,100156,404,food.safety@bradford.gov.uk,Bradford,http://www.bradford.gov.uk,-1.75789900000000,BD1 3ST,2014-01-13,fhrs_5_en-GB,5,,FHRS,5
359463,,265 Bradford Road,Idle,Bradford,Birchwood Price Tools,Retailers - other,4613,,,326651,,,53.82564200000000,4348,404,food.safety@bradford.gov.uk,Bradford,http://www.bradford.gov.uk,-1.73330200000000,BD10 8EG,2009-12-02,fhrs_exempt_en-GB,Exempt,,FHRS,
359464,Garage,Haincliffe Road,Keighley,,Birchwood Price Tools,Retailers - other,4613,0,,699464,0,,,49423,404,food.safety@bradford.gov.uk,Bradford,http://www.bradford.gov.uk,,BD21 5BZ,2014-09-03,fhrs_5_en-GB,5,,FHRS,0
359465,,826 Great Horton Road,Bradford,,Birds Nest,Takeaway/sandwich shop,7844,10,,325097,5,,53.77720500000000,13968,404,food.safety@bradford.gov.uk,Bradford,http://www.bradford.gov.uk,-1.79178800000000,BD7 4PU,2014-07-24,fhrs_4_en-GB,4,,FHRS,5
359466,,8-10 Staveley Road,Shipley,,Birkleas Nursing Home,Hospitals/Childcare/Caring Premises,5,5,,327834,5,,53.83410300000000,79577,404,food.safety@bradford.gov.uk,Bradford,http://www.bradford.gov.uk,-1.80536400000000,BD18 4HD,2015-02-02,fhrs_5_en-GB,5,,FHRS,0
359467,,Shearbridge Road,Bradford,,Biryani Hut,Restaurant/Cafe/Canteen,1,10,,324599,15,,53.79077400000000,102539,404,food.safety@bradford.gov.uk,Bradford,http://www.bradford.gov.uk,-1.77068200000000,BD7 1NX,2014-04-02,fhrs_2_en-GB,2,,FHRS,10
359468,Ground Floor,78-80 Gladstone Street,Bradford Moor,Bradford,Bismallah Halal Meat Shop,Retailers - other,4613,5,,325006,5,,53.79507600000000,13345,404,food.safety@bradford.gov.uk,Bradford,http://www.bradford.gov.uk,-1.72625500000000,BD3 9NP,2013-04-26,fhrs_4_en-GB,4,,FHRS,10
359469,,4 Whitby Road,Bradford,,Bismallah Roti House,Takeaway/sandwich shop,7844,10,,324803,10,,53.80527200000000,107416,404,food.safety@bradford.gov.uk,Bradford,http://www.bradford.gov.uk,-1.78525600000000,BD8 9JW,2014-01-08,fhrs_3_en-GB,3,,FHRS,10
359470,,153 Hollings Road,Bradford,,Bismillah Food Store,Retailers - other,4613,0,,328270,0,,53.80128900000000,93092,404,food.safety@bradford.gov.uk,Bradford,http://www.bradford.gov.uk,-1.77489100000000,BD8 8PD,2013-06-12,fhrs_5_en-GB,5,,FHRS,0
359471,,78 Gladstone Street,Bradford Moor,Bradford,Bismillah Halal Meat Shop,Retailers - other,4613,10,,516020,10,,53.79507600000000,13348,404,food.safety@bradford.gov.uk,Bradford,http://www.bradford.gov.uk,-1.72625500000000,BD3 9NP,2014-02-03,fhrs_3_en-GB,3,,FHRS,10
359472,,35 St Margarets Road,Bradford,,Bismillah Stores,Retailers - other,4613,10,,324582,10,,53.78970800000000,101692,404,food.safety@bradford.gov.uk,Bradford,http://www.bradford.gov.uk,-1.77745800000000,BD7 2BY,2013-01-13,fhrs_3_en-GB,3,,FHRS,10
359473,,25 High Street,Queensbury,Bradford,Bistro @ 25,Restaurant/Cafe/Canteen,1,20,,325491,5,,53.76808300000000,17130,404,food.safety@bradford.gov.uk,Bradford,http://www.bradford.gov.uk,-1.84596300000000,BD13 2PE,2014-06-03,fhrs_1_en-GB,1,,FHRS,10
359474,,1a Railway Road,Ilkley,,Bistro Saigon,Restaurant/Cafe/Canteen,1,10,,326659,5,,53.92527500000000,43599,404,food.safety@bradford.gov.uk,Bradford,http://www.bradford.gov.uk,-1.82230000000000,LS29 8HQ,2013-11-20,fhrs_4_en-GB,4,,FHRS,5
359475,,7 Green End,Bradford,,Black Bull,Pub/bar/nightclub,7843,5,,328214,0,,53.78399900000000,91638,404,food.safety@bradford.gov.uk,Bradford,http://www.bradford.gov.uk,-1.81922400000000,BD14 6BA,2010-11-03,fhrs_4_en-GB,4,,FHRS,10
359476,,119 Main Street,Haworth,Keighley,Black Bull Hotel,Pub/bar/nightclub,7843,10,,327019,10,,53.83114300000000,53051,404,food.safety@bradford.gov.uk,Bradford,http://www.bradford.gov.uk,-1.95526400000000,BD22 8DP,2014-06-03,fhrs_3_en-GB,3,,FHRS,10
359477,,2 Lockwood Street,Low Moor,Bradford,Black Horse Inn (bar),Pub/bar/nightclub,7843,0,,326041,0,,53.75109200000000,22104,404,food.safety@bradford.gov.uk,Bradford,http://www.bradford.gov.uk,-1.75274600000000,BD12 0LS,2013-02-01,fhrs_5_en-GB,5,,FHRS,5
359478,,72 Blackstone Avenue,Wyke,Bradford,Blackstone Stores,Retailers - other,4613,0,,326382,0,,53.73423300000000,3450,404,food.safety@bradford.gov.uk,Bradford,http://www.bradford.gov.uk,-1.77211100000000,BD12 8SJ,2013-02-08,fhrs_4_en-GB,4,,FHRS,10
359479,,Highfield Road,Idle,Bradford,Blakehill Primary School,School/college/university,7845,0,,325531,0,,53.82911800000000,17420,404,food.safety@bradford.gov.uk,Bradford,http://www.bradford.gov.uk,-1.73631900000000,BD10 8QN,2011-03-22,fhrs_5_en-GB,5,,FHRS,0
359480,,Fagley Road,Bradford,,Blue Pig Inn,Pub/bar/nightclub,7843,0,,324848,0,,53.81174500000000,10846,404,food.safety@bradford.gov.uk,Bradford,http://www.bradford.gov.uk,-1.70918300000000,BD2 3QN,2012-06-06,fhrs_5_en-GB,5,,FHRS,5
359481,,431 Tong Street,Bradford,,Bo Kong,Takeaway/sandwich shop,7844,10,,326419,5,,53.76764100000000,35599,404,food.safety@bradford.gov.uk,Bradford,http://www.bradford.gov.uk,-1.70941100000000,BD4 6LX,2015-01-07,fhrs_4_en-GB,4,,FHRS,5
359482,,Colne Road,Oakworth,Keighley,Board of Governors,School/college/university,7845,0,,326713,0,,53.84518800000000,44656,404,food.safety@bradford.gov.uk,Bradford,http://www.bradford.gov.uk,-1.94801400000000,BD22 7HX,2011-01-13,fhrs_5_en-GB,5,,FHRS,5
359483,,Victoria Road,Saltaire,Shipley,Boathouse Cafe,Restaurant/Cafe/Canteen,1,10,,327871,5,,53.83822100000000,80685,404,food.safety@bradford.gov.uk,Bradford,http://www.bradford.gov.uk,-1.78989000000000,BD18 3LA,2014-06-06,fhrs_4_en-GB,4,,FHRS,5
359484,,27a Leeds Road,Ilkley,,Bobbin and Bee Bakery,Retailers - other,4613,10,,650469,5,,53.92641500000000,217510,404,food.safety@bradford.gov.uk,Bradford,http://www.bradford.gov.uk,-1.82135100000000,LS29 8DP,2014-03-05,fhrs_4_en-GB,4,,FHRS,5
359485,,7 Newhall Road,Bradford,,Bobbins Childcare & Education Centre,Hospitals/Childcare/Caring Premises,5,0,,325304,0,,53.76679000000000,154401,404,food.safety@bradford.gov.uk,Bradford,http://www.bradford.gov.uk,-1.73397800000000,BD4 6AF,2014-02-11,fhrs_5_en-GB,5,,FHRS,0
359486,119 Bocking,Cross Roads,Keighley,,Bocking Working Mens Club (bar),Pub/bar/nightclub,7843,0,,326603,0,,53.83829300000000,42309,404,food.safety@bradford.gov.uk,Bradford,http://www.bradford.gov.uk,-1.92936200000000,BD22 9AP,2013-01-10,fhrs_5_en-GB,5,,FHRS,0
359487,,117 East Parade,Keighley,,Boltmakers Arms,Pub/bar/nightclub,7843,0,,326792,0,,53.86707300000000,47480,404,food.safety@bradford.gov.uk,Bradford,http://www.bradford.gov.uk,-1.90429800000000,BD21 5HX,2013-01-11,fhrs_5_en-GB,5,,FHRS,0
359488,,1025 Bolton Road,Bradford,,Bolton Hotel (bar),Pub/bar/nightclub,7843,0,,326533,0,,53.81096400000000,3889,404,food.safety@bradford.gov.uk,Bradford,http://www.bradford.gov.uk,-1.74525600000000,BD2 4BU,2013-01-22,fhrs_5_en-GB,5,,FHRS,5
359489,,1123 Bolton Road,Bradford,,Bolton Junction Fish & Chips,Takeaway/sandwich shop,7844,5,,326521,5,,53.81707600000000,3800,404,food.safety@bradford.gov.uk,Bradford,http://www.bradford.gov.uk,-1.73293100000000,BD2 4SP,2014-07-31,fhrs_5_en-GB,5,,FHRS,5
359490,Bolton Methodist Church,Bolton Road,Bradford,,Bolton Methodist Church,Other catering premises,7841,0,,326534,5,,53.81541900000000,3891,404,food.safety@bradford.gov.uk,Bradford,http://www.bradford.gov.uk,-1.73582800000000,BD2 4HT,2006-11-29,fhrs_5_en-GB,5,,FHRS,0
359491,,Manningham Lane,Bradford,,Bolton Royd Cafe,School/college/university,7845,5,,326088,0,,53.80790400000000,23105,404,food.safety@bradford.gov.uk,Bradford,http://www.bradford.gov.uk,-1.76553200000000,BD8 7BB,2014-10-02,fhrs_5_en-GB,5,,FHRS,5
359492,,All Alone Road,Bradford,,Bolton Villas Cricket Club (bar),Pub/bar/nightclub,7843,0,,327233,0,,53.82730500000000,605,404,food.safety@bradford.gov.uk,Bradford,http://www.bradford.gov.uk,-1.74152600000000,BD10 8TZ,2013-02-15,fhrs_5_en-GB,5,,FHRS,0
359493,,James Street,Thornton,Bradford,Bonbons Day Nursery,Hospitals/Childcare/Caring Premises,5,5,,325286,10,,53.79152600000000,152679,404,food.safety@bradford.gov.uk,Bradford,http://www.bradford.gov.uk,-1.85503000000000,BD13 3NR,2014-06-09,fhrs_4_en-GB,4,,FHRS,5
359494,"Unit 1, Peel House",2 Taunton Street,Shipley,,Bonbons Day Nursery,Other catering premises,7841,5,,327839,5,,53.83462200000000,79942,404,food.safety@bradford.gov.uk,Bradford,http://www.bradford.gov.uk,-1.78284200000000,BD18 3NA,2014-05-21,fhrs_5_en-GB,5,,FHRS,0
359495,,7 Fellwood Avenue,Haworth,Keighley,Boo Make n Bake,Retailers - other,4613,0,,697082,0,,53.83568400000000,222603,404,food.safety@bradford.gov.uk,Bradford,http://www.bradford.gov.uk,-1.93951700000000,BD22 9ES,2014-08-29,fhrs_5_en-GB,5,,FHRS,0
359496,,Whitefield Place,Bradford,,Boots,Retailers - other,4613,,,325709,,,53.80112000000000,188233,404,food.safety@bradford.gov.uk,Bradford,http://www.bradford.gov.uk,-1.78555100000000,BD8 9LB,2009-12-30,fhrs_exempt_en-GB,Exempt,,FHRS,
359497,,37-39 Brook Street,Ilkley,,Boots,Retailers - other,4613,,,326669,,,53.92584400000000,43625,404,food.safety@bradford.gov.uk,Bradford,http://www.bradford.gov.uk,-1.82376000000000,LS29 8AG,2000-11-27,fhrs_exempt_en-GB,Exempt,,FHRS,
359498,,147 Main Street,Bingley,,Boots,Retailers - other,4613,,,327667,,,53.84717400000000,74246,404,food.safety@bradford.gov.uk,Bradford,http://www.bradford.gov.uk,-1.83705500000000,BD16 1AJ,2001-11-23,fhrs_exempt_en-GB,Exempt,,FHRS,
359499,,37 Market Square,Shipley,,Boots,Retailers - other,4613,,,327695,,,53.83330100000000,74685,404,food.safety@bradford.gov.uk,Bradford,http://www.bradford.gov.uk,-1.77785000000000,BD18 3QJ,2004-09-23,fhrs_exempt_en-GB,Exempt,,FHRS,
359500,,11 Darley Street,Bradford,,Boots,Retailers - other,4613,,,328099,,,53.79472600000000,88346,404,food.safety@bradford.gov.uk,Bradford,http://www.bradford.gov.uk,-1.75563200000000,BD1 3LE,2004-01-23,fhrs_exempt_en-GB,Exempt,,FHRS,
359501,3 New Line Retail Park,New Line,Greengates,Bradford,Boots,Retailers - other,4613,,,325682,,,53.83160100000000,185612,404,food.safety@bradford.gov.uk,Bradford,http://www.bradford.gov.uk,-1.71375600000000,BD10 9AP,2009-10-21,fhrs_exempt_en-GB,Exempt,,FHRS,
359502,Queensway,Airedale Shopping Centre,Keighley,,Boots,Retailers - other,4613,,,327134,,,53.86688700000000,56991,404,food.safety@bradford.gov.uk,Bradford,http://www.bradford.gov.uk,-1.90796400000000,BD21 3PY,2001-04-25,fhrs_exempt_en-GB,Exempt,,FHRS,
359503,,34 Heights Lane,Bradford,,Boots Pharmacy,Retailers - other,4613,,,328247,,,53.81438400000000,92654,404,food.safety@bradford.gov.uk,Bradford,http://www.bradford.gov.uk,-1.80531800000000,BD9 6JB,2001-06-26,fhrs_exempt_en-GB,Exempt,,FHRS,
359504,,43-45 Beckside Road,Bradford,,Boots Pharmacy,Retailers - other,4613,,,326112,,,53.78587900000000,2396,404,food.safety@bradford.gov.uk,Bradford,http://www.bradford.gov.uk,-1.78738900000000,BD7 2JN,2004-10-08,fhrs_exempt_en-GB,Exempt,,FHRS,
359505,,48 Ashbourne Road,Keighley,,Boots Pharmacy,Retailers - other,4613,,,326583,,,53.85572500000000,41139,404,food.safety@bradford.gov.uk,Bradford,http://www.bradford.gov.uk,-1.92107700000000,BD21 1LA,2006-11-13,fhrs_exempt_en-GB,Exempt,,FHRS,
359506,,845 Barkerend Road,Bradford,,Boots Pharmacy,Retailers - other,4613,,,325777,,,53.79830300000000,1948,404,food.safety@bradford.gov.uk,Bradford,http://www.bradford.gov.uk,-1.72230200000000,BD3 8QJ,2009-12-02,fhrs_exempt_en-GB,Exempt,,FHRS,
359507,"Unit 3, Forster Square Retail Park",5 Valley Road,Bradford,,Boots Pharmacy,Retailers - other,4613,,,328158,,,53.79855000000000,90359,404,food.safety@bradford.gov.uk,Bradford,http://www.bradford.gov.uk,-1.75322600000000,BD1 4AG,2005-01-05,fhrs_exempt_en-GB,Exempt,,FHRS,
359508,,23 Bank Street,Bradford,,Boots PLC,Retailers - other,4613,,,327974,,,53.79375000000000,84523,404,food.safety@bradford.gov.uk,Bradford,http://www.bradford.gov.uk,-1.75305700000000,BD1 1PU,2000-02-02,fhrs_exempt_en-GB,Exempt,,FHRS,
359509,Unit 5,Roydsdale Way,Euroway Industrial Estate,Bradford,Borg Warner Turbo Systems,Restaurant/Cafe/Canteen,1,5,,326273,5,,53.75364900000000,30440,404,food.safety@bradford.gov.uk,Bradford,http://www.bradford.gov.uk,-1.73774700000000,BD4 6SE,2013-07-23,fhrs_5_en-GB,5,,FHRS,5
359510,,5-7 Bow Street,Keighley,,Bow Street Cafe,Restaurant/Cafe/Canteen,1,10,,326616,5,,53.86756200000000,42625,404,food.safety@bradford.gov.uk,Bradford,http://www.bradford.gov.uk,-1.90882900000000,BD21 3PB,2014-04-15,fhrs_3_en-GB,3,,FHRS,10
359511,,112 Hall Lane,Bradford,,Bowling Hotel,Pub/bar/nightclub,7843,0,,324845,0,,53.78549000000000,108405,404,food.safety@bradford.gov.uk,Bradford,http://www.bradford.gov.uk,-1.74431800000000,BD4 7DF,2011-11-14,fhrs_4_en-GB,4,,FHRS,10
359512,,369 Bowling Hall Road,Bradford,,Bowling News Hot Food Trailer,Takeaway/sandwich shop,7844,10,,324885,10,,53.77463200000000,111616,404,food.safety@bradford.gov.uk,Bradford,http://www.bradford.gov.uk,-1.73204700000000,BD4 7SX,2014-01-16,fhrs_3_en-GB,3,,FHRS,10
359513,,Usher Street,Bowling,Bradford,Bowling Park Primary School,School/college/university,7845,0,,324744,0,,53.78558100000000,105667,404,food.safety@bradford.gov.uk,Bradford,http://www.bradford.gov.uk,-1.74079600000000,BD4 7DS,2012-02-22,fhrs_5_en-GB,5,,FHRS,5
359514,,New Cross Street,West Bowling,Bradford,Bowling Park Primary School,School/college/university,7845,0,,328478,0,,53.77630600000000,98074,404,food.safety@bradford.gov.uk,Bradford,http://www.bradford.gov.uk,-1.74966900000000,BD5 8BT,2012-02-22,fhrs_5_en-GB,5,,FHRS,5
359515,,Flockton Road,Bradford,,Bowling Swimming Pool,Retailers - other,4613,,,324909,,,53.77807300000000,12031,404,food.safety@bradford.gov.uk,Bradford,http://www.bradford.gov.uk,-1.73533400000000,BD4 7RH,2009-12-02,fhrs_exempt_en-GB,Exempt,,FHRS,
359516,,63 Norwood Avenue,Shipley,,"Boxer Games, Norwood Works",Retailers - other,4613,,,325471,,,53.82496700000000,168755,404,food.safety@bradford.gov.uk,Bradford,http://www.bradford.gov.uk,-1.77678500000000,BD18 2AX,2009-10-20,fhrs_exempt_en-GB,Exempt,,FHRS,
359517,,60 Westgate,Bradford,,Boy And Barrel (bar),Pub/bar/nightclub,7843,0,,324778,0,,53.79518700000000,106996,404,food.safety@bradford.gov.uk,Bradford,http://www.bradford.gov.uk,-1.75684400000000,BD1 2QR,2013-02-27,fhrs_4_en-GB,4,,FHRS,10
359518,,82 Boynton Street,Bradford,,Boynton Video Shop,Retailers - other,4613,,,327994,,,53.77634200000000,85357,404,food.safety@bradford.gov.uk,Bradford,http://www.bradford.gov.uk,-1.75834800000000,BD5 7BS,2009-12-02,fhrs_exempt_en-GB,Exempt,,FHRS,
359519,,52 Bracken Bank Grove,Keighley,,Bracken Arms (bar),Pub/bar/nightclub,7843,0,,326618,0,,53.85063200000000,42757,404,food.safety@bradford.gov.uk,Bradford,http://www.bradford.gov.uk,-1.92704600000000,BD22 7AD,2013-01-11,fhrs_5_en-GB,5,,FHRS,0
359520,,10 Central Drive,Keighley,,Bracken Bank Chippy,Takeaway/sandwich shop,7844,5,,326708,5,,53.84954500000000,44564,404,food.safety@bradford.gov.uk,Bradford,http://www.bradford.gov.uk,-1.92710800000000,BD22 7AE,2014-03-14,fhrs_4_en-GB,4,,FHRS,10
359521,,6-8 Central Drive,Keighley,,Bracken Bank Post Office,Retailers - other,4613,5,,326709,0,,53.84954500000000,44568,404,food.safety@bradford.gov.uk,Bradford,http://www.bradford.gov.uk,-1.92710800000000,BD22 7AE,2013-01-11,fhrs_5_en-GB,5,,FHRS,0
359522,,1-5 Opal Street,Keighley,,Bracken Bank Stores,Retailers - other,4613,0,,327106,0,,53.85337100000000,55757,404,food.safety@bradford.gov.uk,Bradford,http://www.bradford.gov.uk,-1.92318000000000,BD22 7BP,2012-06-07,fhrs_5_en-GB,5,,FHRS,0
359523,,Skipton Road,Addingham,,Bracken Ghyll Golf Club - Bar,Pub/bar/nightclub,7843,0,,547059,0,,53.94946700000000,215279,404,food.safety@bradford.gov.uk,Bradford,http://www.bradford.gov.uk,-1.89678100000000,LS29 0SL,2013-04-29,fhrs_5_en-GB,5,,FHRS,5
