,businessname,ratingvalue,structural,hygiene,confidenceinmanagement,ratingdate,latitude,longitude
359123,10 The Coffee House,5,0,0,0,2013-08-15,53.82956,-1.954445
359124,147 Cabaret Bar (Bar Only),5,5,0,0,2014-02-03,53.793176,-1.716871
359125,1875,5,0,0,0,2014-02-07,53.891463,-1.734573
359126,2 Dine 4,5,0,0,0,2013-11-21,53.856243,-1.83103
359127,2 In 1 Diner,1,15,10,20,2014-01-27,53.796254,-1.759904
359128,2001 Video,4,10,0,5,2012-08-20,53.797894,-1.720361
359129,211 The Deli,5,0,0,5,2013-12-03,53.835778,-1.796466
359130,A & J Off Licence & Post Office,4,0,0,10,2013-01-09,53.758489,-1.795702
359131,A & S Minimarket,3,10,5,10,2014-06-05,53.806075,-1.786968
359132,A B Sea Take Away,5,5,5,5,2014-08-14,53.808837,-1.730205
359133,A J Pickup And Son,5,5,0,5,2014-01-13,53.796384,-1.757899
359134,A Snowden,5,0,0,0,2012-07-02,53.835241,-1.934974
359135,A Trail Of Crumbs - Cakes,5,0,5,5,2014-04-15,,
359136,AA Fruit & Veg,5,5,0,0,2013-08-23,,
359137,Aagrah Food Court,5,5,5,5,2014-06-13,53.83525,-1.782079
359138,Aagrah Ilkley,5,5,5,5,2013-09-25,53.925604,-1.825634
359139,Aagrah Restaurant,5,5,5,5,2014-05-30,53.83525,-1.782079
359140,Aahil Halal Meat,3,10,5,10,2013-10-22,53.783226,-1.781574
359141,Abaseem,3,5,10,10,2014-06-03,53.799909,-1.787348
359142,Abbey Court Luncheon Club,5,0,0,0,2009-12-15,53.799207,-1.767281
359143,Abbey Green Nursery School & Childrens Centre,5,0,0,0,2014-06-13,53.802073,-1.766415
359144,Abbey Lodge Hotel,1,0,10,20,2014-09-18,53.833397,-1.781435
359145,Abbeydale Rest Home,5,0,0,0,2014-01-10,53.923742,-1.844173
359146,Abbeyfield House,Exempt,nan,nan,nan,2013-06-03,53.813303,-1.778305
359147,Abduls,1,5,10,20,2014-02-11,53.856307,-1.917777
359148,Aberdeen News & Off Licence,5,5,0,0,2013-02-11,53.78082,-1.809449
359149,ABS Fast Food,3,10,10,10,2013-03-19,53.848317,-1.837978
359150,Abubakar Food Store,4,10,0,10,2012-06-12,53.791185,-1.779089
359151,Accent Training Centre,4,10,0,10,2013-08-07,53.796199,-1.742097
359152,Acorn Inn,3,10,10,10,2014-09-04,53.862479,-1.811846
359153,Acorn Mobility Services,4,10,5,0,2013-01-08,53.899951,-1.949636
359154,Acorn Nursing Home,4,5,10,5,2014-11-21,53.784458,-1.767378
359155,Acorns in Eldwick,4,0,5,10,2014-12-15,53.854405,-1.815668
359156,Acres,Exempt,nan,nan,nan,2014-01-07,53.768564,-1.795274
359157,Acw Garden Centre,5,0,0,0,2012-09-12,53.811488,-1.759559
359158,Adaab Balti Rest & Take Away,5,5,5,5,2014-09-09,53.834775,-1.778252
359159,Adam Spices,1,10,10,20,2014-01-06,53.796686,-1.823025
359160,Adams Cafe,1,5,5,20,2014-08-19,53.870144,-1.900869
359161,Adams Cafe,4,5,5,10,2014-02-06,53.865494,-1.907662
359162,Adams News,Exempt,nan,nan,nan,2007-04-17,53.832886,-1.777229
359163,Addingham Cricket Club,4,0,0,10,2008-04-09,53.941996,-1.875594
359164,Addingham Post Office,5,0,0,0,2015-02-03,53.944399,-1.88849
359165,Addingham Preschool Playgroup,5,5,0,5,2014-06-04,53.944502,-1.882107
359166,Addingham Primary School,5,5,0,0,2014-11-18,53.944502,-1.882107
359167,Addingham Sandwich Shop,5,5,5,0,2014-01-09,53.943692,-1.881439
359168,Addingham Social Club,5,5,5,0,2014-06-16,53.943692,-1.881439
359169,Adeel Balti & Pizza Bar,3,10,10,10,2014-12-17,53.80633,-1.722962
359170,Adeels Spice,4,10,5,5,2013-10-24,53.770554,-1.709664
359171,ADR Off-Licence,4,10,0,0,2013-10-17,53.768038,-1.808794
359172,Afsar's News,3,5,10,10,2014-10-20,53.788391,-1.779453
359173,AGA Foods,5,0,0,5,2015-01-20,53.785966,-1.757473
359174,Agape House,5,5,0,5,2014-11-10,53.824686,-1.735769
359175,"Age UK Bradford & District, Keighley Over 50's Project",1,0,10,20,2014-01-20,53.864812,-1.908394
359176,Agrani Restaurant,4,10,5,5,2013-10-15,53.865767,-1.911524
359177,Ahmed Foods,4,10,0,5,2013-08-13,53.797782,-1.711147
359178,Ahmeds Food Store,1,5,5,20,2013-09-10,53.868395,-1.916674
359179,Ahmeds Newsagents,5,0,5,0,2014-12-03,53.789381,-1.785352
359180,Ahsan General Food Store,3,10,10,10,2012-12-30,53.788476,-1.758309
359181,Ailyia Food,4,10,0,5,2014-11-10,53.796384,-1.757899
359182,Aire Valley Court Restuarant,5,5,5,5,2014-03-19,53.84376,-1.838406
359183,Aire View Infant School,5,0,0,0,2013-01-17,53.912538,-1.939223
359184,Aire View Stores LTD,5,0,0,5,2013-01-17,53.912629,-1.941172
359185,Airedale General Hospital,4,5,5,10,2014-07-31,53.898024,-1.962711
359186,Airedale Heifer,5,5,5,5,2015-01-08,53.868183,-1.862415
359187,Airedale New Venture,5,5,5,5,2011-07-26,53.898024,-1.962711
359188,Aireworth Chemist,Exempt,nan,nan,nan,2014-03-03,53.874342,-1.8907
359189,Aitches Guest House,5,0,5,0,2012-10-11,53.831934,-1.957026
359190,AJs Fish & Chips,4,5,5,10,2014-07-25,53.79072,-1.850312
359191,AJ's Fisheries,5,5,0,0,2014-02-06,53.763612,-1.76144
359192,AJ's General Store,4,10,0,5,2013-01-10,53.802828,-1.744561
359193,Akas Checkout,2,15,5,10,2014-10-27,53.803696,-1.742931
359194,Akbars General Store,5,0,5,0,2012-02-21,53.777707,-1.75787
359195,Akbars Restaurant,3,10,10,10,2014-12-18,53.794672,-1.714766
359196,Aktiv Bodz,5,0,0,0,2013-08-30,53.79683,-1.755923
359197,Al Falah Supermarket,1,10,5,20,2013-05-20,53.804303,-1.762272
359198,Al Fe's Chinese Takeaway & Restaurant,3,10,10,5,2011-09-08,53.864831,-1.910371
359199,Al Habib,3,10,10,10,2014-05-20,53.86701,-1.858298
359200,Al Halal Supermarket,3,10,10,5,2014-10-27,53.790465,-1.773689
359201,Al Mobeens Pizza,5,5,5,5,2015-01-09,53.788566,-1.787056
359202,Al Qaza Shisha Lounge,4,5,5,10,2012-11-15,53.798677,-1.791621
359203,Al Sahara,4,0,5,10,2014-08-26,53.805506,-1.790721
359204,Albert Hotel,4,0,0,10,2009-06-03,53.865272,-1.911525
359205,Albion Inn,5,5,0,0,2013-01-04,53.832494,-1.715193
359206,Aldersgate Methodist Church,5,5,5,5,2004-12-31,53.756709,-1.761206
359207,Aldi,5,0,0,0,2013-07-24,53.835113,-1.771367
359208,Aldi,5,5,0,5,2013-07-30,53.801837,-1.75222
359209,Aldi,5,0,5,5,2013-10-21,53.865958,-1.902887
359210,Alfresgo,5,0,5,0,2013-07-30,53.790875,-1.716947
359211,Alhambra Restaurant,5,5,5,5,2014-01-17,53.791637,-1.757274
359212,Ali Fresh Fruit & Veg,5,5,5,5,2014-03-06,,
359213,Ali News,3,10,10,5,2013-09-25,53.800504,-1.768519
359214,Alif Baa Childcare,3,10,10,10,2014-11-24,53.790887,-1.75954
359215,Alifs Self Service,2,15,0,5,2012-01-19,53.82758,-1.770968
359216,Ali's Fruit and Veg,5,5,0,0,2013-08-23,,
359217,Ali's Spice,2,15,10,10,2014-06-10,53.912602,-1.751124
359218,All Caked Out,5,0,5,0,2014-05-09,,
359219,All Saints C of E Primary School,5,0,0,0,2012-10-17,53.784939,-1.765053
359220,All Saints Parish Church,Exempt,nan,nan,nan,2012-11-16,53.869446,-1.916216
359221,All Saints Primary School,5,0,0,0,2011-03-28,53.927396,-1.834596
359222,Allan Waite Butchers,5,0,5,5,2014-01-14,53.786862,-1.718841
359223,Allerton Catholic Social Club,5,5,5,0,2013-02-11,53.80407,-1.819578
359224,Allerton Conservative Club,5,0,5,0,2010-03-19,53.803602,-1.819109
359225,Allerton Fisheries,5,5,5,0,2013-05-28,53.803602,-1.819109
359226,Allerton Fried Chicken & Pizza,1,15,15,20,2014-09-08,53.79626,-1.81407
359227,Allerton Mini Market,5,5,5,0,2014-12-01,53.805537,-1.827513
359228,Allerton Park Care Home,3,10,5,10,2014-05-01,53.799155,-1.814832
359229,Allerton Primary School,5,5,0,0,2014-02-06,53.804684,-1.821914
359230,Alliance Pharmacy,Exempt,nan,nan,nan,2005-11-08,53.784204,-1.795608
359231,Alliance Pharmacy,Exempt,nan,nan,nan,2009-12-02,53.8035,-1.765405
359232,Alliance Pharmacy,Exempt,nan,nan,nan,2014-08-01,53.81618,-1.815911
359233,Alliance Pharmacy,Exempt,nan,nan,nan,2009-12-02,53.785966,-1.757473
359234,Alma Hotel (bar),4,10,0,0,2013-02-20,53.836485,-1.760434
359235,Al-Noor 99p Store,1,15,15,20,2014-04-17,53.786296,-1.774425
359236,Al-Noor Bakery,3,10,10,10,2014-11-18,53.787014,-1.788476
359237,Alpa Local Convenience Stores,4,10,5,5,2014-11-10,53.817995,-1.710674
359238,Alphabet Zoo,3,10,10,10,2014-06-06,53.797986,-1.792717
359239,Amaan Brothers Deghi Style,1,15,15,20,2014-03-05,53.803696,-1.742931
359240,Amaan Foods,1,20,0,20,2013-09-25,53.799837,-1.713744
359241,Amaan's Fast Foods Ltd,3,10,10,5,2013-10-30,53.779729,-1.785902
359242,Amaans Grill House,0,15,15,30,2014-09-30,53.792935,-1.772644
359243,Amaans Grill House,1,10,10,20,2014-10-13,53.779632,-1.75408
359244,Amalgamated Engineering (Kly) Social Club (bar),5,5,0,0,2013-01-24,53.867025,-1.911567
359245,Amano's,3,10,10,10,2014-10-15,53.849612,-1.839006
359246,Amano's Pizza,3,10,5,10,2014-08-12,53.755877,-1.767641
359247,Amar Halal Meat,4,10,0,5,2012-03-05,53.786527,-1.787856
359248,Amas Foods,1,20,10,20,2013-09-25,53.799464,-1.715371
359249,Ambala Restaurant,5,0,5,5,2014-10-14,53.787425,-1.772613
359250,Ambrozja Forest Bar & Restaurant,1,15,10,20,2014-06-20,53.794345,-1.758093
359251,Amici Ristorante,5,5,5,5,2015-01-22,53.866696,-1.904877
359252,Amir Candy and Sweets,Exempt,nan,nan,nan,2014-05-02,53.794143,-1.723012
359253,Amman Halal Meat,1,10,10,20,2015-01-12,53.795392,-1.715065
359254,Anams Restaurant Ltd,5,5,0,5,2014-10-01,53.787425,-1.772613
359255,Anchor Sheltered Housing,5,0,0,0,2009-10-20,53.833712,-1.792024
359256,Ancient Forresters Arms Inn,5,0,0,0,2013-07-17,53.766927,-1.774407
359257,Andy's Club Grub,5,0,0,0,2014-07-02,53.827785,-1.900832
359258,Angel Bakes,4,0,5,10,2014-08-18,,
359259,Angel Hotel,5,5,5,0,2014-03-18,53.853365,-1.765674
359260,Angelic Preserves,4,0,0,10,2014-06-09,,
359261,Angie's Pantry,5,5,0,5,2014-01-06,53.786593,-1.7152
359262,Ania's Minimarket,5,0,0,0,2014-03-14,53.819096,-1.716529
359263,Anita's Eaters,5,0,0,0,2014-01-27,53.866869,-1.90699
359264,Anmol Take Away,2,15,10,10,2014-11-24,53.82988,-1.829723
359265,Ann Summers Ltd,Exempt,nan,nan,nan,2014-02-10,53.794726,-1.755632
359266,Ann's Farmhouse,5,0,0,5,2010-05-12,53.791029,-1.877315
359267,Apetito Ltd,5,0,0,0,2014-06-06,53.770041,-1.767275
359268,Apna General Store,5,0,0,5,2013-01-09,53.794214,-1.722572
359269,Apna Khana,5,5,5,5,2013-09-12,53.791991,-1.737508
359270,Apni Dokaan,3,10,10,10,2013-12-16,53.809904,-1.777624
359271,Apothecary Tea Rooms,5,5,0,0,2014-02-14,53.831143,-1.955264
359272,Apperley Lodge Day Nursery,5,5,5,5,2014-05-12,53.83575,-1.72362
359273,Appetisers,3,10,5,10,2014-05-06,53.808501,-1.776827
359274,Applegarth,5,0,0,0,2008-04-22,53.879711,-1.884434
359275,Appleton Academy,5,0,0,0,2012-11-06,53.742591,-1.771672
359276,Appleton Academy,5,5,0,0,2011-12-09,53.742573,-1.771626
359277,Appleton Cafe,3,5,10,10,2015-01-19,,
359278,Arcadian Newsagent,5,0,5,0,2014-12-02,53.791185,-1.779089
359279,Arden News,Exempt,nan,nan,nan,2013-06-25,53.867562,-1.908829
359280,Are-Jay-Bargie Canal Boat Cafe,4,5,10,5,2014-07-24,,
359281,Arena & Sin,5,5,0,0,2009-12-02,53.790598,-1.758722
359282,Argos,Exempt,nan,nan,nan,2009-12-02,53.800864,-1.755323
359283,Argos Ltd,Exempt,nan,nan,nan,2003-10-08,53.866556,-1.90877
359284,Ariya Restaurant & Bar,1,15,10,20,2014-07-03,53.791533,-1.758944
359285,Ark Day Nursery,5,5,5,5,2014-08-26,53.759792,-1.785078
359286,Arkle Filling Station,5,0,0,0,2013-01-09,53.797234,-1.7345
359287,Arkle Spar,5,0,0,0,2014-02-28,53.797234,-1.7345
359288,Arome,4,0,10,10,2014-10-21,53.799317,-1.787959
359289,Arome Steak Bar,1,10,10,20,2014-03-20,53.797577,-1.711968
359290,Arome's,1,5,10,20,2014-10-23,53.789229,-1.761826
359291,Aroush Cafe,4,10,5,0,2014-08-01,53.869513,-1.90995
359292,Arshad Halal Meat,5,0,0,0,2012-04-23,53.801295,-1.768788
359293,AS Grocers,4,10,5,5,2014-06-10,53.787503,-1.744472
359294,Asa Nicholsons and Sons,4,5,5,10,2014-03-25,53.787902,-1.886886
359295,Asda,5,0,0,0,2011-03-29,53.869013,-1.902013
359296,Asda,5,5,0,0,2010-11-08,53.832314,-1.778888
359297,Asda,5,0,5,5,2009-12-02,53.831601,-1.713756
359298,Asda,5,0,5,0,2014-01-15,53.737704,-1.768166
359299,Asda,5,0,5,0,2014-01-13,53.7812,-1.769824
359300,Asda Customer Cafe,4,0,10,10,2012-12-07,53.869013,-1.902013
359301,Asda Living,Exempt,nan,nan,nan,2015-01-07,53.795287,-1.748797
359302,Asda Superstore,5,5,5,0,2014-04-25,53.772413,-1.732092
359303,Ashcroft Care Home,3,5,10,10,2014-11-17,53.808705,-1.727639
359304,Ashfaq Hussain,5,5,0,5,2012-11-02,,
359305,Ashfield House Day Nursery,5,0,0,5,2014-03-13,53.820677,-1.72384
359306,Ashgrove General Store and Off Licence,3,10,10,5,2014-10-13,53.789458,-1.763904
359307,Ashlands Primary School,4,5,5,10,2014-09-17,53.92821,-1.813653
359308,Ashmoor Day Nursery,5,0,5,5,2013-12-02,53.831325,-1.799071
359309,Ashmount,4,5,5,10,2014-06-10,53.834179,-1.951523
359310,Ashs Ryecroft Store,5,0,0,0,2013-07-17,53.772888,-1.701121
359311,Ashville Care Home,3,10,5,10,2014-12-11,53.840441,-1.731233
359312,Asia Superstore,1,15,15,20,2013-08-29,53.804037,-1.783197
359313,Assura Pharmacy Ltd,Exempt,nan,nan,nan,2009-11-27,53.768644,-1.84945
359314,Assura Pharmacy Ltd,Exempt,nan,nan,nan,2009-12-30,53.779192,-1.81454
359315,Ataha Food Store,1,10,5,20,2013-07-03,53.860313,-1.913588
359316,Athenium Coffee House,5,5,0,5,2014-01-16,53.794726,-1.755632
359317,Atique Food Stores,5,0,0,0,2014-09-15,53.773598,-1.757135
359318,Atlas Community Primary School,5,0,0,0,2014-02-07,53.802215,-1.770377
359319,Atrium Coffee Bar,5,0,0,0,2007-12-11,53.79171,-1.762146
359320,Atticus Coffee House & Dessert Bar,5,5,5,5,2014-07-11,53.834872,-1.79211
359321,Attock Halal Meat,1,0,0,20,2014-10-20,53.774134,-1.755266
359322,Attock Sweet Centre,3,10,10,10,2013-11-13,53.802699,-1.778983
359323,Atwal News,5,5,5,0,2013-02-13,53.790661,-1.853212
359324,Avalons,5,0,0,0,2014-03-05,53.926421,-1.825097
359325,Avanti Coffee House,5,0,0,5,2014-10-03,53.924928,-1.824357
359326,Awami Express,2,10,15,10,2014-08-12,53.801048,-1.761638
359327,Awami Foods,1,15,10,20,2013-10-14,53.774029,-1.766085
359328,Awan's Spices,1,5,15,20,2014-11-18,53.819749,-1.774215
359329,Azeem Restaurant Ltd,5,0,0,0,2012-03-26,53.863537,-1.911255
359330,Aziz Halal Meat,5,5,5,5,2013-09-02,53.787043,-1.790024
359331,B - Roti House,4,10,5,5,2014-11-06,53.866455,-1.919278
359332,B & M,5,0,0,0,2014-09-17,53.795948,-1.755488
359333,B & M,Exempt,nan,nan,nan,2013-06-21,,
359334,B and U Fisheries,3,10,10,10,2014-09-09,53.789794,-1.761368
359335,B J Richardson,5,0,0,0,2014-09-17,,
359336,B R News and Off Licence,4,0,10,0,2013-01-13,53.779511,-1.800062
359337,B Sanderson,5,0,5,0,2007-01-17,,
359338,B4 Takeaway,3,10,5,10,2014-05-27,53.805705,-1.771755
359339,Baba Roti House,1,15,5,20,2014-11-07,53.782743,-1.782609
359340,Babs Diner,4,0,5,10,2014-10-20,53.764404,-1.732006
359341,Babylon Pizza Balti Takeaway,0,20,15,20,2014-02-25,53.783978,-1.75624
359342,Bagel Van,5,5,5,5,2014-04-24,,
359343,Baguettes,5,0,5,5,2014-04-03,53.738711,-1.768342
359344,Baildon A P W Association,Exempt,nan,nan,nan,2014-03-10,53.855308,-1.761771
359345,Baildon CE Primary School,5,5,0,0,2011-05-06,53.854381,-1.752472
359346,Baildon Community Link,5,0,0,0,2012-05-05,53.848205,-1.769715
359347,Baildon Golf Club  (bar only),5,0,0,0,2014-07-01,53.856169,-1.769945
359348,Baildon Golf Club Catering,4,0,5,10,2014-07-01,53.856169,-1.769945
359349,Baildon Green Convenience Store,5,0,5,5,2014-09-12,53.842862,-1.772434
359350,Baildon House Nursery,5,0,5,5,2014-12-19,53.855297,-1.7748
359351,Baildon Masonic Hall,5,0,5,5,2014-07-01,53.850625,-1.752525
359352,Baildon Recreation Centre,Exempt,nan,nan,nan,2009-12-02,53.838302,-1.775225
359353,Baildon Rugby And Cricket Club,5,0,5,5,2014-10-21,53.854553,-1.761958
359354,Baildon Spice,1,15,5,20,2014-07-15,53.848205,-1.769715
359355,Baildon Stores,4,10,0,5,2014-04-29,53.841148,-1.788447
359356,Baildon Woodbottom WMC,5,5,0,5,2014-02-26,53.837418,-1.773452
359357,Bains Newsagents,5,0,0,0,2012-12-30,53.774558,-1.760832
359358,Bait Box,5,0,5,0,2011-05-27,,
359359,Baked By Lisa,5,0,0,0,2014-08-28,,
359360,Balanga Polish Bar & Restaurant,3,5,10,10,2013-12-20,53.794726,-1.755632
359361,Balti House,5,5,5,5,2014-10-06,53.852702,-1.766392
359362,Balti House,5,0,0,0,2014-06-23,53.868651,-1.910971
359363,Balti Ranch,5,5,5,5,2015-01-13,53.768024,-1.760869
359364,Bamboo Bear,5,5,0,5,2014-08-07,53.768693,-1.713197
359365,Bang Bang Bakery,5,0,0,0,2014-02-19,53.766177,-1.777157
359366,Bangkok Thai Restaurant,4,5,10,5,2015-01-09,53.793847,-1.743781
359367,Banjo's,5,0,0,0,2014-03-13,53.834576,-1.76783
359368,Bank Stores,5,0,0,0,2013-02-15,53.824382,-1.720747
359369,Bank Walk Bake House,5,0,0,0,2011-05-06,,
359370,Bankfield Hotel,3,10,10,10,2013-12-11,53.834668,-1.815906
359371,Bankfoot Cricket Club,5,0,0,0,2012-04-13,53.761712,-1.759797
359372,Bankfoot Primary School,5,5,0,0,2014-01-29,53.773152,-1.763358
359373,Bannie's Snack Bar,5,0,5,5,2014-07-03,,
359374,Banoful Sweet House,2,15,10,10,2014-12-10,53.801205,-1.759572
359375,Bar Tat,5,5,5,5,2014-11-18,53.925847,-1.82647
359376,Bar UBER (bar),5,5,0,0,2013-02-13,53.794657,-1.756968
359377,Bardgetts Fish And Chips,5,5,5,5,2014-06-26,53.859465,-1.910336
359378,Bargain Booze,5,0,0,0,2015-01-31,53.8679,-1.904706
359379,Bargain Foods,5,5,0,5,2013-01-10,53.794298,-1.723877
359380,Bargin Booze,5,0,5,5,2012-12-10,53.836321,-1.788258
359381,Barkerend Butcher,3,5,10,10,2014-08-05,53.797582,-1.733268
359382,Barkerend Fisheries,4,10,0,5,2013-10-25,53.806238,-1.78806
359383,Barkerend Fisheries,4,5,10,5,2014-12-15,53.797582,-1.733268
359384,Barkerend Fisheries,3,10,5,10,2015-01-20,53.803848,-1.742369
359385,Barkerend Primary School,5,5,0,0,2012-11-29,53.797768,-1.736288
359386,Barkerend Road Newsagents,Exempt,nan,nan,nan,2013-01-09,53.797234,-1.7345
359387,Barkers Newsagents,Exempt,nan,nan,nan,2004-08-03,53.793879,-1.754741
359388,Barnes High Class Family Butcher,5,5,0,5,2014-08-18,53.82988,-1.829723
359389,BASF Performance Chemicals,5,0,0,0,2012-03-09,53.750596,-1.760589
359390,Batleys Cash & Carry,5,5,0,0,2010-07-22,53.754378,-1.738227
359391,Baxandalls Cafe,5,5,5,5,2014-06-03,53.794726,-1.755632
359392,Baxter Storey,5,0,0,0,2012-07-04,53.838857,-1.789142
359393,Bay Horse Inn,1,5,10,20,2014-10-23,53.809778,-1.953388
359394,Bbq Express Bradford,4,10,0,5,2014-09-29,53.805829,-1.785527
359395,BBQ Hut,3,10,10,10,2014-11-25,53.806512,-1.719924
359396,BC Buffet Restaurant,4,0,10,10,2013-11-15,53.792448,-1.758074
359397,BDC Foods,1,10,10,20,2014-07-31,,
359398,BDS Store,Exempt,nan,nan,nan,2009-12-02,53.792498,-1.784183
359399,Be Happy Bakery,5,0,0,0,2011-10-07,,
359400,Beacon Road Fisheries,5,5,0,0,2014-07-14,53.768453,-1.788099
359401,Beales,4,10,0,5,2014-04-23,,
359402,Bean Riding,5,5,0,0,2014-03-25,53.766919,-1.850033
359403,BEAP womens lunch club(Wed),1,0,5,20,2014-10-22,53.802481,-1.759231
359404,Beckfield Residential Home,5,0,5,5,2013-12-19,53.811229,-1.751921
359405,Beckfoot School And Hazelbeck Schools,5,0,0,0,2011-11-21,53.841249,-1.829114
359406,Beckside Design Centre,Exempt,nan,nan,nan,2005-09-22,53.898514,-1.950277
359407,Beckside Fisheries,5,0,0,5,2015-01-08,53.828861,-1.821538
359408,Bedale Luncheon Club,5,0,0,0,2011-11-23,53.767999,-1.795914
359409,Beech Stores,4,5,5,10,2014-07-30,53.803107,-1.732352
359410,Beech Stores,5,0,0,0,2013-01-06,53.759875,-1.767058
359411,Beechcliffe Store,3,10,5,10,2014-09-17,53.877298,-1.911074
359412,Beijing City,5,5,0,0,2012-02-02,53.821708,-1.742745
359413,Bell a Pizza,1,10,5,20,2014-04-04,53.798024,-1.827832
359414,Bella Mia,1,15,0,20,2013-11-28,53.83591,-1.789765
359415,Belle Isle Extra Care Services LLP,5,0,0,0,2007-11-21,53.829469,-1.949811
359416,Belle Vue Boys School,3,10,10,10,2014-01-07,53.818637,-1.812513
359417,Belle Vue Girls High School,5,5,0,0,2011-01-14,53.819906,-1.813465
359418,Belly Buster,5,5,5,0,2014-02-11,53.76823,-1.711198
359419,Belmont Mini Market,5,5,0,5,2014-08-06,53.76063,-1.757801
359420,Ben Rhydding Methodist Church,Exempt,nan,nan,nan,2014-03-10,53.923957,-1.795673
359421,Ben Rhydding Primary School,5,0,0,0,2011-05-17,53.924757,-1.801044
359422,Ben Rhydding Sports Club,5,5,0,0,2010-03-10,53.928275,-1.787992
359423,Bengal Tiffin,5,5,0,0,2014-03-21,53.864719,-1.851341
359424,Berries Bagel & Shakes,0,20,15,20,2014-12-12,53.794646,-1.719168
359425,Bert Marshall Bakers,5,0,0,0,2014-01-30,53.739709,-1.768822
359426,Bert Marshall Bakers Ltd,5,5,5,5,2013-12-11,53.765734,-1.775794
359427,Best One,5,5,0,5,2014-04-23,53.82077,-1.725207
359428,Best One Delph Hill Newsagents,5,5,5,0,2013-02-08,53.748091,-1.771445
359429,Best One Express,5,0,5,5,2014-11-13,53.836106,-1.75995
359430,Best One Store,5,0,0,5,2013-01-22,53.814769,-1.738399
359431,Bestway Foods,4,10,0,5,2014-06-23,53.805708,-1.76849
359432,Betty Charles Retail Outlet,4,5,10,5,2012-09-06,53.796254,-1.759904
359433,Bettys Cafe Tea Room,5,5,5,0,2014-05-01,53.924795,-1.825591
359434,Bfd & Bingley Sports Club,4,10,5,5,2014-09-12,53.838856,-1.827939
359435,Bfd Magistrates Court,4,10,5,5,2014-12-17,53.791775,-1.754192
359436,Bharat Bar & Grill,5,5,5,5,2014-10-21,53.784427,-1.779322
359437,Bharat Sweet and Pann House,5,0,0,0,2011-03-24,53.783226,-1.781574
359438,Bhatti Newsagent,5,5,0,5,2013-10-21,53.805708,-1.76849
359439,Biddy's Diner,1,10,0,20,2014-05-16,53.774587,-1.801102
359440,Bierley Court,5,5,0,0,2014-01-13,53.768512,-1.732132
359441,Bierley Fisheries,5,5,0,0,2014-04-07,53.766194,-1.732753
359442,Bierley Mini Market,5,5,0,5,2013-01-08,53.769998,-1.721533
359443,Bierley Superstore and Post Office,5,0,0,5,2013-01-08,53.766747,-1.73055
359444,Big Burger Bar,4,10,0,5,2013-06-28,,
359445,Big Catch,5,5,5,5,2015-02-10,53.926562,-1.823178
359446,Big Geoffs Cafe,5,0,5,5,2014-02-11,53.786627,-1.725991
359447,Big Soup Bistro,5,0,5,5,2014-12-04,53.864592,-1.915267
359448,Bilaluci,5,0,5,5,2014-09-11,53.913203,-1.937913
359449,Bingley Arts Centre,Exempt,nan,nan,nan,2013-12-01,53.847833,-1.839089
359450,Bingley Baptist Church,Exempt,nan,nan,nan,2014-08-13,53.850542,-1.835537
359451,Bingley Baths,Exempt,nan,nan,nan,2009-12-02,53.847213,-1.839365
359452,Bingley Fisheries,3,10,10,10,2014-07-16,53.843683,-1.834226
359453,Bingley Kashmiri Korner,5,5,5,5,2014-03-19,53.85412,-1.83566
359454,Bingley Little Theatre,Exempt,nan,nan,nan,2009-12-02,53.847833,-1.839089
359455,Bingley Masonic Hall,5,5,0,0,2012-05-15,53.851107,-1.834805
359456,Bingley Methodist Church,5,0,0,0,2014-02-12,53.850503,-1.833455
359457,Bingley Newsagent,Exempt,nan,nan,nan,2004-09-23,53.848776,-1.838903
359458,Bingley St Ives Golf Club,5,5,5,5,2014-03-21,53.847239,-1.860675
359459,Bingley Wines,5,0,0,0,2012-06-22,53.843683,-1.834226
359460,Bingley Wingfield Nursing Home,4,5,5,10,2014-11-07,53.85288,-1.829827
359461,Binns Butchers,3,10,10,10,2014-05-14,53.834754,-1.791472
359462,Binns Quality Meats,5,5,0,5,2014-01-13,53.796384,-1.757899
359463,Birchwood Price Tools,Exempt,nan,nan,nan,2009-12-02,53.825642,-1.733302
359464,Birchwood Price Tools,5,0,0,0,2014-09-03,,
359465,Birds Nest,4,5,5,10,2014-07-24,53.777205,-1.791788
359466,Birkleas Nursing Home,5,0,5,5,2015-02-02,53.834103,-1.805364
359467,Biryani Hut,2,10,15,10,2014-04-02,53.790774,-1.770682
359468,Bismallah Halal Meat Shop,4,10,5,5,2013-04-26,53.795076,-1.726255
359469,Bismallah Roti House,3,10,10,10,2014-01-08,53.805272,-1.785256
359470,Bismillah Food Store,5,0,0,0,2013-06-12,53.801289,-1.774891
359471,Bismillah Halal Meat Shop,3,10,10,10,2014-02-03,53.795076,-1.726255
359472,Bismillah Stores,3,10,10,10,2013-01-13,53.789708,-1.777458
359473,Bistro @ 25,1,10,5,20,2014-06-03,53.768083,-1.845963
359474,Bistro Saigon,4,5,5,10,2013-11-20,53.925275,-1.8223
359475,Black Bull,4,10,0,5,2010-11-03,53.783999,-1.819224
359476,Black Bull Hotel,3,10,10,10,2014-06-03,53.831143,-1.955264
359477,Black Horse Inn (bar),5,5,0,0,2013-02-01,53.751092,-1.752746
359478,Blackstone Stores,4,10,0,0,2013-02-08,53.734233,-1.772111
359479,Blakehill Primary School,5,0,0,0,2011-03-22,53.829118,-1.736319
359480,Blue Pig Inn,5,5,0,0,2012-06-06,53.811745,-1.709183
359481,Bo Kong,4,5,5,10,2015-01-07,53.767641,-1.709411
359482,Board of Governors,5,5,0,0,2011-01-13,53.845188,-1.948014
359483,Boathouse Cafe,4,5,5,10,2014-06-06,53.838221,-1.78989
359484,Bobbin and Bee Bakery,4,5,5,10,2014-03-05,53.926415,-1.821351
359485,Bobbins Childcare & Education Centre,5,0,0,0,2014-02-11,53.76679,-1.733978
359486,Bocking Working Mens Club (bar),5,0,0,0,2013-01-10,53.838293,-1.929362
359487,Boltmakers Arms,5,0,0,0,2013-01-11,53.867073,-1.904298
359488,Bolton Hotel (bar),5,5,0,0,2013-01-22,53.810964,-1.745256
359489,Bolton Junction Fish & Chips,5,5,5,5,2014-07-31,53.817076,-1.732931
359490,Bolton Methodist Church,5,0,5,0,2006-11-29,53.815419,-1.735828
359491,Bolton Royd Cafe,5,5,0,5,2014-10-02,53.807904,-1.765532
359492,Bolton Villas Cricket Club (bar),5,0,0,0,2013-02-15,53.827305,-1.741526
359493,Bonbons Day Nursery,4,5,10,5,2014-06-09,53.791526,-1.85503
359494,Bonbons Day Nursery,5,0,5,5,2014-05-21,53.834622,-1.782842
359495,Boo Make n Bake,5,0,0,0,2014-08-29,53.835684,-1.939517
359496,Boots,Exempt,nan,nan,nan,2009-12-30,53.80112,-1.785551
359497,Boots,Exempt,nan,nan,nan,2000-11-27,53.925844,-1.82376
359498,Boots,Exempt,nan,nan,nan,2001-11-23,53.847174,-1.837055
359499,Boots,Exempt,nan,nan,nan,2004-09-23,53.833301,-1.77785
359500,Boots,Exempt,nan,nan,nan,2004-01-23,53.794726,-1.755632
359501,Boots,Exempt,nan,nan,nan,2009-10-21,53.831601,-1.713756
359502,Boots,Exempt,nan,nan,nan,2001-04-25,53.866887,-1.907964
359503,Boots Pharmacy,Exempt,nan,nan,nan,2001-06-26,53.814384,-1.805318
359504,Boots Pharmacy,Exempt,nan,nan,nan,2004-10-08,53.785879,-1.787389
359505,Boots Pharmacy,Exempt,nan,nan,nan,2006-11-13,53.855725,-1.921077
359506,Boots Pharmacy,Exempt,nan,nan,nan,2009-12-02,53.798303,-1.722302
359507,Boots Pharmacy,Exempt,nan,nan,nan,2005-01-05,53.79855,-1.753226
359508,Boots PLC,Exempt,nan,nan,nan,2000-02-02,53.79375,-1.753057
359509,Borg Warner Turbo Systems,5,5,5,5,2013-07-23,53.753649,-1.737747
359510,Bow Street Cafe,3,10,5,10,2014-04-15,53.867562,-1.908829
359511,Bowling Hotel,4,10,0,0,2011-11-14,53.78549,-1.744318
359512,Bowling News Hot Food Trailer,3,10,10,10,2014-01-16,53.774632,-1.732047
359513,Bowling Park Primary School,5,5,0,0,2012-02-22,53.785581,-1.740796
359514,Bowling Park Primary School,5,5,0,0,2012-02-22,53.776306,-1.749669
359515,Bowling Swimming Pool,Exempt,nan,nan,nan,2009-12-02,53.778073,-1.735334
359516,"Boxer Games, Norwood Works",Exempt,nan,nan,nan,2009-10-20,53.824967,-1.776785
359517,Boy And Barrel (bar),4,10,0,0,2013-02-27,53.795187,-1.756844
359518,Boynton Video Shop,Exempt,nan,nan,nan,2009-12-02,53.776342,-1.758348
359519,Bracken Arms (bar),5,0,0,0,2013-01-11,53.850632,-1.927046
359520,Bracken Bank Chippy,4,10,5,5,2014-03-14,53.849545,-1.927108
359521,Bracken Bank Post Office,5,0,0,5,2013-01-11,53.849545,-1.927108
359522,Bracken Bank Stores,5,0,0,0,2012-06-07,53.853371,-1.92318
359523,Bracken Ghyll Golf Club - Bar,5,5,0,0,2013-04-29,53.949467,-1.896781
359524,Bracken Ghyll Golf Club - Catering,5,0,0,5,2014-07-17,53.949467,-1.896781
359525,Bracken Hall Countryside Centre,Exempt,nan,nan,nan,2009-12-02,53.847452,-1.801198
359526,Brackenhill Primary School,5,5,5,5,2014-09-15,53.779043,-1.789563
359527,Bradford Academy,5,0,5,5,2014-01-08,53.776071,-1.732266
359528,Bradford Bridge Club,4,0,0,10,2013-01-15,53.804811,-1.764957
359529,Bradford Bulls Northern Ltd,5,5,0,5,2014-08-21,53.764677,-1.759219
359530,Bradford Catering,2,5,15,10,2014-07-17,53.801372,-1.785656
359531,Bradford City Football Club,3,10,10,10,2014-11-21,53.803587,-1.759498
359532,Bradford City Football Club CIBA 1,4,10,0,5,2014-12-19,53.803587,-1.759498
359533,Bradford City Football Club CIBA 2,5,5,0,5,2014-12-19,53.803587,-1.759498
359534,Bradford City Football Club CIBA 3,4,10,0,5,2014-12-19,53.803587,-1.759498
359535,Bradford City Football Club Dallas,4,10,5,5,2014-12-19,53.803587,-1.759498
359536,Bradford City Football Club Kiosk 1,5,5,0,5,2014-12-19,53.803587,-1.759498
359537,Bradford City Football Club Kiosk 2,4,10,0,5,2014-12-19,53.803587,-1.759498
359538,Bradford City Football Club Kiosk 4,4,10,0,5,2014-12-19,53.803587,-1.759498
359539,Bradford City Football Club Kiosk 5,4,10,0,5,2014-12-19,53.803587,-1.759498
359540,Bradford City Football Club Kiosk 6,4,10,0,5,2014-12-19,53.803587,-1.759498
359541,Bradford City Football Club Kiosk 7,5,5,0,5,2014-12-19,53.803587,-1.759498
359542,Bradford City Football Club Sunwin 1,4,10,0,5,2014-12-19,53.803587,-1.759498
359543,Bradford City Football Club Sunwin 2,5,0,0,5,2014-12-19,53.803587,-1.759498
359544,Bradford City Football Club Upper Sunwin,4,10,0,5,2014-12-19,53.803587,-1.759498
359545,Bradford College,5,5,0,5,2014-02-07,53.791365,-1.760463
359546,Bradford Continental Store,3,10,10,10,2014-09-24,53.79453,-1.735063
359547,Bradford Cyrenians,5,5,0,5,2014-06-23,53.806403,-1.765358
359548,Bradford Day Shelter,5,5,0,0,2011-10-17,53.789781,-1.759288
359549,Bradford Deaf Community Association,5,0,0,0,2010-11-17,53.798557,-1.760969
359550,Bradford District Care Trust,3,10,10,10,2012-12-10,53.807349,-1.776256
359551,Bradford Fisheries,5,5,5,5,2013-12-11,53.796384,-1.757899
359552,Bradford Girls Grammar School,5,5,5,5,2014-12-10,53.803763,-1.796242
359553,Bradford Grammar School,5,0,0,5,2010-10-15,53.814555,-1.769823
359554,Bradford Hotel,2,15,15,0,2012-12-10,53.826632,-1.773388
359555,Bradford Ice Arena,2,10,15,10,2014-02-25,53.790566,-1.756476
359556,Bradford Irish Club Ltd (bar),5,5,0,0,2013-02-24,53.797474,-1.763252
359557,Bradford North Foodbank,5,5,0,0,2015-01-23,53.823805,-1.712486
359558,Bradford Royal Infirmary,5,5,0,0,2013-12-13,53.805891,-1.794895
359559,Bradford Royal Infirmary Staff Diningroom,5,0,0,0,2013-12-13,53.805891,-1.794895
359560,Bradford Sea Cadets,5,5,5,0,2006-03-29,53.792511,-1.740753
359561,Bradford Sports Centre Ltd,5,0,5,5,2011-03-31,53.796716,-1.732104
359562,Bradford Super Choice,3,10,10,10,2014-12-22,53.80463,-1.788402
359563,Bradley's Butchers,5,5,5,5,2014-02-14,53.915981,-1.940284
359564,Braithwaite Peoples Association,4,10,5,5,2014-03-11,53.869085,-1.928169
359565,Branch Hotel,4,10,0,5,2011-04-28,53.828686,-1.780472
359566,Branshaw Golf Club,5,0,5,0,2014-02-01,53.848197,-1.94342
359567,Branwell House Social Club,5,0,0,0,2007-11-14,53.791263,-1.853119
359568,Bread and Putter,1,10,10,20,2014-05-01,53.828671,-1.798035
359569,BRI ENT Tea Bar,5,5,0,5,2014-01-01,53.805891,-1.794895
359570,BRI Orthopaedic Unit Tea Bar,5,5,0,5,2010-09-08,53.805891,-1.794895
359571,Bridge Fisheries,5,0,0,5,2014-03-27,53.911001,-1.938099
359572,Bridge House Nursery,5,5,5,5,2014-09-04,53.895673,-1.948835
359573,Bridge Tavern (bar only),4,10,0,10,2014-01-24,53.783165,-1.754394
359574,Britannia Care Home,5,0,0,5,2013-09-10,53.803551,-1.787876
359575,British Queen (bar),5,5,5,0,2013-02-01,53.756878,-1.765058
359576,Broad Lane Newsagent,5,5,0,0,2012-07-05,53.783294,-1.715101
359577,Bronte Hotel,5,5,5,5,2014-12-11,53.834408,-1.941828
359578,Bronte Park Care Home,4,0,10,10,2014-08-14,53.828651,-1.951119
359579,Bronte Weaving Shed,Exempt,nan,nan,nan,2012-02-21,53.832716,-1.957557
359580,Brookfield Care Home,5,5,0,5,2015-01-21,53.832553,-1.802605
359581,Brookhill Stores,5,0,5,0,2013-02-20,53.849377,-1.762321
359582,Broomfield Prvate Day Nursery,5,0,0,5,2014-01-07,53.777569,-1.829024
359583,Browgate Pharmacy Ltd,Exempt,nan,nan,nan,2000-07-25,53.852702,-1.766392
359584,Brown Cow (Bar only),5,0,0,0,2013-08-19,53.776235,-1.772567
359585,Brown Cow Inn,5,5,5,5,2014-04-30,53.850227,-1.842105
359586,Brown Cow Inn (bar),5,5,0,0,2013-01-15,53.865328,-1.913928
359587,Brown Cow Inn (bar),5,0,5,0,2013-02-01,53.737704,-1.768166
359588,Brunel Support Works,Exempt,nan,nan,nan,2011-06-13,53.77673,-1.773141
359589,Buffet @ Bradford,3,5,10,10,2014-01-10,53.791958,-1.75161
359590,Bulls Head Inn,5,5,0,5,2012-10-26,53.852766,-1.767121
359591,Bulls Head Inn (Bar only),5,5,0,5,2013-05-07,53.780617,-1.784911
359592,Buonissimo Deli,4,5,5,10,2014-05-29,53.835242,-1.792822
359593,Burger Court Care Home,3,10,10,10,2014-05-20,53.797107,-1.742167
359594,Burger King,5,5,0,0,2014-05-02,53.866887,-1.907964
359595,Burger Time,3,10,5,10,2014-06-04,53.790641,-1.762456
359596,Burley And Woodhead Ce Primary,5,0,0,0,2010-09-20,53.906876,-1.746363
359597,Burley Community Luncheon Club,5,5,0,0,2009-02-18,53.913502,-1.74748
359598,Burley Fisheries,5,5,0,5,2014-09-12,53.91326,-1.747725
359599,Burley Hall Nursing Home,4,5,10,5,2014-06-10,53.912949,-1.740876
359600,"Burley Nursery School, The Old Manse",5,0,5,0,2013-11-20,53.912602,-1.751124
359601,Burley Social Club (bar),5,0,0,0,2013-02-19,53.914348,-1.752453
359602,Burley Sports Club,5,0,0,0,2012-05-16,53.912169,-1.750502
359603,Burlington Arms (Bar only),5,0,0,0,2014-03-25,53.864812,-1.908394
359604,Burlingtons Traditional,5,5,5,5,2014-10-31,53.818766,-1.717488
359605,Burnett Fields Family Centre,5,0,0,0,2011-05-06,53.77932,-1.764113
359606,Burton Menswear,Exempt,nan,nan,nan,2014-02-10,53.795324,-1.753685
359607,Busfield Arms,5,5,0,5,2014-10-08,53.873213,-1.851631
359608,Buttered Up Jo's,5,0,5,5,2013-10-18,53.82077,-1.725207
359609,Buttershaw Christian Family Centre,Exempt,nan,nan,nan,2012-03-09,53.76423,-1.799482
359610,Buttershaw Lane Fisheries,5,5,5,5,2014-08-07,53.762777,-1.780588
359611,Buttershaw Lane WMC (bar),5,0,0,0,2013-01-29,53.762777,-1.780588
359612,Buttershaw St Pauls Cricket Club,5,5,5,0,2014-08-27,53.763088,-1.778888
359613,Buzy B's,4,0,10,10,2014-12-17,53.808751,-1.771252
359614,Byron Street Primary School,5,5,0,0,2010-11-22,53.799012,-1.73007
359615,C & L Herd Butchers,4,10,5,5,2014-07-01,53.856307,-1.917777
359616,C and M Catering,3,10,10,10,2014-09-26,,
359617,C12 Eat Brewsters Buffets,5,0,5,0,2011-08-25,,
359618,Caesar's,3,10,10,10,2012-12-12,53.77345,-1.725819
359619,Cafe 16,3,10,10,10,2013-09-04,53.836353,-1.780721
359620,Cafe 2 U Bradford East,5,0,5,0,2010-05-24,,
359621,Cafe 25,5,0,0,0,2014-02-19,53.78332,-1.747017
359622,Cafe 66,4,5,0,10,2014-02-13,53.785716,-1.767371
359623,Cafe 88,5,0,5,5,2014-08-13,53.819019,-1.721861
359624,Cafe Aamir Khan's,4,0,5,10,2014-09-16,53.869694,-1.900004
359625,Cafe Akbars,5,0,5,5,2013-01-03,53.791945,-1.732969
359626,Cafe Bar Twelve,4,5,0,10,2008-07-30,53.854285,-1.766945
359627,Cafe Cake,5,0,0,0,2014-03-24,53.914821,-1.938809
359628,Cafe de Akbar,5,5,5,0,2013-09-30,53.797782,-1.711147
359629,Cafe Delite,5,0,0,5,2014-01-29,53.775192,-1.753894
359630,Cafe East,5,5,5,5,2014-03-17,53.790641,-1.762456
359631,Cafe Incontro,5,5,5,5,2014-05-28,53.866869,-1.90699
359632,Cafe Inspire,4,0,10,10,2014-10-13,53.823805,-1.712487
359633,Cafe into The Opera,5,5,5,5,2014-06-06,53.838221,-1.78989
359634,Cafe Janan,5,5,0,5,2014-12-11,53.791876,-1.773545
359635,Cafe Jo's,5,5,0,5,2014-08-06,53.754656,-1.768437
359636,Cafe Liz,5,0,5,5,2013-10-11,53.795537,-1.806073
359637,Cafe Met,5,0,0,5,2013-09-30,53.790336,-1.75379
359638,Cafe Niche,4,10,0,10,2014-06-06,53.797244,-1.761007
359639,Cafe Oasis,5,0,5,0,2013-04-09,53.832817,-1.778658
359640,Cafe On The Square,5,0,5,5,2014-09-17,53.867939,-1.908433
359641,Cafe Patisserie,3,10,10,10,2014-06-05,53.804397,-1.742836
359642,Cafe Pausa,5,0,0,0,2014-11-05,53.874336,-1.894456
359643,Cafe Plaza,1,10,15,20,2014-12-22,53.800446,-1.712723
359644,Cafe Recon,4,5,10,5,2014-09-01,53.763399,-1.70935
359645,Cafe Regal,4,10,5,5,2013-11-25,53.801236,-1.770488
359646,Cafe Ritazza at Asda,5,0,5,0,2014-04-14,53.795287,-1.748797
359647,Cafe Route 609,5,0,0,5,2014-03-10,53.739945,-1.770034
359648,Cafe Spice,5,5,5,5,2014-12-17,53.772144,-1.819624
359649,Cafe Venue,3,10,10,10,2014-06-18,53.77146,-1.748863
359650,Cafe W,5,0,0,5,2013-09-12,53.794154,-1.752629
359651,Cafe West Healthy Living Centre,1,5,5,20,2014-07-24,53.800988,-1.82035
359652,Cafe Zaika,3,10,10,10,2011-06-02,53.805603,-1.789916
359653,Cafe Zoya,3,10,10,10,2014-03-12,53.792446,-1.731539
359654,Cafe@Ease,4,5,10,5,2009-12-02,53.78918,-1.764468
359655,Caffe Nero,4,10,5,5,2014-05-01,53.925483,-1.823061
359656,Caffe Nero Group,5,0,0,5,2009-11-13,,
359657,Caffe Nico,5,0,5,5,2014-10-03,53.925844,-1.82376
359658,Cairo Zaks,3,10,10,10,2015-01-06,53.800335,-1.769309
359659,Caked In Style,5,0,5,5,2013-10-25,,
359660,Cakes by Design Yorkshire,5,0,5,0,2014-06-16,,
359661,Cakes By Jayne,5,5,0,5,2013-11-08,,
359662,Cakes to Please,5,0,5,0,2014-08-18,53.834172,-1.777739
359663,Cakes With Fantasy,5,0,5,5,2015-01-07,,
359664,Cakins,3,10,10,10,2014-11-12,53.831143,-1.955264
359665,Campanile Bradford Hotel,5,5,0,0,2014-01-29,53.755147,-1.740346
359666,Candia Cafe,5,5,5,5,2014-03-17,53.791185,-1.779089
359667,Candy Corner,Exempt,nan,nan,nan,2000-05-15,53.834172,-1.777739
359668,Candy Hero,Exempt,nan,nan,nan,2014-01-27,53.844624,-1.754323
359669,Candy's Creations,5,0,0,0,2014-06-06,,
359670,Canterbury Nusery School & Centre For Children & Families,5,0,0,5,2013-11-19,53.778859,-1.777302
359671,Canton Girl,5,5,0,5,2014-01-28,53.766773,-1.768916
359672,Cap and Collar Ltd,5,0,5,5,2014-12-10,53.834192,-1.794043
359673,Capital News,Exempt,nan,nan,nan,2007-02-21,53.805844,-1.788943
359674,Capones Pizza Takeaway,3,10,5,10,2014-03-12,53.771387,-1.785474
359675,Card Factory,Exempt,nan,nan,nan,2014-02-10,53.833301,-1.77785
359676,Card Factory,Exempt,nan,nan,nan,2014-02-10,53.925483,-1.823061
359677,Card Factory,Exempt,nan,nan,nan,2014-02-10,53.84711,-1.836721
359678,Cardamon,5,5,0,5,2014-02-18,53.850108,-1.840221
359679,Cardigan House Community Centre,5,0,0,0,2008-06-09,53.84699,-1.834396
359680,Carlisle Cafe,5,5,0,5,2014-07-23,53.805992,-1.771298
359681,Carlton Bolling College,5,0,0,0,2011-11-29,53.802087,-1.73869
359682,Carlton Manor Nursing Home Ltd,4,10,5,5,2014-08-05,53.808773,-1.764039
359683,Carlton Villa,5,0,5,5,2014-01-03,53.813524,-1.732468
359684,Carmine Ltd,4,10,5,5,2005-05-31,53.800643,-1.756918
359685,Carnaud Metal Box,5,0,0,0,2012-04-19,53.833395,-1.775464
359686,Caroline Street Social Club,4,10,0,5,2014-07-01,53.837437,-1.789058
359687,Carr Bottom Convenience Store,2,15,5,10,2014-09-18,53.769492,-1.767081
359688,Carr Wood Primary School,5,5,0,0,2011-02-16,53.781887,-1.705732
359689,Cartwright Hotel,3,10,10,10,2014-12-18,53.809103,-1.767089
359690,Cas Vegas,3,10,5,10,2014-12-22,53.762547,-1.803798
359691,Casa Bella,1,15,15,20,2014-11-25,53.85404,-1.765928
359692,Casa Pizza,2,15,10,10,2014-07-15,53.781544,-1.818278
359693,Caspians,3,10,10,10,2014-02-06,53.790609,-1.759678
359694,Castlefields Cafe,5,0,0,0,2014-10-08,53.861216,-1.85368
359695,Catering Kitchen,4,10,5,5,2014-03-11,53.868691,-1.929524
359696,Cath's Cabin,5,0,0,0,2014-04-09,,
359697,Cavendish Hotel,1,10,5,20,2014-06-19,53.868216,-1.906044
359698,Cavendish Lodge Nursery,5,5,5,5,2014-05-28,53.868423,-1.90647
359699,Cavendish News,Exempt,nan,nan,nan,2007-11-06,53.868379,-1.907717
359700,Cavendish Primary School,5,5,0,0,2011-11-11,53.820534,-1.720256
359701,Ceasar's Pizza,2,10,15,10,2014-03-12,53.86286,-1.906725
359702,Cedar Court Hotel,3,5,10,10,2014-07-03,53.771379,-1.753249
359703,Celebration Cycles,5,0,0,0,2014-08-05,53.913842,-1.940226
359704,Centenary News,Exempt,nan,nan,nan,2009-09-08,53.793992,-1.752539
359705,Central Division Sports & Social Club,4,10,0,5,2014-02-27,53.783583,-1.756774
359706,Central Fisheries,5,5,0,0,2014-08-14,53.802869,-1.816273
359707,CH1 Restaurant and Feel Cafe,3,10,10,10,2012-10-26,53.792321,-1.753293
359708,Chaat Cafe,5,0,5,5,2014-03-27,53.808254,-1.779227
359709,Chach Valley,5,0,5,5,2013-10-22,53.802699,-1.778983
359710,Chalks Snooker,4,5,0,10,2012-11-19,53.794406,-1.761721
359711,Challenge College,5,0,0,0,2013-04-17,53.814366,-1.765283
359712,Chamley Butchers,4,0,10,10,2014-07-16,53.896221,-1.948058
359713,Changegate Fisheries,5,0,0,0,2014-06-19,53.832024,-1.955977
359714,Changs Chinese Takeaway,3,10,5,10,2014-04-16,53.768716,-1.842426
359715,Chan's Kitchen,5,5,0,5,2014-02-03,53.849612,-1.839006
359716,Chapel Fisheries,4,5,5,10,2014-10-09,53.768623,-1.847023
359717,Chapel Green Liberal Club,4,5,10,5,2006-07-31,53.776472,-1.76944
359718,Chapel House Inn,5,0,0,0,2014-02-24,53.757083,-1.759338
359719,Chaplins,5,0,0,5,2012-03-14,,
359720,Charco's,4,5,5,10,2014-06-06,53.792446,-1.731539
359721,Charlestown Fisheries,5,5,0,5,2014-05-30,53.844722,-1.758016
359722,Charlies Cafe,5,5,5,5,2014-07-28,53.865494,-1.907662
359723,Charlie's Cafe,3,5,10,10,2014-06-19,53.751005,-1.754081
359724,Charlies Off Licence,5,0,5,5,2014-10-02,53.795537,-1.806073
359725,Charnwood Centre,5,0,0,0,2014-08-11,53.80998,-1.727039
359726,Chartwells Buttershaw Community Enterprise College,5,0,0,0,2011-06-22,53.765147,-1.794016
359727,Chatcha Newsagents,5,0,5,5,2013-01-07,53.766194,-1.732753
359728,Chathas And Gills And Sons,5,5,5,5,2014-02-24,53.783469,-1.736863
359729,Chatha's Booze Discounter,4,10,0,5,2012-09-11,53.770849,-1.801484
359730,Chatha's Off licence,4,10,0,0,2013-02-08,53.768441,-1.845309
359731,Checkpoint,5,0,0,0,2011-03-31,53.795306,-1.757966
359732,Cheese & Chutney,4,10,0,0,2014-09-09,53.790875,-1.716947
359733,Chellow Dean Store,1,15,10,20,2014-05-15,53.804625,-1.806684
359734,Cherries,1,10,15,20,2014-09-17,53.865802,-1.910368
359735,Cherry Tree Private Day Nursery,3,10,10,10,2014-08-05,53.889157,-1.7404
359736,Chesham Coffee Bar,3,10,5,10,2014-01-30,,
359737,Chesters Chicken and Pizza,3,10,10,5,2014-08-20,53.8665,-1.906535
359738,Chevin End Guest House,3,10,10,10,2013-01-08,53.891351,-1.720773
359739,Chevin Inn,3,10,10,10,2014-11-24,53.891351,-1.720773
359740,Chez Shamwari,5,0,0,0,2015-02-02,53.836445,-1.792709
359741,Chicago Hut,4,5,0,10,2014-09-16,53.915646,-1.935839
359742,Chichini,5,0,5,0,2013-09-17,53.740194,-1.768516
359743,Chickago,3,10,10,10,2014-07-03,53.779632,-1.75408
359744,Chickano's,4,5,0,10,2015-01-20,53.7921,-1.729993
359745,Chicken & India Ranch,3,10,10,10,2014-09-10,53.864831,-1.910371
359746,Chicken Cottage,5,0,0,0,2014-08-22,53.806075,-1.786968
359747,Chicken Cottage,4,5,10,5,2014-12-03,53.825852,-1.779181
359748,Chicken Cottage,2,15,10,10,2015-01-07,53.816465,-1.733269
359749,Childrens Place,5,0,5,5,2014-10-30,53.798383,-1.726127
359750,Childrens Place,5,0,5,5,2013-12-05,53.809737,-1.80537
359751,Childrens Place,5,0,0,5,2013-12-10,53.77932,-1.764113
359752,Childrens Place Heaton,5,0,5,5,2014-05-23,53.812223,-1.792601
359753,Childsplay,1,5,10,20,2013-12-09,53.836039,-1.732173
359754,Childsplay Neighbourhood Nursery,5,0,5,5,2013-11-21,53.801118,-1.823083
359755,Chilli Corner,3,10,5,10,2013-05-07,53.768083,-1.845963
359756,Chilli Hut,4,5,5,10,2014-11-06,53.82758,-1.770968
359757,China City Takeaway,5,5,5,5,2015-01-22,53.760235,-1.781496
359758,China Garden,1,5,10,20,2015-01-13,53.829999,-1.709041
359759,China Rose,4,10,5,5,2013-10-30,53.779729,-1.785902
359760,China Xpress,3,10,5,10,2014-09-09,53.831912,-1.785166
359761,Chinti's Kitchen,4,5,5,10,2014-06-16,,
359762,Chixy'S Grill,2,15,15,10,2014-09-17,53.776058,-1.774176
359763,Chocolate Allsorts,Exempt,nan,nan,nan,2014-03-25,53.849638,-1.819185
359764,Chocolate Events,5,0,0,0,2014-02-13,,
359765,Choudhary's Pizza Bar,4,10,0,5,2013-11-04,53.805844,-1.788943
359766,Choudhuary's,2,10,15,10,2013-04-30,53.803696,-1.742931
359767,Christ Church C/E Academy,5,0,0,0,2013-01-15,53.834348,-1.761601
359768,Christabella's Cupcakery,5,0,0,0,2011-11-11,,
359769,Christchurch Coffee Centre,5,0,0,0,2014-05-01,53.924298,-1.823979
359770,Christophe's Coffee House,5,0,5,5,2014-04-23,53.790072,-1.850011
359771,Chun Chun House,5,5,0,0,2014-02-27,53.834723,-1.77453
359772,Chunky Chicken,3,10,10,10,2014-10-22,53.788375,-1.771226
359773,Chunky Chicken,2,15,10,10,2014-05-27,53.806953,-1.780403
359774,Chutneez Fast Food,3,10,10,5,2013-11-20,53.821258,-1.742444
359775,Cineworld,5,0,5,5,2014-09-25,53.791618,-1.747772
359776,City Cafe,3,10,5,10,2014-08-15,53.801162,-1.760331
359777,City Cafe,4,0,5,10,2014-10-27,53.794726,-1.755632
359778,City News,Exempt,nan,nan,nan,2004-09-13,53.793992,-1.752539
359779,City Road Fisheries,3,10,5,10,2014-10-06,53.798358,-1.769487
359780,City Road Pharmacy,Exempt,nan,nan,nan,2009-12-02,53.798358,-1.769487
359781,Clancy's Irish Cafe,0,20,15,20,2014-08-28,53.786627,-1.725991
359782,Claremont Fisheries,5,5,5,5,2014-10-24,53.826411,-1.747973
359783,Clarick Pharmacy,Exempt,nan,nan,nan,2004-04-08,53.831063,-1.710371
359784,Clarke Foley Centre,5,0,0,0,2014-01-10,53.925847,-1.82647
359785,Clarks Little Cakery,5,0,5,5,2014-09-11,,
359786,Clarks Sandwich Bar,5,5,5,5,2013-12-18,53.784204,-1.795608
359787,Clayfield Pharmacy,Exempt,nan,nan,nan,2012-05-02,53.943692,-1.881439
359788,Clayfields Pharmacy,Exempt,nan,nan,nan,2011-03-31,53.94475,-1.888246
359789,Clayton Ce Primary School,5,0,0,0,2013-02-11,53.784696,-1.81658
359790,Clayton Conservative Club (bar),5,5,0,0,2013-02-22,53.782516,-1.819048
359791,Clayton Golf Club (Bar),5,5,0,0,2013-05-13,53.777111,-1.811499
359792,Clayton Golf Club Catering,5,0,5,0,2013-10-11,53.777111,-1.811499
359793,Clayton House Chinese Takeaway,5,5,5,5,2014-09-18,53.783534,-1.820455
359794,Clayton Liberal Club,5,5,0,0,2013-02-22,53.782543,-1.818972
359795,Clayton Mini Market,5,0,5,0,2014-09-08,53.785182,-1.811205
359796,Clayton News,Exempt,nan,nan,nan,2001-04-09,53.782603,-1.823069
359797,Clayton Post Office,Exempt,nan,nan,nan,2013-02-11,53.782548,-1.822296
359798,Clayton Rugby Club,5,0,5,5,2014-05-16,53.78746,-1.791691
359799,Clayton Spice,2,10,15,10,2014-02-04,53.782239,-1.820294
359800,Clayton Village Hall,Exempt,nan,nan,nan,2003-06-12,53.781727,-1.820782
359801,Clayton Village Primary School,5,0,5,0,2012-02-07,53.781884,-1.817397
359802,Cleggs Newsagents,Exempt,nan,nan,nan,2009-12-02,53.860828,-1.844893
359803,Clevedon House,4,5,5,10,2014-09-11,,
359804,Cliff Vale,4,5,5,10,2014-11-05,53.822938,-1.778011
359805,Cliffe House Day Nursery,5,0,5,0,2013-11-20,53.912779,-1.745353
359806,Cliffe House Day Nursery Ltd,5,0,0,0,2014-09-18,53.85053,-1.768152
359807,Clifton Lodge Guest House,4,5,5,10,2014-09-22,53.833735,-1.784731
359808,Cliton Cards Ltd,Exempt,nan,nan,nan,2005-11-10,53.925232,-1.823808
359809,Cloughs Cafe,1,5,10,20,2014-12-23,53.833432,-1.776056
359810,Club BD2 After School Club,5,5,0,5,2014-02-13,53.816394,-1.741684
359811,Co op Food Market Wibsey,5,0,0,0,2012-05-30,53.766491,-1.776579
359812,Co op Group Ltd High Park Drive,3,10,10,10,2013-06-27,53.813689,-1.80362
359813,Co op Late Shop,5,0,5,0,2014-04-30,53.859609,-1.922819
359814,Co op Late Shop,5,5,5,5,2014-09-10,53.790661,-1.853212
359815,Co op Late Shop,5,5,0,5,2012-10-12,53.845718,-1.947816
359816,Co op Lateshop,5,5,5,0,2013-03-05,53.80237,-1.893923
359817,Co op Lateshop,5,5,0,0,2012-05-31,53.811017,-1.950987
359818,Co op Lateshop,5,0,0,0,2012-10-02,53.821337,-1.861049
359819,Co op Wrose Road,4,10,5,5,2014-10-24,53.828727,-1.755465
359820,Coach House Cupcakes,5,5,5,5,2014-01-20,53.777215,-1.853547
359821,Cobbles and Clay,5,0,0,0,2011-04-14,53.831143,-1.955264
359822,Cobbydale Stores,4,5,5,10,2007-12-04,53.910953,-1.932254
359823,Codley's,5,5,5,5,2014-06-26,53.855104,-1.920273
359824,Codley's Fish & Chip Emporium,5,0,5,5,2013-12-12,53.831601,-1.713756
359825,Coffee Central,5,5,0,5,2014-11-27,53.794726,-1.755632
359826,Coffee Delight,5,5,5,5,2014-07-28,53.866556,-1.90877
359827,Coffee Love,4,10,0,5,2013-11-19,53.865494,-1.907662
359828,Cohens Chemist,Exempt,nan,nan,nan,2009-12-02,53.913923,-1.751207
359829,Cohens Chemist/Rimmington,Exempt,nan,nan,nan,2014-03-03,53.793409,-1.753362
359830,Cohens Chemists,Exempt,nan,nan,nan,2009-09-02,53.782503,-1.764899
359831,Cohens Chemists,Exempt,nan,nan,nan,2004-07-29,53.801267,-1.763383
359832,Cohens Pharmacy,Exempt,nan,nan,nan,2000-06-09,53.820964,-1.775211
359833,Coldspring Mill Tearoom,4,5,10,5,2014-07-08,53.822626,-1.912876
359834,Commercial Inn (bar),4,10,0,0,2013-02-27,53.79568,-1.756446
359835,Community Mental Health Service,Exempt,nan,nan,nan,2012-06-29,53.871482,-1.910022
359836,Community Works Nursery & Childrens Centre,5,0,0,5,2014-06-05,53.802381,-1.741573
359837,Cona,2,10,15,10,2014-10-17,53.794109,-1.744129
359838,Confianza,5,0,5,5,2014-05-02,53.869423,-1.909083
359839,Cook Ltd,5,5,0,5,2013-08-07,53.925604,-1.825634
359840,Cooki Fresh Eggs,5,0,0,0,2012-08-29,,
359841,Coop Brook Street,4,10,0,5,2014-09-19,53.925483,-1.823061
359842,Co-op Food Market,5,0,0,0,2012-09-05,53.915566,-1.937362
359843,Coop Foodmarket,5,0,5,0,2014-01-23,53.806238,-1.78806
359844,Co-op Lateshop,5,0,0,0,2014-10-08,53.835099,-1.793659
359845,Coop Lateshop Otley Road,4,10,0,5,2012-11-30,53.803696,-1.742931
359846,Co-op Menston,5,5,0,5,2012-11-13,53.889157,-1.7404
359847,Cooper House Care Home,5,0,5,5,2013-11-20,53.767995,-1.80975
359848,Cooper Lane Convenience,4,10,0,5,2014-10-06,53.762937,-1.806177
359849,Cooper Lane Post Office,4,10,0,10,2013-01-09,53.766986,-1.808162
359850,Co-operative Food,5,5,5,5,2012-08-30,53.816909,-1.734573
359851,Co-operative Food Addingham,5,0,0,0,2015-02-03,53.944032,-1.880219
359852,Co-operative Food Thorp Garth,5,5,0,5,2012-11-28,53.834027,-1.728919
359853,Cooperative Group,5,5,5,0,2009-12-02,53.768684,-1.786914
359854,Co-operative Late Shop,5,5,0,5,2013-06-26,53.825901,-1.895079
359855,Cooperville Fisheries,5,5,0,0,2014-02-06,53.766986,-1.808162
359856,Cooplands (Doncaster),5,5,0,0,2013-11-21,53.798116,-1.78971
359857,Cooplands (Doncaster) Ltd,5,5,0,0,2013-06-28,53.770391,-1.757791
359858,Copthorne Primary School,5,0,0,5,2013-04-25,53.785718,-1.772667
359859,Copwood Respite,5,0,0,5,2014-02-19,53.778457,-1.707258
359860,Corner Self Store,3,10,5,10,2014-10-02,53.804986,-1.767036
359861,Corner Shop,5,0,5,5,2013-12-10,53.788142,-1.786133
359862,Cornerstone,5,0,0,0,2009-10-06,53.891172,-1.74521
359863,Cornerstores,4,10,0,5,2014-10-07,53.765552,-1.779542
359864,Costa Coffee,5,0,0,0,2012-11-29,53.794726,-1.755632
359865,Costa Coffee,5,0,0,0,2013-09-24,53.866267,-1.907965
359866,Costa Coffee,4,10,5,5,2014-06-04,53.925483,-1.823061
359867,Costa Coffee,5,0,0,0,2014-05-28,53.832543,-1.776547
359868,Costa Coffee,3,5,10,10,2014-09-12,53.830623,-1.710556
359869,Costa Coffee,4,10,0,5,2015-01-19,53.800864,-1.755323
359870,Costa Mart,4,10,0,5,2012-10-08,53.787925,-1.766144
359871,Costas Bistro,5,5,5,5,2014-02-18,53.815443,-1.788667
359872,Costcutter,5,0,0,0,2012-06-14,53.836133,-1.759843
359873,Costcutter,5,0,5,5,2014-04-09,53.744443,-1.767401
359874,Costcutter,5,0,0,0,2012-09-11,53.770392,-1.796919
359875,Costcutter,4,5,5,10,2014-09-09,53.808837,-1.730205
359876,Costcutter,5,0,0,0,2013-02-06,53.766931,-1.766928
359877,Costcutter,5,0,0,0,2013-02-19,53.912602,-1.751124
359878,Costcutter,1,10,5,20,2013-11-20,53.793982,-1.719552
359879,Costcutter Barkerend Road,4,0,10,5,2014-10-21,53.796616,-1.739938
359880,Cottage News + Off Licence,4,10,0,10,2014-11-18,53.769039,-1.841499
359881,Cottingley Conservative Club,5,0,0,0,2014-08-13,53.828648,-1.823225
359882,Cottingley Diner & Sandwich Bar,4,0,0,10,2014-05-12,53.82988,-1.829723
359883,Cottingley Hall Nursing Home,5,5,5,5,2014-11-05,53.833024,-1.816081
359884,Cottingley Manor Day Nursery,5,0,5,5,2014-11-13,53.831402,-1.819749
359885,Cottingley Pharmacy,Exempt,nan,nan,nan,2006-12-12,53.82988,-1.829723
359886,Cottingley Pre-School,4,10,5,5,2014-03-17,53.828639,-1.822845
359887,Cottingley Village Primary,5,0,0,0,2013-03-07,53.826847,-1.820939
359888,Cottingley W M C,5,5,0,0,2012-12-17,53.831539,-1.833423
359889,Country Corner,5,0,0,0,2013-02-19,53.913338,-1.750587
359890,Country Kitchen,5,5,5,0,2013-03-01,53.915001,-1.938489
359891,Courtyard Cafe,3,10,5,10,2013-11-23,53.868837,-1.906621
359892,Cow And Calf Hotel,5,5,0,0,2014-04-04,53.915097,-1.796965
359893,Crag Road Fisheries,3,10,5,10,2014-10-30,53.833607,-1.768716
359894,Craiglands Hotel,4,10,5,5,2014-01-16,53.920645,-1.815392
359895,Craven Heifer,5,5,0,0,2014-04-03,53.773301,-1.761491
359896,Crazy Cats After School Club,5,5,5,5,2015-01-15,53.86493,-1.848132
359897,Crazy Chef,1,15,15,20,2014-09-23,53.912502,-1.937397
359898,Crazy Chix Snax,4,10,5,5,2014-05-15,,
359899,Create Cafe,1,5,10,20,2014-07-18,53.925981,-1.825389
359900,Cricketers Arms (Bar Only),4,10,0,5,2014-04-07,53.865277,-1.90564
359901,Crispy Chicken,4,5,5,10,2014-10-20,53.821058,-1.72522
359902,Crockery & Frockery,5,0,5,5,2014-04-02,53.772414,-1.6489
359903,Croft House Care Home Ltd,5,0,5,0,2014-10-17,53.896912,-1.972618
359904,Cross Keys,4,5,5,10,2014-09-22,53.774322,-1.730062
359905,Cross Lane Autopoint,5,0,5,5,2013-01-08,53.761889,-1.684589
359906,Cross Roads Fisheries,5,0,0,5,2014-01-31,53.835241,-1.934974
359907,Cross Roads Inn (Bar Only),2,15,0,5,2014-04-07,53.836551,-1.931097
359908,Crossflatts Community Centre,Exempt,nan,nan,nan,2015-01-05,53.861217,-1.847355
359909,Crossflatts Cricket Club,5,0,0,0,2014-07-08,53.863991,-1.851314
359910,Crossflatts Post Office,Exempt,nan,nan,nan,2012-12-17,53.860775,-1.845866
359911,Crossflatts Primary School,5,0,0,0,2013-02-14,53.86493,-1.848132
359912,Crossley Hall Primary School,5,0,0,5,2011-10-11,53.796865,-1.799281
359913,Crossley House,5,0,0,0,2014-03-17,53.796161,-1.802715
359914,Crossroads Cafe,5,5,5,5,2014-04-29,53.811108,-1.745513
359915,Crossroads Post Office,5,5,0,5,2013-01-10,53.836551,-1.931097
359916,Crumbs,3,5,10,10,2014-10-20,53.738969,-1.771737
359917,Crusty's,5,0,5,5,2014-08-20,53.842703,-1.764061
359918,Cue Ball,5,5,5,5,2009-12-02,53.788566,-1.787056
359919,Cue Gardens,4,10,0,10,2014-02-17,53.76387,-1.759755
359920,Cuisine Master,4,0,10,10,2014-04-29,53.753859,-1.769912
359921,Cullingworth and District Conservative Club,5,5,0,5,2014-07-02,53.827785,-1.900832
359922,Cullingworth Fisheries,1,10,15,20,2014-08-18,53.825815,-1.899272
359923,Cullingworth Stores,5,5,5,5,2008-04-30,53.825257,-1.898879
359924,Culllingworth Village Primary School,5,5,5,0,2013-01-17,53.824854,-1.900855
359925,Cup N Cake,4,0,5,10,2014-12-02,53.866311,-1.906049
359926,Cup n Cake,5,0,5,5,2014-11-20,,
359927,Cup 'n Cake,5,0,5,5,2014-11-13,53.791135,-1.867296
359928,Cupcake Crumbs,5,0,0,0,2012-09-05,,
359929,Cuppacare,4,5,0,10,2011-11-21,53.834281,-1.778422
359930,Currergate Nursing Home,5,5,0,0,2014-05-12,53.895264,-1.960857
359931,Curry Corner,4,10,5,5,2013-09-24,53.912502,-1.937397
359932,Curry Cottage,4,5,5,10,2014-03-04,53.755877,-1.767641
359933,Curry Counter,5,5,5,5,2014-07-08,53.816909,-1.734573
359934,Curry Hut,4,10,5,5,2013-02-11,53.777255,-1.756264
359935,Cute Companions,5,5,5,5,2014-10-21,53.842778,-1.735443
359936,Cutler Height Fisheries,4,10,0,10,2014-03-20,53.782405,-1.715608
359937,Cygnet Hospital Bierley,5,0,0,0,2011-10-10,53.768512,-1.732132
359938,Cygnet Hospital Wyke,5,0,5,0,2011-04-12,53.728503,-1.774598
359939,Cyrus Mediteranean Restaurant,5,5,5,5,2014-10-22,53.789443,-1.761309
359940,D & N Priestley,4,5,0,10,2014-11-19,53.796384,-1.757899
359941,D K Hall,Exempt,nan,nan,nan,2001-08-29,53.945801,-1.887969
359942,D M Rishworth's,3,10,10,10,2014-09-10,53.913338,-1.750587
359943,D W Catering,5,0,0,5,2012-08-03,53.782102,-1.796665
359944,Da Toninos Italian Restaurant,5,0,0,0,2014-03-26,53.831912,-1.785166
359945,Daanyaal Food Store,5,5,5,5,2013-01-14,53.870573,-1.909309
359946,Daily News Ltd,Exempt,nan,nan,nan,2004-06-18,53.791533,-1.758944
359947,Daisy Chain Nursery,5,0,0,0,2014-01-10,53.805227,-1.806332
359948,Daisy Hill Store,5,5,5,5,2013-05-14,53.80674,-1.802954
359949,Dales Farm Shop,5,5,0,5,2014-11-10,53.796384,-1.757899
359950,Dales View Cottage,5,0,0,0,2013-12-10,53.928307,-1.837273
359951,Dalesbank Farm Restaurant,4,0,10,10,2014-06-06,53.929798,-1.946752
359952,Dalesgate Hotel And Restaurant,3,10,10,10,2014-08-12,53.881969,-1.920344
359953,Damart,5,0,0,0,2012-12-06,53.850597,-1.836266
359954,Damian Food Store,4,10,5,5,2012-10-01,53.777376,-1.754291
359955,Dannys Whippy,1,0,0,20,2013-06-25,,
359956,Dara Halal Meat,5,5,0,0,2012-04-05,53.785694,-1.784278
359957,Darbar Foods,4,10,0,5,2014-09-09,53.802408,-1.772714
359958,Darren Todd Butchers,5,5,0,5,2012-05-10,53.847561,-1.837236
359959,Darrs Halal Meats,2,15,5,10,2014-11-21,53.810577,-1.791653
359960,Darul Uloom Da'watul Imaan,5,5,5,5,2014-04-10,53.775183,-1.725185
359961,Darulshfa Shirqia,Exempt,nan,nan,nan,2001-02-02,53.801267,-1.763383
359962,Dave's Sandwich Hut,4,0,5,10,2014-08-11,53.77779,-1.768067
359963,Daves Village Bakery,5,5,5,5,2014-05-28,53.861863,-1.845817
359964,David Ratcliffe Dairyman,Exempt,nan,nan,nan,2000-09-28,53.845456,-1.739712
359965,Day Care Lunch Club,5,5,0,0,2011-01-31,53.78096,-1.824199
359966,Days Confectioners,5,5,5,5,2014-07-16,53.824715,-1.736787
359967,De Cafe Limited,5,0,5,0,2013-06-03,53.869015,-1.894135
359968,De Neros,4,10,5,5,2014-04-23,53.804412,-1.820351
359969,De Niro's,1,10,5,20,2014-03-11,53.774558,-1.760832
359970,DeCafe,3,10,5,10,2014-08-11,53.862348,-1.919073
359971,Deli 29,1,10,5,20,2014-09-15,53.819749,-1.774215
359972,Deli 29,4,0,10,10,2013-11-19,53.774553,-1.758359
359973,Deli Bite,3,5,10,10,2014-02-08,53.789794,-1.761368
359974,Deli Chez,3,10,5,10,2014-07-23,53.805186,-1.77279
359975,Deli Chez,3,10,10,10,2014-04-09,53.793938,-1.716137
359976,Deli Chez,3,10,10,10,2014-05-16,53.796154,-1.755016
359977,Deli Chez,4,5,10,5,2014-03-17,53.790987,-1.760283
359978,Deli Fresh,3,10,10,10,2014-04-15,53.774558,-1.760832
359979,Deli Touch,1,10,5,20,2013-08-12,53.870605,-1.915879
359980,Deli Touch,0,20,15,20,2013-12-05,53.861105,-1.915959
359981,Deli Touch,4,10,5,5,2014-04-24,53.870812,-1.903666
359982,Deli Xpress,3,10,10,10,2014-11-17,53.800504,-1.768519
359983,Deli2go,5,0,0,5,2014-06-09,,
359984,Delicious,4,5,10,5,2013-11-11,53.785879,-1.787389
359985,Deli-cious,4,5,5,10,2015-01-05,53.866499,-1.906534
359986,Delicious Cafe Bar,4,10,0,5,2013-12-05,53.790424,-1.761637
359987,Delight Cakery Bradford,5,5,0,5,2015-01-30,,
359988,Delights Cafe & Sandwich Shop,4,5,5,10,2013-08-07,53.812963,-1.726473
359989,Delius Lived Next Door,4,10,0,10,2014-10-06,53.79014,-1.763324
359990,Delius Special School,5,0,0,5,2013-12-10,53.798383,-1.726127
359991,Deliway,4,5,10,5,2013-10-14,53.787503,-1.744472
359992,Denbrook Filling Station,5,0,0,0,2013-01-07,53.765226,-1.703178
359993,Denholme Conservative Club,5,5,0,0,2013-02-22,53.803943,-1.894618
359994,Denholme Fisheries,5,0,0,0,2014-03-28,53.801463,-1.895535
359995,Denholme Primary School,5,0,0,0,2011-05-05,53.803377,-1.895181
359996,Denholme Vantage Pharmacy,Exempt,nan,nan,nan,2009-12-02,53.802451,-1.894227
359997,Deol News N Booze,5,0,0,0,2012-05-29,53.768728,-1.762154
359998,Deol Stores,5,0,5,5,2014-10-20,53.782503,-1.764899
359999,Dept of Works and Pensions,5,0,0,0,2012-11-13,53.865798,-1.905974
360000,Desi Bites Panini Bar,4,5,5,10,2013-10-14,53.797234,-1.7345
360001,Desi Deli,4,5,5,10,2012-01-11,53.862724,-1.917886
360002,Desi Diner Ltd,5,0,0,5,2014-01-27,53.866376,-1.909455
360003,Desi Khana,1,10,15,20,2014-10-02,53.792243,-1.725575
360004,Desi Zaika,3,10,5,10,2014-03-13,53.807941,-1.731729
360005,Dhanny's Curry House,4,10,5,5,2014-10-29,53.769039,-1.841499
360006,Dial A Roti,4,10,5,5,2014-08-07,53.795644,-1.734813
360007,Dial A Roti,1,15,15,20,2014-07-15,53.799317,-1.787959
360008,Dial A Roti,5,5,5,5,2014-08-12,53.782187,-1.783295
360009,Dial-a-Pizza,2,15,5,10,2013-08-29,53.787547,-1.790006
360010,Dial-A-Roti,1,10,15,20,2014-05-20,53.807349,-1.776256
360011,Diane's Caf,3,10,5,10,2014-08-07,53.787689,-1.747173
360012,Dick Hudsons,5,0,0,0,2012-03-12,53.876041,-1.817048
360013,Dick Lane News,5,0,0,5,2013-01-08,53.788621,-1.710268
360014,Dil Passand,3,10,10,5,2014-05-14,53.805785,-1.790781
360015,Dil Raj Indian Takeaway,1,15,15,20,2014-09-16,53.84086,-1.870392
360016,Dine Contract Catering Ltd,5,5,5,5,2014-09-19,53.780436,-1.715424
360017,Dip Milan Stores,Exempt,nan,nan,nan,2013-01-06,53.768233,-1.780575
360018,Diva Costcutter,4,5,5,10,2014-10-08,53.791185,-1.779089
360019,Dixons Allerton Academy,4,5,5,10,2014-03-28,53.797582,-1.808918
360020,Dixons City Academy,5,0,0,5,2011-03-22,53.780591,-1.757201
360021,Dixy Chicken,3,10,10,10,2014-01-29,53.790609,-1.759678
360022,Dixy Chicken,1,15,10,20,2014-10-02,53.793938,-1.716137
360023,DL Mitchell Pharmacy,Exempt,nan,nan,nan,2009-12-02,53.913769,-1.937532
360024,Dobre Bo Polskie,1,5,10,20,2013-01-14,,
360025,Dobsons Cooked Meats,5,0,5,0,2014-02-14,53.865494,-1.907662
360026,Dog And Gun,5,5,5,0,2005-09-08,53.834777,-1.707747
360027,Dog And Gun (Bar Only),4,10,5,0,2014-08-27,53.769589,-1.780386
360028,Dog And Gun Inn,3,10,10,10,2014-08-11,53.804995,-1.932135
360029,Dominica Association,5,5,5,5,2014-12-03,53.798386,-1.765585
360030,Dominos Pizza,5,0,0,0,2014-01-29,53.816909,-1.734573
360031,Dominos Pizza,5,0,0,0,2014-03-21,53.797423,-1.78393
360032,Domino's Pizza,5,0,0,0,2014-09-24,53.874201,-1.894077
360033,Domino's Pizza,5,0,0,0,2014-01-21,53.768595,-1.763126
360034,Dons Pantry,4,0,5,10,2013-11-16,53.794726,-1.755632
360035,Don't Tell Titus,5,5,0,0,2011-04-04,53.838221,-1.78989
360036,Donuts,5,0,0,0,2010-03-12,,
360037,Doorstep Sandwiches,5,5,5,5,2014-05-19,,
360038,Double Happiness,3,10,10,10,2014-12-11,53.774558,-1.760832
360039,Double Luck,3,10,5,10,2014-08-13,53.85916,-1.911234
360040,Dove Court Day Centre,5,0,0,5,2014-01-27,53.797003,-1.740073
360041,Dracup Lodge Nursery,5,0,0,0,2014-01-17,53.779043,-1.789563
360042,Dracup Road Post Office,Exempt,nan,nan,nan,2013-01-09,53.778915,-1.788092
360043,Dradishaw House Nursery,5,0,0,5,2014-06-16,53.913836,-1.945509
360044,Dragon Chef Chinese Take Away,5,5,0,5,2014-03-15,53.834612,-1.729386
360045,Dragon King,5,0,0,5,2014-02-19,53.769832,-1.716208
360046,Dragon King,4,10,5,5,2014-05-29,53.768024,-1.760869
360047,Dragons Den,5,5,5,0,2013-06-03,53.869015,-1.894135
360048,Drakes Fish & Chips,4,10,5,5,2012-09-24,53.824715,-1.736787
360049,Drakes Fish And Chip Shop,3,10,5,10,2013-07-16,53.831378,-1.783421
360050,Drop Farm Tearooms,5,0,0,0,2014-05-02,53.819168,-1.977863
360051,Duchess Gardens Care Centre,5,5,0,5,2014-06-16,53.86113,-1.829368
360052,Dudley Hill ARLFC,4,10,0,5,2009-02-11,53.783485,-1.72372
360053,Dunkers Delight,5,0,0,5,2014-10-15,53.791533,-1.758944
360054,E H Booth & Co,5,5,5,5,2014-04-30,53.927525,-1.818042
360055,Earlswood Community Group,5,0,5,0,2014-08-26,53.739984,-1.761998
360056,East Bowling Sports and Social,5,5,0,5,2007-08-02,53.78354,-1.736316
360057,East Euro Food Centre,4,5,5,10,2014-12-11,53.800128,-1.784144
360058,East Morton CE Primary School,5,0,0,0,2013-02-07,53.87532,-1.854924
360059,East Morton Memorial Hall,5,0,0,0,2013-01-17,53.873213,-1.851631
360060,East Parade Newsagents,Exempt,nan,nan,nan,2011-03-31,53.867073,-1.904298
360061,East Riddlesden Hall,5,0,0,0,2011-09-05,53.874872,-1.881116
360062,East Ward Labour Club - Bar,5,5,0,0,2013-01-24,53.801313,-1.742217
360063,Eastburn Fisheries,5,0,5,0,2014-05-28,53.896246,-1.970001
360064,Eastburn General Store,5,0,5,0,2013-01-17,53.896246,-1.970001
360065,Eastburn Jnr & Infant School,5,0,0,0,2013-01-17,53.898188,-1.971552
360066,Eastburn School Fun Zone,5,0,0,5,2004-04-26,53.898188,-1.971552
360067,Eastern Saud,4,5,10,5,2014-07-24,53.756529,-1.78969
360068,Eastern Taste,4,5,0,10,2014-02-11,53.865271,-1.910081
360069,Eastman Poultry,5,0,0,5,2008-11-03,53.802925,-1.785116
360070,Eastwood Primary School,5,0,0,0,2013-01-31,53.872573,-1.90278
360071,Ebenezer Methodist Church,5,0,0,0,2009-01-16,53.775408,-1.728993
360072,Eccleshill Balti,1,15,15,20,2014-10-29,53.820971,-1.726709
360073,Eccleshill Community Association Ltd,1,5,10,20,2014-11-05,53.820049,-1.728143
360074,Eccleshill Community Hospital,5,0,0,0,2011-09-23,53.823805,-1.712487
360075,Eccleshill Conservative Club,5,5,0,5,2013-04-11,53.820042,-1.721308
360076,Eccleshill Methodist Church,5,5,0,0,2010-03-24,53.823698,-1.728211
360077,Eccleshill W M C,5,5,0,0,2013-01-24,53.82077,-1.725207
360078,Eddys Diner,1,15,15,20,2014-05-21,53.824321,-1.861176
360079,Eden Catering,2,15,0,10,2014-12-11,,
360080,Edinburgh Woollen Mill,Exempt,nan,nan,nan,1999-08-10,53.925604,-1.825634
360081,Eesti Kodu Club,5,0,0,0,2014-07-03,53.80681,-1.762106
360082,Elcaballo Blanco,3,10,10,10,2014-11-13,53.851584,-1.84172
360083,Elderthorpe Residential Home,5,0,5,5,2014-07-11,53.822938,-1.778011
360084,Eldwick Post Office,3,10,10,10,2014-05-28,53.859071,-1.81621
360085,Eldwick Primary School,2,15,5,10,2014-12-05,53.852099,-1.818217
360086,Elior Healthcare UK Ltd,4,5,5,10,2014-01-24,53.769564,-1.813248
360087,Ellisons Butcher Ltd,4,0,10,10,2014-07-01,53.827225,-1.898616
360088,Elmhurst Rest Home,5,5,5,5,2013-10-31,53.805274,-1.728891
360089,Elmleigh Residential Home,5,0,5,5,2014-12-22,53.925261,-1.837833
360090,Embers,5,0,5,5,2014-10-09,53.82956,-1.954445
360091,Emily Court,5,0,0,5,2014-04-15,53.776897,-1.780302
360092,Emily Street Community Centre,1,5,5,20,2013-12-18,53.870198,-1.90058
360093,Emily's By De Luca Boutique,5,0,0,0,2014-09-18,53.79105,-1.848535
360094,Emm Lane Care Home,5,0,5,0,2014-06-24,53.815285,-1.780664
360095,Emmas,1,10,20,10,2014-02-20,53.831143,-1.955264
360096,Emma's Celebration Cakes,5,0,0,0,2014-05-12,,
360097,Empires Chinese Takeaway,5,0,0,5,2014-03-26,53.831601,-1.713756
360098,Emporio Italia,3,10,10,10,2013-01-09,53.925275,-1.8223
360099,Esholt Post Office,Exempt,nan,nan,nan,2004-09-27,53.858337,-1.724064
360100,Esholt Sports & Leisure Ltd,5,0,5,0,2014-08-14,53.856386,-1.731785
360101,Esholt Training Centre,5,0,0,0,2014-08-13,53.853896,-1.712129
360102,Esscroft Private Day Nursery,4,5,10,5,2014-02-19,53.919716,-1.766688
360103,Essentra Packaging,5,5,0,5,2014-03-06,53.834187,-1.716397
360104,Estate Newsagency,Exempt,nan,nan,nan,2013-01-09,53.766986,-1.808162
360105,Eurasia Balti & Tandoori,3,10,10,10,2014-01-15,53.862045,-1.910179
360106,Euro F C,4,5,5,10,2014-11-17,53.793982,-1.719552
360107,Euro Food Store,5,5,0,5,2012-09-20,53.783226,-1.781574
360108,Euro Mini Market,4,10,0,5,2012-06-25,53.869513,-1.90995
360109,Euro Supermarket,1,5,10,20,2013-06-10,53.80514,-1.763163
360110,Eurobangla Foods,1,15,15,20,2014-03-06,53.800222,-1.757908
360111,Exley Head Methodist Church,Exempt,nan,nan,nan,2014-03-10,53.858012,-1.927717
360112,Exotic Foods,4,10,5,5,2014-11-10,53.796384,-1.757899
360113,Express Golf Cafe,4,0,10,10,2014-07-18,53.819787,-1.800873
360114,F M Catering,5,0,0,0,2009-11-04,53.9104,-1.746936
360115,Faerie Floss Boutique,5,0,0,0,2014-02-10,,
360116,Fagley Halal Butcher,5,0,0,5,2014-10-02,53.805454,-1.724973
360117,Fagley News,5,0,0,5,2013-01-22,53.806023,-1.722357
360118,Fagley Off Licence,5,0,0,5,2013-01-22,53.809896,-1.714131
360119,Fagley Primary School,5,5,0,0,2009-11-30,53.809966,-1.717061
360120,Fagley Youth Centre,5,0,0,0,2012-12-05,53.81061,-1.711848
360121,Fahim's Takeaway,4,0,5,10,2013-10-02,53.799197,-1.79098
360122,Fair Play Day Nursery Ltd,4,10,5,5,2014-04-10,53.767133,-1.778684
360123,Fairbank Food Store,3,5,10,10,2013-09-25,53.802527,-1.783539
360124,Fairfax Club,5,5,0,0,2014-12-04,53.891734,-1.747794
360125,Fairfax Food Stores Ltd,4,10,0,0,2012-07-30,53.777873,-1.734364
360126,Fairmount Club House,5,0,5,0,2013-04-11,53.832553,-1.802605
360127,Fairmount Nursing Home,4,5,5,10,2015-01-08,53.832553,-1.802605
360128,Fairweather Green Inn (Bar only),4,10,0,5,2014-01-10,53.796865,-1.799281
360129,Fancy That from Wharfedale,5,0,0,0,2010-05-19,,
360130,Fanny's Ale House,2,15,5,10,2014-05-28,53.836321,-1.788258
360131,Fardew Golf Club,5,0,0,0,2013-09-17,53.873067,-1.857471
360132,Farfield Primary School,5,5,0,0,2011-11-10,53.762096,-1.797095
360133,Farfield Private Nusery,5,0,5,5,2014-04-15,53.832196,-1.788416
360134,Farmers Boy,5,0,5,5,2014-10-14,53.796327,-1.794851
360135,Farmfoods,5,5,0,5,2014-09-04,53.83088,-1.712834
360136,Farmfoods Ltd,4,10,0,5,2013-07-30,53.79855,-1.753226
360137,Farnham Primary School,5,5,0,0,2012-06-14,53.787115,-1.779794
360138,Fatboyz Cafe,4,5,0,10,2014-09-24,53.779167,-1.788515
360139,Fearnley Private Day Nursery,5,5,0,5,2014-02-28,53.76063,-1.757801
360140,Fearnville Primary School,5,0,5,0,2012-02-03,53.788166,-1.715387
360141,Felah's,2,15,5,10,2010-08-02,53.791533,-1.758944
360142,Fenders,1,10,15,20,2014-03-20,53.776192,-1.755102
360143,Fentons Butchers,5,5,5,5,2014-02-10,53.84264,-1.733924
360144,Fenwick Minimarket,5,0,0,0,2013-02-04,53.756529,-1.78969
360145,Feroni's,2,15,15,10,2014-05-15,,
360146,Ferrands Arms,5,5,0,5,2014-11-21,53.848345,-1.83927
360147,Festival Fisheries,5,5,0,0,2013-05-17,53.824243,-1.764848
360148,Festival Stores,5,5,0,5,2014-10-14,53.824243,-1.764848
360149,Feversham College,5,0,5,5,2013-03-11,53.805653,-1.745987
360150,Feversham Primary School,5,5,0,0,2010-10-08,53.794397,-1.728157
360151,FFC,2,15,15,10,2014-07-24,53.780167,-1.784762
360152,Fiddlers Three Public House,3,5,10,10,2014-05-22,53.783146,-1.802549
360153,Fields Fish and Chip Shop,5,0,0,0,2013-08-29,53.783993,-1.798735
360154,Fiesal Foodstore,5,5,0,0,2012-05-24,53.809126,-1.789534
360155,Fighting Cock,2,15,10,10,2014-08-19,53.796265,-1.770349
360156,Fillings,4,0,10,10,2014-08-12,53.764002,-1.787317
360157,Finezja,3,10,10,10,2014-06-17,53.833769,-1.778425
360158,Fire Brigade Hotel ( Bar Only),5,0,0,0,2013-09-05,53.779112,-1.782612
360159,Fire It Up,2,10,15,10,2014-08-28,53.803198,-1.776931
360160,First Avenue Childrens Home,5,0,0,5,2011-12-29,,
360161,First Steps @ Feversham College,5,5,5,5,2014-10-20,53.805653,-1.745987
360162,Fish Finger Heaven,5,0,0,0,2014-02-20,,
360163,Fishermans Inn,3,5,10,10,2014-10-30,53.841104,-1.822003
360164,Fishnets Fisheries,1,5,5,20,2014-04-25,53.815104,-1.731592
360165,Fitspace,Exempt,nan,nan,nan,2013-11-08,53.783152,-1.765882
360166,Five Alive Football Centre,5,5,0,5,2014-10-22,53.794277,-1.79946
360167,Five Rise Locks Cafe,5,0,5,5,2014-12-10,53.85654,-1.837855
360168,Five Rise Locks Hotel,5,0,0,5,2014-07-02,53.855565,-1.83418
360169,Five Star Wok,3,10,5,10,2014-04-24,53.769998,-1.721533
360170,Fives Landis Ltd,5,0,0,0,2013-01-30,,
360171,Flacks Fitness,Exempt,nan,nan,nan,2013-01-24,53.823649,-1.734409
360172,Flame Spice,1,15,10,20,2014-02-05,53.805655,-1.822077
360173,Flames,2,15,15,10,2014-06-24,53.866125,-1.909957
360174,Fleece Inn,4,10,0,0,2013-02-06,53.805594,-1.829472
360175,Fleece Inn,5,5,5,5,2014-04-15,53.781721,-1.822815
360176,Fleece Inn (bar),5,5,0,0,2013-02-22,53.823443,-1.900007
360177,Fliirt,1,15,10,20,2014-08-22,53.793535,-1.753422
360178,Flippin Pancakes,1,10,15,20,2014-08-26,53.817783,-1.752779
360179,Flockton House,5,0,5,0,2012-10-26,53.779219,-1.737512
360180,Flying Dragon,5,5,5,5,2014-07-30,53.812963,-1.726473
360181,Food 2 U,5,5,5,5,2014-07-09,,
360182,Food Glorious Food,5,0,5,0,2010-04-20,,
360183,Food On The Hill,3,5,10,10,2014-06-25,,
360184,Food on the Move,5,0,0,0,2010-03-12,,
360185,Food Republic,3,5,10,10,2013-10-14,53.794672,-1.714766
360186,Food Station,5,0,0,5,2014-08-05,53.819096,-1.716529
360187,Food Store,4,5,10,0,2013-05-24,53.784427,-1.779322
360188,Food Wine and News,4,5,0,10,2014-09-09,53.847852,-1.826808
360189,Food Works,4,0,5,10,2015-01-15,53.796198,-1.742096
360190,Foodelicious,4,5,5,10,2014-02-19,53.795866,-1.764005
360191,Foodworks,4,0,10,10,2013-08-07,53.795287,-1.748797
360192,Footprints Nursery,5,0,0,0,2014-08-19,53.76423,-1.799482
360193,Ford Hill Newsagents,5,5,0,0,2013-02-08,53.764679,-1.855866
360194,Ford House Farm,5,0,0,0,2011-07-29,53.849425,-1.7463
360195,Forget Me Not Goodies,5,0,0,0,2014-05-16,53.882312,-1.922914
360196,Forks Cafe,5,5,5,5,2015-01-19,53.79683,-1.755923
360197,Former Bingley Conservative Club,5,0,0,0,2011-06-22,53.850108,-1.840221
360198,Forster Community College,5,0,5,5,2013-07-24,53.797764,-1.747112
360199,Forsters Bistro and Deli,5,5,0,0,2013-09-02,53.793043,-1.754473
360200,Forteas,5,0,5,5,2014-09-17,53.866125,-1.909957
360201,Fortune Garden,4,10,5,5,2014-12-08,53.8469,-1.827784
360202,Foundry Hill Bar & Lounge,4,0,10,10,2014-03-19,53.848317,-1.837978
360203,Fountain Inn (bar),5,0,0,0,2013-01-24,53.820042,-1.721308
360204,Fountains Coffee House,4,0,10,10,2014-08-12,53.796122,-1.757172
360205,Four Lane Ends Newsagents,5,5,5,5,2014-11-19,53.798687,-1.792516
360206,Four Seasons Cafe,4,5,10,5,2014-10-24,53.775105,-1.773681
360207,Four Seasons Pizza Limited,2,15,5,10,2014-01-08,53.91326,-1.747725
360208,Fourboys,Exempt,nan,nan,nan,2004-08-03,53.794726,-1.755632
360209,Foxhill Primary School,5,0,0,0,2014-01-01,53.772516,-1.855141
360210,Francis House Luncheon Club,5,0,0,5,2014-11-19,53.807428,-1.731277
360211,Francos,3,10,5,10,2011-09-23,,
360212,Franco's Continental Delicatessen,3,5,10,10,2014-12-03,53.831912,-1.785166
360213,Frankie & Benny's,5,5,5,5,2014-05-29,53.791618,-1.747772
360214,Fred's Convenience Store,5,0,0,0,2012-08-21,53.861707,-1.930341
360215,Fresh Fillingz,4,5,10,5,2013-11-29,53.793407,-1.752482
360216,Fresh Fillingz,3,5,10,10,2014-05-29,53.792366,-1.724132
360217,Fresh Fillingz,3,10,10,10,2014-05-19,53.805844,-1.788943
360218,Fresh Fruit & Veg,5,0,0,0,2007-04-27,,
360219,Fresh Sandwich Deli,4,10,5,5,2014-11-24,53.828967,-1.758335
360220,Fresh Start,4,5,5,10,2013-10-21,53.756529,-1.78969
360221,Freshco Deli Bar,5,0,5,5,2014-08-13,53.808751,-1.771252
360222,Freshfare,5,5,5,0,2015-01-22,53.781155,-1.765073
360223,Friend Cash and Carry,1,5,0,20,2013-10-02,53.806654,-1.784095
360224,Friendly Inn (bar),5,0,0,0,2013-01-14,53.829721,-1.987445
360225,Friends Food,4,10,5,5,2011-05-24,53.867659,-1.918896
360226,Frizinghall Community Centre,3,5,10,10,2014-11-13,53.821567,-1.770651
360227,Frizinghall Post Office,5,0,5,0,2013-01-22,53.819749,-1.774215
360228,Frizinghall Primary School,5,0,0,0,2014-06-11,53.821012,-1.771732
360229,Fruit & Veg,5,5,5,5,2012-05-25,,
360230,Fruit and Veg,5,0,0,0,2014-02-13,,
360231,Fruit and Veg,4,5,10,5,2012-12-13,,
360232,Fruit and Veg,5,0,0,0,2011-03-17,,
360233,Fruitworld,1,15,5,20,2014-11-10,53.796384,-1.757899
360234,Frykas,5,0,0,5,2014-12-04,53.787625,-1.718274
360235,Full Monty Cafe,4,5,5,10,2015-01-09,53.779729,-1.785902
360236,Funky Monkey,4,5,5,10,2013-07-03,53.865494,-1.907662
360237,Funopolis,5,0,0,0,2014-04-24,53.837013,-1.768804
360238,Funsters Childrens Play,5,0,0,0,2013-12-06,53.775183,-1.725185
360239,Furniss Butchers,4,0,0,10,2014-12-10,53.924959,-1.798272
360240,Future Balti House,4,5,5,10,2014-07-24,53.766931,-1.766928
360241,Fynbars Fish and Chips,2,15,10,10,2014-08-26,53.740194,-1.768516
360242,Fysh And Milnes Ltd,Exempt,nan,nan,nan,2000-05-10,53.782516,-1.819048
360243,G Cullingford Butchers,4,0,10,10,2013-12-09,53.852766,-1.767121
360244,G N Meats,2,15,10,10,2014-03-13,53.865494,-1.907662
360245,G Snowden & Son Butchers,4,5,5,10,2014-11-18,53.84086,-1.870392
360246,G T Butchers,5,0,0,0,2013-11-05,53.786136,-1.775276
360247,G&S Convenience Store,5,0,0,0,2013-02-19,53.926606,-1.805102
360248,Gaisby Balti and Pizza Bar,1,15,15,20,2014-07-24,53.824243,-1.764848
360249,Gala Bingo,4,5,10,5,2013-11-20,53.793319,-1.753257
360250,Gala Bingo Club,5,5,5,5,2013-11-19,53.869423,-1.909083
360251,Gala Club,5,5,5,5,2014-06-16,53.766954,-1.711464
360252,Gardener Denver Drum,Exempt,nan,nan,nan,2004-03-04,53.781515,-1.752021
360253,Gascoigns Of Haworth,5,5,5,5,2014-05-29,53.831143,-1.955264
360254,Gateway Nursery,5,5,5,5,2014-10-08,53.817136,-1.712533
360255,Gather & Gather (Mitie) Ltd,5,5,5,5,2013-04-24,53.781892,-1.756253
360256,Gayatri UK LTD,5,0,0,5,2013-01-10,53.800449,-1.73331
360257,Gaythorne Road Post Office,4,0,10,0,2013-01-28,53.777376,-1.754291
360258,Gelato Passion Ltd,4,10,0,10,2014-02-19,53.789435,-1.770887
360259,Gems,5,5,5,5,2014-09-11,53.781515,-1.731032
360260,Generous Pioneer,5,0,0,0,2014-11-10,53.916837,-1.75626
360261,George And Dragon,5,0,0,5,2014-09-29,53.779167,-1.788515
360262,George Hotel (bar),5,5,5,0,2013-02-01,53.751092,-1.752746
360263,George The Third Inn (bar),5,0,0,0,2013-02-15,53.769468,-1.846929
360264,Georges Place,3,5,10,10,2014-03-13,53.914821,-1.938809
360265,Geronimos,4,10,5,5,2014-01-13,53.759418,-1.792224
360266,Ghani's Supermarket,1,10,5,20,2014-06-24,53.82004,-1.771252
360267,Ghyll Court,5,5,5,5,2014-01-30,53.923597,-1.823891
360268,Ghyll House Farm,4,10,0,5,2007-04-19,53.926593,-1.886696
360269,Ghyll Royd School,5,0,0,0,2014-04-29,53.91971,-1.759349
360270,Gians Mini Market,5,5,0,5,2013-01-10,53.792601,-1.72495
360271,Gibson Pharmacy Ltd,Exempt,nan,nan,nan,2000-11-29,53.8068,-1.731919
360272,Gino's Pizzas,3,5,10,10,2013-02-12,53.805445,-1.771999
360273,Girlington Conservative Social Club,5,0,0,0,2009-06-23,53.794707,-1.80969
360274,Girlington Minimarket and Deli Bar,1,15,15,20,2014-10-24,53.800529,-1.787178
360275,Girlington Newsagents,Exempt,nan,nan,nan,2007-02-21,53.803863,-1.786478
360276,Girlington Primary School,5,0,0,0,2013-12-09,53.80266,-1.787547
360277,Glen Rosa and Kitwood House,5,0,0,0,2014-03-12,53.924166,-1.839086
360278,Glenaire Fisheries,5,5,0,0,2013-05-17,53.841148,-1.788447
360279,Glenaire Primary School,5,5,0,0,2012-01-13,53.842734,-1.785566
360280,Glenside Deli,3,10,5,10,2013-10-09,53.841148,-1.788447
360281,Global Cafe,5,5,5,5,2015-01-28,53.788994,-1.765956
360282,Go Bowling,4,10,5,5,2014-10-30,53.832543,-1.776547
360283,Goals Soccer Centre Bradford,4,0,10,10,2013-11-12,53.820158,-1.744851
360284,Gobbles Sandwich Shop,1,10,10,20,2014-07-14,53.766219,-1.731889
360285,Godfather's Pizza House,1,10,5,20,2013-09-30,53.811743,-1.744021
360286,Golden Dragon,5,5,5,5,2014-10-09,53.755671,-1.777577
360287,Golden Gate Chinese Takeaway,4,5,10,5,2014-02-05,53.825922,-1.714463
360288,Golden Hind Fisheries,4,0,0,10,2013-08-15,53.826746,-1.951683
360289,Good All Chinese Takeaway,2,0,15,10,2014-01-29,53.864212,-1.911558
360290,Good Life Coffe Stop,5,0,0,0,2013-12-12,53.848989,-1.929116
360291,Goodalls of Tong,5,0,0,0,2014-06-19,53.770961,-1.665905
360292,Goodfillas Cafe,4,10,5,5,2014-11-13,53.830623,-1.710556
360293,Goose Eye Gourmet,5,0,0,0,2013-09-10,,
360294,Gospel Hall,Exempt,nan,nan,nan,2005-02-07,53.768262,-1.763083
360295,Gourmet Gastronomy,5,0,5,0,2012-10-22,,
360296,Grab a Bite,5,0,5,5,2013-10-14,53.78209,-1.735035
360297,Grafton Club (bar),5,0,0,0,2013-01-15,53.862724,-1.917886
360298,Grandad Nichols,5,0,0,5,2014-03-21,53.928664,-1.816682
360299,Grange Court Residential Home,5,0,5,0,2014-03-27,53.849869,-1.756831
360300,Grange Interlink,5,0,0,5,2013-08-29,53.789435,-1.770887
360301,Grange Sports Centre,Exempt,nan,nan,nan,2013-04-23,53.774033,-1.777358
360302,Granny Hardy's Kitchen,5,0,5,0,2013-07-31,53.801023,-1.895657
360303,Greasy Spoon Cafe,1,0,5,20,2014-07-24,53.764628,-1.795763
360304,Great Horton Cricket Club    (bar only),5,0,0,0,2014-07-16,53.776695,-1.783247
360305,Great Horton Fisheries,1,5,10,20,2014-04-30,53.783226,-1.781574
360306,Great Horton Halal Meat,1,5,0,20,2013-05-17,53.780617,-1.784911
360307,Great Horton Live At Home,5,5,5,5,2013-11-18,53.781193,-1.785182
360308,Great Horton Live at Home Scheme,5,5,0,5,2014-11-03,53.778111,-1.785592
360309,Great Horton News,4,10,5,5,2014-09-29,53.780617,-1.784911
360310,Great Horton Service Station,4,10,0,10,2013-01-09,53.784427,-1.779322
360311,Great Horton WMC,5,0,0,0,2014-05-14,53.779621,-1.78566
360312,Great Northern Hotel,5,0,0,5,2010-01-12,53.790797,-1.854927
360313,Great Northern Inn,4,10,0,5,2014-04-07,53.852621,-1.916219
360314,Great Northern Public House (bar),4,10,0,0,2013-02-15,53.842778,-1.735443
360315,Great Shakes Ltd,5,0,0,5,2014-10-09,53.849379,-1.839433
360316,Great Victoria Hotel,5,0,0,0,2011-05-03,53.792226,-1.750515
360317,Great Wall Cantonese Cuisine,5,0,0,0,2013-01-18,53.866455,-1.919278
360318,Great Wall Takeway,5,0,0,0,2012-08-13,53.862348,-1.919073
360319,Greedy Monkey,3,10,10,5,2014-12-12,53.745523,-1.767729
360320,Greedy Pigs,5,5,0,5,2014-05-30,53.76768,-1.847679
360321,Greedy Pigs Sandwich Shop,5,0,5,0,2014-12-18,53.809797,-1.729789
360322,Greedy's,5,0,0,0,2013-12-10,53.834524,-1.77839
360323,Green End Fisheries,4,5,5,10,2014-08-05,53.783999,-1.819224
360324,Green Gables,5,0,0,5,2011-11-23,53.751991,-1.770757
360325,Green Lane Primary School,5,5,5,0,2014-02-12,53.802073,-1.766415
360326,Green Machine,5,0,0,0,2012-07-12,,
360327,Green Top Day Nursery,5,0,5,5,2013-11-20,53.782682,-1.821703
360328,Greengate Fish and Chips,5,5,0,0,2013-01-15,53.831707,-1.70944
360329,Greengate House Nursery,5,0,5,5,2013-11-19,53.830623,-1.710556
360330,Greengates Balti,3,10,10,10,2014-01-29,53.825922,-1.714463
360331,Greengates Liberal Club (bar),5,0,0,0,2013-02-20,53.830105,-1.708357
360332,Greengates Mini Market,5,5,0,5,2014-11-10,53.825922,-1.714463
360333,Greengates Primary School,5,5,5,0,2012-10-20,53.832411,-1.714024
360334,Greengates Sandwich Shop,1,0,10,20,2014-05-14,53.83088,-1.712834
360335,Greenwood Youth & Community Ce,5,0,0,0,2007-10-22,53.821859,-1.74636
360336,Greggs,5,0,0,0,2014-06-18,53.79375,-1.753057
360337,Greggs,5,0,5,5,2013-10-08,53.784511,-1.720647
360338,Greggs,5,0,0,0,2013-08-21,53.791587,-1.750261
360339,Greggs,5,5,0,5,2014-09-19,53.924863,-1.822942
360340,Greggs,5,0,5,0,2014-05-30,53.833301,-1.77785
360341,Greggs,5,0,0,0,2011-07-29,53.867426,-1.907156
360342,Greggs,5,0,0,5,2014-09-03,53.865719,-1.907434
360343,Greggs,5,5,0,0,2014-06-18,53.793981,-1.751674
360344,Greggs,5,0,0,0,2014-02-01,53.794726,-1.755632
360345,Greggs,5,0,0,0,2012-05-02,53.823649,-1.734409
360346,Greggs,5,0,0,0,2014-07-24,53.792935,-1.772644
360347,Greggs,5,0,0,0,2014-06-25,53.759819,-1.739589
360348,Greggs,5,0,0,0,2014-02-17,53.81609,-1.773734
360349,Greggs,5,0,0,0,2014-07-01,53.84711,-1.836721
360350,Greggs Arndale,5,5,0,5,2014-06-30,53.794726,-1.755632
360351,Greggs Bakery Outlet,5,0,0,0,2014-04-02,53.774558,-1.760832
360352,Greggs Forster Square,5,5,5,0,2014-06-13,53.800864,-1.755323
360353,Greggs PLC,5,5,0,0,2014-02-01,53.795705,-1.755216
360354,Greyhound Inn & Restaurant,5,5,0,5,2014-06-19,53.770967,-1.668166
360355,Greystones Nursing Home,1,0,5,20,2014-08-20,53.817812,-1.781759
360356,Grill And Chill,5,5,5,5,2014-04-22,53.789435,-1.770887
360357,Grill Hut,3,10,10,10,2013-02-04,53.788476,-1.758309
360358,Grosvenor Casino,5,5,5,5,2014-09-25,53.791618,-1.747772
360359,Grove House Day Centre,5,0,0,0,2014-02-20,53.923221,-1.825233
360360,Grove House Primary School,5,5,0,0,2012-01-05,53.816394,-1.741684
360361,Grumpy John's Cider,5,0,0,0,2014-02-14,53.826453,-1.778357
360362,GT Grocers,5,0,0,0,2013-11-05,53.786136,-1.775276
360363,Gulf Petrol Station,5,5,5,0,2013-09-04,53.804303,-1.762272
360364,Gullivers Fisheries,5,5,0,0,2014-02-13,53.773733,-1.806249
360365,Gulzar General Food Stores,2,15,5,5,2012-06-29,53.872313,-1.90383
360366,Gumption Centres Ltd,5,0,0,0,2012-10-04,53.790973,-1.757551
360367,Gurdwara Amrit Parchar Dharmik Diwan,5,5,0,0,2011-12-21,53.794965,-1.74508
360368,Guru Gobind Singh Gurdwara,3,10,5,10,2014-07-11,53.793435,-1.739913
360369,Guzelain Cafe Bar,5,0,5,5,2015-01-23,53.795184,-1.747203
360370,H & Q,5,0,0,0,2013-12-18,,
360371,H K Chinese Takeaway,5,5,0,0,2014-01-31,53.896418,-1.946262
360372,Habeeb Newsagents,Exempt,nan,nan,nan,2011-03-31,53.865767,-1.911524
360373,Habibs Restaurant,5,0,5,0,2014-04-08,53.799053,-1.720278
360374,Hafez Butchers,2,15,0,10,2014-02-11,53.799909,-1.787348
360375,Haigys Bar,5,0,0,0,2012-09-10,53.799459,-1.762649
360376,Hainworth Wood Community Centre,4,0,5,10,2014-09-09,53.856775,-1.907104
360377,Haji Superstore,3,10,10,10,2013-01-15,53.802699,-1.778983
360378,Halal Meat and Poultry,5,5,5,5,2014-09-10,53.801998,-1.760357
360379,Halal Meat Shop,2,15,10,10,2014-08-28,53.803907,-1.762411
360380,Halal World Centre,5,0,0,5,2012-09-24,53.772413,-1.732092
360381,Halal World Centre,5,0,0,0,2013-11-07,53.794137,-1.791415
360382,Half Moon Cafe,5,0,0,0,2014-02-07,53.840664,-1.789194
360383,Halfords,Exempt,nan,nan,nan,2014-03-25,53.799741,-1.751048
360384,Halfway House (bar),5,5,0,0,2013-02-11,53.769039,-1.841499
360385,Hampers Food Store,5,5,0,0,2013-04-29,53.773371,-1.794295
360386,Handprints Uk Ltd,5,0,0,0,2014-06-24,53.915646,-1.935839
360387,Hanqs Diner,2,15,10,10,2013-08-13,,
360388,Hanson Upper School,4,10,0,5,2012-12-13,53.819741,-1.743289
360389,Hansons The Bakers,5,5,5,5,2014-09-11,53.806238,-1.78806
360390,Happy Fryer Chip Shop,5,5,0,0,2014-02-13,53.746272,-1.76959
360391,Happy Garden Chinese Takeaway,4,10,0,5,2013-11-05,53.81618,-1.815911
360392,Happy Harrys Catering Ltd,5,0,0,0,2013-04-10,,
360393,Happy House,5,5,5,5,2014-10-27,53.842703,-1.764061
360394,Haqs Ltd,3,5,10,10,2014-02-08,53.792935,-1.772644
360395,Harbourne Residential Home,5,0,5,0,2014-01-15,53.762322,-1.782441
360396,Hard Ings Service Station,5,0,0,0,2012-05-10,53.875135,-1.903869
360397,Harden Cricket Club,3,10,5,10,2007-12-07,53.841349,-1.865983
360398,Harden Fisheries,5,0,5,5,2014-01-08,53.842201,-1.871816
360399,Harden Luncheon Club,4,0,10,5,2013-02-14,53.84086,-1.870392
360400,Harden Post Office,Exempt,nan,nan,nan,2004-01-23,53.841399,-1.870086
360401,Harden Primary School,5,0,0,0,2011-06-09,53.840799,-1.872003
360402,Hare & Hounds,5,5,5,5,2014-11-11,53.812723,-1.795758
360403,Hare & Hounds Filling Station,5,0,0,0,2007-04-25,53.77249,-1.810777
360404,Hare And Hounds,5,0,5,5,2014-08-04,53.889289,-1.730798
360405,Hare And Hounds Hotel,5,5,0,0,2013-01-22,53.810182,-1.732945
360406,Haris Super Stores,4,10,0,5,2012-07-30,53.773431,-1.749868
360407,Harlequin Cafe & Bistro,5,0,0,0,2014-01-09,53.84264,-1.733924
360408,Harp Of Erin (Bar only),5,5,0,5,2013-10-02,53.796023,-1.761317
360409,Harris Halal Meat,4,10,0,5,2013-10-21,53.801454,-1.716906
360410,Harrisons,5,5,5,5,2014-03-13,53.812963,-1.726473
360411,Harrogate Road Post Office,5,0,0,5,2013-01-22,53.81728,-1.716405
360412,Harrys Traditional Fisheries,4,5,5,10,2014-12-16,53.76768,-1.847679
360413,Harveys,5,5,5,5,2013-11-19,53.863026,-1.911834
360414,Hassan's Takeaway,2,15,15,10,2014-08-28,53.776787,-1.760652
360415,Hawkstone House,5,0,0,0,2011-11-21,53.878286,-1.923682
360416,Haworth Community Centre,Exempt,nan,nan,nan,2004-02-03,53.830503,-1.95057
360417,Haworth Conservative Club (bar),5,0,0,0,2013-01-11,53.83176,-1.947894
360418,Haworth News,Exempt,nan,nan,nan,2009-12-02,53.83237,-1.946739
360419,Haworth Old Hall,5,0,0,5,2011-06-15,53.827277,-1.952837
360420,Haworth Out of School Club,5,0,0,0,2014-02-01,53.832032,-1.95388
360421,Haworth Primary School,5,0,0,0,2013-03-26,53.832032,-1.95388
360422,Haworth Road Methodist Church,5,0,0,0,2009-03-30,53.814865,-1.803159
360423,Haworth Tandoori Indian Restaurant,1,5,5,20,2012-03-08,53.83176,-1.947894
360424,Haworth Youth Hostel,5,0,0,0,2011-05-27,53.836808,-1.942296
360425,Hazel Bank Care Home,5,0,5,5,2014-05-20,53.80674,-1.802954
360426,HCF Poultry Staff Canteen,5,5,0,0,2012-02-15,53.826626,-1.902476
360427,Headley Golf Club,4,10,5,5,2013-02-27,53.786276,-1.847535
360428,Headway Sandwiches & Breakfast Bar,4,5,0,10,2014-09-03,53.773649,-1.722449
360429,Health Check Pharmacy,Exempt,nan,nan,nan,2005-11-08,53.789277,-1.768322
360430,Health Rack Food Supplements,Exempt,nan,nan,nan,2004-04-27,53.794726,-1.755632
360431,Health Shop,Exempt,nan,nan,nan,2011-03-31,53.834524,-1.77839
360432,Heathfield Bed & Breakfast,4,5,5,10,2007-10-03,53.832285,-1.95742
360433,Heaton Chappal Kebab,1,10,10,20,2014-05-08,53.807349,-1.776256
360434,Heaton Food Store,1,15,10,20,2014-11-21,53.810577,-1.791653
360435,Heaton Grange Rest Home,3,5,10,10,2014-09-24,53.812723,-1.795758
360436,Heaton Post Office,Exempt,nan,nan,nan,1999-06-04,53.815843,-1.786296
360437,Heaton Primary School,5,5,0,0,2009-11-23,53.815855,-1.809534
360438,Heaton Tennis and Squash Club (Bar Only),5,5,0,0,2014-02-18,53.815443,-1.788667
360439,Heights Lane Food Store,1,10,10,20,2014-10-14,53.813152,-1.804914
360440,Heights Lane Post Office,5,0,0,0,2010-10-18,53.814384,-1.805318
360441,Hen Hut,5,0,0,0,2010-05-14,53.826358,-1.757225
360442,Herncliffe Care Home,5,0,0,5,2014-12-10,53.876097,-1.916431
360443,Hewitt Butchers,3,10,10,10,2014-01-28,53.877231,-1.885688
360444,Hiba Hampers,Exempt,nan,nan,nan,2014-03-03,,
360445,Hickory House,4,10,5,5,2014-06-10,53.928177,-1.83371
360446,High Crags Primary School,5,0,5,0,2012-01-27,53.828791,-1.769609
360447,Highdell Nursing Home,4,5,5,10,2014-06-27,53.837491,-1.734519
360448,Highfield Community Centre,5,0,0,0,2013-09-11,53.867865,-1.91701
360449,Highfield Pharmacy,Exempt,nan,nan,nan,2009-12-02,53.770382,-1.716675
360450,Highfield Store,5,5,0,5,2014-04-07,53.868669,-1.924262
360451,Highgate Fisheries,5,0,0,5,2013-01-29,53.815843,-1.786296
360452,Highgate Fisheries,2,15,5,10,2014-11-24,53.772286,-1.812249
360453,Highgate Mini Market,5,5,5,0,2013-02-08,53.772144,-1.819624
360454,Highgate Newsagents,4,0,10,0,2013-01-22,53.815843,-1.786296
360455,Hill Top C E Primary School,5,5,0,0,2011-05-19,53.755073,-1.770406
360456,Hill Top Fisheries,5,5,5,0,2014-04-11,53.805296,-1.828653
360457,Hill Top News,5,5,5,0,2013-02-06,53.805706,-1.825812
360458,Hillbro Nursing Home,5,0,5,0,2014-05-21,53.853231,-1.761433
360459,Hillcrest Bed & Breakfast,5,0,0,0,2008-06-11,53.903701,-1.745347
360460,Hills Confectioners,5,5,0,0,2011-10-18,53.912421,-1.937884
360461,Hilton Bradford,5,0,5,0,2014-03-11,53.791958,-1.75161
360462,Himalayan Stores,4,10,0,10,2014-11-05,53.793364,-1.753165
360463,Hindu Cultural Society of Bradford Ltd,5,5,5,5,2011-03-31,53.792635,-1.735971
360464,Hirst Wood Nursery School,5,5,0,0,2010-10-14,53.837027,-1.796141
360465,Hirst Wood Stores,3,10,5,10,2014-04-10,53.837605,-1.803478
360466,HMV Retail Ltd,Exempt,nan,nan,nan,2014-03-25,53.793827,-1.751068
360467,Hogs Head,5,5,0,0,2013-02-15,53.831469,-1.715109
360468,Hold King Chinese Take-Away,3,10,5,10,2014-12-17,53.826411,-1.747973
360469,Holden Grange Care Group,5,0,5,0,2014-09-22,53.809636,-1.763973
360470,Holiday Inn Express,5,5,0,5,2014-09-25,53.791618,-1.747772
360471,Holiday Inn Leeds Bradford,3,10,10,10,2014-05-15,53.770961,-1.665905
360472,Holland & Barrett,Exempt,nan,nan,nan,2002-07-26,53.925232,-1.823808
360473,Holland & Barrett Ltd,Exempt,nan,nan,nan,2007-10-17,53.794726,-1.755632
360474,Holland & Barretts,Exempt,nan,nan,nan,2007-10-23,53.867426,-1.907156
360475,Hollingwood Lane School,4,5,10,5,2014-06-12,53.777734,-1.801891
360476,Hollingwood Primary School,5,5,0,5,2014-06-11,53.777734,-1.801891
360477,Holly Park Nursing Home,3,10,10,10,2014-05-09,53.784,-1.819649
360478,Hollycroft Residential Home,3,5,10,10,2014-05-20,53.922629,-1.845563
360479,Hollywood Bowl,5,5,5,5,2014-05-29,53.791618,-1.747772
360480,Holme Lane Tavern (Bar only),5,0,0,0,2013-07-09,53.76856,-1.714245
360481,Holme Lea,5,5,0,0,2009-12-09,53.92155,-1.825483
360482,Holme Stores,5,0,0,5,2013-01-08,53.776026,-1.705393
360483,Holme View Residential Care Home,5,0,0,5,2013-12-23,53.776593,-1.713204
360484,Holmewood EMI Resource Centre,4,10,0,0,2014-06-16,53.862206,-1.92219
360485,Holmewood Social Club,5,5,0,5,2007-02-16,53.776892,-1.710455
360486,Holmewood Stores,5,5,0,5,2013-01-07,53.770554,-1.709664
360487,Holmewood Stores,5,0,5,5,2013-11-27,53.782018,-1.707855
360488,Holroyd House Hotel,5,0,0,0,2009-08-21,53.767016,-1.769294
360489,Holy Family Catholic School,4,10,5,0,2013-11-27,53.876097,-1.916431
360490,Holy Trinity Church,Exempt,nan,nan,nan,2014-08-04,53.756702,-1.757566
360491,Holybrook Primary School,5,5,0,0,2012-07-03,53.825021,-1.713542
360492,Holycroft Primary School,5,0,0,0,2013-01-24,53.862203,-1.917416
360493,Home Bakes,5,0,0,0,2012-09-26,,
360494,Home Bargains,Exempt,nan,nan,nan,2009-12-02,53.79855,-1.753226
360495,Home Bargains,4,5,5,10,2006-11-09,53.833523,-1.776572
360496,Home Croft Residential Home,5,0,0,0,2015-01-13,53.925308,-1.839462
360497,Home Farm Primary School,5,0,0,0,2013-03-08,53.766512,-1.810121
360498,Home From Home Cafe,5,0,0,5,2014-07-28,53.794726,-1.755632
360499,Homeleigh Guest House,5,0,0,5,2014-09-09,53.830425,-1.782955
360500,Homemade Heaven,4,0,0,10,2009-11-13,,
360501,Homemade Temptations,Exempt,nan,nan,nan,2014-02-21,,
360502,Hon Hing,3,5,10,10,2014-12-17,53.84424,-1.73402
360503,Honest Crust,1,10,15,20,2014-09-09,53.780723,-1.760068
360504,Hong Kong Chinese Take Away,3,10,5,10,2014-03-07,53.758489,-1.795702
360505,Hong Kong Chinese Takeaway,4,0,10,10,2014-12-11,53.83176,-1.947894
360506,Hong Kong Takeaway,5,0,5,0,2012-12-10,53.804412,-1.820351
360507,Hope And Anchor Inn (bar),4,10,0,0,2013-02-22,53.80407,-1.819578
360508,Hopes News,Exempt,nan,nan,nan,2000-04-18,53.842703,-1.764061
360509,Hops & Grains,5,0,5,5,2014-10-16,53.83242,-1.777824
360510,Hopwoods,5,0,0,0,2014-01-13,53.836828,-1.790231
360511,Hopwood's,5,5,5,5,2014-07-30,53.863645,-1.910464
360512,Horse And Groom Public House,5,5,0,5,2012-09-11,53.768684,-1.786914
360513,Horton Butchers,3,10,10,10,2015-01-05,53.788181,-1.777693
360514,Horton European Food Store,2,15,0,5,2013-11-05,53.776563,-1.770183
360515,Horton Grange Post Office,Exempt,nan,nan,nan,2013-01-14,53.785564,-1.777146
360516,Horton outreach,5,5,5,5,2014-11-20,53.787799,-1.775525
360517,Horton Park Primary School,5,0,0,0,2013-01-14,53.779654,-1.774233
360518,Hot Bites,3,10,10,10,2013-09-23,53.799464,-1.715371
360519,Hot N Tender,5,5,5,5,2014-03-17,53.779511,-1.800062
360520,Hot Shot Pizza,1,10,5,20,2014-01-14,53.861863,-1.845817
360521,Hot Spot,1,15,15,20,2014-09-25,53.778585,-1.711551
360522,Hothfield Junior School,5,0,0,0,2013-01-11,53.913456,-1.941765
360523,Howgate Nursing Home,5,5,0,0,2014-01-13,53.835605,-1.727283
360524,Hoyle Court Primary School,5,5,0,0,2012-02-28,53.846865,-1.755693
360525,HSG Packing Cases Ltd,Exempt,nan,nan,nan,2005-01-18,53.752375,-1.765022
360526,Hughes Family Bakers,5,5,5,5,2014-03-07,53.837452,-1.797796
360527,Hummingbird  Preserves,4,0,0,10,2014-03-11,,
360528,Hungry Monkey,5,0,0,0,2014-03-26,53.837793,-1.753831
360529,Hungry Tummys,5,5,0,5,2014-04-04,53.849136,-1.767749
360530,Hussain Dispensing Chemist,Exempt,nan,nan,nan,2009-12-02,53.871482,-1.910022
360531,Hussain Foods,1,10,0,20,2014-12-29,53.805708,-1.76849
360532,Hussain's butchers,2,15,10,10,2014-01-09,53.79599,-1.725065
360533,Hygiene China,1,15,15,20,2014-12-11,53.823633,-1.743524
360534,I & K Grocers & Halal Meat,3,5,10,10,2014-10-20,53.806495,-1.790959
360535,Ibbotson's Butchers,4,5,10,5,2014-03-08,53.828167,-1.952943
360536,IBIS Budget Hotel,5,0,5,0,2009-11-19,53.802815,-1.751182
360537,Ibis Hotel,5,0,0,5,2014-09-11,53.836434,-1.776101
360538,Ibrahim Foods,5,0,0,0,2013-09-25,53.799837,-1.713744
360539,Iceland,5,5,0,0,2013-07-23,53.865958,-1.902887
360540,Iceland,5,5,0,5,2014-05-09,53.766038,-1.708118
360541,Iceland Woodhall Road,5,5,0,5,2014-04-25,53.802521,-1.708442
360542,Icestone Gelato,2,10,15,10,2015-01-06,53.793744,-1.717747
360543,Icestone Gelato,3,10,10,10,2015-01-20,53.788375,-1.771226
360544,Idle And Thackley Conservative (bar),5,5,0,0,2013-02-24,53.837491,-1.734519
360545,Idle Balti,5,5,0,5,2013-10-21,53.834612,-1.729386
360546,Idle Baptist Church,5,0,0,0,2011-06-17,53.834256,-1.730756
360547,Idle C of E Primary School,5,0,0,0,2011-03-28,53.840698,-1.733921
360548,Idle Cricket Club,5,5,0,0,2009-04-20,53.832401,-1.72937
360549,Idle Road Newsagents,5,5,0,5,2013-01-15,53.809266,-1.73333
360550,Idle Spicey Kitchen,4,10,5,5,2015-01-12,53.834612,-1.729386
360551,Idle Working Mens Club (bar),5,5,0,0,2013-02-22,53.836443,-1.732033
360552,Ikhlaq Halal Mini Market,3,10,10,10,2014-08-20,53.820964,-1.775211
360553,Ikhlaq Roti House,1,15,15,20,2015-01-20,53.820964,-1.775211
360554,Ikhlas Halal Meat,3,10,10,10,2014-11-11,53.796384,-1.757899
360555,Ilkley Bowling Club,5,5,5,0,2013-05-08,53.926065,-1.827809
360556,Ilkley Catering Company,4,5,5,10,2015-01-15,53.925847,-1.82647
360557,Ilkley Cricket Club,4,5,5,10,2015-01-15,53.930036,-1.826788
360558,Ilkley Golf Club - (Bar only),5,0,0,0,2014-01-28,53.932863,-1.836768
360559,Ilkley Golf Club (Catering),5,0,0,0,2014-01-28,53.932863,-1.836768
360560,Ilkley Grammar School,4,5,0,10,2013-12-11,53.921398,-1.813896
360561,Ilkley Lawn Tennis And Squash,5,5,5,0,2012-12-14,53.928547,-1.83546
360562,Ilkley Moor Vaults,5,0,0,0,2014-01-28,53.92783,-1.830345
360563,Ilkley Visitor Information Centre,Exempt,nan,nan,nan,2004-01-27,53.924204,-1.821239
360564,I'll Make Your Cake,5,0,0,0,2013-08-29,,
360565,Immanuel CE College,5,0,0,0,2012-11-23,53.841329,-1.72685
360566,Imran And Bros General Store,2,15,5,5,2013-05-14,53.799237,-1.768769
360567,Indian Spice,4,5,5,10,2013-10-23,53.835242,-1.792822
360568,Indilishus,5,5,5,5,2013-12-03,53.779729,-1.785902
360569,Ingrow Bridge Mini Mart,5,0,0,0,2014-06-20,53.854535,-1.915698
360570,Ingrow Cricket Club,3,5,10,10,2005-05-13,53.849651,-1.911543
360571,Ingrow Primary School,5,0,0,0,2014-07-01,53.85576,-1.919207
360572,Inland Revenue,4,5,5,10,2014-07-16,53.8368,-1.779533
360573,Interlude Tea Room,5,0,0,5,2014-05-28,53.834524,-1.77839
360574,International Restaurant,5,5,5,5,2014-01-29,53.790424,-1.761637
360575,Intouch Cyber Cafe,5,0,0,5,2014-07-11,53.795502,-1.752621
360576,IPSL,Exempt,nan,nan,nan,2009-12-02,53.759819,-1.739589
360577,Iqbal Foods Ltd,4,5,10,5,2014-08-27,53.808531,-1.769097
360578,Iqra Community Primary School,5,0,0,0,2014-10-24,53.803927,-1.772812
360579,Isherwoods,4,10,5,5,2014-01-03,53.913203,-1.937913
360580,Islamic Relief,Exempt,nan,nan,nan,2009-12-02,,
360581,Ismaeel Mini Market,2,15,10,10,2012-11-07,53.802925,-1.785116
360582,Ismail Food Store,3,10,10,5,2014-07-02,53.787363,-1.787776
360583,Ital Restaurant,5,5,0,5,2014-02-03,53.80639,-1.74987
360584,Its a Thrill @ the Grill,1,15,15,20,2014-02-27,53.796275,-1.712569
360585,Ivegate News,5,0,5,5,2014-11-19,53.793843,-1.754483
360586,Ivy Guest House,5,0,5,5,2014-01-07,53.788173,-1.75992
360587,Ivy House Nursing Home,5,5,5,5,2014-06-16,53.830211,-1.799927
360588,J & H Market,5,0,0,0,2013-02-11,53.807149,-1.83601
360589,J B Off Licence,5,0,0,0,2013-02-08,53.756028,-1.771675
360590,J D Cafe,5,5,5,5,2014-05-21,53.895673,-1.948835
360591,J D Market,5,5,0,5,2014-03-31,53.802699,-1.778983
360592,J E Dolby,Exempt,nan,nan,nan,2014-01-01,53.858337,-1.724064
360593,J G Patel,Exempt,nan,nan,nan,2013-01-14,53.79626,-1.81407
360594,J Holland Butcher,5,5,0,5,2014-01-16,53.796384,-1.757899
360595,J Hutchinson Butchers,5,0,0,0,2014-11-19,53.796384,-1.757899
360596,J K Off licence & Grocers,4,10,0,0,2013-02-08,53.765728,-1.853283
360597,J K R Brothers Store Grafton,5,0,5,0,2014-06-11,53.859392,-1.920706
360598,J K S  Halal Meat,4,10,5,5,2013-10-08,53.792472,-1.727137
360599,J L Moores,5,5,0,5,2013-10-10,53.778585,-1.711551
360600,J Lord and Son,5,0,0,5,2014-08-04,,
360601,J P Leadbeater & Son,4,5,5,10,2014-11-18,53.835241,-1.934974
360602,J R Snowden Sons and Daughters,5,0,0,0,2015-02-10,53.83176,-1.947894
360603,J Robertons And Son Ltd,Exempt,nan,nan,nan,2014-02-01,53.804397,-1.742836
360604,J Robertson And Son Ltd,Exempt,nan,nan,nan,2004-11-09,53.820971,-1.726709
360605,J S Jowett,5,5,0,0,2014-02-11,53.852766,-1.767121
360606,J S Langhorne,Exempt,nan,nan,nan,2009-12-02,53.846257,-1.946979
360607,J S Longhorne Pharmacy,Exempt,nan,nan,nan,2009-12-02,53.83176,-1.947894
360608,J S Wines,Exempt,nan,nan,nan,2011-03-31,53.82988,-1.829723
360609,J Wild (Confectioners) Ltd,5,5,0,0,2011-06-20,53.849824,-1.836421
360610,J Wild (Confectioners) Ltd,5,0,5,0,2013-11-19,53.870573,-1.909309
360611,J Wild (Confectioners) Ltd,5,0,0,0,2012-05-29,53.83176,-1.947894
360612,J Wild (Confectioners) Ltd,4,5,10,5,2014-02-04,53.867067,-1.907385
360613,J Wild (Confectioners) Ltd,5,5,0,0,2014-02-01,53.835241,-1.934974
360614,J Wild (Confectioners) Ltd,5,0,5,0,2011-10-25,53.865494,-1.907662
360615,J Wild Confectioners Ltd,5,5,0,0,2014-05-15,53.865926,-1.908102
360616,J Wilds Confectioners,5,5,0,0,2011-08-03,53.862348,-1.919073
360617,Jaamiatul Imaam Muhammad Zakaria,5,0,0,0,2011-05-19,53.777111,-1.811499
360618,Jabbar Fresh Fruit and Veg,4,10,5,5,2012-12-10,,
360619,Jack Fulton Frozen Foods,4,10,0,5,2013-03-27,53.796122,-1.757172
360620,Jackie's Cafe,4,5,10,5,2014-12-02,53.867944,-1.902289
360621,Jacks Bistro,5,5,0,5,2014-05-16,53.768668,-1.80336
360622,Jacks Fisheries,5,0,0,0,2014-02-28,53.860828,-1.844893
360623,Jacksons Butchers,4,5,5,10,2013-12-31,53.865494,-1.907662
360624,Jacksons Pad,3,10,10,10,2014-05-20,53.805655,-1.822077
360625,Jacobs Well Pub,5,5,0,5,2014-08-06,53.790686,-1.753652
360626,Jacuzzi UK Woodlands Site,5,0,0,0,2009-01-07,53.753649,-1.737747
360627,Jade Garden,4,0,10,10,2014-11-13,53.867073,-1.904298
360628,Jade Garden Chinese Takeaway,5,0,0,0,2014-03-27,53.783146,-1.802549
360629,Jade Phoenix Chinese Takeaway,4,10,0,5,2013-10-21,53.809266,-1.73333
360630,Jades Chinese Takeaway,5,5,0,5,2014-03-26,53.790472,-1.853637
360631,Jagoda Polish Confectionary,5,5,5,5,2014-02-21,53.799228,-1.783085
360632,Jakes Place,5,0,0,5,2014-02-24,,
360633,Jalalia Food Store,4,10,0,5,2013-06-17,53.77932,-1.764113
360634,James Priestley,4,5,10,5,2014-06-10,53.830951,-1.851248
360635,Jamia Mosque,5,5,0,0,2009-05-15,53.790774,-1.770682
360636,Jamia Tabligh Ul Islam Mosque,3,10,5,10,2010-02-24,53.809362,-1.775941
360637,Jamil Food Stores,4,10,0,10,2014-11-18,53.808926,-1.773529
360638,Jani's Restaurant,4,10,5,5,2014-03-11,53.854285,-1.766945
360639,Jan's Cafe At the Ridge,5,5,0,5,2014-06-10,53.780904,-1.779841
360640,Jas Convenience Store (Londis),5,5,0,5,2012-08-30,53.812963,-1.726473
360641,Jay Dee's,4,10,5,5,2014-01-10,53.783978,-1.75624
360642,Jayant Stores,5,0,0,0,2014-10-06,53.762938,-1.806178
360643,Jayne's Sandwich Bar,5,0,0,5,2014-03-21,53.851584,-1.84172
360644,Jays Belldean Grocers,4,10,5,0,2013-02-11,53.797058,-1.824876
360645,JB Wilkinson and Sons Ltd,5,5,5,5,2014-03-27,53.925844,-1.82376
360646,Jeeya Newsagents,Exempt,nan,nan,nan,2005-12-14,53.774553,-1.758359
