,addressline1,addressline2,addressline3,addressline4,businessname,businesstype,businesstypeid,confidenceinmanagement,extractdate,fhrsid,hygiene,itemcount,latitude,localauthoritybusinessid,localauthoritycode,localauthorityemailaddress,localauthorityname,localauthoritywebsite,longitude,postcode,ratingdate,ratingkey,ratingvalue,returncode,schemetype,structural
143374,St Hildas Church,Stella Road,,Blaydon On Tyne,@ THE CASTLE,Other catering premises,7841,0,,548434,0,,54.97219800000000,86913,410,EnvironmentalHealth@gateshead.gov.uk,Gateshead,http://www.gateshead.gov.uk,-1.74243600000000,NE21 4NN,2014-10-27,fhrs_5_en-GB,5,,FHRS,5
143375,The Croft,Durham Road,Birtley,Chester Le St,2ND HOME CHILD CARE,Hospitals/Childcare/Caring Premises,5,5,,339900,0,,54.90027700000000,84976,410,EnvironmentalHealth@gateshead.gov.uk,Gateshead,http://www.gateshead.gov.uk,-1.57725900000000,DH3 1LY,2014-01-15,fhrs_5_en-GB,5,,FHRS,5
143376,,Harras Bank,Birtley,Chester Le St,2nd Home Childcare,School/college/university,7845,5,,664584,0,,54.89214000000000,88260,410,EnvironmentalHealth@gateshead.gov.uk,Gateshead,http://www.gateshead.gov.uk,-1.57598800000000,DH3 2PE,2014-06-17,fhrs_5_en-GB,5,,FHRS,5
143377,,162-164 Saltwell Road,Gateshead,Tyne And Wear,3 PIECES LIMITED,Retailers - other,4613,10,,568967,0,,54.94923500000000,86955,410,EnvironmentalHealth@gateshead.gov.uk,Gateshead,http://www.gateshead.gov.uk,-1.61538700000000,NE8 4XH,2013-09-02,fhrs_4_en-GB,4,,FHRS,0
143378,,Exhibition Square,Metrocentre,Gateshead,360 CHAMPAGNE & COCKTAIL BAR,Pub/bar/nightclub,7843,0,,446249,0,,54.95765000000000,85540,410,EnvironmentalHealth@gateshead.gov.uk,Gateshead,http://www.gateshead.gov.uk,-1.66857300000000,NE11 9YG,2012-10-19,fhrs_5_en-GB,5,,FHRS,0
143379,TA Centre,Napier Armoury,Alexandra Road,Gateshead,72 ENGINEER REGT (V),Pub/bar/nightclub,7843,0,,339098,0,,54.95121100000000,15127,410,EnvironmentalHealth@gateshead.gov.uk,Gateshead,http://www.gateshead.gov.uk,-1.60375200000000,NE8 4HX,2013-07-02,fhrs_5_en-GB,5,,FHRS,0
143380,,114 Saltwell Road,Gateshead,Tyne And Wear,A HUDSON,Retailers - other,4613,5,,339418,5,,54.94923500000000,38733,410,EnvironmentalHealth@gateshead.gov.uk,Gateshead,http://www.gateshead.gov.uk,-1.61538700000000,NE8 4XH,2014-05-08,fhrs_5_en-GB,5,,FHRS,5
143381,,12 Sun Street,Sunniside,Gateshead,A LITTLE PEACE OF HEAVEN,Restaurant/Cafe/Canteen,1,5,,491839,0,,54.92376100000000,86141,410,EnvironmentalHealth@gateshead.gov.uk,Gateshead,http://www.gateshead.gov.uk,-1.67442100000000,NE16 5LR,2014-10-07,fhrs_5_en-GB,5,,FHRS,5
143382,,7-9 High West Street,Gateshead,Tyne And Wear,A Mici,Restaurant/Cafe/Canteen,1,,,731214,,,54.96123600000000,88942,410,EnvironmentalHealth@gateshead.gov.uk,Gateshead,http://www.gateshead.gov.uk,-1.60274800000000,NE8 1EH,,fhrs_awaitinginspection_en-GB,AwaitingInspection,,FHRS,
143383,,200 Saltwell Road,Gateshead,Tyne And Wear,A&C BOLTON,Retailers - other,4613,10,,339423,0,,54.94703700000000,38807,410,EnvironmentalHealth@gateshead.gov.uk,Gateshead,http://www.gateshead.gov.uk,-1.61366000000000,NE8 4TP,2014-08-04,fhrs_4_en-GB,4,,FHRS,5
143384,,Market Lane,Dunston,Gateshead,ABBEYMOOR NCC,Hospitals/Childcare/Caring Premises,5,5,,339290,5,,54.95462600000000,27625,410,EnvironmentalHealth@gateshead.gov.uk,Gateshead,http://www.gateshead.gov.uk,-1.68027700000000,NE16 3DZ,2014-02-06,fhrs_5_en-GB,5,,FHRS,5
143385,,44 Coatsworth Road,Bensham,Gateshead,Adams Butchers,Retailers - other,4613,10,,706651,5,,54.95740900000000,88598,410,EnvironmentalHealth@gateshead.gov.uk,Gateshead,http://www.gateshead.gov.uk,-1.60868800000000,NE8 1QN,2014-10-13,fhrs_4_en-GB,4,,FHRS,5
143386,,137-141 Coatsworth Road,Bensham,"Gateshead, Tyne And Wear",ADAM'S CONTINENTAL FOODS,Retailers - other,4613,20,,339940,10,,54.95563800000000,8776,410,EnvironmentalHealth@gateshead.gov.uk,Gateshead,http://www.gateshead.gov.uk,-1.60839300000000,NE8 1SQ,2014-03-03,fhrs_1_en-GB,1,,FHRS,10
143387,,75 Coatsworth Road,Bensham,Gateshead,Adams Restaurant,Restaurant/Cafe/Canteen,1,10,,728204,10,,54.95705100000000,88876,410,EnvironmentalHealth@gateshead.gov.uk,Gateshead,http://www.gateshead.gov.uk,-1.60895700000000,NE8 1QL,2015-01-16,fhrs_3_en-GB,3,,FHRS,5
143388,,Wesley Grove,Crawcrook,"Ryton, Tyne And Wear",ADDISON COURT,Hospitals/Childcare/Caring Premises,5,5,,339782,5,,54.96464700000000,82769,410,EnvironmentalHealth@gateshead.gov.uk,Gateshead,http://www.gateshead.gov.uk,-1.79297900000000,NE40 4EP,2014-11-12,fhrs_5_en-GB,5,,FHRS,0
143389,Alderwood,Rectory Place,Bensham,"Gateshead, Tyne And Wear",ALDERWOOD,Hospitals/Childcare/Caring Premises,5,0,,339381,5,,54.95479100000000,35290,410,EnvironmentalHealth@gateshead.gov.uk,Gateshead,http://www.gateshead.gov.uk,-1.61319500000000,NE8 1XN,2014-01-15,fhrs_5_en-GB,5,,FHRS,5
143390,,125 Ellison Road,Dunston,Gateshead,ALDI,Retailers - supermarkets/hypermarkets,7840,,,683058,,,,88382,410,EnvironmentalHealth@gateshead.gov.uk,Gateshead,http://www.gateshead.gov.uk,,NE11 9XN,,fhrs_awaitinginspection_en-GB,AwaitingInspection,,FHRS,
143391,Alexandra House,Havelock Terrace,Gateshead,Tyne And Wear,ALEXANDRA HOUSE CARE HOME,Hospitals/Childcare/Caring Premises,5,0,,339408,0,,54.95762300000000,381,410,EnvironmentalHealth@gateshead.gov.uk,Gateshead,http://www.gateshead.gov.uk,-1.60793700000000,NE8 1QU,2014-02-12,fhrs_5_en-GB,5,,FHRS,0
143392,,6 Wellington Street,Gateshead,Tyne and Wear,ALI GEEZ,Takeaway/sandwich shop,7844,5,,339585,5,,54.96520100000000,59893,410,EnvironmentalHealth@gateshead.gov.uk,Gateshead,http://www.gateshead.gov.uk,-1.60609800000000,NE8 2AJ,2014-06-04,fhrs_5_en-GB,5,,FHRS,5
143393,Within N.O.V.,Seventh Avenue,Team Valley Trading Estate,"Gateshead, Tyne and Wear",ALJ CATERING AND VENDING,Restaurant/Cafe/Canteen,1,10,,339647,0,,54.93039900000000,72243,410,EnvironmentalHealth@gateshead.gov.uk,Gateshead,http://www.gateshead.gov.uk,-1.61503600000000,NE11 0JW,2013-08-12,fhrs_4_en-GB,4,,FHRS,5
143394,Allerdene News,7 Trafford,Allerdene,"Gateshead, Tyne And Wear",ALLERDENE NEWS,Retailers - other,4613,10,,339505,0,,54.92124300000000,43818,410,EnvironmentalHealth@gateshead.gov.uk,Gateshead,http://www.gateshead.gov.uk,-1.59348400000000,NE9 6NF,2014-01-31,fhrs_4_en-GB,4,,FHRS,10
143395,,151 Coatsworth Road,Bensham,"Gateshead, Tyne And Wear",ALMIZAN CONTINENTAL FOOD STORE,Retailers - other,4613,10,,339942,5,,54.95563800000000,8781,410,EnvironmentalHealth@gateshead.gov.uk,Gateshead,http://www.gateshead.gov.uk,-1.60839300000000,NE8 1SQ,2014-07-21,fhrs_3_en-GB,3,,FHRS,10
143396,,Dukesway,Team Valley,Gateshead,ANDO'S,Mobile caterer,7846,5,,339840,5,,54.93202400000000,83875,410,EnvironmentalHealth@gateshead.gov.uk,Gateshead,http://www.gateshead.gov.uk,-1.62628800000000,NE11 0PZ,2014-04-04,fhrs_5_en-GB,5,,FHRS,0
143397,,168 Kells Lane,Low Fell,Gateshead,ANGEETHI,Restaurant/Cafe/Canteen,1,5,,458874,0,,54.93567800000000,86040,410,EnvironmentalHealth@gateshead.gov.uk,Gateshead,http://www.gateshead.gov.uk,-1.59700600000000,NE9 5HY,2013-03-11,fhrs_5_en-GB,5,,FHRS,0
143398,Angel Court,Waverley Road,Harlow Green,Gateshead,ANGEL COURT (CATERER),Restaurant/Cafe/Canteen,1,10,,339909,5,,54.91751600000000,85085,410,EnvironmentalHealth@gateshead.gov.uk,Gateshead,http://www.gateshead.gov.uk,-1.58874800000000,NE9 7TG,2014-03-24,fhrs_4_en-GB,4,,FHRS,5
143399,,7 Springwell Road,Wrekenton,"Gateshead, Tyne And Wear",ANGEL PIZZA,Takeaway/sandwich shop,7844,10,,339573,10,,54.92556000000000,55521,410,EnvironmentalHealth@gateshead.gov.uk,Gateshead,http://www.gateshead.gov.uk,-1.57329600000000,NE9 7JN,2014-06-16,fhrs_3_en-GB,3,,FHRS,5
143400,Within Mothercare world,Unit 14 Team Valley Retail Park,Team Valley,Gateshead,Angelica's,Restaurant/Cafe/Canteen,1,,,718859,,,54.92355800000000,88745,410,EnvironmentalHealth@gateshead.gov.uk,Gateshead,http://www.gateshead.gov.uk,-1.61990700000000,NE11 0BD,,fhrs_awaitinginspection_en-GB,AwaitingInspection,,FHRS,
143401,,174 Prince Consort Road,Gateshead,Tyne And Wear,ANGELS DELIGHTS,Restaurant/Cafe/Canteen,1,5,,339360,5,,54.95446000000000,34182,410,EnvironmentalHealth@gateshead.gov.uk,Gateshead,http://www.gateshead.gov.uk,-1.60258000000000,NE8 4DU,2013-12-13,fhrs_5_en-GB,5,,FHRS,5
143402,,1 Fewster Square,Leam Lane Estate,"Gateshead, Tyne And Wear",ANGLO PIZZA,Takeaway/sandwich shop,7844,10,,339114,5,,54.94059100000000,16381,410,EnvironmentalHealth@gateshead.gov.uk,Gateshead,http://www.gateshead.gov.uk,-1.54530600000000,NE10 8XQ,2014-01-16,fhrs_3_en-GB,3,,FHRS,10
143403,,236 Durham Road,Gateshead,Tyne And Wear,ANGLO PIZZA AND KEBAB,Takeaway/sandwich shop,7844,10,,339063,10,,54.94857300000000,13263,410,EnvironmentalHealth@gateshead.gov.uk,Gateshead,http://www.gateshead.gov.uk,-1.59959400000000,NE8 4JR,2014-07-01,fhrs_4_en-GB,4,,FHRS,0
143404,Appletree Grange,Durham Road,Birtley,"Chester Le St, Co Durham",APPLETREE GRANGE CARE HOME,Hospitals/Childcare/Caring Premises,5,0,,339055,0,,54.87945800000000,13102,410,EnvironmentalHealth@gateshead.gov.uk,Gateshead,http://www.gateshead.gov.uk,-1.57554400000000,DH3 2BH,2014-12-18,fhrs_5_en-GB,5,,FHRS,0
143405,,16 Wellington Street,Gateshead,Tyne and Wear,ARCH 16,Restaurant/Cafe/Canteen,1,5,,546176,5,,54.96520100000000,86859,410,EnvironmentalHealth@gateshead.gov.uk,Gateshead,http://www.gateshead.gov.uk,-1.60609800000000,NE8 2AJ,2013-07-24,fhrs_5_en-GB,5,,FHRS,5
143406,Armstrong House,110 Lobley Hill Road,Bensham,"Gateshead, Tyne And Wear",ARMSTRONG HOUSE CARE HOME,Hospitals/Childcare/Caring Premises,5,0,,339652,0,,54.94903400000000,73760,410,EnvironmentalHealth@gateshead.gov.uk,Gateshead,http://www.gateshead.gov.uk,-1.62280500000000,NE8 4YG,2014-02-05,fhrs_5_en-GB,5,,FHRS,5
143407,,Old Fold Road,Old Fold,Gateshead,ASDA,Retailers - supermarkets/hypermarkets,7840,0,,339850,0,,54.95716700000000,83977,410,EnvironmentalHealth@gateshead.gov.uk,Gateshead,http://www.gateshead.gov.uk,-1.58178500000000,NE10 0DJ,2013-06-14,fhrs_5_en-GB,5,,FHRS,0
143408,"Asda, Gibside Way",Metrocentre,Dunston,"Gateshead, Tyne And Wear",ASDA (CAFE),Restaurant/Cafe/Canteen,1,0,,354719,5,,54.95985900000000,75091,410,EnvironmentalHealth@gateshead.gov.uk,Gateshead,http://www.gateshead.gov.uk,-1.67787800000000,NE11 9YA,2014-05-07,fhrs_5_en-GB,5,,FHRS,0
143409,Unit 7,Team Valley Retail Park,Team Valley,Gateshead,ASDA LIVING,Restaurant/Cafe/Canteen,1,5,,430466,0,,54.92355800000000,85759,410,EnvironmentalHealth@gateshead.gov.uk,Gateshead,http://www.gateshead.gov.uk,-1.61990700000000,NE11 0BD,2013-06-24,fhrs_5_en-GB,5,,FHRS,0
143410,Gibside Way,Metrocentre,Dunston,"Gateshead, Tyne And Wear",ASDA STORES LTD,Retailers - supermarkets/hypermarkets,7840,0,,339303,0,,54.95985900000000,28553,410,EnvironmentalHealth@gateshead.gov.uk,Gateshead,http://www.gateshead.gov.uk,-1.67787800000000,NE11 9YA,2013-09-12,fhrs_5_en-GB,5,,FHRS,5
143411,,Joicey Road,Low Fell,"Gateshead, Tyne And Wear",ASHFIELD NURSERY,Hospitals/Childcare/Caring Premises,5,5,,339557,5,,54.94036700000000,52198,410,EnvironmentalHealth@gateshead.gov.uk,Gateshead,http://www.gateshead.gov.uk,-1.60190700000000,NE9 5AT,2014-09-04,fhrs_5_en-GB,5,,FHRS,5
143412,,19 Keir Hardie Avenue,Wardley,Gateshead,ASHLEY JANE BALLOONS,Retailers - other,4613,,,722791,,,54.94883000000000,88789,410,EnvironmentalHealth@gateshead.gov.uk,Gateshead,http://www.gateshead.gov.uk,-1.54248100000000,NE10 8EJ,,fhrs_awaitinginspection_en-GB,AwaitingInspection,,FHRS,
143413,17 Redpath Way,Metrocentre,Dunston,Gateshead,AUNTIE ANNE'S,Takeaway/sandwich shop,7844,0,,375976,0,,54.95765000000000,84773,410,EnvironmentalHealth@gateshead.gov.uk,Gateshead,http://www.gateshead.gov.uk,-1.66857300000000,NE11 9HX,2014-06-27,fhrs_5_en-GB,5,,FHRS,0
143414,"Maxwells, Unit 4",Durham Road Trading Estate,Durham Road,"Birtley, Chester Le St",AUSTIN DINER,Mobile caterer,7846,10,,339813,5,,54.87979800000000,83475,410,EnvironmentalHealth@gateshead.gov.uk,Gateshead,http://www.gateshead.gov.uk,-1.57761400000000,DH3 2BQ,2014-08-11,fhrs_4_en-GB,4,,FHRS,0
143415,Unit 8a,Team Valley Retail Park,Team Valley,Gateshead,B&M BARGAINS,Retailers - other,4613,,,618813,,,54.92355800000000,87489,410,EnvironmentalHealth@gateshead.gov.uk,Gateshead,http://www.gateshead.gov.uk,-1.61990700000000,NE11 0BD,,fhrs_awaitinginspection_en-GB,AwaitingInspection,,FHRS,
143416,,6c Addison Industrial Estate,Blaydon,Tyne and Wear,BABA,Takeaway/sandwich shop,7844,10,,616588,10,,54.97329400000000,87645,410,EnvironmentalHealth@gateshead.gov.uk,Gateshead,http://www.gateshead.gov.uk,-1.73835200000000,NE21 4TE,2013-11-20,fhrs_3_en-GB,3,,FHRS,10
143417,,10 Garden Walk,Metrocentre,Gateshead,BAGUETTE EXPRESS,Takeaway/sandwich shop,7844,0,,339868,5,,,84428,410,EnvironmentalHealth@gateshead.gov.uk,Gateshead,http://www.gateshead.gov.uk,,NE11 9YU,2013-10-31,fhrs_5_en-GB,5,,FHRS,0
143418,,,,,BAIT BOX,Mobile caterer,7846,,,681963,,,,88377,410,EnvironmentalHealth@gateshead.gov.uk,Gateshead,http://www.gateshead.gov.uk,,,,fhrs_awaitinginspection_en-GB,AwaitingInspection,,FHRS,
143419,,,,,BAKED BY EMILY,Other catering premises,7841,0,,669166,0,,,88272,410,EnvironmentalHealth@gateshead.gov.uk,Gateshead,http://www.gateshead.gov.uk,,,2014-07-03,fhrs_5_en-GB,5,,FHRS,0
143420,,,,,BAKE-MAKE-EAT,Manufacturers/packers,7839,,,688639,,,,88429,410,EnvironmentalHealth@gateshead.gov.uk,Gateshead,http://www.gateshead.gov.uk,,,,fhrs_awaitinginspection_en-GB,AwaitingInspection,,FHRS,
143421,Baltic Centre For Contemporary,South Shore Road,Gateshead,Tyne And Wear,BALTIC CENTRE FOR CONTEMPORARY ART,Restaurant/Cafe/Canteen,1,5,,339456,5,,54.96921900000000,40770,410,EnvironmentalHealth@gateshead.gov.uk,Gateshead,http://www.gateshead.gov.uk,-1.59829500000000,NE8 3BA,2013-06-04,fhrs_5_en-GB,5,,FHRS,0
143422,,41 Coatsworth Road,Bensham,"Gateshead, Tyne And Wear",BAMBOO GARDEN,Takeaway/sandwich shop,7844,10,,339934,5,,54.95705100000000,8703,410,EnvironmentalHealth@gateshead.gov.uk,Gateshead,http://www.gateshead.gov.uk,-1.60895700000000,NE8 1QL,2013-05-14,fhrs_4_en-GB,4,,FHRS,5
143423,Unit 7 Douglas Court,Eleventh Avenue North,Team Valley,Gateshead,BAPS N SNACKS,Takeaway/sandwich shop,7844,10,,451437,5,,54.92349100000000,85889,410,EnvironmentalHealth@gateshead.gov.uk,Gateshead,http://www.gateshead.gov.uk,-1.60737900000000,NE11 0JY,2014-07-25,fhrs_4_en-GB,4,,FHRS,0
143424,Beacon House,Follingsby Park,Wardley,Gateshead,BARBOUR (CATERING),Restaurant/Cafe/Canteen,1,5,,339926,0,,54.93905700000000,85331,410,EnvironmentalHealth@gateshead.gov.uk,Gateshead,http://www.gateshead.gov.uk,-1.51788300000000,NE10 8YF,2014-10-30,fhrs_5_en-GB,5,,FHRS,0
143425,,91 Front Street,Whickham,"Newcastle Upon Tyne, Tyne And",BARKIN SHARK,Takeaway/sandwich shop,7844,10,,339137,15,,54.94518000000000,17219,410,EnvironmentalHealth@gateshead.gov.uk,Gateshead,http://www.gateshead.gov.uk,-1.68302200000000,NE16 4JL,2014-07-09,fhrs_2_en-GB,2,,FHRS,10
143426,,Pembroke Avenue,Birtley,Chester-le-Street,BARLEY MOW CHILDRENS CENTRE,Hospitals/Childcare/Caring Premises,5,0,,650587,0,,54.88426200000000,88064,410,EnvironmentalHealth@gateshead.gov.uk,Gateshead,http://www.gateshead.gov.uk,-1.57176900000000,DH3 2DJ,2014-06-09,fhrs_5_en-GB,5,,FHRS,0
143427,Barley Mow Inn,Vigo Lane,Vigo,"Birtley, Chester Le St",BARLEY MOW INN,Pub/bar/nightclub,7843,5,,339510,5,,54.88085800000000,44895,410,EnvironmentalHealth@gateshead.gov.uk,Gateshead,http://www.gateshead.gov.uk,-1.56711300000000,DH3 2AW,2014-09-02,fhrs_5_en-GB,5,,FHRS,5
143428,Barley Mow Primary School,Pembroke Avenue,Birtley,"Chester Le St, Co Durham",BARLEY MOW PRIMARY SCHOOL (KITCHEN),School/college/university,7845,0,,339348,0,,54.88426200000000,33041,410,EnvironmentalHealth@gateshead.gov.uk,Gateshead,http://www.gateshead.gov.uk,-1.57176900000000,DH3 2DJ,2012-10-02,fhrs_5_en-GB,5,,FHRS,0
143429,,Main Road,Ryton,Tyne And Wear,Barmoor Hub,Restaurant/Cafe/Canteen,1,,,706647,,,54.96886400000000,88588,410,EnvironmentalHealth@gateshead.gov.uk,Gateshead,http://www.gateshead.gov.uk,-1.77890000000000,NE40 3AZ,,fhrs_awaitinginspection_en-GB,AwaitingInspection,,FHRS,
143430,,10 Rothbury Gardens,Lobley Hill,"Gateshead, Tyne And Wear",BARRYS HOME BAKERY LTD,Retailers - other,4613,10,,339391,0,,54.93826900000000,37164,410,EnvironmentalHealth@gateshead.gov.uk,Gateshead,http://www.gateshead.gov.uk,-1.63782700000000,NE11 0AT,2014-06-10,fhrs_4_en-GB,4,,FHRS,5
143431,,8 Southend Terrace,Sheriff Hill,"Gateshead, Tyne And Wear",BARRYS HOME BAKERY LTD,Retailers - other,4613,10,,339463,5,,54.93844200000000,40960,410,EnvironmentalHealth@gateshead.gov.uk,Gateshead,http://www.gateshead.gov.uk,-1.58522500000000,NE9 6QL,2014-06-27,fhrs_4_en-GB,4,,FHRS,5
143432,,Wellington Road,Dunston,"Gateshead, Tyne And Wear",BARRY'S HOME BAKERY LTD,Manufacturers/packers,7839,10,,339514,5,,54.95618400000000,45510,410,EnvironmentalHealth@gateshead.gov.uk,Gateshead,http://www.gateshead.gov.uk,-1.63952500000000,NE11 9JJ,2014-03-04,fhrs_4_en-GB,4,,FHRS,5
143433,,,,,BASIA'S CAKES,Other catering premises,7841,10,,339847,0,,,83953,410,EnvironmentalHealth@gateshead.gov.uk,Gateshead,http://www.gateshead.gov.uk,,,2014-03-05,fhrs_4_en-GB,4,,FHRS,0
143434,K 83,Third Avenue,Team Valley,Gateshead,BATTLEZONE LASER,Restaurant/Cafe/Canteen,1,0,,657458,0,,54.93929600000000,87491,410,EnvironmentalHealth@gateshead.gov.uk,Gateshead,http://www.gateshead.gov.uk,-1.62116400000000,NE11 0PR,2014-08-29,fhrs_5_en-GB,5,,FHRS,0
143435,,,,,BC CATERING,Other catering premises,7841,10,,462610,0,,,86102,410,EnvironmentalHealth@gateshead.gov.uk,Gateshead,http://www.gateshead.gov.uk,,,2012-12-07,fhrs_4_en-GB,4,,FHRS,0
143436,Beacon Lough Baptist Church,Southend Road,Sheriff Hill,"Gateshead, Tyne And Wear",BEACON LOUGH BAPTIST CHURCH,Other catering premises,7841,0,,339460,0,,54.93355300000000,40947,410,EnvironmentalHealth@gateshead.gov.uk,Gateshead,http://www.gateshead.gov.uk,-1.58761700000000,NE9 6XS,2013-10-30,fhrs_5_en-GB,5,,FHRS,5
143437,Beamish Park Hotel,Beamish Burn Road,Marley Hill,"Gateshead, Tyne And Wear",BEAMISH PARK HOTEL,Hotel/bed & breakfast/guest house,7842,5,,339259,5,,54.89933500000000,2560,410,EnvironmentalHealth@gateshead.gov.uk,Gateshead,http://www.gateshead.gov.uk,-1.67767400000000,NE16 5EG,2014-09-04,fhrs_5_en-GB,5,,FHRS,5
143438,,Earlsway,Team Valley,Gateshead,BEANBRIDGE COFFEE,Mobile caterer,7846,10,,610623,0,,,87631,410,EnvironmentalHealth@gateshead.gov.uk,Gateshead,http://www.gateshead.gov.uk,,,2014-03-31,fhrs_4_en-GB,4,,FHRS,0
143439,,,,,BEAT BOUTIQUE BAKERY,Other catering premises,7841,,,650584,,,,88001,410,EnvironmentalHealth@gateshead.gov.uk,Gateshead,http://www.gateshead.gov.uk,,,,fhrs_awaitinginspection_en-GB,AwaitingInspection,,FHRS,
143440,,50 Russell Way,Metrocentre,"Gateshead, Tyne And Wear",BECKLEBERRYS,Restaurant/Cafe/Canteen,1,5,,339696,5,,54.95765000000000,79387,410,EnvironmentalHealth@gateshead.gov.uk,Gateshead,http://www.gateshead.gov.uk,-1.66857300000000,NE11 9YZ,2014-08-05,fhrs_5_en-GB,5,,FHRS,5
143441,,,,,BECKY B'S CAKES,Other catering premises,7841,0,,410540,0,,,85332,410,EnvironmentalHealth@gateshead.gov.uk,Gateshead,http://www.gateshead.gov.uk,,,2014-03-14,fhrs_5_en-GB,5,,FHRS,0
143442,Bede Community Primary School,Old Fold Road,Old Fold,"Gateshead, Tyne And Wear",BEDE PRIMARY SCHOOL (KITCHEN),School/college/university,7845,0,,339338,0,,54.95716700000000,31741,410,EnvironmentalHealth@gateshead.gov.uk,Gateshead,http://www.gateshead.gov.uk,-1.58178500000000,NE10 0DJ,2014-11-13,fhrs_5_en-GB,5,,FHRS,5
143443,,180-182 Rectory Road,Bensham,"Gateshead, Tyne And Wear",BENSHAM BOOZE,Retailers - other,4613,10,,339676,10,,54.95104900000000,77841,410,EnvironmentalHealth@gateshead.gov.uk,Gateshead,http://www.gateshead.gov.uk,-1.60935900000000,NE8 4RR,2013-08-09,fhrs_3_en-GB,3,,FHRS,5
143444,,176 Prince Consort Road,Gateshead,Tyne And Wear,BENSHAM FISH AND CHIPS,Takeaway/sandwich shop,7844,10,,339361,0,,54.95446000000000,34185,410,EnvironmentalHealth@gateshead.gov.uk,Gateshead,http://www.gateshead.gov.uk,-1.60258000000000,NE8 4DU,2014-09-09,fhrs_4_en-GB,4,,FHRS,5
143445,Bensham General Hospital,Fontwell Drive,Teams,"Gateshead, Tyne And Wear",BENSHAM GENERAL HOSPITAL,Hospitals/Childcare/Caring Premises,5,0,,339125,0,,54.94486800000000,16819,410,EnvironmentalHealth@gateshead.gov.uk,Gateshead,http://www.gateshead.gov.uk,-1.61535100000000,NE8 4YL,2014-10-15,fhrs_5_en-GB,5,,FHRS,5
143446,,Sidney Grove,Bensham,Gateshead,BENSHAM GROVE DAY CARE,Hospitals/Childcare/Caring Premises,5,0,,339885,0,,54.95298600000000,84788,410,EnvironmentalHealth@gateshead.gov.uk,Gateshead,http://www.gateshead.gov.uk,-1.61650700000000,NE8 2XD,2014-07-29,fhrs_5_en-GB,5,,FHRS,0
143447,,359 Alexandra Road,Gateshead,Tyne And Wear,BENSHAM LATE STOP,Retailers - other,4613,10,,339518,5,,54.95038200000000,457,410,EnvironmentalHealth@gateshead.gov.uk,Gateshead,http://www.gateshead.gov.uk,-1.60316700000000,NE8 4HY,2013-06-26,fhrs_2_en-GB,2,,FHRS,15
143448,,247 Bensham Road,Gateshead,Tyne And Wear,BENSHAM NEWS,Retailers - other,4613,10,,339341,5,,54.95334100000000,3219,410,EnvironmentalHealth@gateshead.gov.uk,Gateshead,http://www.gateshead.gov.uk,-1.61505100000000,NE8 1UT,2014-11-26,fhrs_2_en-GB,2,,FHRS,15
143449,,94-96 Saltwell Road,Gateshead,Tyne And Wear,BENSHAM TANDOORI,Takeaway/sandwich shop,7844,10,,339417,5,,54.95028200000000,38721,410,EnvironmentalHealth@gateshead.gov.uk,Gateshead,http://www.gateshead.gov.uk,-1.61662600000000,NE8 4XE,2013-06-24,fhrs_2_en-GB,2,,FHRS,15
143450,,1 Wesley Street,Low Fell,Gateshead,BEST ONE,Retailers - other,4613,5,,578806,0,,54.93483000000000,87189,410,EnvironmentalHealth@gateshead.gov.uk,Gateshead,http://www.gateshead.gov.uk,-1.59596900000000,NE9 5UX,2013-07-31,fhrs_5_en-GB,5,,FHRS,0
143451,,283 Coatsworth Road,Bensham,Gateshead,Best One,Retailers - other,4613,,,727199,,,54.95134300000000,88841,410,EnvironmentalHealth@gateshead.gov.uk,Gateshead,http://www.gateshead.gov.uk,-1.60573400000000,NE8 4LJ,,fhrs_awaitinginspection_en-GB,AwaitingInspection,,FHRS,
143452,,29-35 Kellsway,Leam Lane Estate,Gateshead,BEST ONE,Retailers - other,4613,10,,491843,5,,54.93463500000000,86318,410,EnvironmentalHealth@gateshead.gov.uk,Gateshead,http://www.gateshead.gov.uk,-1.55539300000000,NE10 8NB,2014-07-21,fhrs_3_en-GB,3,,FHRS,10
143453,Bleach Green Supermarket,Clavering Road,Bleach Green,"Blaydon On Tyne, Tyne And Wear",BEST ONE,Retailers - other,4613,20,,339765,10,,54.95621000000000,8236,410,EnvironmentalHealth@gateshead.gov.uk,Gateshead,http://www.gateshead.gov.uk,-1.71361900000000,NE21 5HH,2014-11-17,fhrs_1_en-GB,1,,FHRS,10
143454,Anchor Housing Association,Beverley Court,Low Fell,"Gateshead, Tyne And Wear",BEVERLEY COURT (COMMUNAL AREA),Other catering premises,7841,5,,339674,0,,54.94128700000000,77795,410,EnvironmentalHealth@gateshead.gov.uk,Gateshead,http://www.gateshead.gov.uk,-1.59200200000000,NE9 5UW,2014-10-30,fhrs_5_en-GB,5,,FHRS,0
143455,Gateshead Magistrates Court,Warwick Street,Gateshead,Tyne And Wear,BEVS BUFFET,Takeaway/sandwich shop,7844,10,,339877,0,,54.95903500000000,84565,410,EnvironmentalHealth@gateshead.gov.uk,Gateshead,http://www.gateshead.gov.uk,-1.60025500000000,NE8 1DT,2013-10-15,fhrs_4_en-GB,4,,FHRS,10
143456,,145 Prince Consort Road,Gateshead,Tyne And Wear,BEWICK HOTEL,Hotel/bed & breakfast/guest house,7842,10,,339359,0,,54.95449400000000,34151,410,EnvironmentalHealth@gateshead.gov.uk,Gateshead,http://www.gateshead.gov.uk,-1.60204900000000,NE8 4DS,2014-08-07,fhrs_4_en-GB,4,,FHRS,0
143457,Within Central Library,Prince Consort Road,Gateshead,Tyne And Wear,BEWICKS (CENTRAL LIBRARY),Restaurant/Cafe/Canteen,1,10,,339801,5,,54.95143800000000,83326,410,EnvironmentalHealth@gateshead.gov.uk,Gateshead,http://www.gateshead.gov.uk,-1.60172000000000,NE8 4LN,2014-12-17,fhrs_3_en-GB,3,,FHRS,10
143458,Civic Centre,Regent Street,Gateshead,Tyne and Wear,BEWICKS (CIVIC CENTRE),Restaurant/Cafe/Canteen,1,5,,339384,0,,54.95949400000000,35976,410,EnvironmentalHealth@gateshead.gov.uk,Gateshead,http://www.gateshead.gov.uk,-1.60323300000000,NE8 1HH,2013-10-16,fhrs_5_en-GB,5,,FHRS,0
143459,,67-71 Cameron Walk,Metrocentre,"Gateshead, Tyne And Wear",BHS,Restaurant/Cafe/Canteen,1,0,,339596,0,,54.95765000000000,6304,410,EnvironmentalHealth@gateshead.gov.uk,Gateshead,http://www.gateshead.gov.uk,-1.66857300000000,NE11 9YB,2013-05-22,fhrs_5_en-GB,5,,FHRS,5
143460,,Lower Yellow Mall,Metrocentre,Gateshead,BIG LUKES WORLD BUFFET,Restaurant/Cafe/Canteen,1,10,,635343,10,,54.95765000000000,87843,410,EnvironmentalHealth@gateshead.gov.uk,Gateshead,http://www.gateshead.gov.uk,-1.66857300000000,NE11 9XY,2014-03-24,fhrs_3_en-GB,3,,FHRS,10
143461,,228 Durham Road,Gateshead,Tyne And Wear,BIG MAMA'S,Takeaway/sandwich shop,7844,10,,339062,5,,54.94857300000000,13254,410,EnvironmentalHealth@gateshead.gov.uk,Gateshead,http://www.gateshead.gov.uk,-1.59959400000000,NE8 4JR,2014-02-10,fhrs_4_en-GB,4,,FHRS,5
143462,,,,,BIG T'S JERKY,Manufacturers/packers,7839,5,,608639,0,,,87615,410,EnvironmentalHealth@gateshead.gov.uk,Gateshead,http://www.gateshead.gov.uk,,,2013-11-27,fhrs_5_en-GB,5,,FHRS,0
143463,Bill Quay Primary School,Davidson Road,Bill Quay,"Gateshead, Tyne And Wear",BILL QUAY PRIMARY SCHOOL (KITCHEN),School/college/university,7845,0,,339012,0,,54.95758800000000,10816,410,EnvironmentalHealth@gateshead.gov.uk,Gateshead,http://www.gateshead.gov.uk,-1.53201200000000,NE10 0UN,2014-10-20,fhrs_5_en-GB,5,,FHRS,5
143464,,78 Station Road,Bill Quay,Gateshead,BILL QUAY TANDOORI,Takeaway/sandwich shop,7844,10,,339478,10,,54.95747800000000,41902,410,EnvironmentalHealth@gateshead.gov.uk,Gateshead,http://www.gateshead.gov.uk,-1.53841600000000,NE10 0UH,2013-11-26,fhrs_3_en-GB,3,,FHRS,10
143465,,59 High Street,Felling,Gateshead,BILLY BUNTERS,Restaurant/Cafe/Canteen,1,10,,430465,5,,54.95036200000000,85758,410,EnvironmentalHealth@gateshead.gov.uk,Gateshead,http://www.gateshead.gov.uk,-1.57078600000000,NE10 9LU,2014-03-13,fhrs_4_en-GB,4,,FHRS,5
143466,Birchdale Clinic & Fellgate Nu,Moore Street,Gateshead,Tyne And Wear,BIRCHDALE CARE HOME,Hospitals/Childcare/Caring Premises,5,5,,339308,0,,54.95478900000000,29388,410,EnvironmentalHealth@gateshead.gov.uk,Gateshead,http://www.gateshead.gov.uk,-1.58800800000000,NE8 3PN,2014-02-20,fhrs_5_en-GB,5,,FHRS,0
143467,,,,,Bird and Breakfast,Hotel/bed & breakfast/guest house,7842,,,706649,,,,88592,410,EnvironmentalHealth@gateshead.gov.uk,Gateshead,http://www.gateshead.gov.uk,,,,fhrs_awaitinginspection_en-GB,AwaitingInspection,,FHRS,
143468,,Birtley Lane,Birtley,"Chester Le St, Co Durham",BIRTLEY (PORTOBELLO) GOLF CLUB,Pub/bar/nightclub,7843,0,,339396,5,,54.89296400000000,3737,410,EnvironmentalHealth@gateshead.gov.uk,Gateshead,http://www.gateshead.gov.uk,-1.57269000000000,DH3 2LR,2013-10-10,fhrs_5_en-GB,5,,FHRS,0
143469,1/2 Durham Road North,Durham Road,Birtley,"Chester Le St, Co Durham",BIRTLEY CHOP SUEY HOUSE,Takeaway/sandwich shop,7844,10,,339053,15,,54.89683500000000,13046,410,EnvironmentalHealth@gateshead.gov.uk,Gateshead,http://www.gateshead.gov.uk,-1.57715500000000,DH3 1LE,2014-10-01,fhrs_2_en-GB,2,,FHRS,15
143470,Birtley East Primary School,Highfield,Birtley,"Chester Le St, Co Durham",BIRTLEY EAST PRIMARY SCHOOL (KITCHEN),School/college/university,7845,0,,339214,0,,54.90685700000000,21373,410,EnvironmentalHealth@gateshead.gov.uk,Gateshead,http://www.gateshead.gov.uk,-1.57530300000000,DH3 1QQ,2014-01-15,fhrs_5_en-GB,5,,FHRS,5
143471,14 Harraton Terrace,Durham Road,Birtley,"Chester Le St, Co Durham",BIRTLEY HOME BAKERY,Manufacturers/packers,7839,5,,339045,5,,54.89365600000000,12939,410,EnvironmentalHealth@gateshead.gov.uk,Gateshead,http://www.gateshead.gov.uk,-1.57781200000000,DH3 2QG,2013-11-08,fhrs_4_en-GB,4,,FHRS,10
143472,Masonic Hall,Birtley Lane,Birtley,"Chester Le St, Co Durham",BIRTLEY MASONIC HALL,Pub/bar/nightclub,7843,5,,339392,0,,54.89483900000000,3723,410,EnvironmentalHealth@gateshead.gov.uk,Gateshead,http://www.gateshead.gov.uk,-1.57435400000000,DH3 2PJ,2013-10-31,fhrs_5_en-GB,5,,FHRS,0
143473,,38 Durham Road,Birtley,"Chester Le St, Co Durham",BIRTLEY NEWS LTD,Retailers - other,4613,10,,339831,5,,54.89539100000000,83763,410,EnvironmentalHealth@gateshead.gov.uk,Gateshead,http://www.gateshead.gov.uk,-1.57795000000000,DH3 2QH,2014-07-23,fhrs_3_en-GB,3,,FHRS,10
143474,,,,,BLARNEYS ICES,Mobile caterer,7846,10,,693815,10,,,88076,410,EnvironmentalHealth@gateshead.gov.uk,Gateshead,http://www.gateshead.gov.uk,,,2014-08-05,fhrs_4_en-GB,4,,FHRS,0
143475,,15 Clavering Road,Bleach Green,"Blaydon On Tyne, Tyne And Wear",BLAYDON BUTCHERS,Retailers - other,4613,10,,339769,5,,54.95621000000000,8244,410,EnvironmentalHealth@gateshead.gov.uk,Gateshead,http://www.gateshead.gov.uk,-1.71361900000000,NE21 5HH,2013-07-03,fhrs_4_en-GB,4,,FHRS,5
143476,Dene Field,Park Avenue,Winlaton,"Blaydon On Tyne, Tyne And Wear",BLAYDON CRICKET CLUB,Pub/bar/nightclub,7843,10,,339436,10,,54.95713300000000,3980,410,EnvironmentalHealth@gateshead.gov.uk,Gateshead,http://www.gateshead.gov.uk,-1.72020200000000,NE21 5DE,2013-03-12,fhrs_3_en-GB,3,,FHRS,10
143477,Parkhead Community Primary School,Park Lane,Winlaton,Blaydon,BLAYDON DAY CARE,Hospitals/Childcare/Caring Premises,5,5,,456870,0,,54.95055300000000,85965,410,EnvironmentalHealth@gateshead.gov.uk,Gateshead,http://www.gateshead.gov.uk,-1.71931100000000,NE21 6LT,2014-10-17,fhrs_5_en-GB,5,,FHRS,5
143478,Blaydon Masonic Lodge,Blaydon Bank,Blaydon On Tyne,Tyne And Wear,BLAYDON MASONIC HALL,Pub/bar/nightclub,7843,0,,339435,0,,54.96158300000000,3974,410,EnvironmentalHealth@gateshead.gov.uk,Gateshead,http://www.gateshead.gov.uk,-1.71723500000000,NE21 4AU,2011-09-20,fhrs_5_en-GB,5,,FHRS,5
143479,,Shibdon Road,Blaydon On Tyne,Tyne And Wear,BLAYDON RESOURCE CENTRE,Other catering premises,7841,5,,688638,5,,54.96427700000000,88409,410,EnvironmentalHealth@gateshead.gov.uk,Gateshead,http://www.gateshead.gov.uk,-1.71279600000000,NE21 5AE,2014-10-27,fhrs_5_en-GB,5,,FHRS,0
143480,,Hexham Road,Swalwell,Newcastle upon Tyne,BLAYDON RUGBY CLUB / AMOW CATERING LTD,Pub/bar/nightclub,7843,0,,339193,0,,54.95348500000000,20957,410,EnvironmentalHealth@gateshead.gov.uk,Gateshead,http://www.gateshead.gov.uk,-1.69062300000000,NE16 3BN,2014-05-21,fhrs_5_en-GB,5,,FHRS,5
143481,,5 Harriet Street,Blaydon On Tyne,Tyne And Wear,BLAYDON TANDOORI,Takeaway/sandwich shop,7844,5,,339181,10,,54.96118600000000,19943,410,EnvironmentalHealth@gateshead.gov.uk,Gateshead,http://www.gateshead.gov.uk,-1.71662900000000,NE21 4DE,2013-06-06,fhrs_3_en-GB,3,,FHRS,10
143482,,Lucy Street,Blaydon,Tyne and Wear,BLAYDON TRINITY METHODIST CHURCH,Other catering premises,7841,5,,585732,0,,54.96307100000000,40038,410,EnvironmentalHealth@gateshead.gov.uk,Gateshead,http://www.gateshead.gov.uk,-1.71194600000000,NE21 5PU,2014-01-20,fhrs_5_en-GB,5,,FHRS,0
143483,Blaydon West Primary School,Blaydon Bank,Blaydon On Tyne,Tyne And Wear,BLAYDON WEST PRIMARY SCHOOL (KITCHEN),School/college/university,7845,0,,339431,0,,54.96363600000000,3951,410,EnvironmentalHealth@gateshead.gov.uk,Gateshead,http://www.gateshead.gov.uk,-1.71505000000000,NE21 4PY,2012-02-10,fhrs_5_en-GB,5,,FHRS,5
143484,Blaydon Youth Centre,Shibdon Road,Blaydon on Tyne,Tyne and Wear,BLAYDON YOUTH CENTRE,Restaurant/Cafe/Canteen,1,5,,571571,0,,54.96356100000000,40041,410,EnvironmentalHealth@gateshead.gov.uk,Gateshead,http://www.gateshead.gov.uk,-1.70994300000000,NE21 5QE,2013-09-06,fhrs_5_en-GB,5,,FHRS,0
143485,Blenhein Court,Albion Street,Windy Nook,"Gateshead, Tyne And Wear",BLENHEIN COURT,Other catering premises,7841,5,,339453,0,,54.94227100000000,4060,410,EnvironmentalHealth@gateshead.gov.uk,Gateshead,http://www.gateshead.gov.uk,-1.57235500000000,NE10 9SJ,2012-05-14,fhrs_5_en-GB,5,,FHRS,0
143486,,Dukesway Court,Team Valley,Gateshead,BLISS CATERING CO,Mobile caterer,7846,10,,462609,5,,,86101,410,EnvironmentalHealth@gateshead.gov.uk,Gateshead,http://www.gateshead.gov.uk,,,2014-07-29,fhrs_3_en-GB,3,,FHRS,10
143487,,221 Coatsworth Road,Bensham,"Gateshead, Tyne And Wear",BLOOMS,Takeaway/sandwich shop,7844,5,,339946,5,,54.95363000000000,8834,410,EnvironmentalHealth@gateshead.gov.uk,Gateshead,http://www.gateshead.gov.uk,-1.60722600000000,NE8 1SR,2014-10-01,fhrs_4_en-GB,4,,FHRS,10
143488,,347-349 High Street,Gateshead,Tyne And Wear,BLUE BELL,Pub/bar/nightclub,7843,10,,339206,5,,54.96048000000000,21248,410,EnvironmentalHealth@gateshead.gov.uk,Gateshead,http://www.gateshead.gov.uk,-1.59964700000000,NE8 1EQ,2014-08-07,fhrs_3_en-GB,3,,FHRS,10
143489,Blue Bell Hotel,Victoria Square,Felling,"Gateshead, Tyne And Wear",BLUE BELL,Pub/bar/nightclub,7843,,,690107,,,54.95002900000000,44861,410,EnvironmentalHealth@gateshead.gov.uk,Gateshead,http://www.gateshead.gov.uk,-1.57047700000000,NE10 9LX,,fhrs_awaitinginspection_en-GB,AwaitingInspection,,FHRS,
143490,,Marigold Court,Gateshead,Tyne And Wear,BLUE BELLA VISTA,Restaurant/Cafe/Canteen,1,5,,339648,5,,54.95927600000000,72862,410,EnvironmentalHealth@gateshead.gov.uk,Gateshead,http://www.gateshead.gov.uk,-1.58107600000000,NE10 0DZ,2014-05-21,fhrs_5_en-GB,5,,FHRS,0
143491,Board Inn Ph,Penshaw View,Birtley,"Chester Le St, Co Durham",BOARD INN,Pub/bar/nightclub,7843,10,,339350,10,,54.88993000000000,33187,410,EnvironmentalHealth@gateshead.gov.uk,Gateshead,http://www.gateshead.gov.uk,-1.56102900000000,DH3 2JL,2013-05-14,fhrs_3_en-GB,3,,FHRS,5
143492,"Bobby Shaftoe Caravan Park,Cra",Money Hills,Lamesley,Co Durham,BOBBY SHAFTO CARAVAN PARK,Retailers - other,4613,10,,339306,10,,54.88506200000000,29125,410,EnvironmentalHealth@gateshead.gov.uk,Gateshead,http://www.gateshead.gov.uk,-1.64136000000000,DH9 0RY,2013-10-18,fhrs_3_en-GB,3,,FHRS,5
143493,,7 Arndale House,Birtley,"Chester Le St, Co Durham",BOMBAY MASSALLA,Takeaway/sandwich shop,7844,10,,339957,10,,54.89439200000000,927,410,EnvironmentalHealth@gateshead.gov.uk,Gateshead,http://www.gateshead.gov.uk,-1.57747700000000,DH3 2PG,2014-08-05,fhrs_3_en-GB,3,,FHRS,10
143494,,First Avenue,Team Valley,Gateshead,BOOKER WHOLESALE,Distributors/Transporters,7,0,,339123,0,,54.94286000000000,16536,410,EnvironmentalHealth@gateshead.gov.uk,Gateshead,http://www.gateshead.gov.uk,-1.61711800000000,NE11 0RH,2014-03-05,fhrs_5_en-GB,5,,FHRS,5
143495,,46-52 Cameron Walk,Metrocentre,Gateshead,BOOTS,Retailers - other,4613,0,,339595,0,,54.95765000000000,6281,410,EnvironmentalHealth@gateshead.gov.uk,Gateshead,http://www.gateshead.gov.uk,-1.66857300000000,NE11 9YG,2013-08-01,fhrs_5_en-GB,5,,FHRS,0
143496,,324-326 Sunderland Road,Gateshead,Tyne And Wear,BOOZE CELLAR,Retailers - other,4613,10,,339490,10,,54.95518700000000,42614,410,EnvironmentalHealth@gateshead.gov.uk,Gateshead,http://www.gateshead.gov.uk,-1.58599000000000,NE8 3QP,2014-10-30,fhrs_3_en-GB,3,,FHRS,5
143497,,20 Maple Avenue,Dunston,"Gateshead, Tyne And Wear",BOOZE ZONE,Retailers - other,4613,10,,339286,5,,54.94676100000000,27330,410,EnvironmentalHealth@gateshead.gov.uk,Gateshead,http://www.gateshead.gov.uk,-1.64076400000000,NE11 9XJ,2013-08-22,fhrs_4_en-GB,4,,FHRS,5
143498,,80 Bensham Road,Gateshead,Tyne And Wear,BOROUGH ARMS,Pub/bar/nightclub,7843,10,,339339,10,,54.95960300000000,3193,410,EnvironmentalHealth@gateshead.gov.uk,Gateshead,http://www.gateshead.gov.uk,-1.60894800000000,NE8 1PS,2014-06-17,fhrs_3_en-GB,3,,FHRS,5
143499,Bowes Incline P H,North Side,Birtley,"Chester Le St, Co Durham",BOWES INCLINE HOTEL,Hotel/bed & breakfast/guest house,7842,5,,339324,5,,54.90851800000000,30688,410,EnvironmentalHealth@gateshead.gov.uk,Gateshead,http://www.gateshead.gov.uk,-1.56970200000000,DH3 1RF,2013-06-20,fhrs_5_en-GB,5,,FHRS,5
143500,Bradley Gardens,Sled Lane,Crawcrook,"Wylam, Northumberland",BRADLEY GARDEN,Restaurant/Cafe/Canteen,1,5,,339558,5,,54.96713400000000,52632,410,EnvironmentalHealth@gateshead.gov.uk,Gateshead,http://www.gateshead.gov.uk,-1.80791500000000,NE41 8JH,2014-11-21,fhrs_5_en-GB,5,,FHRS,0
143501,Brandling Primary School,Mulberry Street,Felling,"Gateshead, Tyne And Wear",BRANDLING PRIMARY SCHOOL (KITCHEN),School/college/university,7845,0,,339314,0,,54.95347400000000,29896,410,EnvironmentalHealth@gateshead.gov.uk,Gateshead,http://www.gateshead.gov.uk,-1.57156400000000,NE10 0JB,2012-02-10,fhrs_5_en-GB,5,,FHRS,5
143502,Briarwood E.S.M.I,Whitmore Road,Blaydon On Tyne,Tyne And Wear,BRIARWOOD,Hospitals/Childcare/Caring Premises,5,0,,339537,0,,54.96460900000000,47307,410,EnvironmentalHealth@gateshead.gov.uk,Gateshead,http://www.gateshead.gov.uk,-1.71635500000000,NE21 4AN,2014-02-06,fhrs_5_en-GB,5,,FHRS,0
143503,Former St Marys Ce Infant Scho,St Cuthberts Road,Bensham,"Gateshead, Tyne And Wear",BRIDGES NURSERY,Hospitals/Childcare/Caring Premises,5,5,,339409,5,,54.96218700000000,38120,410,EnvironmentalHealth@gateshead.gov.uk,Gateshead,http://www.gateshead.gov.uk,-1.60768900000000,NE8 2EL,2013-11-11,fhrs_5_en-GB,5,,FHRS,5
143504,Brighton Avenue Primary School,Brighton Road,Bensham,"Gateshead, Tyne And Wear",BRIGHTON AVENUE PRIMARY SCHOOL (KITCHEN),School/college/university,7845,0,,339532,0,,54.95176800000000,4694,410,EnvironmentalHealth@gateshead.gov.uk,Gateshead,http://www.gateshead.gov.uk,-1.61217800000000,NE8 1XS,2014-03-31,fhrs_5_en-GB,5,,FHRS,5
143505,,288 Old Durham Road,Deckham,"Gateshead, Tyne And Wear",BROWNS FAMILY BUTCHERS,Retailers - other,4613,10,,339333,0,,54.95056300000000,31503,410,EnvironmentalHealth@gateshead.gov.uk,Gateshead,http://www.gateshead.gov.uk,-1.59532700000000,NE8 4BQ,2014-05-15,fhrs_4_en-GB,4,,FHRS,10
143506,22-26 Upper Red Mall,The Studio,Metrocentre,Gateshead,BUFFET KING@METRO,Restaurant/Cafe/Canteen,1,10,,339665,10,,54.95765000000000,76689,410,EnvironmentalHealth@gateshead.gov.uk,Gateshead,http://www.gateshead.gov.uk,-1.66857300000000,NE11 9XG,2014-06-09,fhrs_3_en-GB,3,,FHRS,10
143507,,5-7 Russell Way,Metrocentre,"Gateshead, Tyne And Wear",BURGER KING,Restaurant/Cafe/Canteen,1,0,,339397,0,,54.95765000000000,37553,410,EnvironmentalHealth@gateshead.gov.uk,Gateshead,http://www.gateshead.gov.uk,-1.66857300000000,NE11 9YZ,2013-01-16,fhrs_5_en-GB,5,,FHRS,0
143508,Burger King,Washington Services,Portobello,"Washington, Tyne And Wear",BURGER KING,Takeaway/sandwich shop,7844,0,,339513,0,,54.88933300000000,45266,410,EnvironmentalHealth@gateshead.gov.uk,Gateshead,http://www.gateshead.gov.uk,-1.55985100000000,DH3 2SJ,2014-08-05,fhrs_5_en-GB,5,,FHRS,0
143509,Park View,Shibdon Road,Blaydon On Tyne,Tyne And Wear,Busy Bees,Hospitals/Childcare/Caring Premises,5,0,,339447,0,,54.95935700000000,40058,410,EnvironmentalHealth@gateshead.gov.uk,Gateshead,http://www.gateshead.gov.uk,-1.70318100000000,NE21 5LU,2014-07-28,fhrs_5_en-GB,5,,FHRS,0
143510,Bute Arms P H,Hookergate Lane,High Spen,"Rowlands Gill, Tyne And Wear",BUTE ARMS,Pub/bar/nightclub,7843,20,,339220,15,,54.93102400000000,22166,410,EnvironmentalHealth@gateshead.gov.uk,Gateshead,http://www.gateshead.gov.uk,-1.78452200000000,NE39 2BD,2014-09-25,fhrs_1_en-GB,1,,FHRS,15
143511,,2 Cromwell Avenue,Winlaton,"Blaydon On Tyne, Tyne And Wear",BV AND SONS,Retailers - other,4613,10,,339002,10,,54.95681900000000,10347,410,EnvironmentalHealth@gateshead.gov.uk,Gateshead,http://www.gateshead.gov.uk,-1.72439000000000,NE21 4RG,2014-05-15,fhrs_3_en-GB,3,,FHRS,5
143512,Byermoor Sacred Heart RC Prima,Lobley Hill Road,Whickham,"Newcastle Upon Tyne, Tyne And",BYERMOOR SACRED HEART RC PRIMARY SCHOOL (KITCHEN),School/college/university,7845,5,,339262,0,,54.91140300000000,26111,410,EnvironmentalHealth@gateshead.gov.uk,Gateshead,http://www.gateshead.gov.uk,-1.70922600000000,NE16 6NU,2013-04-18,fhrs_5_en-GB,5,,FHRS,0
143513,,3 Boxlaw,Beacon Lough,"Gateshead, Tyne And Wear",C AND S STORES,Retailers - other,4613,10,,339494,10,,54.93447000000000,4301,410,EnvironmentalHealth@gateshead.gov.uk,Gateshead,http://www.gateshead.gov.uk,-1.57462200000000,NE9 6ST,2013-06-24,fhrs_3_en-GB,3,,FHRS,5
143514,Caedmon Primary School,Whitehall Road,Gateshead,Tyne And Wear,CAEDMON PRIMARY SCHOOL (KITCHEN),School/college/university,7845,0,,339533,0,,54.94997900000000,46987,410,EnvironmentalHealth@gateshead.gov.uk,Gateshead,http://www.gateshead.gov.uk,-1.60616900000000,NE8 4NQ,2014-03-26,fhrs_5_en-GB,5,,FHRS,5
143515,Lindum Club,Durham Road,Gateshead,Tyne and Wear,CAFE @ THE CLUB,Restaurant/Cafe/Canteen,1,5,,681958,5,,54.94766200000000,88037,410,EnvironmentalHealth@gateshead.gov.uk,Gateshead,http://www.gateshead.gov.uk,-1.59851000000000,NE9 5AY,2014-06-06,fhrs_5_en-GB,5,,FHRS,5
143516,Thornley Woodlands Centre,Lockhaugh Road,Rowlands Gill,Tyne and Wear,CAFE AT THORNLEY WOODS,Restaurant/Cafe/Canteen,1,5,,574563,0,,54.93207900000000,87138,410,EnvironmentalHealth@gateshead.gov.uk,Gateshead,http://www.gateshead.gov.uk,-1.73208100000000,NE39 1AW,2013-08-09,fhrs_4_en-GB,4,,FHRS,10
143517,Adjacent To The Bugle Ph,Meresyde,Leam Lane Estate,Gateshead,Cafe Leam,Takeaway/sandwich shop,7844,,,734465,,,54.94196500000000,88988,410,EnvironmentalHealth@gateshead.gov.uk,Gateshead,http://www.gateshead.gov.uk,-1.54499300000000,NE10 8UP,,fhrs_awaitinginspection_en-GB,AwaitingInspection,,FHRS,
143518,,The Watermark,Gateshead,Tyne and Wear,CAFE MEO'S,Restaurant/Cafe/Canteen,1,10,,339621,5,,54.96378100000000,68255,410,EnvironmentalHealth@gateshead.gov.uk,Gateshead,http://www.gateshead.gov.uk,-1.67626900000000,NE11 9SZ,2013-08-28,fhrs_4_en-GB,4,,FHRS,0
143519,,52-53 The Galleria,Metrocentre,Gateshead,CAFE NOVA,Restaurant/Cafe/Canteen,1,5,,339147,10,,54.95765000000000,17410,410,EnvironmentalHealth@gateshead.gov.uk,Gateshead,http://www.gateshead.gov.uk,-1.66857300000000,NE11 9YP,2014-06-04,fhrs_4_en-GB,4,,FHRS,5
143520,1 Redpath Way,Metrocentre,Dunston,"Gateshead, Tyne And Wear",CAFE ROUGE,Restaurant/Cafe/Canteen,1,0,,339642,0,,54.95765000000000,71812,410,EnvironmentalHealth@gateshead.gov.uk,Gateshead,http://www.gateshead.gov.uk,-1.66857300000000,NE11 9HX,2013-06-18,fhrs_5_en-GB,5,,FHRS,5
143521,,Unit 12 The Galleria,Metrocentre,Gateshead,CAFFE NERO,Restaurant/Cafe/Canteen,1,0,,339873,0,,54.95765000000000,84467,410,EnvironmentalHealth@gateshead.gov.uk,Gateshead,http://www.gateshead.gov.uk,-1.66857300000000,NE11 9YG,2013-05-07,fhrs_5_en-GB,5,,FHRS,5
143522,Blaydon Car Boot Sale,Hexham Road,Swalwell,Newcastle upon Tyne,CAISLEYS KITCHEN,Mobile caterer,7846,10,,410541,10,,54.95348500000000,85595,410,EnvironmentalHealth@gateshead.gov.uk,Gateshead,http://www.gateshead.gov.uk,-1.69062300000000,NE16 3BN,2014-06-11,fhrs_3_en-GB,3,,FHRS,5
143523,,273 High Street,Gateshead,Tyne And Wear,Cake Time by Maria,Restaurant/Cafe/Canteen,1,,,722795,,,54.96145200000000,88795,410,EnvironmentalHealth@gateshead.gov.uk,Gateshead,http://www.gateshead.gov.uk,-1.59995000000000,NE8 1EP,,fhrs_awaitinginspection_en-GB,AwaitingInspection,,FHRS,
143524,,,,,CAKES BY BECKY,Retailers - other,4613,10,,339901,5,,,85006,410,EnvironmentalHealth@gateshead.gov.uk,Gateshead,http://www.gateshead.gov.uk,,,2014-04-15,fhrs_4_en-GB,4,,FHRS,5
143525,,,,,CAKESTORIES,Other catering premises,7841,5,,339904,0,,,85048,410,EnvironmentalHealth@gateshead.gov.uk,Gateshead,http://www.gateshead.gov.uk,,,2012-04-12,fhrs_5_en-GB,5,,FHRS,0
143526,,,,,CANDY CAKES,Other catering premises,7841,5,,632009,0,,,87874,410,EnvironmentalHealth@gateshead.gov.uk,Gateshead,http://www.gateshead.gov.uk,,,2014-03-05,fhrs_5_en-GB,5,,FHRS,0
143527,1 Frank Place,Durham Road,Birtley,Chester-le-Street,CANTON INN,Takeaway/sandwich shop,7844,5,,624626,5,,54.89286400000000,87799,410,EnvironmentalHealth@gateshead.gov.uk,Gateshead,http://www.gateshead.gov.uk,-1.57760200000000,DH3 2QF,2014-03-05,fhrs_5_en-GB,5,,FHRS,5
143528,,1 Leybourne Hold,Birtley,Chester Le St,CAPERS,Retailers - other,4613,5,,494402,5,,54.90595900000000,86135,410,EnvironmentalHealth@gateshead.gov.uk,Gateshead,http://www.gateshead.gov.uk,-1.57804200000000,DH3 1QF,2013-05-14,fhrs_5_en-GB,5,,FHRS,5
143529,Cardinal Hume Catholic School,Old Durham Road,Gateshead,Tyne and Wear,CARDINAL HUME CATHOLIC SCHOOL (KITCHEN),School/college/university,7845,0,,339686,0,,54.93066600000000,78703,410,EnvironmentalHealth@gateshead.gov.uk,Gateshead,http://www.gateshead.gov.uk,-1.57659800000000,NE9 6RZ,2012-10-05,fhrs_5_en-GB,5,,FHRS,0
143530,,10A Coldwell Street,Felling,"Gateshead, Tyne And Wear",CARL GILLS GOLDEN FRY,Takeaway/sandwich shop,7844,5,,339950,5,,54.94878300000000,8978,410,EnvironmentalHealth@gateshead.gov.uk,Gateshead,http://www.gateshead.gov.uk,-1.57141100000000,NE10 9HH,2013-01-08,fhrs_5_en-GB,5,,FHRS,5
143531,,14-16 Morris Road,Whickham,"Newcastle Upon Tyne, Tyne And",CAROLS NEWS & BOOZE,Retailers - other,4613,10,,339311,5,,54.94927500000000,29526,410,EnvironmentalHealth@gateshead.gov.uk,Gateshead,http://www.gateshead.gov.uk,-1.67858700000000,NE16 4BW,2013-08-16,fhrs_4_en-GB,4,,FHRS,5
143532,,180 Carr Hill Road,Deckham,"Gateshead, Tyne And Wear",CARR HILL FISH SHOP,Takeaway/sandwich shop,7844,10,,339614,5,,54.94513800000000,6644,410,EnvironmentalHealth@gateshead.gov.uk,Gateshead,http://www.gateshead.gov.uk,-1.58294000000000,NE9 5NA,2014-06-04,fhrs_3_en-GB,3,,FHRS,10
143533,Carr Hill Primary School,Carr Hill Road,Deckham,"Gateshead, Tyne And Wear",CARR HILL PRIMARY SCHOOL (KITCHEN),School/college/university,7845,0,,339615,0,,54.94624700000000,6652,410,EnvironmentalHealth@gateshead.gov.uk,Gateshead,http://www.gateshead.gov.uk,-1.58403700000000,NE9 5NB,2014-11-13,fhrs_5_en-GB,5,,FHRS,0
143534,,36 Durham Road,Birtley,"Chester Le St, Co Durham",CASA ROSA,Takeaway/sandwich shop,7844,10,,339743,5,,54.89539100000000,81511,410,EnvironmentalHealth@gateshead.gov.uk,Gateshead,http://www.gateshead.gov.uk,-1.57795000000000,DH3 2QH,2013-11-18,fhrs_4_en-GB,4,,FHRS,5
143535,Storage Yard,Station Lane,Birtley,Chester Le St,CASCADE CATERING,Mobile caterer,7846,5,,339624,0,,54.89612000000000,68582,410,EnvironmentalHealth@gateshead.gov.uk,Gateshead,http://www.gateshead.gov.uk,-1.57839400000000,DH3 1DJ,2014-07-01,fhrs_5_en-GB,5,,FHRS,0
143536,,12 Arndale House,Birtley,"Chester Le St, Co Durham",CASPIAN KEBAB AND PIZZA,Takeaway/sandwich shop,7844,10,,339958,5,,54.89439200000000,933,410,EnvironmentalHealth@gateshead.gov.uk,Gateshead,http://www.gateshead.gov.uk,-1.57747700000000,DH3 2PG,2013-05-14,fhrs_4_en-GB,4,,FHRS,5
143537,"Whickham Golf Club, Hollinside Park",Fellside Road,Whickham,Newcastle Upon Tyne,Catherine's Catering Par-lour,Restaurant/Cafe/Canteen,1,,,727198,,,54.93435300000000,88840,410,EnvironmentalHealth@gateshead.gov.uk,Gateshead,http://www.gateshead.gov.uk,-1.70892100000000,NE16 5BA,,fhrs_awaitinginspection_en-GB,AwaitingInspection,,FHRS,
143538,The Central Hotel,Half Moon Lane,Gateshead,Tyne And Wear,CENTRAL HOTEL,Pub/bar/nightclub,7843,10,,339175,5,,54.96544800000000,19563,410,EnvironmentalHealth@gateshead.gov.uk,Gateshead,http://www.gateshead.gov.uk,-1.60453400000000,NE8 2AN,2015-01-08,fhrs_4_en-GB,4,,FHRS,5
143539,Chapel General Store,2 Gateshead Road,Sunniside,Newcastle Upon Tyne,CHAPEL FOOD STORE,Retailers - other,4613,10,,339157,0,,54.92506900000000,17740,410,EnvironmentalHealth@gateshead.gov.uk,Gateshead,http://www.gateshead.gov.uk,-1.67308400000000,NE16 5LG,2013-07-01,fhrs_4_en-GB,4,,FHRS,0
143540,Sidney House,Fell Bank,Birtley,"Chester Le St, Co Durham",CHARLES PERKINS R A O B CLUB & INSTITUTE LTD,Pub/bar/nightclub,7843,10,,339105,5,,54.89657200000000,15953,410,EnvironmentalHealth@gateshead.gov.uk,Gateshead,http://www.gateshead.gov.uk,-1.57394600000000,DH3 1AP,2014-06-09,fhrs_4_en-GB,4,,FHRS,5
143541,Hookergate Comprehensive Schoo,Spen Lane,Highfield,"Rowlands Gill, Tyne And Wear",CHARLES THORP COMPREHENSIVE SCHOOL (HOOKERGATE) (KITCHEN),School/college/university,7845,0,,339465,0,,54.92838100000000,41101,410,EnvironmentalHealth@gateshead.gov.uk,Gateshead,http://www.gateshead.gov.uk,-1.77422200000000,NE39 2BX,2012-02-10,fhrs_5_en-GB,5,,FHRS,5
143542,,Main Road,Ryton,Tyne And Wear,CHARLES THORP COMPREHENSIVE SCHOOL (KITCHEN),School/college/university,7845,0,,339268,0,,54.97222600000000,26998,410,EnvironmentalHealth@gateshead.gov.uk,Gateshead,http://www.gateshead.gov.uk,-1.77492900000000,NE40 3AH,2014-03-05,fhrs_5_en-GB,5,,FHRS,5
143543,,592 Durham Road,Low Fell,Gateshead,Chatterbox 592 Cafe,Restaurant/Cafe/Canteen,1,5,,724492,5,,54.93469800000000,88714,410,EnvironmentalHealth@gateshead.gov.uk,Gateshead,http://www.gateshead.gov.uk,-1.59951300000000,NE9 6HX,2014-12-04,fhrs_5_en-GB,5,,FHRS,5
143544,,12 Whickham Industrial Estate,Swalwell,Newcastle upon Tyne,CHINA DINER,Takeaway/sandwich shop,7844,10,,339628,10,,54.95231000000000,70377,410,EnvironmentalHealth@gateshead.gov.uk,Gateshead,http://www.gateshead.gov.uk,-1.68818100000000,NE16 3DA,2014-01-23,fhrs_3_en-GB,3,,FHRS,5
143545,,16 Gosforth Street,Felling,Gateshead,CHINA INN,Takeaway/sandwich shop,7844,10,,339853,10,,54.95250700000000,84063,410,EnvironmentalHealth@gateshead.gov.uk,Gateshead,http://www.gateshead.gov.uk,-1.56995100000000,NE10 9LS,2013-03-12,fhrs_3_en-GB,3,,FHRS,5
143546,,8 Wellington Street,Gateshead,Tyne and Wear,CHINA TOWN,Takeaway/sandwich shop,7844,20,,339516,10,,54.96520100000000,45614,410,EnvironmentalHealth@gateshead.gov.uk,Gateshead,http://www.gateshead.gov.uk,-1.60609800000000,NE8 2AJ,2014-12-15,fhrs_1_en-GB,1,,FHRS,5
143547,,1-2 The Square,Whickham,Newcastle Upon Tyne,CHINA VILLAGE,Takeaway/sandwich shop,7844,10,,339849,10,,54.94596500000000,83968,410,EnvironmentalHealth@gateshead.gov.uk,Gateshead,http://www.gateshead.gov.uk,-1.68109500000000,NE16 4JB,2014-11-04,fhrs_3_en-GB,3,,FHRS,10
143548,,13 Fewster Square,Leam Lane Estate,"Gateshead, Tyne And Wear",CHIP AHOY,Takeaway/sandwich shop,7844,10,,339118,5,,54.94059100000000,16402,410,EnvironmentalHealth@gateshead.gov.uk,Gateshead,http://www.gateshead.gov.uk,-1.54530600000000,NE10 8XQ,2014-08-26,fhrs_3_en-GB,3,,FHRS,10
143549,,107-109 Saltwell Road,Gateshead,Tyne And Wear,CHIP STOP,Takeaway/sandwich shop,7844,10,,529995,5,,54.95014400000000,86691,410,EnvironmentalHealth@gateshead.gov.uk,Gateshead,http://www.gateshead.gov.uk,-1.61586300000000,NE8 4TH,2014-08-11,fhrs_3_en-GB,3,,FHRS,10
143550,,29-31 Russell Way,Metrocentre,"Gateshead, Tyne And Wear",CHIQUITO,Restaurant/Cafe/Canteen,1,5,,339400,0,,54.95765000000000,37580,410,EnvironmentalHealth@gateshead.gov.uk,Gateshead,http://www.gateshead.gov.uk,-1.66857300000000,NE11 9YZ,2013-08-19,fhrs_4_en-GB,4,,FHRS,10
143551,,,,,CHOCLATEAS,Retailers - other,4613,5,,339907,0,,,85065,410,EnvironmentalHealth@gateshead.gov.uk,Gateshead,http://www.gateshead.gov.uk,,,2014-02-12,fhrs_5_en-GB,5,,FHRS,0
143552,,,,,CHOCOLATE MAKER,Manufacturers/packers,7839,10,,650581,5,,,87578,410,EnvironmentalHealth@gateshead.gov.uk,Gateshead,http://www.gateshead.gov.uk,,,2014-03-24,fhrs_4_en-GB,4,,FHRS,5
143553,Chopwell Community Centre,Derwent Street,Chopwell,Newcastle Upon Tyne,CHOPWELL COMMUNITY CENTRE,Other catering premises,7841,10,,354712,5,,54.91778700000000,11518,410,EnvironmentalHealth@gateshead.gov.uk,Gateshead,http://www.gateshead.gov.uk,-1.81761900000000,NE17 7HS,2012-04-23,fhrs_4_en-GB,4,,FHRS,0
143554,Masonic Hall,Derwent Street,Chopwell,Newcastle Upon Tyne,CHOPWELL MASONIC HALL,Pub/bar/nightclub,7843,5,,339018,5,,54.91863000000000,11521,410,EnvironmentalHealth@gateshead.gov.uk,Gateshead,http://www.gateshead.gov.uk,-1.81642900000000,NE17 7HZ,2014-09-22,fhrs_5_en-GB,5,,FHRS,0
143555,Chopwell Primary School,Derwent Street,Chopwell,Newcastle Upon Tyne,CHOPWELL PRIMARY SCHOOL (KITCHEN),School/college/university,7845,0,,339017,0,,54.91778700000000,11517,410,EnvironmentalHealth@gateshead.gov.uk,Gateshead,http://www.gateshead.gov.uk,-1.81761900000000,NE17 7HS,2014-03-04,fhrs_5_en-GB,5,,FHRS,5
143556,,218 Saltwell Road,Gateshead,Tyne and Wear,CHOW CHOW,Takeaway/sandwich shop,7844,5,,553139,0,,54.94703700000000,86948,410,EnvironmentalHealth@gateshead.gov.uk,Gateshead,http://www.gateshead.gov.uk,-1.61366000000000,NE8 4TP,2013-08-14,fhrs_5_en-GB,5,,FHRS,5
143557,,86 Coatsworth Road,Bensham,"Gateshead, Tyne And Wear",CHUNKY CHIPS,Takeaway/sandwich shop,7844,10,,339669,10,,54.95570900000000,77441,410,EnvironmentalHealth@gateshead.gov.uk,Gateshead,http://www.gateshead.gov.uk,-1.60801800000000,NE8 1QP,2013-11-18,fhrs_3_en-GB,3,,FHRS,10
143558,,5 Ravensworth Villas,Wrekenton,"Gateshead, Tyne And Wear",CHUTNEY,Takeaway/sandwich shop,7844,20,,339734,10,,54.92492900000000,81199,410,EnvironmentalHealth@gateshead.gov.uk,Gateshead,http://www.gateshead.gov.uk,-1.57534700000000,NE9 7JP,2015-01-21,fhrs_1_en-GB,1,,FHRS,10
143559,Ilfracombe House,Back Row,Whickham,"Newcastle Upon Tyne, Tyne And",CHUTNEYS,Restaurant/Cafe/Canteen,1,5,,339638,5,,54.94628900000000,71391,410,EnvironmentalHealth@gateshead.gov.uk,Gateshead,http://www.gateshead.gov.uk,-1.68110800000000,NE16 4AB,2014-11-18,fhrs_5_en-GB,5,,FHRS,5
143560,,South View,Clara Vale,Ryton,CLARA VALE VILLAGE HALL,Other catering premises,7841,,,639063,,,54.97995500000000,40846,410,EnvironmentalHealth@gateshead.gov.uk,Gateshead,http://www.gateshead.gov.uk,-1.79066700000000,NE40 3SY,,fhrs_awaitinginspection_en-GB,AwaitingInspection,,FHRS,
143561,Clifford House,Lucy Street,Blaydon On Tyne,Tyne And Wear,CLIFFORD HOUSE,Hospitals/Childcare/Caring Premises,5,5,,339446,0,,54.96307100000000,40039,410,EnvironmentalHealth@gateshead.gov.uk,Gateshead,http://www.gateshead.gov.uk,-1.71194600000000,NE21 5PU,2014-11-07,fhrs_5_en-GB,5,,FHRS,0
143562,,Walker View,Felling,Gateshead,CLM CATERING,Other catering premises,7841,0,,339656,0,,54.94879600000000,75495,410,EnvironmentalHealth@gateshead.gov.uk,Gateshead,http://www.gateshead.gov.uk,-1.56760200000000,NE10 9QF,2014-09-10,fhrs_5_en-GB,5,,FHRS,5
143563,Clover Hill Community Primary,Glenhurst Drive,Whickham,"Newcastle Upon Tyne, Tyne And",CLOVER HILL PRIMARY SCHOOL (KITCHEN),School/college/university,7845,0,,339162,0,,54.93342300000000,18212,410,EnvironmentalHealth@gateshead.gov.uk,Gateshead,http://www.gateshead.gov.uk,-1.69261900000000,NE16 5SJ,2012-10-12,fhrs_5_en-GB,5,,FHRS,0
143564,Leybourne Hold,Durham Road,Birtley,"Chester Le St, Co Durham",COACH AND HORSES,Pub/bar/nightclub,7843,10,,339052,0,,54.90595900000000,13040,410,EnvironmentalHealth@gateshead.gov.uk,Gateshead,http://www.gateshead.gov.uk,-1.57804200000000,DH3 1QF,2014-08-22,fhrs_4_en-GB,4,,FHRS,10
143565,,1 Norfolk Place,Birtley,"Chester Le St, Co Durham",COD FATHER,Takeaway/sandwich shop,7844,10,,339321,10,,54.88236700000000,30573,410,EnvironmentalHealth@gateshead.gov.uk,Gateshead,http://www.gateshead.gov.uk,-1.57200700000000,DH3 2DQ,2014-07-15,fhrs_3_en-GB,3,,FHRS,10
143566,,1-3 Lane Head,Ryton,Tyne And Wear,COFFEE JOHNNY'S LTD,Restaurant/Cafe/Canteen,1,5,,339246,5,,54.97269100000000,24870,410,EnvironmentalHealth@gateshead.gov.uk,Gateshead,http://www.gateshead.gov.uk,-1.76430400000000,NE40 3NA,2013-09-30,fhrs_5_en-GB,5,,FHRS,5
143567,"Unit 6, Vance Court",Dunne Road,Blaydon,Tyne and Wear,COFFEE LATINO/STORM TEA,Distributors/Transporters,7,5,,576880,0,,54.96798200000000,87212,410,EnvironmentalHealth@gateshead.gov.uk,Gateshead,http://www.gateshead.gov.uk,-1.69893100000000,NE21 5NH,2013-07-24,fhrs_5_en-GB,5,,FHRS,0
143568,,Kingsway North,Team Valley,"Gateshead, Tyne And Wear",COFFEE QUARTER,Restaurant/Cafe/Canteen,1,0,,339731,5,,54.93249800000000,81100,410,EnvironmentalHealth@gateshead.gov.uk,Gateshead,http://www.gateshead.gov.uk,-1.61960400000000,NE11 0NA,2014-07-25,fhrs_5_en-GB,5,,FHRS,0
143569,,,,,COFFEE SUPREME,Mobile caterer,7846,5,,589585,0,,,85094,410,EnvironmentalHealth@gateshead.gov.uk,Gateshead,http://www.gateshead.gov.uk,,,2013-09-20,fhrs_5_en-GB,5,,FHRS,0
143570,Chameleon House,1 Dukesway,Team Valley,Gateshead,COFFEE@MODERNO,Restaurant/Cafe/Canteen,1,5,,354724,5,,54.93202400000000,85193,410,EnvironmentalHealth@gateshead.gov.uk,Gateshead,http://www.gateshead.gov.uk,-1.62628800000000,NE11 0PZ,2013-11-13,fhrs_5_en-GB,5,,FHRS,0
143571,Colegate Community Primary Sch,Colegate West,High Heworth,"Gateshead, Tyne And Wear",COLEGATE PRIMARY SCHOOL (KITCHEN),School/college/university,7845,0,,339952,0,,54.94447400000000,9076,410,EnvironmentalHealth@gateshead.gov.uk,Gateshead,http://www.gateshead.gov.uk,-1.55528400000000,NE10 9AH,2011-09-20,fhrs_5_en-GB,5,,FHRS,5
143572,,,,,COME DINE AT OURS,Other catering premises,7841,5,,553141,0,,,86993,410,EnvironmentalHealth@gateshead.gov.uk,Gateshead,http://www.gateshead.gov.uk,,,2013-08-20,fhrs_5_en-GB,5,,FHRS,0
143573,,60-61 The Galleria,Metrocentre,"Gateshead, Tyne And Wear",COOKERY NOOK,Restaurant/Cafe/Canteen,1,5,,339148,0,,54.95765000000000,17415,410,EnvironmentalHealth@gateshead.gov.uk,Gateshead,http://www.gateshead.gov.uk,-1.66857300000000,NE11 9YP,2012-09-21,fhrs_5_en-GB,5,,FHRS,0
143574,Sheriff Hill Methodist Church,Sheriffs Highway,Sheriff Hill,"Gateshead, Tyne And Wear",CORNERSTONE PROJECT,Other catering premises,7841,5,,339440,0,,54.94264600000000,39923,410,EnvironmentalHealth@gateshead.gov.uk,Gateshead,http://www.gateshead.gov.uk,-1.59003700000000,NE9 5UE,2014-05-19,fhrs_5_en-GB,5,,FHRS,0
143575,,Dunsmuir Grove,Gateshead,Tyne And Wear,CORPUS CHRISTI RC PRIMARY SCHOOL (KITCHEN),School/college/university,7845,0,,339240,0,,54.94966700000000,23485,410,EnvironmentalHealth@gateshead.gov.uk,Gateshead,http://www.gateshead.gov.uk,-1.60985600000000,NE8 4QL,2012-10-16,fhrs_5_en-GB,5,,FHRS,0
143576,,,,,CORRETTA'S TROPICAL DELIGHTS,Other catering premises,7841,,,657461,,,,88141,410,EnvironmentalHealth@gateshead.gov.uk,Gateshead,http://www.gateshead.gov.uk,,,,fhrs_awaitinginspection_en-GB,AwaitingInspection,,FHRS,
143577,9 Redpath Way,Metrocentre,Dunston,Gateshead,Costa (Debenhams),Restaurant/Cafe/Canteen,1,,,706654,,,54.95765000000000,88610,410,EnvironmentalHealth@gateshead.gov.uk,Gateshead,http://www.gateshead.gov.uk,-1.66857300000000,NE11 9HX,,fhrs_awaitinginspection_en-GB,AwaitingInspection,,FHRS,
143578,"Unit 2a, Metro Retail Park",Metrocentre,Dunston,Gateshead,COSTA (WITHIN NEXT),Restaurant/Cafe/Canteen,1,0,,612627,0,,54.96004000000000,87445,410,EnvironmentalHealth@gateshead.gov.uk,Gateshead,http://www.gateshead.gov.uk,-1.67526800000000,NE11 9XU,2014-04-07,fhrs_5_en-GB,5,,FHRS,0
143579,,57-59 Cameron Walk,Metrocentre,"Gateshead, Tyne And Wear",COSTA @ WH SMITH,Restaurant/Cafe/Canteen,1,0,,339706,0,,54.95765000000000,80270,410,EnvironmentalHealth@gateshead.gov.uk,Gateshead,http://www.gateshead.gov.uk,-1.66857300000000,NE11 9YR,2013-05-22,fhrs_5_en-GB,5,,FHRS,0
143580,,6 Trinity Square,Gateshead,Tyne And Wear,COSTA COFFEE,Restaurant/Cafe/Canteen,1,5,,553137,0,,,86738,410,EnvironmentalHealth@gateshead.gov.uk,Gateshead,http://www.gateshead.gov.uk,,NE8 1AG,2013-07-05,fhrs_5_en-GB,5,,FHRS,0
143581,,34A Cameron Walk,Metrocentre,"Gateshead, Tyne And Wear",COSTA COFFEE (GREEN MALL),Restaurant/Cafe/Canteen,1,5,,339705,0,,54.95765000000000,80253,410,EnvironmentalHealth@gateshead.gov.uk,Gateshead,http://www.gateshead.gov.uk,-1.66857300000000,NE11 9YQ,2013-09-20,fhrs_5_en-GB,5,,FHRS,0
143582,Costco Wholesale,Mandela Way,Dunston,"Gateshead, Tyne And Wear",COSTCO WHOLESALE UK LTD,Distributors/Transporters,7,0,,339283,0,,54.96036400000000,27274,410,EnvironmentalHealth@gateshead.gov.uk,Gateshead,http://www.gateshead.gov.uk,-1.65902400000000,NE11 9DH,2015-01-14,fhrs_5_en-GB,5,,FHRS,0
143583,,125 Ellison Road,Dunston,"Gateshead, Tyne And Wear",COSTCUTTER,Retailers - other,4613,10,,339095,10,,54.95031400000000,14964,410,EnvironmentalHealth@gateshead.gov.uk,Gateshead,http://www.gateshead.gov.uk,-1.64188800000000,NE11 9SS,2014-07-22,fhrs_3_en-GB,3,,FHRS,5
143584,,96-100 Kells Lane,Gateshead,Tyne And Wear,COTTAGE HOME BAKERY,Manufacturers/packers,7839,5,,339233,0,,54.93752600000000,23314,410,EnvironmentalHealth@gateshead.gov.uk,Gateshead,http://www.gateshead.gov.uk,-1.59609800000000,NE9 5HX,2013-08-22,fhrs_5_en-GB,5,,FHRS,5
143585,,,,,COUNTRY KITCHEN CATERING,Other catering premises,7841,5,,632008,0,,,87872,410,EnvironmentalHealth@gateshead.gov.uk,Gateshead,http://www.gateshead.gov.uk,,,2014-03-31,fhrs_5_en-GB,5,,FHRS,0
143586,,Durham Road,Birtley,Chester Le St,COVENT HOUSE,Hospitals/Childcare/Caring Premises,5,5,,339841,5,,54.89325800000000,83880,410,EnvironmentalHealth@gateshead.gov.uk,Gateshead,http://www.gateshead.gov.uk,-1.57700500000000,DH3 2PF,2014-11-04,fhrs_5_en-GB,5,,FHRS,0
143587,Craigielea Nursing Home,739 Durham Road,Low Fell,"Gateshead, Tyne And Wear",CRAIGIELEA NURSING HOME,Hospitals/Childcare/Caring Premises,5,0,,339082,0,,54.92871000000000,13581,410,EnvironmentalHealth@gateshead.gov.uk,Gateshead,http://www.gateshead.gov.uk,-1.59585900000000,NE9 6AT,2014-07-21,fhrs_5_en-GB,5,,FHRS,0
143588,Centenary Methodist Church Hall,Main Street,Crawcrook,Ryton,CRAWCROOK CENTENARY METHODIST CHURCH HALL,Other catering premises,7841,10,,536868,5,,54.96651900000000,59632,410,EnvironmentalHealth@gateshead.gov.uk,Gateshead,http://www.gateshead.gov.uk,-1.78976800000000,NE40 4TY,2014-10-08,fhrs_4_en-GB,4,,FHRS,0
143589,,17-19 Main Street,Crawcrook,"Ryton, Tyne And Wear",CRAWCROOK TANDOORI,Restaurant/Cafe/Canteen,1,10,,339275,15,,54.96658000000000,27058,410,EnvironmentalHealth@gateshead.gov.uk,Gateshead,http://www.gateshead.gov.uk,-1.78867400000000,NE40 4TX,2014-02-19,fhrs_2_en-GB,2,,FHRS,10
143590,Crookhill Primary School,Hexham Old Road,Ryton,Tyne And Wear,CROOKHILL PRIMARY SCHOOL (KITCHEN),School/college/university,7845,0,,339189,0,,54.97068800000000,20933,410,EnvironmentalHealth@gateshead.gov.uk,Gateshead,http://www.gateshead.gov.uk,-1.74682000000000,NE40 3ES,2014-03-24,fhrs_5_en-GB,5,,FHRS,0
143591,Cross House Hotel,12 Cross Street,Deckham,"Gateshead, Tyne And Wear",CROSS HOUSE HOTEL,Pub/bar/nightclub,7843,10,,339003,0,,54.95385200000000,10447,410,EnvironmentalHealth@gateshead.gov.uk,Gateshead,http://www.gateshead.gov.uk,-1.59545000000000,NE8 3RN,2012-10-15,fhrs_4_en-GB,4,,FHRS,10
143592,,15 Main Street,Crawcrook,Ryton,CRUSTYS,Takeaway/sandwich shop,7844,10,,724493,10,,54.96658000000000,88766,410,EnvironmentalHealth@gateshead.gov.uk,Gateshead,http://www.gateshead.gov.uk,-1.78867400000000,NE40 4TX,2014-12-02,fhrs_3_en-GB,3,,FHRS,10
143593,,3 High West Street,Gateshead,Tyne And Wear,CUP & CAKE,Restaurant/Cafe/Canteen,1,5,,339749,0,,54.96123600000000,81589,410,EnvironmentalHealth@gateshead.gov.uk,Gateshead,http://www.gateshead.gov.uk,-1.60274800000000,NE8 1EH,2013-10-03,fhrs_5_en-GB,5,,FHRS,0
143594,,,,,CUPCAKE SISTERS,Other catering premises,7841,,,568973,,,,87147,410,EnvironmentalHealth@gateshead.gov.uk,Gateshead,http://www.gateshead.gov.uk,,,,fhrs_awaitinginspection_en-GB,AwaitingInspection,,FHRS,
143595,,53 Coatsworth Road,Bensham,"Gateshead, Tyne And Wear",CURRY GARDEN,Takeaway/sandwich shop,7844,10,,339935,10,,54.95705100000000,8713,410,EnvironmentalHealth@gateshead.gov.uk,Gateshead,http://www.gateshead.gov.uk,-1.60895700000000,NE8 1QL,2013-05-14,fhrs_3_en-GB,3,,FHRS,10
143596,,4 Crowhall Lane,Felling,"Gateshead, Tyne And Wear",CURRY HUT,Takeaway/sandwich shop,7844,10,,339004,5,,54.94886900000000,10484,410,EnvironmentalHealth@gateshead.gov.uk,Gateshead,http://www.gateshead.gov.uk,-1.57044200000000,NE10 9PU,2014-06-18,fhrs_4_en-GB,4,,FHRS,5
143597,,1 Brewery Lane,Swalwell,Newcastle upon Tyne,DA VINCI'S,Takeaway/sandwich shop,7844,10,,339599,5,,54.95430400000000,63789,410,EnvironmentalHealth@gateshead.gov.uk,Gateshead,http://www.gateshead.gov.uk,-1.68443300000000,NE16 3DE,2014-02-04,fhrs_4_en-GB,4,,FHRS,0
143598,,,,,DAISYCUPCAKE,Other catering premises,7841,,,657460,,,,88129,410,EnvironmentalHealth@gateshead.gov.uk,Gateshead,http://www.gateshead.gov.uk,,,,fhrs_awaitinginspection_en-GB,AwaitingInspection,,FHRS,
143599,,146 Balmoral Drive,Gateshead,Tyne And Wear,DANNY'S KITCHEN,Takeaway/sandwich shop,7844,0,,339177,5,,54.94832800000000,1963,410,EnvironmentalHealth@gateshead.gov.uk,Gateshead,http://www.gateshead.gov.uk,-1.57763000000000,NE10 9TS,2013-12-11,fhrs_5_en-GB,5,,FHRS,5
143600,,5 Arndale House,Birtley,"Chester Le St, Co Durham",DANNYS SANDWICH BAR,Takeaway/sandwich shop,7844,10,,339777,5,,54.89439200000000,82618,410,EnvironmentalHealth@gateshead.gov.uk,Gateshead,http://www.gateshead.gov.uk,-1.57747700000000,DH3 2PG,2014-09-24,fhrs_4_en-GB,4,,FHRS,5
143601,,223 Coatsworth Road,Bensham,"Gateshead, Tyne And Wear",DANSKYS,Retailers - other,4613,10,,339947,5,,54.95363000000000,8836,410,EnvironmentalHealth@gateshead.gov.uk,Gateshead,http://www.gateshead.gov.uk,-1.60722600000000,NE8 1SR,2013-08-20,fhrs_4_en-GB,4,,FHRS,5
143602,,,,,DANSKYS (HOME BUSINESS),Other catering premises,7841,10,,339887,0,,,84801,410,EnvironmentalHealth@gateshead.gov.uk,Gateshead,http://www.gateshead.gov.uk,,,2013-08-19,fhrs_4_en-GB,4,,FHRS,0
143603,,55 Dartmouth Avenue,Low Fell,Gateshead,DARTMOUTH NEWS,Retailers - other,4613,10,,339011,5,,54.92481000000000,10787,410,EnvironmentalHealth@gateshead.gov.uk,Gateshead,http://www.gateshead.gov.uk,-1.59869100000000,NE9 6NW,2013-08-19,fhrs_4_en-GB,4,,FHRS,5
143604,,88 Kells Lane,Gateshead,Tyne And Wear,DAVID GORHAM,Manufacturers/packers,7839,5,,339232,5,,54.93752600000000,23306,410,EnvironmentalHealth@gateshead.gov.uk,Gateshead,http://www.gateshead.gov.uk,-1.59609800000000,NE9 5HX,2014-03-17,fhrs_4_en-GB,4,,FHRS,10
143605,,31 St Marys Green,Whickham,"Newcastle Upon Tyne, Tyne And",DEANOS TRATTORIA,Restaurant/Cafe/Canteen,1,10,,339694,5,,54.94625200000000,79298,410,EnvironmentalHealth@gateshead.gov.uk,Gateshead,http://www.gateshead.gov.uk,-1.67748700000000,NE16 4DN,2013-02-19,fhrs_4_en-GB,4,,FHRS,0
143606,,283 High Street,Gateshead,Tyne And Wear,DEAR DELICIOUS,Restaurant/Cafe/Canteen,1,5,,354722,5,,54.96145200000000,84725,410,EnvironmentalHealth@gateshead.gov.uk,Gateshead,http://www.gateshead.gov.uk,-1.59995000000000,NE8 1EP,2013-10-31,fhrs_5_en-GB,5,,FHRS,0
143607,,,,,Dear My Pie,Manufacturers/packers,7839,10,,715671,10,,,88708,410,EnvironmentalHealth@gateshead.gov.uk,Gateshead,http://www.gateshead.gov.uk,,,2015-01-13,fhrs_3_en-GB,3,,FHRS,5
143608,9 Redpath Way,Metrocentre,Dunston,"Gateshead, Tyne And Wear",DEBENHAMS RETAIL PLC,Restaurant/Cafe/Canteen,1,0,,339612,0,,54.95765000000000,66278,410,EnvironmentalHealth@gateshead.gov.uk,Gateshead,http://www.gateshead.gov.uk,-1.66857300000000,NE11 9HX,2013-10-09,fhrs_5_en-GB,5,,FHRS,0
143609,,111 Split Crow Road,Deckham,"Gateshead, Tyne And Wear",DECKHAM BARGAIN STORE,Retailers - other,4613,10,,339467,10,,54.95142700000000,41183,410,EnvironmentalHealth@gateshead.gov.uk,Gateshead,http://www.gateshead.gov.uk,-1.59038500000000,NE8 3SB,2013-07-11,fhrs_3_en-GB,3,,FHRS,5
143610,Within Elgin Centre,Elgin Road,Carr Hill,"Gateshead, Tyne And Wear",DECKHAM DAY CARE 4CHILDREN,Hospitals/Childcare/Caring Premises,5,5,,339673,5,,54.94787200000000,77728,410,EnvironmentalHealth@gateshead.gov.uk,Gateshead,http://www.gateshead.gov.uk,-1.58331700000000,NE9 5PA,2015-01-19,fhrs_5_en-GB,5,,FHRS,0
143611,,119 Split Crow Road,Deckham,"Gateshead, Tyne And Wear",DECKHAM STORES,Retailers - other,4613,10,,339469,5,,54.95107500000000,41192,410,EnvironmentalHealth@gateshead.gov.uk,Gateshead,http://www.gateshead.gov.uk,-1.58711000000000,NE8 3UA,2013-04-30,fhrs_3_en-GB,3,,FHRS,10
143612,,322 Old Durham Road,Deckham,"Gateshead, Tyne And Wear",DECKHAM SUPERMARKET,Retailers - other,4613,10,,339336,0,,54.95056300000000,31535,410,EnvironmentalHealth@gateshead.gov.uk,Gateshead,http://www.gateshead.gov.uk,-1.59532700000000,NE8 4BQ,2013-05-20,fhrs_4_en-GB,4,,FHRS,10
143613,,Patterson Street,Blaydon On Tyne,Tyne And Wear,DELI VAN,Mobile caterer,7846,10,,568972,10,,,87130,410,EnvironmentalHealth@gateshead.gov.uk,Gateshead,http://www.gateshead.gov.uk,,,2014-12-11,fhrs_3_en-GB,3,,FHRS,5
143614,,,,,DELICIOUS CHURROS,Other catering premises,7841,5,,339881,0,,,84659,410,EnvironmentalHealth@gateshead.gov.uk,Gateshead,http://www.gateshead.gov.uk,,,2014-02-28,fhrs_5_en-GB,5,,FHRS,0
143615,,62 Coatsworth Road,Bensham,Gateshead,DELI-LICIOUS,Takeaway/sandwich shop,7844,5,,618816,5,,54.95570900000000,87707,410,EnvironmentalHealth@gateshead.gov.uk,Gateshead,http://www.gateshead.gov.uk,-1.60801800000000,NE8 1QP,2014-02-05,fhrs_5_en-GB,5,,FHRS,5
143616,,,,,DESI-CHATS,Other catering premises,7841,0,,339925,0,,,85288,410,EnvironmentalHealth@gateshead.gov.uk,Gateshead,http://www.gateshead.gov.uk,,,2012-06-19,fhrs_5_en-GB,5,,FHRS,0
143617,"Unit 3, High Spen Industrial Estate",Ramsay Street,High Spen,Rowlands Gill,DESSERT HEAVEN,Manufacturers/packers,7839,5,,339922,0,,,85207,410,EnvironmentalHealth@gateshead.gov.uk,Gateshead,http://www.gateshead.gov.uk,,NE39 4EH,2014-02-05,fhrs_5_en-GB,5,,FHRS,0
143618,Unit 49,Team Valley Business Centre,Earlsway,Team Valley,DESSERTS DELIVERED GATESHEAD LTD,Retailers - other,4613,10,,624625,5,,54.94178500000000,87798,410,EnvironmentalHealth@gateshead.gov.uk,Gateshead,http://www.gateshead.gov.uk,-1.61794000000000,NE11 0QH,2014-03-26,fhrs_4_en-GB,4,,FHRS,5
143619,,,,,DESSERTS ON WHEELS,Other catering premises,7841,5,,520670,0,,,86492,410,EnvironmentalHealth@gateshead.gov.uk,Gateshead,http://www.gateshead.gov.uk,,,2013-04-25,fhrs_5_en-GB,5,,FHRS,0
143620,Communal Lounge,Warwick Court,Gateshead,Tyne and Wear,DESTINY FOODS,Other catering premises,7841,10,,650580,5,,54.95948000000000,50787,410,EnvironmentalHealth@gateshead.gov.uk,Gateshead,http://www.gateshead.gov.uk,-1.60143800000000,NE8 1EX,2014-02-05,fhrs_4_en-GB,4,,FHRS,5
143621,,143 Rawling Road,Bensham,"Gateshead, Tyne And Wear",DEVI GENERAL DEALERS,Retailers - other,4613,10,,339378,5,,54.94980200000000,35027,410,EnvironmentalHealth@gateshead.gov.uk,Gateshead,http://www.gateshead.gov.uk,-1.61291500000000,NE8 4QT,2013-05-21,fhrs_2_en-GB,2,,FHRS,15
143622,,5 Trafford,Allerdene,"Gateshead, Tyne And Wear",DHILLONS GOLDEN FRY,Takeaway/sandwich shop,7844,5,,339504,5,,54.92124300000000,43817,410,EnvironmentalHealth@gateshead.gov.uk,Gateshead,http://www.gateshead.gov.uk,-1.59348400000000,NE9 6NF,2014-07-21,fhrs_5_en-GB,5,,FHRS,5
143623,Unit 3,Dunston Enterprise Park,West View Terrace,"Dunston, Gateshead",DIAL A CURRY/NAJIMAS,Takeaway/sandwich shop,7844,10,,339688,15,,54.95830300000000,78789,410,EnvironmentalHealth@gateshead.gov.uk,Gateshead,http://www.gateshead.gov.uk,-1.65140500000000,NE11 9DW,2014-02-12,fhrs_2_en-GB,2,,FHRS,10
143624,,83 High Street,Wrekenton,"Gateshead, Tyne And Wear",DIAL A PIZZA,Takeaway/sandwich shop,7844,10,,339207,5,,54.92538500000000,21269,410,EnvironmentalHealth@gateshead.gov.uk,Gateshead,http://www.gateshead.gov.uk,-1.57476500000000,NE9 7JR,2015-01-14,fhrs_4_en-GB,4,,FHRS,5
143625,,2 Rothbury Gardens,Lobley Hill,Gateshead,DIBIASIO FISH & CHIPS,Takeaway/sandwich shop,7844,10,,606950,10,,54.93826900000000,87602,410,EnvironmentalHealth@gateshead.gov.uk,Gateshead,http://www.gateshead.gov.uk,-1.63782700000000,NE11 0AT,2014-01-08,fhrs_3_en-GB,3,,FHRS,5
143626,,19 Crowhall Lane,Felling,"Gateshead, Tyne And Wear",DICKSONS,Takeaway/sandwich shop,7844,0,,339817,0,,54.94925500000000,83495,410,EnvironmentalHealth@gateshead.gov.uk,Gateshead,http://www.gateshead.gov.uk,-1.57023500000000,NE10 9PW,2013-01-22,fhrs_5_en-GB,5,,FHRS,0
143627,Unit 6,The Interchange Centre,Gateshead,Tyne And Wear,DICKSONS,Takeaway/sandwich shop,7844,0,,339795,0,,54.96266100000000,83125,410,EnvironmentalHealth@gateshead.gov.uk,Gateshead,http://www.gateshead.gov.uk,-1.60415500000000,NE8 1BH,2012-10-24,fhrs_5_en-GB,5,,FHRS,0
143628,Dobbies Garden World,Durham Road,Birtley,"Chester Le St, Co Durham",DOBBIES CAFE,Restaurant/Cafe/Canteen,1,0,,339056,0,,,13111,410,EnvironmentalHealth@gateshead.gov.uk,Gateshead,http://www.gateshead.gov.uk,,DH3 2BG,2013-09-16,fhrs_5_en-GB,5,,FHRS,5
143629,,3 Whitewell Lane,Ryton,Tyne And Wear,DOMINIC PIZZA,Takeaway/sandwich shop,7844,10,,339535,5,,54.97555200000000,47267,410,EnvironmentalHealth@gateshead.gov.uk,Gateshead,http://www.gateshead.gov.uk,-1.76142800000000,NE40 3PG,2013-11-20,fhrs_3_en-GB,3,,FHRS,10
143630,,199 Saltwell Road,Gateshead,Tyne And Wear,DOMINICS CAFE,Restaurant/Cafe/Canteen,1,5,,360933,5,,54.94742200000000,38804,410,EnvironmentalHealth@gateshead.gov.uk,Gateshead,http://www.gateshead.gov.uk,-1.61326600000000,NE8 4TL,2013-11-13,fhrs_5_en-GB,5,,FHRS,5
143631,,226 Durham Road,Gateshead,Tyne And Wear,DOMINO PIZZA,Takeaway/sandwich shop,7844,5,,339061,0,,54.94857300000000,13252,410,EnvironmentalHealth@gateshead.gov.uk,Gateshead,http://www.gateshead.gov.uk,-1.59959400000000,NE8 4JR,2012-08-21,fhrs_5_en-GB,5,,FHRS,0
143632,,,,,Donnas Snacks,Mobile caterer,7846,,,735728,,,,89023,410,EnvironmentalHealth@gateshead.gov.uk,Gateshead,http://www.gateshead.gov.uk,,,,fhrs_awaitinginspection_en-GB,AwaitingInspection,,FHRS,
143633,,7 Front Street,Swalwell,Newcastle upon Tyne,DOUBLE DRAGON,Takeaway/sandwich shop,7844,10,,339132,10,,54.95408100000000,17151,410,EnvironmentalHealth@gateshead.gov.uk,Gateshead,http://www.gateshead.gov.uk,-1.68498200000000,NE16 3DW,2014-11-04,fhrs_3_en-GB,3,,FHRS,10
143634,Dovecote Nursing Home,Hugar Road,High Spen,"Rowlands Gill, Tyne And Wear",DOVECOTE NURSING HOME,Hospitals/Childcare/Caring Premises,5,5,,339223,5,,54.92801000000000,22340,410,EnvironmentalHealth@gateshead.gov.uk,Gateshead,http://www.gateshead.gov.uk,-1.78296200000000,NE39 2AN,2014-06-16,fhrs_5_en-GB,5,,FHRS,0
143635,,182 Saltwell Road,Gateshead,Tyne And Wear,DRAGON INN,Takeaway/sandwich shop,7844,5,,339421,5,,54.94923500000000,38790,410,EnvironmentalHealth@gateshead.gov.uk,Gateshead,http://www.gateshead.gov.uk,-1.61538700000000,NE8 4XH,2013-07-10,fhrs_5_en-GB,5,,FHRS,5
143636,,6 Morley Terrace,Felling,"Gateshead, Tyne And Wear",DRAGONE'S SANDWICH BAR,Restaurant/Cafe/Canteen,1,5,,339310,0,,54.94925100000000,29501,410,EnvironmentalHealth@gateshead.gov.uk,Gateshead,http://www.gateshead.gov.uk,-1.57156200000000,NE10 9HJ,2013-09-03,fhrs_5_en-GB,5,,FHRS,5
143637,,36 Derwent Street,Chopwell,Newcastle Upon Tyne,DRIFT IN CAFE,Restaurant/Cafe/Canteen,1,5,,633433,5,,54.91950000000000,87911,410,EnvironmentalHealth@gateshead.gov.uk,Gateshead,http://www.gateshead.gov.uk,-1.81548900000000,NE17 7HX,2014-02-26,fhrs_5_en-GB,5,,FHRS,0
143638,,313 High Street,Gateshead,Tyne And Wear,DRINKS EXPRESS,Retailers - other,4613,10,,511471,10,,54.96048000000000,86531,410,EnvironmentalHealth@gateshead.gov.uk,Gateshead,http://www.gateshead.gov.uk,-1.59964700000000,NE8 1EQ,2014-08-07,fhrs_3_en-GB,3,,FHRS,10
143639,Dryden School,Shotley Gardens,Low Fell,Gateshead,DRYDEN SCHOOL (KITCHEN),School/college/university,7845,5,,339854,0,,54.94449000000000,84115,410,EnvironmentalHealth@gateshead.gov.uk,Gateshead,http://www.gateshead.gov.uk,-1.59314000000000,NE9 5UR,2014-04-02,fhrs_5_en-GB,5,,FHRS,0
143640,,Dukesway,Team Valley,"Gateshead, Tyne And Wear",DUKES DINER,Mobile caterer,7846,10,,339785,10,,54.92631900000000,82811,410,EnvironmentalHealth@gateshead.gov.uk,Gateshead,http://www.gateshead.gov.uk,-1.62375100000000,NE11 0LF,2013-11-05,fhrs_3_en-GB,3,,FHRS,10
143641,Dunston Community Centre,Collingwood Terrace,Dunston,"Gateshead, Tyne And Wear",DUNSTON COMMUNITY CENTRE,Other catering premises,7841,5,,339955,0,,54.95644700000000,9170,410,EnvironmentalHealth@gateshead.gov.uk,Gateshead,http://www.gateshead.gov.uk,-1.64044400000000,NE11 9DU,2015-01-07,fhrs_5_en-GB,5,,FHRS,0
143642,,43 Ravensworth Road,Dunston,"Gateshead, Tyne And Wear",DUNSTON FOOD & WINE STORE,Retailers - other,4613,10,,339370,5,,54.95172100000000,34863,410,EnvironmentalHealth@gateshead.gov.uk,Gateshead,http://www.gateshead.gov.uk,-1.64087600000000,NE11 9AB,2013-07-01,fhrs_4_en-GB,4,,FHRS,5
143643,,57 Ravensworth Road,Dunston,"Gateshead, Tyne And Wear",DUNSTON GOLDEN CHIPPY,Takeaway/sandwich shop,7844,10,,339373,10,,54.95172100000000,34871,410,EnvironmentalHealth@gateshead.gov.uk,Gateshead,http://www.gateshead.gov.uk,-1.64087600000000,NE11 9AB,2014-02-25,fhrs_3_en-GB,3,,FHRS,10
143644,,2 King George Avenue,Dunston,"Gateshead, Tyne And Wear",DUNSTON HILL CHINESE TAKEAWAY,Takeaway/sandwich shop,7844,10,,339242,10,,54.94782400000000,23781,410,EnvironmentalHealth@gateshead.gov.uk,Gateshead,http://www.gateshead.gov.uk,-1.64795200000000,NE11 9UP,2013-12-04,fhrs_3_en-GB,3,,FHRS,10
143645,Dunston Masonic Lodge Masonic,29 Holmside Avenue,Dunston,"Gateshead, Tyne And Wear",DUNSTON MASONIC HALL,Pub/bar/nightclub,7843,0,,339219,0,,54.94891800000000,22073,410,EnvironmentalHealth@gateshead.gov.uk,Gateshead,http://www.gateshead.gov.uk,-1.64110400000000,NE11 9TJ,2012-10-31,fhrs_5_en-GB,5,,FHRS,5
143646,,16 Kensington Terrace,Dunston,"Gateshead, Tyne And Wear",DUNSTON NEWS,Retailers - other,4613,10,,339241,10,,54.94919900000000,23595,410,EnvironmentalHealth@gateshead.gov.uk,Gateshead,http://www.gateshead.gov.uk,-1.64481700000000,NE11 9SL,2013-06-25,fhrs_4_en-GB,4,,FHRS,0
143647,Dunston Riverside Primary Scho,Colliery Road,Dunston,"Gateshead, Tyne And Wear",DUNSTON RIVERSIDE PRIMARY SCHOOL (KITCHEN),School/college/university,7845,0,,339953,0,,54.95701200000000,9124,410,EnvironmentalHealth@gateshead.gov.uk,Gateshead,http://www.gateshead.gov.uk,-1.64300000000000,NE11 9DX,2012-10-03,fhrs_5_en-GB,5,,FHRS,0
143648,UTS Stadium,Wellington Road,Dunston,Gateshead,DUNSTON UTS FOOTBALL CLUB,Pub/bar/nightclub,7843,10,,339755,5,,54.95663600000000,81994,410,EnvironmentalHealth@gateshead.gov.uk,Gateshead,http://www.gateshead.gov.uk,-1.65291900000000,NE11 9JL,2013-08-13,fhrs_3_en-GB,3,,FHRS,10
143649,Durham House Hotel,95 Durham Road,Gateshead,Tyne And Wear,DURHAM HOUSE HOTEL,Hotel/bed & breakfast/guest house,7842,5,,339057,5,,54.95371200000000,13177,410,EnvironmentalHealth@gateshead.gov.uk,Gateshead,http://www.gateshead.gov.uk,-1.59924600000000,NE8 4AP,2012-12-14,fhrs_5_en-GB,5,,FHRS,5
143650,,Albany Road,Saltmeadows,Gateshead,DYNAMIX SKATE PARK,Restaurant/Cafe/Canteen,1,10,,339821,10,,54.96499200000000,83542,410,EnvironmentalHealth@gateshead.gov.uk,Gateshead,http://www.gateshead.gov.uk,-1.58902900000000,NE8 3AT,2015-01-14,fhrs_3_en-GB,3,,FHRS,10
143651,,Fellside Road,Whickham,Newcastle Upon Tyne,EAST BYERMOOR GUEST HOUSE,Hotel/bed & breakfast/guest house,7842,0,,339112,0,,54.92335800000000,16201,410,EnvironmentalHealth@gateshead.gov.uk,Gateshead,http://www.gateshead.gov.uk,-1.69965400000000,NE16 5BD,2013-10-22,fhrs_5_en-GB,5,,FHRS,5
143652,,8C Church Street,Winlaton,"Blaydon On Tyne, Tyne And Wear",EAST OCEAN CHINESE TAKEAWAY,Takeaway/sandwich shop,7844,10,,339711,5,,54.95365400000000,8046,410,EnvironmentalHealth@gateshead.gov.uk,Gateshead,http://www.gateshead.gov.uk,-1.72775300000000,NE21 6AW,2014-05-28,fhrs_3_en-GB,3,,FHRS,10
143653,Eastwood Promoting Independenc,The Drive,Heworth,"Gateshead, Tyne And Wear",EASTWOOD,Hospitals/Childcare/Caring Premises,5,0,,339033,5,,54.94968000000000,12303,410,EnvironmentalHealth@gateshead.gov.uk,Gateshead,http://www.gateshead.gov.uk,-1.55847400000000,NE10 0PY,2014-11-11,fhrs_5_en-GB,5,,FHRS,0
143654,Within The Coachman,Burnthouse Lane,Whickham,Newcastle Upon Tyne,EAT CHAT PLAY,Restaurant/Cafe/Canteen,1,5,,633431,0,,54.93671200000000,87685,410,EnvironmentalHealth@gateshead.gov.uk,Gateshead,http://www.gateshead.gov.uk,-1.68911300000000,NE16 5AW,2014-03-10,fhrs_5_en-GB,5,,FHRS,0
143655,,15 Derwent Street,Chopwell,Newcastle Upon Tyne,EATWELL,Takeaway/sandwich shop,7844,10,,339015,10,,54.91942800000000,11462,410,EnvironmentalHealth@gateshead.gov.uk,Gateshead,http://www.gateshead.gov.uk,-1.81513100000000,NE17 7HU,2013-12-04,fhrs_3_en-GB,3,,FHRS,10
143656,,21 St Edmunds Drive,Heworth,Gateshead,EDBERTS HOUSE,Other catering premises,7841,5,,339410,10,,54.94605800000000,38161,410,EnvironmentalHealth@gateshead.gov.uk,Gateshead,http://www.gateshead.gov.uk,-1.55353400000000,NE10 9AE,2013-10-03,fhrs_3_en-GB,3,,FHRS,10
143657,,Washington Services,Portobello,"Washington, Tyne And Wear",EDC,Restaurant/Cafe/Canteen,1,0,,339512,5,,54.88933300000000,45263,410,EnvironmentalHealth@gateshead.gov.uk,Gateshead,http://www.gateshead.gov.uk,-1.55985100000000,DH3 2SJ,2014-08-05,fhrs_5_en-GB,5,,FHRS,0
143658,,Red Mall,Metrocentre,Gateshead,ED'S EASY DINER,Restaurant/Cafe/Canteen,1,0,,548431,0,,54.95765000000000,86529,410,EnvironmentalHealth@gateshead.gov.uk,Gateshead,http://www.gateshead.gov.uk,-1.66857300000000,NE11 9YP,2013-04-30,fhrs_5_en-GB,5,,FHRS,0
143659,Eighton Lodge,Low Eighton,Lamesley,"Gateshead, Tyne And Wear",EIGHTON LODGE,Hospitals/Childcare/Caring Premises,5,0,,339265,0,,54.91307200000000,26638,410,EnvironmentalHealth@gateshead.gov.uk,Gateshead,http://www.gateshead.gov.uk,-1.58476900000000,NE9 7UB,2014-10-23,fhrs_5_en-GB,5,,FHRS,0
143660,"Elephant On The Tyne, Riversid",Green Lane,Gateshead,Tyne And Wear,ELEPHANT ON THE TYNE,Hotel/bed & breakfast/guest house,7842,20,,339169,10,,54.96164400000000,18865,410,EnvironmentalHealth@gateshead.gov.uk,Gateshead,http://www.gateshead.gov.uk,-1.56683900000000,NE10 0SB,2014-06-01,fhrs_1_en-GB,1,,FHRS,10
143661,Unit 18,Blaydon Business Centre,Blaydon On Tyne,Tyne And Wear,ELIZA PEPPERPOT AND COMPANY LTD,Other catering premises,7841,0,,339822,0,,,83571,410,EnvironmentalHealth@gateshead.gov.uk,Gateshead,http://www.gateshead.gov.uk,,NE21 5TN,2014-02-07,fhrs_5_en-GB,5,,FHRS,0
143662,,,,,Elodie's Kitchen,Mobile caterer,7846,,,730002,,,,88901,410,EnvironmentalHealth@gateshead.gov.uk,Gateshead,http://www.gateshead.gov.uk,,,,fhrs_awaitinginspection_en-GB,AwaitingInspection,,FHRS,
143663,Emmanuel  College,Consett Road,Lobley Hill,"Gateshead, Tyne And Wear",EMMANUEL COLLEGE - LOAVES AND FISHES/THE GRANARY,School/college/university,7845,0,,339770,0,,54.93724500000000,82455,410,EnvironmentalHealth@gateshead.gov.uk,Gateshead,http://www.gateshead.gov.uk,-1.64119200000000,NE11 0AN,2014-06-12,fhrs_5_en-GB,5,,FHRS,0
143664,Emmaville Primary School,Main Street,Crawcrook,"Ryton, Tyne And Wear",EMMAVILLE PRIMARY SCHOOL (KITCHEN),School/college/university,7845,0,,339274,0,,54.96735100000000,27051,410,EnvironmentalHealth@gateshead.gov.uk,Gateshead,http://www.gateshead.gov.uk,-1.78709300000000,NE40 4ND,2012-10-11,fhrs_5_en-GB,5,,FHRS,5
143665,Eslington School,Hazel Road,Teams,"Gateshead, Tyne And Wear",ESLINGTON SCHOOL (KITCHEN),School/college/university,7845,0,,339666,0,,54.95153200000000,76742,410,EnvironmentalHealth@gateshead.gov.uk,Gateshead,http://www.gateshead.gov.uk,-1.62282900000000,NE8 2EP,2012-02-10,fhrs_5_en-GB,5,,FHRS,0
143666,,8 Station Road,Low Fell,"Gateshead, Tyne And Wear",ESLINGTON VILLA HOTEL,Hotel/bed & breakfast/guest house,7842,10,,339014,0,,54.93436600000000,11431,410,EnvironmentalHealth@gateshead.gov.uk,Gateshead,http://www.gateshead.gov.uk,-1.60797500000000,NE9 6DR,2013-09-25,fhrs_4_en-GB,4,,FHRS,5
143667,Clockmill Service Station,Clockmill Road,Dunston,Gateshead,ESSO,Retailers - other,4613,0,,582525,0,,54.95327700000000,53402,410,EnvironmentalHealth@gateshead.gov.uk,Gateshead,http://www.gateshead.gov.uk,-1.63503800000000,NE8 2QX,2014-01-03,fhrs_5_en-GB,5,,FHRS,0
143668,Derwent Service Station,Derwenthaugh Road,Swalwell,Newcastle upon Tyne,ESSO,Retailers - other,4613,0,,624621,0,,54.96078600000000,11623,410,EnvironmentalHealth@gateshead.gov.uk,Gateshead,http://www.gateshead.gov.uk,-1.68903700000000,NE16 3BJ,2014-01-06,fhrs_5_en-GB,5,,FHRS,0
143669,,28 Spoor Street,Dunston,"Gateshead, Tyne And Wear",EURO SHOPPER,Retailers - other,4613,5,,339658,5,,54.95233700000000,75909,410,EnvironmentalHealth@gateshead.gov.uk,Gateshead,http://www.gateshead.gov.uk,-1.64244800000000,NE11 9BD,2013-05-09,fhrs_4_en-GB,4,,FHRS,10
143670,,319-321 High Street,Gateshead,Tyne and Wear,EUROPEAN FOODS,Retailers - other,4613,5,,442786,0,,54.96048000000000,85813,410,EnvironmentalHealth@gateshead.gov.uk,Gateshead,http://www.gateshead.gov.uk,-1.59964700000000,NE8 1EQ,2015-01-07,fhrs_5_en-GB,5,,FHRS,0
143671,,,,,EXPRESS CATERING,Other catering premises,7841,10,,579744,0,,,87314,410,EnvironmentalHealth@gateshead.gov.uk,Gateshead,http://www.gateshead.gov.uk,,,2013-09-04,fhrs_4_en-GB,4,,FHRS,5
143672,Riversdale House,Lead Road,Greenside,Ryton,F & L HOLLIDAY BUTCHERS,Manufacturers/packers,7839,10,,339251,5,,54.95437300000000,25345,410,EnvironmentalHealth@gateshead.gov.uk,Gateshead,http://www.gateshead.gov.uk,-1.78130600000000,NE40 4SU,2014-03-06,fhrs_3_en-GB,3,,FHRS,10
143673,,279 Easedale Gardens,Wrekenton,Gateshead,FAIRWAYS,Hospitals/Childcare/Caring Premises,5,5,,339086,5,,54.92425000000000,13956,410,EnvironmentalHealth@gateshead.gov.uk,Gateshead,http://www.gateshead.gov.uk,-1.57640000000000,NE9 7EE,2013-09-16,fhrs_5_en-GB,5,,FHRS,5
143674,At Falla Park County Primary,Falla Park Road,Felling,"Gateshead, Tyne And Wear",FALLA PARK COUNTY PRIMARY SCHOOL (KITCHEN),School/college/university,7845,0,,339104,0,,54.94852700000000,15799,410,EnvironmentalHealth@gateshead.gov.uk,Gateshead,http://www.gateshead.gov.uk,-1.57277200000000,NE10 9HP,2011-10-05,fhrs_5_en-GB,5,,FHRS,5
143675,,301 Old Durham Road,Deckham,"Gateshead, Tyne And Wear",FAMILY COOKING,Takeaway/sandwich shop,7844,10,,339335,10,,54.95079500000000,31516,410,EnvironmentalHealth@gateshead.gov.uk,Gateshead,http://www.gateshead.gov.uk,-1.59488800000000,NE8 3TS,2013-12-17,fhrs_3_en-GB,3,,FHRS,10
143676,2 Dunrobin Terrace,Wesley Street,Low Fell,Gateshead,FELL FISH BAR,Takeaway/sandwich shop,7844,5,,339517,0,,54.93467000000000,45657,410,EnvironmentalHealth@gateshead.gov.uk,Gateshead,http://www.gateshead.gov.uk,-1.59643900000000,NE9 5YN,2014-09-09,fhrs_5_en-GB,5,,FHRS,5
143677,Within Felldyke Primary School,Springwell Road,Wrekenton,"Gateshead, Tyne And Wear",FELLDYKE PRIMARY SCHOOL (KITCHEN),School/college/university,7845,0,,339472,0,,54.92731800000000,41467,410,EnvironmentalHealth@gateshead.gov.uk,Gateshead,http://www.gateshead.gov.uk,-1.56733300000000,NE9 7AA,2012-10-03,fhrs_5_en-GB,5,,FHRS,0
143678,Day Centre,3 Harlequin Lodge,Felling,"Gateshead, Tyne And Wear",FELLING COMMUNITY BASE,Other catering premises,7841,10,,339178,5,,54.94839200000000,19912,410,EnvironmentalHealth@gateshead.gov.uk,Gateshead,http://www.gateshead.gov.uk,-1.57013500000000,NE10 0HF,2013-10-04,fhrs_3_en-GB,3,,FHRS,10
143679,Felling Cricket Club,High Heworth Lane,Felling,"Gateshead, Tyne And Wear",FELLING CRICKET CLUB,Pub/bar/nightclub,7843,10,,339194,5,,54.94585400000000,21001,410,EnvironmentalHealth@gateshead.gov.uk,Gateshead,http://www.gateshead.gov.uk,-1.55659600000000,NE10 9XD,2014-02-19,fhrs_3_en-GB,3,,FHRS,10
143680,Felling Methodist Church,Coldwell Street,Felling,Gateshead,FELLING METHODIST CHURCH LUNCH CLUB,Other catering premises,7841,5,,339884,0,,54.94878300000000,84739,410,EnvironmentalHealth@gateshead.gov.uk,Gateshead,http://www.gateshead.gov.uk,-1.57141100000000,NE10 9HH,2014-08-04,fhrs_5_en-GB,5,,FHRS,0
143681,,11a Morley Terrace,Felling,Gateshead,Felling Pork & Sandwich Shop,Takeaway/sandwich shop,7844,,,735722,,,54.94925000000000,89001,410,EnvironmentalHealth@gateshead.gov.uk,Gateshead,http://www.gateshead.gov.uk,-1.57156200000000,NE10 9HJ,,fhrs_awaitinginspection_en-GB,AwaitingInspection,,FHRS,
143682,,1 Fox Street,Felling,"Gateshead, Tyne And Wear",FELLINGATE CARE CENTRE LTD,Hospitals/Childcare/Caring Premises,5,0,,339793,0,,54.95377400000000,83065,410,EnvironmentalHealth@gateshead.gov.uk,Gateshead,http://www.gateshead.gov.uk,-1.57769800000000,NE10 0BD,2014-01-08,fhrs_5_en-GB,5,,FHRS,0
143683,Fellside Methodist Church,Ancaster Road,Whickham,"Newcastle Upon Tyne, Tyne And",FELLSIDE METHODIST CHURCH,Other catering premises,7841,0,,339636,0,,54.93868800000000,713,410,EnvironmentalHealth@gateshead.gov.uk,Gateshead,http://www.gateshead.gov.uk,-1.69220400000000,NE16 5BJ,2013-01-16,fhrs_5_en-GB,5,,FHRS,5
143684,Fellside County Primary School,Fellside Road,Whickham,"Newcastle Upon Tyne, Tyne And",FELLSIDE PRIMARY SCHOOL (KITCHEN),School/college/university,7845,0,,339109,0,,54.93965100000000,16180,410,EnvironmentalHealth@gateshead.gov.uk,Gateshead,http://www.gateshead.gov.uk,-1.68918400000000,NE16 5AY,2012-10-11,fhrs_5_en-GB,5,,FHRS,5
143685,,5 Fewster Square,Leam Lane Estate,"Gateshead, Tyne And Wear",FEWSTER TANDOORI,Takeaway/sandwich shop,7844,10,,339116,5,,54.94059100000000,16389,410,EnvironmentalHealth@gateshead.gov.uk,Gateshead,http://www.gateshead.gov.uk,-1.54530600000000,NE10 8XQ,2015-01-14,fhrs_4_en-GB,4,,FHRS,5
143686,The Fiddlers,Albion Street,Windy Nook,Gateshead,FIDDLERS THREE,Pub/bar/nightclub,7843,10,,458870,5,,54.94227100000000,334,410,EnvironmentalHealth@gateshead.gov.uk,Gateshead,http://www.gateshead.gov.uk,-1.57235500000000,NE10 9SJ,2013-12-04,fhrs_4_en-GB,4,,FHRS,5
143687,Field House,Bute Road North,High Spen,Rowlands Gill,FIELD HOUSE FARM SHOP,Retailers - other,4613,10,,451438,10,,54.93090300000000,85896,410,EnvironmentalHealth@gateshead.gov.uk,Gateshead,http://www.gateshead.gov.uk,-1.78736300000000,NE39 2AX,2014-10-02,fhrs_3_en-GB,3,,FHRS,5
143688,,,,,FINISHING TOUCHES CAKES,Other catering premises,7841,,,657467,,,,88194,410,EnvironmentalHealth@gateshead.gov.uk,Gateshead,http://www.gateshead.gov.uk,,,,fhrs_awaitinginspection_en-GB,AwaitingInspection,,FHRS,
143689,,Lead Road,Greenside,Ryton,FISHNETS LTD,Takeaway/sandwich shop,7844,5,,339728,0,,54.95447300000000,81037,410,EnvironmentalHealth@gateshead.gov.uk,Gateshead,http://www.gateshead.gov.uk,-1.78164900000000,NE40 4SW,2013-09-20,fhrs_5_en-GB,5,,FHRS,0
143690,,4 Ravensworth Road,Birtley,Chester-le-Street,FIVE STAR,Takeaway/sandwich shop,7844,5,,339699,5,,54.89804200000000,79673,410,EnvironmentalHealth@gateshead.gov.uk,Gateshead,http://www.gateshead.gov.uk,-1.58077500000000,DH3 1EZ,2013-02-22,fhrs_5_en-GB,5,,FHRS,5
143691,,N.E. Fruit & Vegetable Market,Team Valley,Gateshead,FLAMIN TASTY,Mobile caterer,7846,10,,339912,5,,,85109,410,EnvironmentalHealth@gateshead.gov.uk,Gateshead,http://www.gateshead.gov.uk,,,2013-10-16,fhrs_4_en-GB,4,,FHRS,0
143692,,,,,FLOSSY'S TREATS,Other catering premises,7841,10,,635344,0,,,87856,410,EnvironmentalHealth@gateshead.gov.uk,Gateshead,http://www.gateshead.gov.uk,,,2014-02-21,fhrs_4_en-GB,4,,FHRS,0
143693,Dryden Centre,Evistones Road,Low Fell,"Gateshead, Tyne And Wear",FOOD FOR THOUGHT,Restaurant/Cafe/Canteen,1,10,,339754,5,,54.94285400000000,81912,410,EnvironmentalHealth@gateshead.gov.uk,Gateshead,http://www.gateshead.gov.uk,-1.59570100000000,NE9 5UA,2013-10-18,fhrs_4_en-GB,4,,FHRS,5
143694,Ship Inn P.H.,High Heworth Lane,Felling,Gateshead,FOODUNOS,Takeaway/sandwich shop,7844,,,722793,,,54.94585400000000,88793,410,EnvironmentalHealth@gateshead.gov.uk,Gateshead,http://www.gateshead.gov.uk,-1.55659600000000,NE10 9XD,,fhrs_awaitinginspection_en-GB,AwaitingInspection,,FHRS,
143695,,,,,FOODY,Retailers - other,4613,,,650586,,,,88048,410,EnvironmentalHealth@gateshead.gov.uk,Gateshead,http://www.gateshead.gov.uk,,,,fhrs_awaitinginspection_en-GB,AwaitingInspection,,FHRS,
143696,Contract Unit A,Wellington Road,Dunston,Gateshead,FORCELLO,Takeaway/sandwich shop,7844,10,,590931,0,,54.95616400000000,87494,410,EnvironmentalHealth@gateshead.gov.uk,Gateshead,http://www.gateshead.gov.uk,-1.65451600000000,NE11 9HS,2014-01-13,fhrs_4_en-GB,4,,FHRS,0
143697,,Fountain Court,Teams,"Gateshead, Tyne And Wear",FOUNTAIN COURT RESTAURANT,Restaurant/Cafe/Canteen,1,10,,339609,0,,54.94554300000000,65747,410,EnvironmentalHealth@gateshead.gov.uk,Gateshead,http://www.gateshead.gov.uk,-1.61863800000000,NE8 4AF,2014-03-31,fhrs_4_en-GB,4,,FHRS,0
143698,,Fountain Court,Teams,"Gateshead, Tyne And Wear",FOUNTAIN LOCAL,Retailers - other,4613,10,,339611,5,,54.94554300000000,66276,410,EnvironmentalHealth@gateshead.gov.uk,Gateshead,http://www.gateshead.gov.uk,-1.61863800000000,NE8 4AF,2013-07-02,fhrs_4_en-GB,4,,FHRS,5
143699,Fox And Hounds Inn Ph,Main Street,Crawcrook,"Ryton, Tyne And Wear",FOX AND HOUNDS,Pub/bar/nightclub,7843,10,,339273,5,,54.96690100000000,27034,410,EnvironmentalHealth@gateshead.gov.uk,Gateshead,http://www.gateshead.gov.uk,-1.78698600000000,NE40 4TR,2013-09-27,fhrs_3_en-GB,3,,FHRS,10
143700,Fox And Hounds Inn,Coalburns,Greenside,"Ryton, Tyne And Wear",FOX AND HOUNDS INN,Pub/bar/nightclub,7843,10,,339933,5,,54.94275700000000,8626,410,EnvironmentalHealth@gateshead.gov.uk,Gateshead,http://www.gateshead.gov.uk,-1.80448700000000,NE40 4JN,2013-12-11,fhrs_4_en-GB,4,,FHRS,5
143701,,,,,FOX'S CATERING,Other catering premises,7841,10,,661510,5,,,77793,410,EnvironmentalHealth@gateshead.gov.uk,Gateshead,http://www.gateshead.gov.uk,,,2014-04-25,fhrs_4_en-GB,4,,FHRS,5
143702,,42A Garden Walk,Metrocentre,"Gateshead, Tyne And Wear",FRANKIE AND BENNY'S,Restaurant/Cafe/Canteen,1,5,,339719,0,,54.95765000000000,80694,410,EnvironmentalHealth@gateshead.gov.uk,Gateshead,http://www.gateshead.gov.uk,-1.66857300000000,NE11 9XY,2013-08-19,fhrs_5_en-GB,5,,FHRS,0
143703,,4 Trinity Square,Gateshead,Tyne and Wear,FRANKIE AND BENNY'S,Restaurant/Cafe/Canteen,1,5,,612626,0,,54.96375900000000,87276,410,EnvironmentalHealth@gateshead.gov.uk,Gateshead,http://www.gateshead.gov.uk,-1.60189500000000,NE8 1BU,2014-04-23,fhrs_5_en-GB,5,,FHRS,0
143704,Frankie & Benny's,Clasper Way,Swalwell,"Whickham, Tyne And Wear",FRANKIE AND BENNY'S,Restaurant/Cafe/Canteen,1,5,,339549,0,,54.96270300000000,49866,410,EnvironmentalHealth@gateshead.gov.uk,Gateshead,http://www.gateshead.gov.uk,-1.68297800000000,NE16 3BE,2013-06-10,fhrs_5_en-GB,5,,FHRS,0
143705,,,,,FRESHFIELD FOODS,Other catering premises,7841,0,,339752,0,,,81684,410,EnvironmentalHealth@gateshead.gov.uk,Gateshead,http://www.gateshead.gov.uk,,,2014-01-06,fhrs_5_en-GB,5,,FHRS,0
143706,Stargate Industrial Estate,Stargate Lane,Stargate,"Ryton, Tyne And Wear",FRESHLY MADE FOR YOU (WITHIN JEWSONS),Mobile caterer,7846,10,,339825,10,,54.96471700000000,83700,410,EnvironmentalHealth@gateshead.gov.uk,Gateshead,http://www.gateshead.gov.uk,-1.74916900000000,NE40 3EX,2014-04-07,fhrs_4_en-GB,4,,FHRS,0
143707,Front Street Community Primary School,School Street,Whickham,Newcastle Upon Tyne,FRONT STREET OUT OF SCHOOL CLUB LTD,Hospitals/Childcare/Caring Premises,5,0,,339631,0,,54.94588900000000,70907,410,EnvironmentalHealth@gateshead.gov.uk,Gateshead,http://www.gateshead.gov.uk,-1.68267300000000,NE16 4AD,2014-02-03,fhrs_5_en-GB,5,,FHRS,0
143708,Front Street Primary School,School Street,Whickham,"Newcastle Upon Tyne, Tyne And",FRONT STREET PRIMARY SCHOOL (KITCHEN),School/college/university,7845,0,,339430,0,,54.94588900000000,39284,410,EnvironmentalHealth@gateshead.gov.uk,Gateshead,http://www.gateshead.gov.uk,-1.68267300000000,NE16 4AD,2012-10-18,fhrs_4_en-GB,4,,FHRS,10
143709,9 Redpath Way,Metrocentre,Dunston,Gateshead,FUEL JUICE BAR,Retailers - other,4613,5,,560425,0,,54.95765000000000,87067,410,EnvironmentalHealth@gateshead.gov.uk,Gateshead,http://www.gateshead.gov.uk,-1.66857300000000,NE11 9HX,2013-08-16,fhrs_5_en-GB,5,,FHRS,0
143710,Furrowfield School,Whitehill Drive,Windy Nook,"Gateshead, Tyne And Wear",FURROWFIELD RESIDENTIAL SCHOOL,School/college/university,7845,5,,339534,0,,54.93858700000000,47172,410,EnvironmentalHealth@gateshead.gov.uk,Gateshead,http://www.gateshead.gov.uk,-1.57236300000000,NE10 9RZ,2012-10-22,fhrs_5_en-GB,5,,FHRS,0
143711,"Unit 1, Metro Retail Park",Metrocentre,Dunston,"Gateshead, Tyne And Wear",GALA BINGO,Restaurant/Cafe/Canteen,1,0,,339298,0,,54.96004000000000,28502,410,EnvironmentalHealth@gateshead.gov.uk,Gateshead,http://www.gateshead.gov.uk,-1.67526800000000,NE11 9XU,2013-05-22,fhrs_5_en-GB,5,,FHRS,5
143712,,58 Front Street,Winlaton,"Blaydon On Tyne, Tyne And Wear",GALAXY PIZZA,Takeaway/sandwich shop,7844,5,,339143,0,,54.95432900000000,17270,410,EnvironmentalHealth@gateshead.gov.uk,Gateshead,http://www.gateshead.gov.uk,-1.72799800000000,NE21 6AE,2014-11-27,fhrs_5_en-GB,5,,FHRS,0
143713,,281 High Street,Gateshead,Tyne And Wear,GARDEN HO,Takeaway/sandwich shop,7844,10,,339201,5,,54.96145200000000,21205,410,EnvironmentalHealth@gateshead.gov.uk,Gateshead,http://www.gateshead.gov.uk,-1.59995000000000,NE8 1EP,2013-07-09,fhrs_3_en-GB,3,,FHRS,10
143714,Garesfield Golf Club,Garesfield Golf Course,Chopwell,Newcastle Upon Tyne,GARESFIELD GOLF CLUB,Pub/bar/nightclub,7843,0,,339151,0,,54.93019500000000,17633,410,EnvironmentalHealth@gateshead.gov.uk,Gateshead,http://www.gateshead.gov.uk,-1.80490700000000,NE17 7AP,2012-05-08,fhrs_5_en-GB,5,,FHRS,5
143715,,,,,GARETH KYLE LTD,Other catering premises,7841,5,,608640,0,,,87616,410,EnvironmentalHealth@gateshead.gov.uk,Gateshead,http://www.gateshead.gov.uk,,,2014-01-30,fhrs_5_en-GB,5,,FHRS,0
143716,,4 The Green,Chopwell,Newcastle Upon Tyne,GARY'S FISH BAR,Takeaway/sandwich shop,7844,10,,618814,5,,54.91474000000000,87689,410,EnvironmentalHealth@gateshead.gov.uk,Gateshead,http://www.gateshead.gov.uk,-1.81693000000000,NE17 7ER,2014-02-12,fhrs_4_en-GB,4,,FHRS,5
143717,Bowling Club,Prince Consort Road,Gateshead,Tyne And Wear,GATESHEAD BOWLING GREEN CLUB,Pub/bar/nightclub,7843,0,,339358,0,,54.95953900000000,34128,410,EnvironmentalHealth@gateshead.gov.uk,Gateshead,http://www.gateshead.gov.uk,-1.60579400000000,NE8 1LS,2014-04-23,fhrs_5_en-GB,5,,FHRS,5
143718,Worcester Green Day Centre,Worcester Green,Gateshead,Tyne and Wear,GATESHEAD CLUBHOUSE MOVING FORWARD,Restaurant/Cafe/Canteen,1,10,,339828,5,,54.95676100000000,83741,410,EnvironmentalHealth@gateshead.gov.uk,Gateshead,http://www.gateshead.gov.uk,-1.60536800000000,NE8 1NH,2014-04-09,fhrs_4_en-GB,4,,FHRS,5
143719,Automotive Centre Of Exellence,Kingsway South,Team Valley,Gateshead,GATESHEAD COLLEGE - AUTOMOTIVE CENTRE (CATERING),Restaurant/Cafe/Canteen,1,0,,339629,0,,54.92761400000000,70492,410,EnvironmentalHealth@gateshead.gov.uk,Gateshead,http://www.gateshead.gov.uk,-1.61532800000000,NE11 0SH,2014-06-23,fhrs_5_en-GB,5,,FHRS,0
143720,Gateshead College,Quarryfield Road,Gateshead,Tyne And Wear,GATESHEAD COLLEGE - EAT RESTAURANT,Restaurant/Cafe/Canteen,1,0,,339682,0,,54.96654100000000,78567,410,EnvironmentalHealth@gateshead.gov.uk,Gateshead,http://www.gateshead.gov.uk,-1.59547900000000,NE8 3DF,2013-01-14,fhrs_5_en-GB,5,,FHRS,0
143721,Gateshead College,Quarryfield Road,Gateshead,Tyne And Wear,GATESHEAD COLLEGE - ENFIELDS,Restaurant/Cafe/Canteen,1,0,,339684,0,,54.96654100000000,78593,410,EnvironmentalHealth@gateshead.gov.uk,Gateshead,http://www.gateshead.gov.uk,-1.59547900000000,NE8 3DF,2013-01-14,fhrs_5_en-GB,5,,FHRS,0
143722,Gateshead College,Quarryfield Road,Gateshead,Tyne And Wear,GATESHEAD COLLEGE - GREEN HOUSE BRASSERIE,Restaurant/Cafe/Canteen,1,5,,339766,5,,54.96654100000000,82382,410,EnvironmentalHealth@gateshead.gov.uk,Gateshead,http://www.gateshead.gov.uk,-1.59547900000000,NE8 3DF,2015-01-26,fhrs_5_en-GB,5,,FHRS,0
143723,Gateshead College (Skills Ac),Kingsway South,Team Valley,Gateshead,GATESHEAD COLLEGE - SKILLS ACADAMY (CATERING),Restaurant/Cafe/Canteen,1,5,,339692,0,,54.92824300000000,78990,410,EnvironmentalHealth@gateshead.gov.uk,Gateshead,http://www.gateshead.gov.uk,-1.61808400000000,NE11 0JL,2013-01-15,fhrs_5_en-GB,5,,FHRS,0
143724,Gateshead Fell Cricket Club,Eastwood Gardens,Low Fell,"Gateshead, Tyne And Wear",GATESHEAD FELL CRICKET CLUB,Pub/bar/nightclub,7843,5,,339091,0,,54.94160400000000,14444,410,EnvironmentalHealth@gateshead.gov.uk,Gateshead,http://www.gateshead.gov.uk,-1.59529200000000,NE9 5UB,2012-08-13,fhrs_4_en-GB,4,,FHRS,10
143725,,Gladstone Terrace,Gateshead,Tyne and Wear,GATESHEAD INDOOR BOWLING CENTRE (CAFE),Restaurant/Cafe/Canteen,1,10,,639067,5,,54.95504600000000,87934,410,EnvironmentalHealth@gateshead.gov.uk,Gateshead,http://www.gateshead.gov.uk,-1.60302700000000,NE8 4EA,2014-02-19,fhrs_4_en-GB,4,,FHRS,5
143726,Gateshead Stadium,Neilson Road,Gateshead,Tyne And Wear,GATESHEAD INTERNATIONAL STADIUM,Restaurant/Cafe/Canteen,1,5,,339317,0,,54.95961100000000,30184,410,EnvironmentalHealth@gateshead.gov.uk,Gateshead,http://www.gateshead.gov.uk,-1.57915100000000,NE10 0EF,2013-05-21,fhrs_5_en-GB,5,,FHRS,5
143727,The Yehoshua Tager Building,138 Coatsworth Road,Bensham,"Gateshead, Tyne And Wear",GATESHEAD JEWISH ACADEMY FOR GIRLS,School/college/university,7845,10,,339941,0,,54.95178200000000,8777,410,EnvironmentalHealth@gateshead.gov.uk,Gateshead,http://www.gateshead.gov.uk,-1.60532300000000,NE8 4LL,2013-11-11,fhrs_4_en-GB,4,,FHRS,5
143728,Gateshead Leisure Centre,Alexandra Road,Gateshead,Tyne And Wear,GATESHEAD LEISURE CENTRE,Restaurant/Cafe/Canteen,1,0,,339507,0,,54.95239400000000,447,410,EnvironmentalHealth@gateshead.gov.uk,Gateshead,http://www.gateshead.gov.uk,-1.60283500000000,NE8 4HA,2013-05-20,fhrs_5_en-GB,5,,FHRS,0
143729,Former Drill Hall Site,Alexandra Road,Gateshead,Tyne And Wear,GATESHEAD MASONIC HALL,Pub/bar/nightclub,7843,0,,339407,0,,54.95671100000000,380,410,EnvironmentalHealth@gateshead.gov.uk,Gateshead,http://www.gateshead.gov.uk,-1.60655600000000,NE8 1RB,2012-10-04,fhrs_5_en-GB,5,,FHRS,5
143730,"First Floor, Former Shipcote Cinema",187-193 Durham Road,Gateshead,Tyne And Wear,GATESHEAD SNOOKER CENTRE,Pub/bar/nightclub,7843,10,,339553,5,,54.94909100000000,50814,410,EnvironmentalHealth@gateshead.gov.uk,Gateshead,http://www.gateshead.gov.uk,-1.59866800000000,NE9 5EF,2015-01-07,fhrs_3_en-GB,3,,FHRS,10
143731,Gateshead Talmudical College,88 Windermere Street,Bensham,"Gateshead, Tyne And Wear",GATESHEAD TALMUDICAL COLLEGE,School/college/university,7845,5,,339539,0,,54.95295800000000,47640,410,EnvironmentalHealth@gateshead.gov.uk,Gateshead,http://www.gateshead.gov.uk,-1.61051100000000,NE8 1UB,2013-11-20,fhrs_5_en-GB,5,,FHRS,5
