,businessname,ratingvalue,structural,hygiene,confidenceinmanagement,ratingdate,latitude,longitude
143374,@ THE CASTLE,5,5,0,0,2014-10-27,54.972198,-1.742436
143375,2ND HOME CHILD CARE,5,5,0,5,2014-01-15,54.900277,-1.577259
143376,2nd Home Childcare,5,5,0,5,2014-06-17,54.89214,-1.575988
143377,3 PIECES LIMITED,4,0,0,10,2013-09-02,54.949235,-1.615387
143378,360 CHAMPAGNE & COCKTAIL BAR,5,0,0,0,2012-10-19,54.95765,-1.668573
143379,72 ENGINEER REGT (V),5,0,0,0,2013-07-02,54.951211,-1.603752
143380,A HUDSON,5,5,5,5,2014-05-08,54.949235,-1.615387
143381,A LITTLE PEACE OF HEAVEN,5,5,0,5,2014-10-07,54.923761,-1.674421
143382,A Mici,AwaitingInspection,nan,nan,nan,,54.961236,-1.602748
143383,A&C BOLTON,4,5,0,10,2014-08-04,54.947037,-1.61366
143384,ABBEYMOOR NCC,5,5,5,5,2014-02-06,54.954626,-1.680277
143385,Adams Butchers,4,5,5,10,2014-10-13,54.957409,-1.608688
143386,ADAM'S CONTINENTAL FOODS,1,10,10,20,2014-03-03,54.955638,-1.608393
143387,Adams Restaurant,3,5,10,10,2015-01-16,54.957051,-1.608957
143388,ADDISON COURT,5,0,5,5,2014-11-12,54.964647,-1.792979
143389,ALDERWOOD,5,5,5,0,2014-01-15,54.954791,-1.613195
143390,ALDI,AwaitingInspection,nan,nan,nan,,,
143391,ALEXANDRA HOUSE CARE HOME,5,0,0,0,2014-02-12,54.957623,-1.607937
143392,ALI GEEZ,5,5,5,5,2014-06-04,54.965201,-1.606098
143393,ALJ CATERING AND VENDING,4,5,0,10,2013-08-12,54.930399,-1.615036
143394,ALLERDENE NEWS,4,10,0,10,2014-01-31,54.921243,-1.593484
143395,ALMIZAN CONTINENTAL FOOD STORE,3,10,5,10,2014-07-21,54.955638,-1.608393
143396,ANDO'S,5,0,5,5,2014-04-04,54.932024,-1.626288
143397,ANGEETHI,5,0,0,5,2013-03-11,54.935678,-1.597006
143398,ANGEL COURT (CATERER),4,5,5,10,2014-03-24,54.917516,-1.588748
143399,ANGEL PIZZA,3,5,10,10,2014-06-16,54.92556,-1.573296
143400,Angelica's,AwaitingInspection,nan,nan,nan,,54.923558,-1.619907
143401,ANGELS DELIGHTS,5,5,5,5,2013-12-13,54.95446,-1.60258
143402,ANGLO PIZZA,3,10,5,10,2014-01-16,54.940591,-1.545306
143403,ANGLO PIZZA AND KEBAB,4,0,10,10,2014-07-01,54.948573,-1.599594
143404,APPLETREE GRANGE CARE HOME,5,0,0,0,2014-12-18,54.879458,-1.575544
143405,ARCH 16,5,5,5,5,2013-07-24,54.965201,-1.606098
143406,ARMSTRONG HOUSE CARE HOME,5,5,0,0,2014-02-05,54.949034,-1.622805
143407,ASDA,5,0,0,0,2013-06-14,54.957167,-1.581785
143408,ASDA (CAFE),5,0,5,0,2014-05-07,54.959859,-1.677878
143409,ASDA LIVING,5,0,0,5,2013-06-24,54.923558,-1.619907
143410,ASDA STORES LTD,5,5,0,0,2013-09-12,54.959859,-1.677878
143411,ASHFIELD NURSERY,5,5,5,5,2014-09-04,54.940367,-1.601907
143412,ASHLEY JANE BALLOONS,AwaitingInspection,nan,nan,nan,,54.94883,-1.542481
143413,AUNTIE ANNE'S,5,0,0,0,2014-06-27,54.95765,-1.668573
143414,AUSTIN DINER,4,0,5,10,2014-08-11,54.879798,-1.577614
143415,B&M BARGAINS,AwaitingInspection,nan,nan,nan,,54.923558,-1.619907
143416,BABA,3,10,10,10,2013-11-20,54.973294,-1.738352
143417,BAGUETTE EXPRESS,5,0,5,0,2013-10-31,,
143418,BAIT BOX,AwaitingInspection,nan,nan,nan,,,
143419,BAKED BY EMILY,5,0,0,0,2014-07-03,,
143420,BAKE-MAKE-EAT,AwaitingInspection,nan,nan,nan,,,
143421,BALTIC CENTRE FOR CONTEMPORARY ART,5,0,5,5,2013-06-04,54.969219,-1.598295
143422,BAMBOO GARDEN,4,5,5,10,2013-05-14,54.957051,-1.608957
143423,BAPS N SNACKS,4,0,5,10,2014-07-25,54.923491,-1.607379
143424,BARBOUR (CATERING),5,0,0,5,2014-10-30,54.939057,-1.517883
143425,BARKIN SHARK,2,10,15,10,2014-07-09,54.94518,-1.683022
143426,BARLEY MOW CHILDRENS CENTRE,5,0,0,0,2014-06-09,54.884262,-1.571769
143427,BARLEY MOW INN,5,5,5,5,2014-09-02,54.880858,-1.567113
143428,BARLEY MOW PRIMARY SCHOOL (KITCHEN),5,0,0,0,2012-10-02,54.884262,-1.571769
143429,Barmoor Hub,AwaitingInspection,nan,nan,nan,,54.968864,-1.7789
143430,BARRYS HOME BAKERY LTD,4,5,0,10,2014-06-10,54.938269,-1.637827
143431,BARRYS HOME BAKERY LTD,4,5,5,10,2014-06-27,54.938442,-1.585225
143432,BARRY'S HOME BAKERY LTD,4,5,5,10,2014-03-04,54.956184,-1.639525
143433,BASIA'S CAKES,4,0,0,10,2014-03-05,,
143434,BATTLEZONE LASER,5,0,0,0,2014-08-29,54.939296,-1.621164
143435,BC CATERING,4,0,0,10,2012-12-07,,
143436,BEACON LOUGH BAPTIST CHURCH,5,5,0,0,2013-10-30,54.933553,-1.587617
143437,BEAMISH PARK HOTEL,5,5,5,5,2014-09-04,54.899335,-1.677674
143438,BEANBRIDGE COFFEE,4,0,0,10,2014-03-31,,
143439,BEAT BOUTIQUE BAKERY,AwaitingInspection,nan,nan,nan,,,
143440,BECKLEBERRYS,5,5,5,5,2014-08-05,54.95765,-1.668573
143441,BECKY B'S CAKES,5,0,0,0,2014-03-14,,
143442,BEDE PRIMARY SCHOOL (KITCHEN),5,5,0,0,2014-11-13,54.957167,-1.581785
143443,BENSHAM BOOZE,3,5,10,10,2013-08-09,54.951049,-1.609359
143444,BENSHAM FISH AND CHIPS,4,5,0,10,2014-09-09,54.95446,-1.60258
143445,BENSHAM GENERAL HOSPITAL,5,5,0,0,2014-10-15,54.944868,-1.615351
143446,BENSHAM GROVE DAY CARE,5,0,0,0,2014-07-29,54.952986,-1.616507
143447,BENSHAM LATE STOP,2,15,5,10,2013-06-26,54.950382,-1.603167
143448,BENSHAM NEWS,2,15,5,10,2014-11-26,54.953341,-1.615051
143449,BENSHAM TANDOORI,2,15,5,10,2013-06-24,54.950282,-1.616626
143450,BEST ONE,5,0,0,5,2013-07-31,54.93483,-1.595969
143451,Best One,AwaitingInspection,nan,nan,nan,,54.951343,-1.605734
143452,BEST ONE,3,10,5,10,2014-07-21,54.934635,-1.555393
143453,BEST ONE,1,10,10,20,2014-11-17,54.95621,-1.713619
143454,BEVERLEY COURT (COMMUNAL AREA),5,0,0,5,2014-10-30,54.941287,-1.592002
143455,BEVS BUFFET,4,10,0,10,2013-10-15,54.959035,-1.600255
143456,BEWICK HOTEL,4,0,0,10,2014-08-07,54.954494,-1.602049
143457,BEWICKS (CENTRAL LIBRARY),3,10,5,10,2014-12-17,54.951438,-1.60172
143458,BEWICKS (CIVIC CENTRE),5,0,0,5,2013-10-16,54.959494,-1.603233
143459,BHS,5,5,0,0,2013-05-22,54.95765,-1.668573
143460,BIG LUKES WORLD BUFFET,3,10,10,10,2014-03-24,54.95765,-1.668573
143461,BIG MAMA'S,4,5,5,10,2014-02-10,54.948573,-1.599594
143462,BIG T'S JERKY,5,0,0,5,2013-11-27,,
143463,BILL QUAY PRIMARY SCHOOL (KITCHEN),5,5,0,0,2014-10-20,54.957588,-1.532012
143464,BILL QUAY TANDOORI,3,10,10,10,2013-11-26,54.957478,-1.538416
143465,BILLY BUNTERS,4,5,5,10,2014-03-13,54.950362,-1.570786
143466,BIRCHDALE CARE HOME,5,0,0,5,2014-02-20,54.954789,-1.588008
143467,Bird and Breakfast,AwaitingInspection,nan,nan,nan,,,
143468,BIRTLEY (PORTOBELLO) GOLF CLUB,5,0,5,0,2013-10-10,54.892964,-1.57269
143469,BIRTLEY CHOP SUEY HOUSE,2,15,15,10,2014-10-01,54.896835,-1.577155
143470,BIRTLEY EAST PRIMARY SCHOOL (KITCHEN),5,5,0,0,2014-01-15,54.906857,-1.575303
143471,BIRTLEY HOME BAKERY,4,10,5,5,2013-11-08,54.893656,-1.577812
143472,BIRTLEY MASONIC HALL,5,0,0,5,2013-10-31,54.894839,-1.574354
143473,BIRTLEY NEWS LTD,3,10,5,10,2014-07-23,54.895391,-1.57795
143474,BLARNEYS ICES,4,0,10,10,2014-08-05,,
143475,BLAYDON BUTCHERS,4,5,5,10,2013-07-03,54.95621,-1.713619
143476,BLAYDON CRICKET CLUB,3,10,10,10,2013-03-12,54.957133,-1.720202
143477,BLAYDON DAY CARE,5,5,0,5,2014-10-17,54.950553,-1.719311
143478,BLAYDON MASONIC HALL,5,5,0,0,2011-09-20,54.961583,-1.717235
143479,BLAYDON RESOURCE CENTRE,5,0,5,5,2014-10-27,54.964277,-1.712796
143480,BLAYDON RUGBY CLUB / AMOW CATERING LTD,5,5,0,0,2014-05-21,54.953485,-1.690623
143481,BLAYDON TANDOORI,3,10,10,5,2013-06-06,54.961186,-1.716629
143482,BLAYDON TRINITY METHODIST CHURCH,5,0,0,5,2014-01-20,54.963071,-1.711946
143483,BLAYDON WEST PRIMARY SCHOOL (KITCHEN),5,5,0,0,2012-02-10,54.963636,-1.71505
143484,BLAYDON YOUTH CENTRE,5,0,0,5,2013-09-06,54.963561,-1.709943
143485,BLENHEIN COURT,5,0,0,5,2012-05-14,54.942271,-1.572355
143486,BLISS CATERING CO,3,10,5,10,2014-07-29,,
143487,BLOOMS,4,10,5,5,2014-10-01,54.95363,-1.607226
143488,BLUE BELL,3,10,5,10,2014-08-07,54.96048,-1.599647
143489,BLUE BELL,AwaitingInspection,nan,nan,nan,,54.950029,-1.570477
143490,BLUE BELLA VISTA,5,0,5,5,2014-05-21,54.959276,-1.581076
143491,BOARD INN,3,5,10,10,2013-05-14,54.88993,-1.561029
143492,BOBBY SHAFTO CARAVAN PARK,3,5,10,10,2013-10-18,54.885062,-1.64136
143493,BOMBAY MASSALLA,3,10,10,10,2014-08-05,54.894392,-1.577477
143494,BOOKER WHOLESALE,5,5,0,0,2014-03-05,54.94286,-1.617118
143495,BOOTS,5,0,0,0,2013-08-01,54.95765,-1.668573
143496,BOOZE CELLAR,3,5,10,10,2014-10-30,54.955187,-1.58599
143497,BOOZE ZONE,4,5,5,10,2013-08-22,54.946761,-1.640764
143498,BOROUGH ARMS,3,5,10,10,2014-06-17,54.959603,-1.608948
143499,BOWES INCLINE HOTEL,5,5,5,5,2013-06-20,54.908518,-1.569702
143500,BRADLEY GARDEN,5,0,5,5,2014-11-21,54.967134,-1.807915
143501,BRANDLING PRIMARY SCHOOL (KITCHEN),5,5,0,0,2012-02-10,54.953474,-1.571564
143502,BRIARWOOD,5,0,0,0,2014-02-06,54.964609,-1.716355
143503,BRIDGES NURSERY,5,5,5,5,2013-11-11,54.962187,-1.607689
143504,BRIGHTON AVENUE PRIMARY SCHOOL (KITCHEN),5,5,0,0,2014-03-31,54.951768,-1.612178
143505,BROWNS FAMILY BUTCHERS,4,10,0,10,2014-05-15,54.950563,-1.595327
143506,BUFFET KING@METRO,3,10,10,10,2014-06-09,54.95765,-1.668573
143507,BURGER KING,5,0,0,0,2013-01-16,54.95765,-1.668573
143508,BURGER KING,5,0,0,0,2014-08-05,54.889333,-1.559851
143509,Busy Bees,5,0,0,0,2014-07-28,54.959357,-1.703181
143510,BUTE ARMS,1,15,15,20,2014-09-25,54.931024,-1.784522
143511,BV AND SONS,3,5,10,10,2014-05-15,54.956819,-1.72439
143512,BYERMOOR SACRED HEART RC PRIMARY SCHOOL (KITCHEN),5,0,0,5,2013-04-18,54.911403,-1.709226
143513,C AND S STORES,3,5,10,10,2013-06-24,54.93447,-1.574622
143514,CAEDMON PRIMARY SCHOOL (KITCHEN),5,5,0,0,2014-03-26,54.949979,-1.606169
143515,CAFE @ THE CLUB,5,5,5,5,2014-06-06,54.947662,-1.59851
143516,CAFE AT THORNLEY WOODS,4,10,0,5,2013-08-09,54.932079,-1.732081
143517,Cafe Leam,AwaitingInspection,nan,nan,nan,,54.941965,-1.544993
143518,CAFE MEO'S,4,0,5,10,2013-08-28,54.963781,-1.676269
143519,CAFE NOVA,4,5,10,5,2014-06-04,54.95765,-1.668573
143520,CAFE ROUGE,5,5,0,0,2013-06-18,54.95765,-1.668573
143521,CAFFE NERO,5,5,0,0,2013-05-07,54.95765,-1.668573
143522,CAISLEYS KITCHEN,3,5,10,10,2014-06-11,54.953485,-1.690623
143523,Cake Time by Maria,AwaitingInspection,nan,nan,nan,,54.961452,-1.59995
143524,CAKES BY BECKY,4,5,5,10,2014-04-15,,
143525,CAKESTORIES,5,0,0,5,2012-04-12,,
143526,CANDY CAKES,5,0,0,5,2014-03-05,,
143527,CANTON INN,5,5,5,5,2014-03-05,54.892864,-1.577602
143528,CAPERS,5,5,5,5,2013-05-14,54.905959,-1.578042
143529,CARDINAL HUME CATHOLIC SCHOOL (KITCHEN),5,0,0,0,2012-10-05,54.930666,-1.576598
143530,CARL GILLS GOLDEN FRY,5,5,5,5,2013-01-08,54.948783,-1.571411
143531,CAROLS NEWS & BOOZE,4,5,5,10,2013-08-16,54.949275,-1.678587
143532,CARR HILL FISH SHOP,3,10,5,10,2014-06-04,54.945138,-1.58294
143533,CARR HILL PRIMARY SCHOOL (KITCHEN),5,0,0,0,2014-11-13,54.946247,-1.584037
143534,CASA ROSA,4,5,5,10,2013-11-18,54.895391,-1.57795
143535,CASCADE CATERING,5,0,0,5,2014-07-01,54.89612,-1.578394
143536,CASPIAN KEBAB AND PIZZA,4,5,5,10,2013-05-14,54.894392,-1.577477
143537,Catherine's Catering Par-lour,AwaitingInspection,nan,nan,nan,,54.934353,-1.708921
143538,CENTRAL HOTEL,4,5,5,10,2015-01-08,54.965448,-1.604534
143539,CHAPEL FOOD STORE,4,0,0,10,2013-07-01,54.925069,-1.673084
143540,CHARLES PERKINS R A O B CLUB & INSTITUTE LTD,4,5,5,10,2014-06-09,54.896572,-1.573946
143541,CHARLES THORP COMPREHENSIVE SCHOOL (HOOKERGATE) (KITCHEN),5,5,0,0,2012-02-10,54.928381,-1.774222
143542,CHARLES THORP COMPREHENSIVE SCHOOL (KITCHEN),5,5,0,0,2014-03-05,54.972226,-1.774929
143543,Chatterbox 592 Cafe,5,5,5,5,2014-12-04,54.934698,-1.599513
143544,CHINA DINER,3,5,10,10,2014-01-23,54.95231,-1.688181
143545,CHINA INN,3,5,10,10,2013-03-12,54.952507,-1.569951
143546,CHINA TOWN,1,5,10,20,2014-12-15,54.965201,-1.606098
143547,CHINA VILLAGE,3,10,10,10,2014-11-04,54.945965,-1.681095
143548,CHIP AHOY,3,10,5,10,2014-08-26,54.940591,-1.545306
143549,CHIP STOP,3,10,5,10,2014-08-11,54.950144,-1.615863
143550,CHIQUITO,4,10,0,5,2013-08-19,54.95765,-1.668573
143551,CHOCLATEAS,5,0,0,5,2014-02-12,,
143552,CHOCOLATE MAKER,4,5,5,10,2014-03-24,,
143553,CHOPWELL COMMUNITY CENTRE,4,0,5,10,2012-04-23,54.917787,-1.817619
143554,CHOPWELL MASONIC HALL,5,0,5,5,2014-09-22,54.91863,-1.816429
143555,CHOPWELL PRIMARY SCHOOL (KITCHEN),5,5,0,0,2014-03-04,54.917787,-1.817619
143556,CHOW CHOW,5,5,0,5,2013-08-14,54.947037,-1.61366
143557,CHUNKY CHIPS,3,10,10,10,2013-11-18,54.955709,-1.608018
143558,CHUTNEY,1,10,10,20,2015-01-21,54.924929,-1.575347
143559,CHUTNEYS,5,5,5,5,2014-11-18,54.946289,-1.681108
143560,CLARA VALE VILLAGE HALL,AwaitingInspection,nan,nan,nan,,54.979955,-1.790667
143561,CLIFFORD HOUSE,5,0,0,5,2014-11-07,54.963071,-1.711946
143562,CLM CATERING,5,5,0,0,2014-09-10,54.948796,-1.567602
143563,CLOVER HILL PRIMARY SCHOOL (KITCHEN),5,0,0,0,2012-10-12,54.933423,-1.692619
143564,COACH AND HORSES,4,10,0,10,2014-08-22,54.905959,-1.578042
143565,COD FATHER,3,10,10,10,2014-07-15,54.882367,-1.572007
143566,COFFEE JOHNNY'S LTD,5,5,5,5,2013-09-30,54.972691,-1.764304
143567,COFFEE LATINO/STORM TEA,5,0,0,5,2013-07-24,54.967982,-1.698931
143568,COFFEE QUARTER,5,0,5,0,2014-07-25,54.932498,-1.619604
143569,COFFEE SUPREME,5,0,0,5,2013-09-20,,
143570,COFFEE@MODERNO,5,0,5,5,2013-11-13,54.932024,-1.626288
143571,COLEGATE PRIMARY SCHOOL (KITCHEN),5,5,0,0,2011-09-20,54.944474,-1.555284
143572,COME DINE AT OURS,5,0,0,5,2013-08-20,,
143573,COOKERY NOOK,5,0,0,5,2012-09-21,54.95765,-1.668573
143574,CORNERSTONE PROJECT,5,0,0,5,2014-05-19,54.942646,-1.590037
143575,CORPUS CHRISTI RC PRIMARY SCHOOL (KITCHEN),5,0,0,0,2012-10-16,54.949667,-1.609856
143576,CORRETTA'S TROPICAL DELIGHTS,AwaitingInspection,nan,nan,nan,,,
143577,Costa (Debenhams),AwaitingInspection,nan,nan,nan,,54.95765,-1.668573
143578,COSTA (WITHIN NEXT),5,0,0,0,2014-04-07,54.96004,-1.675268
143579,COSTA @ WH SMITH,5,0,0,0,2013-05-22,54.95765,-1.668573
143580,COSTA COFFEE,5,0,0,5,2013-07-05,,
143581,COSTA COFFEE (GREEN MALL),5,0,0,5,2013-09-20,54.95765,-1.668573
143582,COSTCO WHOLESALE UK LTD,5,0,0,0,2015-01-14,54.960364,-1.659024
143583,COSTCUTTER,3,5,10,10,2014-07-22,54.950314,-1.641888
143584,COTTAGE HOME BAKERY,5,5,0,5,2013-08-22,54.937526,-1.596098
143585,COUNTRY KITCHEN CATERING,5,0,0,5,2014-03-31,,
143586,COVENT HOUSE,5,0,5,5,2014-11-04,54.893258,-1.577005
143587,CRAIGIELEA NURSING HOME,5,0,0,0,2014-07-21,54.92871,-1.595859
143588,CRAWCROOK CENTENARY METHODIST CHURCH HALL,4,0,5,10,2014-10-08,54.966519,-1.789768
143589,CRAWCROOK TANDOORI,2,10,15,10,2014-02-19,54.96658,-1.788674
143590,CROOKHILL PRIMARY SCHOOL (KITCHEN),5,0,0,0,2014-03-24,54.970688,-1.74682
143591,CROSS HOUSE HOTEL,4,10,0,10,2012-10-15,54.953852,-1.59545
143592,CRUSTYS,3,10,10,10,2014-12-02,54.96658,-1.788674
143593,CUP & CAKE,5,0,0,5,2013-10-03,54.961236,-1.602748
143594,CUPCAKE SISTERS,AwaitingInspection,nan,nan,nan,,,
143595,CURRY GARDEN,3,10,10,10,2013-05-14,54.957051,-1.608957
143596,CURRY HUT,4,5,5,10,2014-06-18,54.948869,-1.570442
143597,DA VINCI'S,4,0,5,10,2014-02-04,54.954304,-1.684433
143598,DAISYCUPCAKE,AwaitingInspection,nan,nan,nan,,,
143599,DANNY'S KITCHEN,5,5,5,0,2013-12-11,54.948328,-1.57763
143600,DANNYS SANDWICH BAR,4,5,5,10,2014-09-24,54.894392,-1.577477
143601,DANSKYS,4,5,5,10,2013-08-20,54.95363,-1.607226
143602,DANSKYS (HOME BUSINESS),4,0,0,10,2013-08-19,,
143603,DARTMOUTH NEWS,4,5,5,10,2013-08-19,54.92481,-1.598691
143604,DAVID GORHAM,4,10,5,5,2014-03-17,54.937526,-1.596098
143605,DEANOS TRATTORIA,4,0,5,10,2013-02-19,54.946252,-1.677487
143606,DEAR DELICIOUS,5,0,5,5,2013-10-31,54.961452,-1.59995
143607,Dear My Pie,3,5,10,10,2015-01-13,,
143608,DEBENHAMS RETAIL PLC,5,0,0,0,2013-10-09,54.95765,-1.668573
143609,DECKHAM BARGAIN STORE,3,5,10,10,2013-07-11,54.951427,-1.590385
143610,DECKHAM DAY CARE 4CHILDREN,5,0,5,5,2015-01-19,54.947872,-1.583317
143611,DECKHAM STORES,3,10,5,10,2013-04-30,54.951075,-1.58711
143612,DECKHAM SUPERMARKET,4,10,0,10,2013-05-20,54.950563,-1.595327
143613,DELI VAN,3,5,10,10,2014-12-11,,
143614,DELICIOUS CHURROS,5,0,0,5,2014-02-28,,
143615,DELI-LICIOUS,5,5,5,5,2014-02-05,54.955709,-1.608018
143616,DESI-CHATS,5,0,0,0,2012-06-19,,
143617,DESSERT HEAVEN,5,0,0,5,2014-02-05,,
143618,DESSERTS DELIVERED GATESHEAD LTD,4,5,5,10,2014-03-26,54.941785,-1.61794
143619,DESSERTS ON WHEELS,5,0,0,5,2013-04-25,,
143620,DESTINY FOODS,4,5,5,10,2014-02-05,54.95948,-1.601438
143621,DEVI GENERAL DEALERS,2,15,5,10,2013-05-21,54.949802,-1.612915
143622,DHILLONS GOLDEN FRY,5,5,5,5,2014-07-21,54.921243,-1.593484
143623,DIAL A CURRY/NAJIMAS,2,10,15,10,2014-02-12,54.958303,-1.651405
143624,DIAL A PIZZA,4,5,5,10,2015-01-14,54.925385,-1.574765
143625,DIBIASIO FISH & CHIPS,3,5,10,10,2014-01-08,54.938269,-1.637827
143626,DICKSONS,5,0,0,0,2013-01-22,54.949255,-1.570235
143627,DICKSONS,5,0,0,0,2012-10-24,54.962661,-1.604155
143628,DOBBIES CAFE,5,5,0,0,2013-09-16,,
143629,DOMINIC PIZZA,3,10,5,10,2013-11-20,54.975552,-1.761428
143630,DOMINICS CAFE,5,5,5,5,2013-11-13,54.947422,-1.613266
143631,DOMINO PIZZA,5,0,0,5,2012-08-21,54.948573,-1.599594
143632,Donnas Snacks,AwaitingInspection,nan,nan,nan,,,
143633,DOUBLE DRAGON,3,10,10,10,2014-11-04,54.954081,-1.684982
143634,DOVECOTE NURSING HOME,5,0,5,5,2014-06-16,54.92801,-1.782962
143635,DRAGON INN,5,5,5,5,2013-07-10,54.949235,-1.615387
143636,DRAGONE'S SANDWICH BAR,5,5,0,5,2013-09-03,54.949251,-1.571562
143637,DRIFT IN CAFE,5,0,5,5,2014-02-26,54.9195,-1.815489
143638,DRINKS EXPRESS,3,10,10,10,2014-08-07,54.96048,-1.599647
143639,DRYDEN SCHOOL (KITCHEN),5,0,0,5,2014-04-02,54.94449,-1.59314
143640,DUKES DINER,3,10,10,10,2013-11-05,54.926319,-1.623751
143641,DUNSTON COMMUNITY CENTRE,5,0,0,5,2015-01-07,54.956447,-1.640444
143642,DUNSTON FOOD & WINE STORE,4,5,5,10,2013-07-01,54.951721,-1.640876
143643,DUNSTON GOLDEN CHIPPY,3,10,10,10,2014-02-25,54.951721,-1.640876
143644,DUNSTON HILL CHINESE TAKEAWAY,3,10,10,10,2013-12-04,54.947824,-1.647952
143645,DUNSTON MASONIC HALL,5,5,0,0,2012-10-31,54.948918,-1.641104
143646,DUNSTON NEWS,4,0,10,10,2013-06-25,54.949199,-1.644817
143647,DUNSTON RIVERSIDE PRIMARY SCHOOL (KITCHEN),5,0,0,0,2012-10-03,54.957012,-1.643
143648,DUNSTON UTS FOOTBALL CLUB,3,10,5,10,2013-08-13,54.956636,-1.652919
143649,DURHAM HOUSE HOTEL,5,5,5,5,2012-12-14,54.953712,-1.599246
143650,DYNAMIX SKATE PARK,3,10,10,10,2015-01-14,54.964992,-1.589029
143651,EAST BYERMOOR GUEST HOUSE,5,5,0,0,2013-10-22,54.923358,-1.699654
143652,EAST OCEAN CHINESE TAKEAWAY,3,10,5,10,2014-05-28,54.953654,-1.727753
143653,EASTWOOD,5,0,5,0,2014-11-11,54.94968,-1.558474
143654,EAT CHAT PLAY,5,0,0,5,2014-03-10,54.936712,-1.689113
143655,EATWELL,3,10,10,10,2013-12-04,54.919428,-1.815131
143656,EDBERTS HOUSE,3,10,10,5,2013-10-03,54.946058,-1.553534
143657,EDC,5,0,5,0,2014-08-05,54.889333,-1.559851
143658,ED'S EASY DINER,5,0,0,0,2013-04-30,54.95765,-1.668573
143659,EIGHTON LODGE,5,0,0,0,2014-10-23,54.913072,-1.584769
143660,ELEPHANT ON THE TYNE,1,10,10,20,2014-06-01,54.961644,-1.566839
143661,ELIZA PEPPERPOT AND COMPANY LTD,5,0,0,0,2014-02-07,,
143662,Elodie's Kitchen,AwaitingInspection,nan,nan,nan,,,
143663,EMMANUEL COLLEGE - LOAVES AND FISHES/THE GRANARY,5,0,0,0,2014-06-12,54.937245,-1.641192
143664,EMMAVILLE PRIMARY SCHOOL (KITCHEN),5,5,0,0,2012-10-11,54.967351,-1.787093
143665,ESLINGTON SCHOOL (KITCHEN),5,0,0,0,2012-02-10,54.951532,-1.622829
143666,ESLINGTON VILLA HOTEL,4,5,0,10,2013-09-25,54.934366,-1.607975
143667,ESSO,5,0,0,0,2014-01-03,54.953277,-1.635038
143668,ESSO,5,0,0,0,2014-01-06,54.960786,-1.689037
143669,EURO SHOPPER,4,10,5,5,2013-05-09,54.952337,-1.642448
143670,EUROPEAN FOODS,5,0,0,5,2015-01-07,54.96048,-1.599647
143671,EXPRESS CATERING,4,5,0,10,2013-09-04,,
143672,F & L HOLLIDAY BUTCHERS,3,10,5,10,2014-03-06,54.954373,-1.781306
143673,FAIRWAYS,5,5,5,5,2013-09-16,54.92425,-1.5764
143674,FALLA PARK COUNTY PRIMARY SCHOOL (KITCHEN),5,5,0,0,2011-10-05,54.948527,-1.572772
143675,FAMILY COOKING,3,10,10,10,2013-12-17,54.950795,-1.594888
143676,FELL FISH BAR,5,5,0,5,2014-09-09,54.93467,-1.596439
143677,FELLDYKE PRIMARY SCHOOL (KITCHEN),5,0,0,0,2012-10-03,54.927318,-1.567333
143678,FELLING COMMUNITY BASE,3,10,5,10,2013-10-04,54.948392,-1.570135
143679,FELLING CRICKET CLUB,3,10,5,10,2014-02-19,54.945854,-1.556596
143680,FELLING METHODIST CHURCH LUNCH CLUB,5,0,0,5,2014-08-04,54.948783,-1.571411
143681,Felling Pork & Sandwich Shop,AwaitingInspection,nan,nan,nan,,54.94925,-1.571562
143682,FELLINGATE CARE CENTRE LTD,5,0,0,0,2014-01-08,54.953774,-1.577698
143683,FELLSIDE METHODIST CHURCH,5,5,0,0,2013-01-16,54.938688,-1.692204
143684,FELLSIDE PRIMARY SCHOOL (KITCHEN),5,5,0,0,2012-10-11,54.939651,-1.689184
143685,FEWSTER TANDOORI,4,5,5,10,2015-01-14,54.940591,-1.545306
143686,FIDDLERS THREE,4,5,5,10,2013-12-04,54.942271,-1.572355
143687,FIELD HOUSE FARM SHOP,3,5,10,10,2014-10-02,54.930903,-1.787363
143688,FINISHING TOUCHES CAKES,AwaitingInspection,nan,nan,nan,,,
143689,FISHNETS LTD,5,0,0,5,2013-09-20,54.954473,-1.781649
143690,FIVE STAR,5,5,5,5,2013-02-22,54.898042,-1.580775
143691,FLAMIN TASTY,4,0,5,10,2013-10-16,,
143692,FLOSSY'S TREATS,4,0,0,10,2014-02-21,,
143693,FOOD FOR THOUGHT,4,5,5,10,2013-10-18,54.942854,-1.595701
143694,FOODUNOS,AwaitingInspection,nan,nan,nan,,54.945854,-1.556596
143695,FOODY,AwaitingInspection,nan,nan,nan,,,
143696,FORCELLO,4,0,0,10,2014-01-13,54.956164,-1.654516
143697,FOUNTAIN COURT RESTAURANT,4,0,0,10,2014-03-31,54.945543,-1.618638
143698,FOUNTAIN LOCAL,4,5,5,10,2013-07-02,54.945543,-1.618638
143699,FOX AND HOUNDS,3,10,5,10,2013-09-27,54.966901,-1.786986
143700,FOX AND HOUNDS INN,4,5,5,10,2013-12-11,54.942757,-1.804487
143701,FOX'S CATERING,4,5,5,10,2014-04-25,,
143702,FRANKIE AND BENNY'S,5,0,0,5,2013-08-19,54.95765,-1.668573
143703,FRANKIE AND BENNY'S,5,0,0,5,2014-04-23,54.963759,-1.601895
143704,FRANKIE AND BENNY'S,5,0,0,5,2013-06-10,54.962703,-1.682978
143705,FRESHFIELD FOODS,5,0,0,0,2014-01-06,,
143706,FRESHLY MADE FOR YOU (WITHIN JEWSONS),4,0,10,10,2014-04-07,54.964717,-1.749169
143707,FRONT STREET OUT OF SCHOOL CLUB LTD,5,0,0,0,2014-02-03,54.945889,-1.682673
143708,FRONT STREET PRIMARY SCHOOL (KITCHEN),4,10,0,0,2012-10-18,54.945889,-1.682673
143709,FUEL JUICE BAR,5,0,0,5,2013-08-16,54.95765,-1.668573
143710,FURROWFIELD RESIDENTIAL SCHOOL,5,0,0,5,2012-10-22,54.938587,-1.572363
143711,GALA BINGO,5,5,0,0,2013-05-22,54.96004,-1.675268
143712,GALAXY PIZZA,5,0,0,5,2014-11-27,54.954329,-1.727998
143713,GARDEN HO,3,10,5,10,2013-07-09,54.961452,-1.59995
143714,GARESFIELD GOLF CLUB,5,5,0,0,2012-05-08,54.930195,-1.804907
143715,GARETH KYLE LTD,5,0,0,5,2014-01-30,,
143716,GARY'S FISH BAR,4,5,5,10,2014-02-12,54.91474,-1.81693
143717,GATESHEAD BOWLING GREEN CLUB,5,5,0,0,2014-04-23,54.959539,-1.605794
143718,GATESHEAD CLUBHOUSE MOVING FORWARD,4,5,5,10,2014-04-09,54.956761,-1.605368
143719,GATESHEAD COLLEGE - AUTOMOTIVE CENTRE (CATERING),5,0,0,0,2014-06-23,54.927614,-1.615328
143720,GATESHEAD COLLEGE - EAT RESTAURANT,5,0,0,0,2013-01-14,54.966541,-1.595479
143721,GATESHEAD COLLEGE - ENFIELDS,5,0,0,0,2013-01-14,54.966541,-1.595479
143722,GATESHEAD COLLEGE - GREEN HOUSE BRASSERIE,5,0,5,5,2015-01-26,54.966541,-1.595479
143723,GATESHEAD COLLEGE - SKILLS ACADAMY (CATERING),5,0,0,5,2013-01-15,54.928243,-1.618084
143724,GATESHEAD FELL CRICKET CLUB,4,10,0,5,2012-08-13,54.941604,-1.595292
143725,GATESHEAD INDOOR BOWLING CENTRE (CAFE),4,5,5,10,2014-02-19,54.955046,-1.603027
143726,GATESHEAD INTERNATIONAL STADIUM,5,5,0,5,2013-05-21,54.959611,-1.579151
143727,GATESHEAD JEWISH ACADEMY FOR GIRLS,4,5,0,10,2013-11-11,54.951782,-1.605323
143728,GATESHEAD LEISURE CENTRE,5,0,0,0,2013-05-20,54.952394,-1.602835
143729,GATESHEAD MASONIC HALL,5,5,0,0,2012-10-04,54.956711,-1.606556
143730,GATESHEAD SNOOKER CENTRE,3,10,5,10,2015-01-07,54.949091,-1.598668
143731,GATESHEAD TALMUDICAL COLLEGE,5,5,0,5,2013-11-20,54.952958,-1.610511
143732,GAZ'S CAKERY,4,0,0,10,2013-06-19,,
143733,GEN'S KITCHEN,4,0,10,10,2014-07-31,54.950362,-1.570786
143734,GEORDIES CONVENIENCE STORE,3,10,10,10,2013-09-12,54.951049,-1.609359
143735,GET CARTERS,4,5,5,10,2013-05-31,54.962661,-1.604155
143736,GET UP AND GO,AwaitingInspection,nan,nan,nan,,54.929279,-1.784094
143737,GIBSIDE HOTEL,5,5,5,5,2014-03-20,54.945996,-1.679159
143738,GIBSIDE SCHOOL (KITCHEN),5,0,0,0,2014-03-04,54.93857,-1.688193
143739,GILLS FISH & CHIPS,5,5,0,0,2014-08-12,54.956702,-1.647859
143740,GILLS FISHERIES,4,5,10,5,2014-05-08,54.95425,-1.577599
143741,GILLS GOLDEN FISH AND CHIPS,4,5,5,10,2013-09-09,54.944651,-1.542388
143742,GINOS TAKEAWAY LTD,3,10,10,10,2014-12-11,54.938442,-1.585225
143743,GLENBROOKE HOUSE,4,5,5,10,2014-04-14,54.930676,-1.597993
143744,GLOUCESTER,5,5,5,5,2014-04-30,54.959768,-1.601825
143745,GLYNFELLIS FOODSTORE,3,5,10,10,2013-05-08,54.935308,-1.550313
143746,GLYNWOOD PRIMARY SCHOOL (KITCHEN),5,5,0,0,2014-05-07,54.937736,-1.588807
143747,GO NORTH EAST (GATESHEAD CANTEEN),3,10,5,10,2013-07-15,54.962661,-1.604155
143748,GOLDEN BIRD,3,10,10,10,2014-07-14,54.955709,-1.608018
143749,GOLDEN CHOPSTICKS,3,10,5,10,2013-10-09,54.95621,-1.713619
143750,GOLDEN FISH INN,4,10,5,5,2014-11-17,54.93447,-1.574622
143751,GOLDEN FISH INN,3,5,10,10,2014-05-20,54.948287,-1.611041
143752,GOLDEN FRY,4,5,5,10,2014-01-28,54.96658,-1.788674
143753,GOLDEN RICE,4,0,5,10,2013-10-21,54.940591,-1.545306
143754,GOODBREWS,5,0,0,5,2014-06-25,54.962661,-1.604155
143755,GORDON BLEU,3,10,10,10,2013-08-14,54.94908,-1.614577
143756,GOURMET BURGER KITCHEN (YELLOW QUADRANT),5,0,0,5,2015-01-08,,
143757,GOURMET JACKETS & BAGUETTES,4,0,5,10,2013-03-06,,
143758,GOURMET KITCHEN,5,5,0,5,2013-05-23,54.94883,-1.542481
143759,GRASMERE LODGE,4,5,10,5,2014-06-16,54.953183,-1.607777
143760,GRASP THE NETTLE,5,5,5,5,2013-04-11,,
143761,Great Aunt Sallys Cakes,AwaitingInspection,nan,nan,nan,,,
143762,GREENSIDE PRIMARY SCHOOL (KITCHEN),5,0,0,0,2014-03-24,54.952484,-1.790591
143763,GREGGS,5,0,0,0,2013-06-18,54.889333,-1.559851
143764,GREGGS,5,5,0,0,2014-04-07,54.949255,-1.570235
143765,GREGGS,5,0,0,0,2013-08-12,,
143766,GREGGS,5,0,0,0,2013-09-26,54.946252,-1.677487
143767,GREGGS,5,0,0,0,2013-07-30,54.96468,-1.712091
143768,GREGGS,5,0,0,0,2013-07-12,54.940591,-1.545306
143769,GREGGS,5,0,0,0,2013-09-17,54.936585,-1.599323
143770,GREGGS,5,0,0,0,2013-01-02,54.895391,-1.57795
143771,GREGGS,4,10,0,0,2014-07-11,54.925385,-1.574765
143772,GREGGS,5,0,0,0,2013-08-05,54.961328,-1.679443
143773,GREGGS,5,0,0,0,2013-08-20,54.943071,-1.624125
143774,GREGGS,5,0,0,0,2013-10-17,54.962661,-1.604155
143775,GREGGS,5,0,0,0,2013-08-20,54.965857,-1.587224
143776,GREGGS,5,0,0,0,2014-07-03,54.926311,-1.618258
143777,GREGGS (QUBE),5,0,0,0,2012-06-12,,
143778,GREGGS (RED MALL),5,0,0,5,2013-09-20,54.95765,-1.668573
143779,GREGGS (UPPER BLUE MALL),5,0,0,5,2012-06-12,54.95765,-1.668573
143780,GREGGS MOMENT (LOWER BLUE MALL),5,0,0,0,2014-07-24,54.95765,-1.668573
143781,GRETNA WINES Ltd,2,15,5,10,2013-12-04,54.94959,-1.573682
143782,GROVE HOUSE,5,0,0,0,2012-04-30,54.941683,-1.603128
143783,GRUMPY PANDA LIMITED,AwaitingInspection,nan,nan,nan,,,
143784,GS PANNU,3,5,10,10,2013-07-31,54.948981,-1.606178
143785,GUT BUSTER (VAN),AwaitingInspection,nan,nan,nan,,54.949572,-1.625454
143786,HADRIAN HOUSE CARE HOME,5,5,0,0,2014-01-23,54.964632,-1.714637
143787,HADRIANS YOUR BAKER LTD,4,5,10,5,2014-01-21,54.966797,-1.789126
143788,HAGG HILL TEA ROOM,5,5,5,5,2014-02-03,54.946652,-1.707801
143789,Halal Food Store,4,5,5,10,2014-09-09,54.955638,-1.608393
143790,HALF MOON INN,3,10,5,10,2013-09-04,54.976412,-1.760064
143791,HALLGARTH STORES,4,5,5,10,2013-06-06,54.959154,-1.723811
143792,HANDMADE BURGER CO,5,0,5,5,2013-10-18,,
143793,HANNAH REAY,5,0,5,5,2014-10-15,,
143794,HAPPY DAYS CHINESE TAKEAWAY,3,10,10,10,2014-08-19,54.966871,-1.790531
143795,HAQS GENERAL DEALERS,4,5,5,10,2013-09-12,54.948732,-1.606961
143796,HARD AS ROCK,4,5,5,10,2014-01-15,54.89234,-1.56395
143797,HARDMAN CENTRE,5,5,0,0,2014-01-27,54.939117,-1.596004
143798,HARLOW GREEN PRIMARY SCHOOL (KITCHEN),5,0,0,0,2011-09-13,54.922925,-1.591017
143799,HARRISON'S T-ROOM,5,0,0,5,2014-08-18,54.94518,-1.683022
143800,Harry Clasper,5,0,0,0,2014-08-01,54.9459,-1.673228
143801,HARRYS GOLDEN CHIPPY,4,10,5,5,2014-12-10,54.949235,-1.615387
143802,HARVESTER,5,5,0,0,2014-08-01,54.95765,-1.668573
143803,HAVE YASELF A SARNIE,3,10,5,10,2013-10-31,54.957117,-1.588266
143804,HAWKSBURY HOUSE RESIDENTIAL HOME,5,0,0,0,2014-11-19,54.938781,-1.592277
143805,HEALTH AND WELLBEING ANGELS,AwaitingInspection,nan,nan,nan,,,
143806,HEDLEY HALL GUEST ACCOMMODATION,5,0,0,5,2014-11-17,54.89935,-1.65695
143807,HELEN MCCARDLE CARE TRAINING ACADEMY,AwaitingInspection,nan,nan,nan,,54.963781,-1.676269
143808,HERBAL INN,5,0,0,5,2013-05-28,,
143809,Heron Frozen Foods,AwaitingInspection,nan,nan,nan,,54.946252,-1.677487
143810,HERONS FOODS,5,5,0,5,2012-08-23,54.941965,-1.544994
143811,HEWORTH GOLF CLUB,5,0,0,5,2013-10-10,54.939692,-1.533157
143812,HEWORTH GRANGE COMPREHENSIVE SCHOOL (KITCHEN),5,0,0,0,2012-04-26,54.947329,-1.552146
143813,HIGH SPEN EXCELSIOR SOCIAL CLUB,3,10,5,10,2011-06-24,54.935907,-1.781921
143814,HIGH SPEN PRIMARY SCHOOL (KITCHEN),5,0,0,0,2014-03-24,54.929279,-1.784094
143815,HIGH SPEN TAKE-AWAY,5,5,5,5,2013-05-22,54.935907,-1.781921
143816,HIGH STROTHERS RARE BREED PORK,3,10,10,10,2012-07-07,,
143817,HIGHFIELD PRIMARY SCHOOL (KITCHEN),5,0,0,0,2012-10-08,54.918751,-1.761873
143818,HIGHLANDER INN,3,10,5,10,2013-06-26,54.954567,-1.726138
143819,HILL TOP SCHOOL (KITCHEN),5,0,0,0,2012-10-25,54.931697,-1.557985
143820,HILLSIDE GRANGE CARE HOME,5,5,0,0,2014-04-14,54.953391,-1.57614
143821,HILTON & SON,3,10,5,10,2014-11-27,54.954567,-1.726138
143822,HILTON NEWCASTLE GATESHEAD,5,0,0,0,2013-01-23,54.966208,-1.606275
143823,HMS CALLIOPE,5,0,0,0,2013-01-08,54.968644,-1.600972
143824,HOLIDAY INN EXPRESS,5,0,0,0,2013-09-05,54.962703,-1.682978
143825,HOLLAND & BARRETT,5,0,5,0,2014-04-24,54.95765,-1.668573
143826,HOLLY HILL PRIVATE DAY CARE NURSERY,5,5,0,0,2014-07-23,54.950468,-1.567709
143827,HOLMESIDE HALL SOCIAL CLUB,4,5,5,10,2013-10-16,54.94777,-1.644908
143828,HOME BARGAINS,AwaitingInspection,nan,nan,nan,,54.96468,-1.712091
143829,HOME BREW LIFE,5,0,0,5,2013-06-24,54.950362,-1.570786
143830,HOMEMADE,AwaitingInspection,nan,nan,nan,,,
143831,HOPE'N'ALL HOURS,4,5,5,10,2013-08-16,54.940358,-1.590841
143832,HOT ROAST HEAVEN,5,0,5,5,2014-11-10,54.923558,-1.619907
143833,HOT STUFF,4,0,10,5,2014-04-04,54.952558,-1.632234
143834,HOT STUFF,5,5,5,5,2013-02-12,54.960593,-1.582389
143835,HOT WAY TAKEAWAY,3,5,10,10,2013-07-24,54.925385,-1.574765
143836,HOT WOK,3,10,10,10,2014-11-24,,
143837,HOTEL MICHELANGELO,3,10,10,5,2014-03-24,54.971174,-1.738335
143838,HUNG HING CHINESE TAKEAWAY,3,10,10,5,2013-06-26,54.953995,-1.640778
143839,HUNGRY HORSE - THE ANGEL,5,0,5,0,2014-07-28,54.961845,-1.677909
143840,HUTCHINSONS,4,5,5,10,2013-06-05,54.96468,-1.712091
143841,IBOS TAKE AWAY,3,5,10,10,2014-05-21,54.948573,-1.599594
143842,ICELAND,5,0,0,5,2013-08-13,54.96468,-1.712091
143843,ICICLES ON BICYCLES,AwaitingInspection,nan,nan,nan,,,
143844,IKEA,5,0,0,0,2013-12-19,54.961845,-1.677909
143845,IKUZE,5,0,5,5,2014-11-12,54.95765,-1.668573
143846,IMPERIA BINGO,5,0,5,5,2014-08-01,54.950029,-1.570477
143847,IN A PICKLE,5,5,5,5,2013-09-26,54.955348,-1.713938
143848,IN LEISURE CATERING,5,5,5,0,2015-01-13,54.956203,-1.726205
143849,INDIAN KITCHEN,5,5,0,0,2013-05-24,,
143850,INTERNATIONAL PAINT (EUREST CATERING),5,5,0,0,2013-07-31,54.95752,-1.559622
143851,ISTANBUL KEBAB & PIZZA HOUSE,3,5,10,10,2013-03-12,54.95515,-1.63944
143852,ITS TIME FOR TEA,3,10,10,10,2014-08-11,54.950563,-1.595327
143853,ITZZA PIZZA,AwaitingInspection,nan,nan,nan,,54.935056,-1.599026
143854,J HUTCHINSON,4,10,5,5,2013-09-04,54.961977,-1.601147
143855,J STOBO'S,4,5,0,10,2013-07-10,54.96658,-1.788674
143856,J&J STANLEY LTD,5,0,0,5,2014-02-10,54.964005,-1.704021
143857,JACKSONS SANDWICH BAR,5,5,5,5,2013-10-09,54.961521,-1.601933
143858,JAMDANI RESTAURANT,5,5,5,0,2013-04-22,54.945965,-1.681095
143859,JANINE'S CUPCAKE COMPANY,4,0,0,10,2014-04-07,,
143860,JASHN,5,5,5,5,2014-03-18,54.952674,-1.689739
143861,JASPERS NEWCASTLE LTD,5,0,0,5,2014-07-25,54.944237,-1.617605
143862,"JAY & LEES NEWS, FOOD &WINE",4,5,5,10,2013-09-30,54.95425,-1.577599
143863,JAZ & JAYS GOLDEN FRY INN,3,10,10,10,2014-04-24,54.953779,-1.544173
143864,JAZ'S FISH BAR,3,10,10,10,2012-10-12,54.953424,-1.567552
143865,JEMMA NICHOLSON,AwaitingInspection,nan,nan,nan,,,
143866,JEWEL IN THE CROWN,4,5,5,10,2013-11-27,54.905959,-1.578042
143867,JG BITES,4,10,0,10,2014-05-22,54.940371,-1.628818
143868,Jimmy's Masterwhip - J15 MMY,4,0,5,10,2014-07-17,54.972599,-1.641799
143869,JIMMY'S MASTERWHIP - JJ10MMY,4,0,5,10,2014-07-17,,
143870,JJ'S KITCHEN,4,10,5,5,2013-09-30,54.965857,-1.587224
143871,JOE'S,3,10,5,10,2013-05-23,54.91924,-1.745754
143872,John Steele,AwaitingInspection,nan,nan,nan,,,
143873,JOSEPH SWAN SCHOOL (KITCHEN),5,5,0,0,2012-01-24,54.92886,-1.606094
143874,JT&B CRAIG NEWSAGENTS,3,5,10,10,2013-05-21,54.951768,-1.612178
143875,JUBILEE TANDOORI,4,10,5,5,2014-08-12,54.965632,-1.791319
143876,JURYS INN NEWCASTLEGATESHEAD QUAYS,5,0,5,5,2013-05-22,54.969083,-1.589862
143877,KANDOLA BROTHERS,4,5,5,10,2013-07-24,54.960475,-1.712183
143878,KAURS SUPERMARKET,5,5,5,5,2013-06-25,,
143879,KEIRO GROUP,5,0,0,0,2014-08-07,54.943126,-1.674593
143880,KELLER CELLAR,4,5,5,10,2013-08-21,54.948328,-1.57763
143881,KELLS LANE PRIMARY SCHOOL (KITCHEN),5,0,0,0,2012-01-09,54.937526,-1.596098
143882,KELLYS,5,5,5,5,2014-06-18,54.953485,-1.690623
143883,KELVIN GROVE PRIMARY SCHOOL (KITCHEN),5,5,0,0,2012-10-15,54.948518,-1.610305
143884,KENTOCI CAFE,3,10,5,10,2014-10-23,54.96468,-1.712091
143885,KFC,5,5,0,0,2012-10-08,54.962703,-1.682978
143886,KFC (BLUE MALL),5,0,0,0,2013-05-14,54.95765,-1.668573
143887,KFC (QUBE),5,0,0,5,2012-10-22,,
143888,KHAN TANDOORI,2,5,15,10,2014-07-23,54.922989,-1.675083
143889,KHINDAS FISH &CHIPS,5,0,0,0,2014-07-28,54.930844,-1.597195
143890,KIBBLESWORTH ACADEMY (KITCHEN),5,5,0,0,2012-10-16,54.904867,-1.617525
143891,KIBBLESWORTH SUPPORT UNIT,4,0,5,10,2013-10-17,54.905383,-1.615634
143892,KIDS 1ST,5,0,5,5,2014-02-03,54.940367,-1.601907
143893,KING WHIPPY,5,0,0,5,2013-07-09,,
143894,KINGSMEADOW COMPREHENSIVE SCHOOL (KITCHEN),5,0,0,0,2014-04-01,54.948915,-1.652376
143895,KOMATSU UK LTD (CATERING),5,5,0,0,2013-10-24,54.890326,-1.578876
143896,KRISPY KREME,5,0,0,0,2012-09-26,54.96004,-1.675268
143897,KUBUS GENERAL DEALERS,4,5,5,10,2014-04-04,54.955638,-1.608393
143898,KURDISH BAKERY,2,10,15,10,2014-03-04,54.955709,-1.608018
143899,L OXLEY,4,10,0,0,2014-04-08,54.946289,-1.681108
143900,L&D FRUITS,3,10,5,10,2014-10-24,54.97274,-1.761413
143901,LAFARGE TARMAC (CATERING),5,0,0,0,2013-10-24,54.898707,-1.562759
143902,LAKELAND,AwaitingInspection,nan,nan,nan,,54.95765,-1.668573
143903,LAMBTON ARMS,4,5,10,5,2014-03-25,54.91542,-1.564793
143904,LANCASTRIAN SUITE,4,10,5,5,2015-01-13,54.95324,-1.656539
143905,LANCHESTER COURT,4,0,0,10,2013-09-09,54.928892,-1.565225
143906,LANEHEAD BAKERY,5,5,0,0,2013-11-05,54.97274,-1.761413
143907,LARKSPUR PRIMARY SCHOOL (KITCHEN),5,5,0,0,2012-02-10,54.933272,-1.57398
143908,LAST DAYS OF THE RAJ,5,5,5,5,2013-05-14,54.948573,-1.599594
143909,Le Bon Gout,4,5,5,10,2014-11-10,,
143910,LEAM LANE CHINESE TAKE AWAY,AwaitingInspection,nan,nan,nan,,54.944651,-1.542388
143911,LEAM LANE COMMUNITY CENTRE,4,0,5,10,2014-05-06,54.940012,-1.54653
143912,LEAM LANE DAY CARE,5,5,0,0,2014-03-18,54.940012,-1.54653
143913,LEAM LANE SOCIAL CLUB,4,10,0,10,2013-02-06,54.940591,-1.545306
143914,LEAM LANE TAKEAWAY,2,15,10,10,2014-03-12,54.935308,-1.550313
143915,LEIGH'S MONTESSORI,5,5,0,5,2013-09-05,54.950825,-1.604068
143916,LENNONS NEWS,4,10,0,10,2013-05-29,54.956102,-1.645381
143917,LEONARDOS,3,5,10,10,2013-10-09,54.965102,-1.790947
143918,LESLEYS,5,5,5,5,2013-08-22,54.931591,-1.61142
143919,LET THEM EAT CAKES,5,0,0,5,2014-03-31,,
143920,LEYBOURNE FISHERIES,4,10,5,5,2014-07-01,54.905959,-1.578042
143921,LG COFFEE BAR,5,5,0,0,2013-07-25,54.9463,-1.675238
143922,LINDISFARNE CARE HOME,5,0,0,5,2014-03-12,54.89958,-1.578342
143923,LINDISFARNE NURSING HOME,5,0,5,0,2014-11-12,54.966649,-1.786534
143924,LINGEY HOUSE PRIMARY SCHOOL (KITCHEN),5,5,0,0,2012-11-30,54.94436,-1.538972
143925,LINO'S FISH BAR,3,10,10,10,2014-11-18,54.953729,-1.545189
143926,LIQUORMART,5,0,0,5,2014-02-28,54.95363,-1.607226
143927,LITTLE CHIP,5,5,0,0,2014-04-08,54.950242,-1.604402
143928,LOBLEY HILL FISH BAR,4,5,5,10,2013-05-16,54.942369,-1.638477
143929,LOBLEY HILL PRIMARY SCHOOL (KITCHEN),5,0,0,0,2012-02-10,54.938269,-1.637827
143930,LONDIS,4,5,5,10,2013-06-18,54.95515,-1.63944
143931,LORD LAWSON OF BEAMISH SCHOOL (KITCHEN),5,0,0,0,2014-03-25,54.894283,-1.572177
143932,LOTUS LEAF,4,5,5,10,2014-07-01,54.89958,-1.578342
143933,Louises Cafe,AwaitingInspection,nan,nan,nan,,54.958383,-1.596138
143934,LOW FELL PIZZA,4,0,10,10,2014-06-11,54.937595,-1.597939
143935,LUCKY DRAGON,5,0,5,0,2012-09-28,54.934698,-1.599513
143936,LUCKY GARDEN TAKEAWAY,3,10,5,10,2013-08-06,54.946761,-1.640764
143937,LYNNS SNAX BAR,AwaitingInspection,nan,nan,nan,,54.918751,-1.761873
143938,M&E CATERING,4,0,5,10,2014-05-28,,
143939,M&M's FISH & CHIP SHOP/CAFE,5,5,5,5,2014-03-11,54.961452,-1.59995
143940,MAGDA'S CAKES,5,0,0,0,2014-03-31,,
143941,MAGUIRES,5,5,0,0,2013-08-06,54.953582,-1.686656
143942,MAGUIRES,5,0,0,0,2013-08-13,54.921284,-1.739267
143943,MAIDEN OVER,3,10,5,10,2014-08-04,54.953952,-1.552166
143944,MALTHURST LTD,5,5,5,5,2013-04-18,54.957001,-1.691658
143945,MALTING HOUSE INN,3,10,10,10,2013-08-15,54.953424,-1.567552
143946,MAMA ROSA,3,10,10,10,2013-05-22,54.922007,-1.763258
143947,MAMMA ROSA,3,10,5,10,2013-07-23,54.956447,-1.640444
143948,MARKO'S,4,0,0,10,2013-05-22,54.950362,-1.570786
143949,MARKS & SPENCER,5,0,0,0,2013-09-26,54.95765,-1.668573
143950,MARKS & SPENCER SIMPLY FOOD,5,0,0,0,2013-09-25,54.923558,-1.619907
143951,MARMARIS PIZZA TAKEAWAY,5,0,5,5,2013-06-06,54.959154,-1.723811
143952,MARQUIS OF GRANBY,3,10,10,10,2014-01-06,54.929789,-1.660765
143953,MARQUISWAY DAY CENTRE,5,0,0,0,2014-01-15,54.926311,-1.618258
143954,MARSHALLS,5,5,5,5,2014-07-11,54.923632,-1.574549
143955,MARSHALLS EXPRESS,5,0,0,0,2013-01-07,54.933655,-1.618891
143956,MARTHAS,3,5,10,10,2014-05-20,54.925385,-1.574765
143957,MARTIN BAXTER,3,5,10,10,2014-09-11,54.895391,-1.57795
143958,MASSARELLA (UPPER GREEN MALL),4,10,0,0,2012-08-14,54.95765,-1.668573
143959,MCCOLLS,3,10,5,10,2013-06-24,54.936585,-1.599323
143960,MCDONALDS,5,5,0,0,2012-04-30,54.96468,-1.712091
143961,MCDONALDS,5,5,0,0,2013-01-15,54.923558,-1.619907
143962,MCDONALDS,5,0,0,0,2013-10-17,54.963063,-1.590048
143963,MCDONALDS (GREEN MALL),5,5,5,0,2014-07-24,54.95765,-1.668573
143964,MCDONALDS (QUBE),5,0,0,0,2014-06-24,54.95765,-1.668573
143965,MCDONALDS (RETAIL PARK),5,5,0,0,2012-12-10,54.96004,-1.675268
143966,MEALS/SHOPPING SERVICE,5,5,0,5,2013-10-04,54.881849,-1.570469
143967,MEATY EVENTS,5,5,5,5,2014-09-03,,
143968,MECCA BINGO LTD,5,5,5,0,2014-04-14,54.965143,-1.599429
143969,"MELON YARD CAFE, YOUR BUSINESS NETWORKS",5,0,0,5,2014-06-04,54.961325,-1.668449
143970,METROPOLE,4,10,0,10,2012-07-23,54.962174,-1.600974
143971,MIAH,4,0,5,10,2014-08-19,54.973155,-1.762614
143972,MIAMI'S,5,5,5,5,2014-07-31,54.913072,-1.584769
143973,MIJI,4,5,5,10,2014-11-04,54.970135,-1.731953
143974,MING KITCHEN,2,15,10,10,2014-02-26,54.935056,-1.599026
143975,MING WONG,5,0,5,5,2014-02-26,54.922989,-1.675083
143976,MISTER TWISTERS,5,0,5,5,2014-05-14,54.939057,-1.517883
143977,MITHALI BALTI,3,10,10,10,2013-03-12,54.952225,-1.568939
143978,MOFFEE'S,5,5,5,0,2013-07-09,54.963759,-1.601895
143979,MOHIMS,4,5,10,5,2014-02-06,54.896056,-1.577958
143980,Momaâs kitchen,5,0,0,5,2014-12-18,,
143981,MONSTER MUNCHER,5,0,0,0,2014-07-25,,
143982,MONSUN,3,10,10,10,2013-11-27,54.936281,-1.599934
143983,MO'S PIZZA,3,10,5,10,2013-11-19,54.959519,-1.599782
143984,MOTI JHEEL,4,0,0,10,2013-11-19,54.945555,-1.682348
143985,MOTI MAHAL,3,10,5,10,2013-06-26,54.946761,-1.640764
143986,MOULIN ROUGE PIZZA,3,10,10,10,2013-08-07,54.954793,-1.726902
143987,MPH GROUP (CATERING - TRAINING AND CONFERENCE CENTRE),5,0,5,0,2013-07-01,54.954415,-1.536421
143988,MR BAKER,4,10,5,5,2014-04-28,54.895155,-1.577313
143989,MR CHUCKY,AwaitingInspection,nan,nan,nan,,54.953485,-1.690623
143990,Mr Michael Stowe,5,0,0,0,2014-03-19,,
143991,Mr Pretzels (UK) Retail Ltd,AwaitingInspection,nan,nan,nan,,54.95765,-1.668573
143992,MRM CORNER SHOP,3,10,10,10,2013-07-10,54.948612,-1.592209
143993,MUFFIN BREAK,4,10,0,10,2014-04-09,54.95765,-1.668573
143994,MULBERRY BUSH NURSERY,5,5,0,0,2014-07-28,54.927878,-1.5758
143995,MULBERRY BUSH NURSERY,5,5,5,5,2013-03-01,54.899361,-1.577425
143996,MUSHY PIZZA,AwaitingInspection,nan,nan,nan,,54.95201,-1.683686
143997,MW CUSTOM CAKES,5,0,0,5,2013-07-02,,
143998,N BAMLING AND SON,4,5,0,10,2014-02-17,54.948869,-1.570442
143999,NAMCO FUNSCAPE,5,0,0,5,2014-07-29,54.95765,-1.668573
144000,NANDO'S,5,0,0,0,2014-03-03,,
144001,NANDO'S (BLUE MALL),5,0,0,0,2013-07-10,54.95765,-1.668573
144002,NANDO'S (QUBE),5,0,0,5,2013-08-05,54.95765,-1.668573
144003,NATIONAL PROBATION SERVICE (CATERING),5,0,0,0,2013-09-26,54.953267,-1.623109
144004,NATIONAL TRUST (SHOP & CAFES),5,0,5,0,2013-12-18,54.920543,-1.73314
144005,NAZ,3,10,5,10,2014-09-08,54.942909,-1.618242
144006,NEC CATERING,4,0,10,5,2013-11-06,,
144007,NESS FOODS LTD,5,5,5,5,2015-01-14,54.952958,-1.610511
144008,NEW GARDEN,5,5,0,5,2013-07-09,54.953779,-1.544173
144009,NEW NAPOLI RESTAURANT,5,5,0,5,2013-09-10,54.934698,-1.599513
144010,NEW RIDGEWAY CHOP SUEY HOUSE,3,10,10,10,2014-01-16,54.939368,-1.537968
144011,NEW SUN WAH EXPRESS CHOP SUEY HOUSE,2,15,15,10,2014-05-28,54.945155,-1.683834
144012,NEW YORK DELI,4,0,5,10,2014-02-04,54.957144,-1.65154
144013,NEW YORK DINER,4,5,5,10,2013-11-28,54.926311,-1.618258
144014,NEW YORK GRILL,5,0,5,5,2014-06-17,,
144015,NEWCASTLE MARRIOTT HOTEL METROCENTRE,5,0,0,0,2013-09-27,54.957773,-1.677473
144016,NISA,3,10,5,10,2013-07-03,54.925385,-1.574765
144017,NISA,1,0,10,20,2014-02-24,54.955638,-1.608393
144018,NISA,4,10,0,10,2013-08-09,54.950974,-1.616729
144019,NISA LOCAL,4,5,5,10,2014-07-11,54.940591,-1.545306
144020,NISA LOCAL,4,0,0,10,2013-04-23,54.903293,-1.578818
144021,NISA TODAY,4,5,5,10,2013-08-21,54.942646,-1.590037
144022,NISHA'S TANDOORI,5,5,5,5,2013-11-18,54.954069,-1.687059
144023,NO MUU,5,0,0,5,2014-06-03,,
144024,NORFOLK FOOD MARKET,4,5,5,10,2014-07-23,54.882367,-1.572007
144025,NORTH EAST PLANT SALES LTD (catering),5,0,0,5,2014-05-16,54.903108,-1.59047
144026,NORTH SHORE CATERING & PATISSERIE,5,0,0,5,2014-01-15,,
144027,NORTHBOURNE HOUSE,5,0,0,5,2014-08-04,54.938163,-1.600962
144028,NORTHERN CANTEEN AND RECREATION CLUB,3,5,10,10,2013-04-04,54.95593,-1.728705
144029,NORTHUMBERLAND GIN COMPANY,AwaitingInspection,nan,nan,nan,,,
144030,Not Just Jam,5,0,0,5,2014-10-13,,
144031,NS KANDOLA,3,5,10,10,2014-10-01,54.919598,-1.809092
144032,NUMBER NINE SANDWICH BAR,5,5,5,5,2014-02-05,54.954789,-1.724966
144033,OAKFIELD CONVENIENCE STORE,4,0,0,10,2013-06-24,54.936954,-1.685256
144034,OAKFIELD INFANT SCHOOL (KITCHEN),5,5,0,0,2012-02-10,54.93313,-1.598109
144035,OAKFIELD PHARMACY,5,0,0,5,2013-07-01,54.936954,-1.685256
144036,OAKWOOD LONDIS,3,10,5,10,2014-11-07,54.93727,-1.631546
144037,O'BRIENS SANDWICH BAR,5,5,0,0,2014-07-21,54.943071,-1.624125
144038,ODEON,5,0,0,5,2013-10-18,54.95765,-1.668573
144039,OLLIE'S PIZZA,4,5,5,10,2014-02-12,54.96048,-1.599647
144040,ORANGERY CAFE,4,0,0,10,2014-08-12,,
144041,ORIGINAL BAKEHOUSE LTD,5,0,5,5,2013-07-02,54.946252,-1.677487
144042,ORIGINAL BAKEHOUSE LTD,3,10,5,10,2013-12-03,54.924615,-1.607524
144043,PACHINO PIZZA,3,5,10,10,2013-05-22,54.95621,-1.713619
144044,PACK HORSE INN,5,5,5,5,2014-10-28,54.953686,-1.783792
144045,PAGODA,5,0,5,5,2013-10-09,54.935998,-1.67696
144046,Paiges Sweetshop,AwaitingInspection,nan,nan,nan,,54.950362,-1.570785
144047,PAMELA'S,AwaitingInspection,nan,nan,nan,,,
144048,PANCAKES AND MORE,5,5,5,5,2014-01-13,54.95765,-1.668573
144049,PANDORAS PANTRY,3,10,5,10,2014-07-07,54.933297,-1.622219
144050,PANTRY FRESH,5,0,5,0,2014-06-03,54.955638,-1.608393
144051,Pantry Pies,AwaitingInspection,nan,nan,nan,,54.949198,-1.644817
144052,PANTRY PIES,4,5,5,10,2014-04-03,54.952921,-1.63921
144053,PAOLO'S FISH & CHIPS,5,5,0,5,2014-08-20,54.964026,-1.712908
144054,PAPA GANOUSH,5,0,0,5,2014-07-04,54.960593,-1.582389
144055,PAPA JOHNS,5,5,5,5,2014-10-16,54.933655,-1.618891
144056,PAPP'S CONVENIENCE STORE,4,5,5,10,2014-07-29,54.95122,-1.606531
144057,PAPRIKA,3,5,10,10,2014-07-01,54.948573,-1.599594
144058,PARK FARM,5,5,0,5,2012-10-29,54.917623,-1.636484
144059,PARK LANE CHINESE TAKEAWAY,5,5,5,0,2014-04-09,54.927385,-1.589209
144060,PARK STORES,3,10,5,10,2013-08-22,54.939368,-1.537968
144061,PARK VIEW INN,4,5,5,10,2014-07-11,54.937043,-1.607528
144062,PARKHEAD NEWS & OFF LICENCE,3,10,10,10,2013-04-30,54.952988,-1.719513
144063,PARKHEAD PRIMARY SCHOOL (KITCHEN),5,5,0,0,2012-10-23,54.950553,-1.719311
144064,PARKSIDE LODGE,4,0,0,10,2013-08-09,54.953778,-1.608271
144065,PASSION 4 FRUIT,5,5,5,5,2013-03-06,54.936585,-1.599323
144066,PAUL'S PANTRY,5,0,5,5,2014-07-30,54.945953,-1.672931
144067,PEDALLING SQUARES,5,5,0,5,2014-03-25,54.952296,-1.686198
144068,PELAW AUCTIONS,5,5,0,5,2013-09-25,54.951642,-1.544697
144069,PELAW INN,1,10,10,20,2014-04-23,54.953938,-1.543563
144070,PELAW PANTRY,5,5,5,5,2013-04-11,54.953729,-1.545189
144071,PHILIPS COURT CARE HOME,5,0,0,0,2014-02-03,54.935718,-1.582148
144072,PHILS FILLING STATION,3,5,10,10,2014-01-21,,
144073,PHOENIXCAKES,AwaitingInspection,nan,nan,nan,,,
144074,PIAZZA LATINA RESTAURANT,4,5,10,5,2014-11-18,54.934698,-1.599513
144075,PIEROGI NORTH EAST,4,5,5,10,2014-02-13,,
144076,PIGGIN LUSH,5,5,5,5,2013-03-22,54.896112,-1.583852
144077,PINETREE LODGE,5,0,5,5,2014-11-18,54.94751,-1.596014
144078,PING ON CHOP SUEY HOUSE,3,10,10,10,2014-07-14,54.953341,-1.615051
144079,PINK BEAR'S CAKES,4,0,0,10,2013-07-08,,
144080,PINK BUNNY BAKERY,AwaitingInspection,nan,nan,nan,,,
144081,PIT LANE CAFE,3,10,5,10,2014-05-06,,
144082,PIT STOP 2,3,10,10,10,2014-02-28,54.930033,-1.783591
144083,PIZZA BITE,2,15,10,10,2013-12-08,54.95231,-1.688181
144084,PIZZA COTTAGE,2,15,10,10,2013-09-04,54.931881,-1.598308
144085,PIZZA EURO,3,10,5,10,2013-11-26,54.948869,-1.570442
144086,PIZZA EXPRESS (THE QUBE),5,0,0,5,2013-10-03,54.95765,-1.668573
144087,PIZZA HOTWAY,3,10,10,10,2014-06-03,54.930198,-1.563525
144088,PIZZA HUT (BLUE MALL),5,5,0,0,2013-04-09,54.95765,-1.668573
144089,PIZZA HUT (RETAIL PARK),5,5,0,0,2012-04-20,54.96004,-1.675268
144090,PIZZA SQUARE,4,5,5,10,2014-11-04,54.945965,-1.681095
144091,PIZZA STOP,4,0,0,10,2012-09-04,54.956875,-1.538407
144092,PIZZARIA LUCCIANO LTD,3,10,10,10,2013-12-18,54.954081,-1.684982
144093,PIZZERIA SANTANA,3,10,10,10,2014-06-02,54.945825,-1.675398
144094,PLOUGH INN,3,5,10,10,2015-01-21,54.905383,-1.615634
144095,POACHERS POCKET,3,10,10,10,2014-10-27,54.95129,-1.669577
144096,POCKERLEY PANTRY,5,0,5,5,2013-07-12,54.887368,-1.640232
144097,Polly's Sweet Shop and Cafe,AwaitingInspection,nan,nan,nan,,54.970899,-1.776576
144098,POP Co. gourmet popcorn Limited,5,5,5,5,2014-10-23,54.95765,-1.668573
144099,PORCELLIS,5,0,0,5,2013-01-22,54.933655,-1.618891
144100,PORTLAND ARMS,3,10,5,10,2014-12-01,54.949288,-1.571968
144101,PORTOBELLO PRIMARY SCHOOL (KITCHEN),5,0,0,0,2014-03-25,54.88752,-1.567993
144102,POST HOUSE TAKE AWAY,4,10,5,5,2014-01-15,54.955052,-1.725807
144103,POTTER CAFE,4,5,5,10,2014-11-06,54.945138,-1.58294
144104,POTTERS WHEEL,5,5,0,5,2014-03-12,54.922208,-1.675074
144105,POUNDLAND,AwaitingInspection,nan,nan,nan,,,
144106,POUNDLAND,AwaitingInspection,nan,nan,nan,,,
144107,PREMIER CATERING,5,0,0,0,2014-02-14,54.895167,-1.583518
144108,PREMIER INN (HOTEL),5,0,0,0,2013-09-10,54.943071,-1.624125
144109,PREMIER STORES,3,10,5,10,2013-05-16,54.922007,-1.763258
144110,PREMIER VAK STORES & OFF LICENCE,3,10,5,10,2013-08-16,54.942369,-1.638477
144111,PREMUROSA.COM,5,0,0,5,2013-07-15,54.967315,-1.694609
144112,PRET A MANGER,AwaitingInspection,nan,nan,nan,,54.95765,-1.668573
144113,Primavera,AwaitingInspection,nan,nan,nan,,54.937466,-1.599423
144114,PRIORY COURT RESTAURANT,4,5,5,10,2014-03-13,54.94966,-1.536195
144115,QUEEN ELIZABETH HOSPITAL,5,0,0,0,2015-01-22,54.938904,-1.581069
144116,R O ADAMSON,4,10,5,0,2014-01-08,54.935289,-1.782595
144117,R&M MARTIN & SON,5,5,5,5,2014-02-19,54.946252,-1.677487
144118,R&M MARTIN & SON,5,5,5,5,2014-03-06,54.966797,-1.789126
144119,RAINBOW CHOP SUEY HOUSE,3,10,10,10,2015-01-14,54.932021,-1.589084
144120,RAMADA ENCORE,5,0,0,0,2014-10-22,54.968382,-1.595102
144121,RAVAL RESTAURANT AND BAR,5,5,5,5,2013-06-25,54.965902,-1.603326
144122,RAVENSDENE LODGE HOTEL,3,10,5,10,2014-03-10,54.937245,-1.641192
144123,RAVENSWORTH ARMS HOTEL,4,10,0,5,2013-06-11,54.912347,-1.609999
144124,RAVENSWORTH FOOD STORE,3,10,10,10,2013-08-08,54.89742,-1.580033
144125,RAVENSWORTH GOLF CLUB CLUBHOUSE,5,0,0,5,2013-10-30,54.927753,-1.581107
144126,RAVENSWORTH GRANGE FARM,5,0,0,5,2014-12-22,54.907288,-1.645311
144127,RAVENSWORTH TERRACE PRIMARY SCHOOL (KITCHEN),5,0,0,0,2014-03-25,54.895044,-1.573977
144128,RAVS CHIPPY,3,5,10,10,2014-08-13,54.922989,-1.675083
144129,Redheugh & Eslington Communal Lounge,AwaitingInspection,nan,nan,nan,,54.951357,-1.627218
144130,REGAL CATERING,4,5,5,10,2014-07-22,54.966536,-1.69916
144131,REGENCY PIZZA,3,5,10,10,2015-01-14,54.92556,-1.573296
144132,Reid's Hot and Cold Food,AwaitingInspection,nan,nan,nan,,,
144133,RETTIG ICC (CATERING),5,5,0,0,2013-10-16,54.932022,-1.614038
144134,RICE TONIGHT,3,10,10,10,2013-07-09,54.96048,-1.599647
144135,RISING SUN INN,3,5,10,10,2012-10-24,54.964643,-1.790621
144136,RIVERFORD ORGANIC VEG,5,0,0,0,2012-08-13,,
144137,ROCKABILLYS DINER,4,0,5,10,2014-01-28,,
144138,ROMA PIZZA,4,5,10,5,2013-06-26,54.953654,-1.727753
144139,ROMAN ROAD PRIMARY SCHOOL (KITCHEN),5,5,0,0,2011-09-20,54.934756,-1.546979
144140,RONNIES PLAICE,5,5,5,5,2014-11-19,54.923632,-1.574549
144141,ROSA TWELVE,5,5,5,5,2014-11-06,54.934698,-1.599513
144142,ROSE VILLA DAY NURSERY,5,0,0,5,2014-10-08,54.9463,-1.675238
144143,ROSEWOOD HOUSE,5,5,0,5,2014-10-16,54.950679,-1.620167
144144,ROWERS HOTEL,2,15,10,10,2013-04-12,54.95785,-1.650019
144145,ROWLANDS GILL COMMUNITY CENTRE,5,5,0,5,2014-09-09,54.918776,-1.751966
144146,ROWLANDS GILL PRIMARY SCHOOL (KITCHEN),5,0,0,0,2012-02-10,54.925702,-1.742218
144147,ROWLANDS GILL UNDER FIVES,5,0,0,0,2014-01-13,54.918719,-1.741608
144148,ROYAL HOTEL,3,10,10,10,2014-05-13,54.957646,-1.644821
144149,ROYAL MAIL (CATERING),5,0,0,5,2014-07-31,54.941784,-1.615006
144150,RUBIS WINE,AwaitingInspection,nan,nan,nan,,54.95765,-1.668573
144151,RUTHERFORD ASSOCIATION FOOTBALL  CLUB,5,5,0,5,2014-01-13,54.933949,-1.632685
144152,RYTON CRICKET CLUB,3,5,10,10,2012-10-09,54.970471,-1.773439
144153,RYTON DELI,5,5,0,0,2012-12-03,54.972228,-1.761963
144154,RYTON FISH BAR,4,0,5,10,2013-02-14,54.97279,-1.750728
144155,RYTON GARDEN CHINESE TAKEAWAY,5,0,5,5,2014-03-13,54.971331,-1.758172
144156,RYTON HOLY CROSS CHURCH HALL,5,0,0,5,2014-03-31,54.978582,-1.762082
144157,RYTON INFANT SCHOOL (KITCHEN),5,5,0,0,2014-03-03,54.971868,-1.775587
144158,RYTON JUNIOR SCHOOL (KITCHEN),5,5,0,0,2014-03-03,54.971868,-1.775587
144159,RYTON MASONIC HALL,5,5,0,0,2013-08-01,54.973429,-1.769408
144160,RYTON METHODIST CHURCH,4,0,0,10,2013-12-09,54.971493,-1.762858
144161,RYTON PARK COUNTRY HOUSE HOTEL,5,5,5,5,2014-01-14,54.975889,-1.758754
144162,RYTON SOCIAL CLUB,4,10,0,10,2013-01-08,54.972223,-1.759167
144163,RYTON TOWER,5,0,5,5,2014-01-28,54.975552,-1.761428
144164,SABASHAY Stores Ltd,3,10,10,10,2013-06-13,54.940085,-1.587456
144165,SAFFRON BAKERY,3,10,5,10,2014-09-02,54.949235,-1.615387
144166,SAGE GATESHEAD (catering),5,5,0,0,2014-10-29,54.967686,-1.60195
144167,SAINSBURY'S,5,0,0,0,2013-09-09,54.925993,-1.608681
144168,SAINSBURYS (STAFF CANTEEN),5,0,0,0,2013-09-10,54.923491,-1.607379
144169,SALTWELL NEWS,3,10,10,10,2013-07-09,54.950282,-1.616626
144170,SALTWELL TOWERS TEA ROOM,5,5,0,5,2013-07-15,54.941683,-1.603128
144171,SAMANTHA'S KITCHEN,5,0,0,5,2013-06-12,,
144172,SAM'S CHINESE TAKE AWAY,3,10,5,10,2014-03-26,54.940085,-1.587456
144173,"SANCTUARY PROJECT, CHRIST CHURCH FELLING",5,5,5,5,2014-10-31,54.951626,-1.567415
144174,SANDWICH FAYRE,5,0,5,5,2013-10-09,54.954389,-1.608515
144175,SANDWICH MAKER [BEANBRIDGE COFFEE],4,0,0,10,2014-04-03,,
144176,SANTIS RISTORANTE ITALIANO,AwaitingInspection,nan,nan,nan,,54.895892,-1.57743
144177,SAPORI,AwaitingInspection,nan,nan,nan,,54.954789,-1.724966
144178,SARAH'S SWEET MOMENTS,4,0,5,10,2013-09-16,,
144179,SAVERS,5,0,0,0,2014-03-13,54.961521,-1.601933
144180,SCARLETT'S,AwaitingInspection,nan,nan,nan,,,
144181,SCREAM FOR PIZZA,5,0,0,0,2014-08-15,54.957257,-1.628959
144182,SEA GARDEN CHINESE TAKE AWAY,5,0,5,0,2013-11-26,54.9595,-1.725792
144183,SELECT AND SAVE,4,5,5,10,2013-05-21,54.922495,-1.755454
144184,SERVE U WELL CATERING,4,5,5,10,2014-08-04,54.939057,-1.517883
144185,SHADON HOUSE,5,0,5,5,2013-10-04,54.881849,-1.570469
144186,SHAKEAHOLIC,4,5,10,5,2014-09-03,,
144187,SHAKESPEARE HOTEL,3,5,10,10,2013-07-24,54.952429,-1.594403
144188,SHEPPYS,5,0,0,5,2013-09-13,54.950563,-1.595327
144189,SHERIFF HILL STORE,3,5,10,10,2013-07-01,54.938442,-1.585225
144190,SHERIFFS HILL FISH FRY,4,5,5,10,2014-07-30,54.942646,-1.590037
144191,SIDS,3,10,5,10,2013-08-22,54.941184,-1.582684
144192,SILVER GIRAFFE,4,5,5,10,2013-09-16,54.972223,-1.759167
144193,SIMPLY CHEESECAKE,5,0,0,0,2014-03-06,,
144194,SIMPLY DELI,4,5,5,10,2014-07-14,54.951721,-1.640876
144195,SIMPLY GRILLS,AwaitingInspection,nan,nan,nan,,54.936585,-1.599323
144196,SING WAH CHINESE TAKEAWAY,3,10,5,10,2013-12-04,54.951721,-1.640876
144197,Sizzling Hot,AwaitingInspection,nan,nan,nan,,,
144198,SIZZLING SNACKS,4,0,5,10,2013-08-17,,
144199,SNAC ATTAC,5,5,5,0,2013-12-18,54.947009,-1.565513
144200,SNACK & COFFEE SHOP,4,0,5,10,2012-11-07,,
144201,SNACKERS,4,10,0,0,2014-08-28,54.970899,-1.776577
144202,SNOZBERRY FROYO,5,0,0,5,2013-06-27,54.929789,-1.660765
144203,Somethin's Brewin,AwaitingInspection,nan,nan,nan,,,
144204,SOPHIES STORE,5,0,0,5,2014-04-02,54.896849,-1.571058
144205,SORELLA SORELLA,5,0,0,5,2013-07-24,54.927473,-1.668009
144206,SORRENTO PIZZA LTD,4,5,5,10,2014-07-15,54.892864,-1.577602
144207,SOUTH BANK GRILL,5,0,5,5,2013-06-05,54.966435,-1.607007
144208,SOUTH CHOWDENE NURSING HOME,5,0,5,0,2014-10-29,54.929161,-1.598975
144209,SOUTH STREET PRIMARY SCHOOL (KITCHEN),5,0,0,0,2012-02-10,54.952859,-1.596788
144210,Southend Plaice Fish Shop,AwaitingInspection,nan,nan,nan,,54.933553,-1.587617
144211,SOUTHERNWOOD PROMOTING INDEPENDENCE CENTRE,5,0,5,5,2014-02-18,54.919479,-1.592612
144212,SPAR,4,10,0,10,2013-09-12,54.947037,-1.61366
144213,SPAR,5,0,5,5,2013-12-03,54.919785,-1.813429
144214,SPAR GREENSIDE,3,10,10,10,2013-08-23,54.954473,-1.781649
144215,SPICE DINER,4,5,5,10,2013-05-22,54.922007,-1.763258
144216,SPICE GARDEN,4,5,10,5,2013-12-04,54.954793,-1.726902
144217,Spice Kitchen,AwaitingInspection,nan,nan,nan,,54.942271,-1.572355
144218,SPICE OF DECKHAM,3,10,10,10,2014-03-26,54.951075,-1.58711
144219,SPICY SUPERFOODS,5,0,5,0,2013-03-21,,
144220,SPIDZAS DINER,4,10,5,5,2014-04-30,54.954792,-1.560745
144221,SPRINGFIELD HOUSE,5,0,5,5,2013-02-14,,
144222,SPRINGVALE COURT CARE HOME,5,0,0,0,2014-11-19,54.925562,-1.571393
144223,SPRINGWELL INN,4,0,0,10,2012-05-02,54.927974,-1.564782
144224,SPRINGWELL STORE,3,10,5,10,2013-08-22,54.927576,-1.564022
144225,SPUD U LIKE,5,0,0,5,2012-10-22,54.95765,-1.668573
144226,ST AGNES DAY NURSERY,5,0,0,5,2014-05-21,54.964923,-1.786606
144227,ST AGNES RC PRIMARY SCHOOL (KITCHEN),5,0,0,0,2012-11-08,54.966649,-1.786534
144228,ST ALBANS RC PRIMARY SCHOOL (KITCHEN),5,0,0,0,2014-11-04,54.955597,-1.544809
144229,ST ANDREWS CHURCH HALL,5,0,5,5,2014-07-22,54.941169,-1.543614
144230,ST ANNES RC PRIMARY SCHOOL (KITCHEN),5,5,0,5,2012-07-13,54.922018,-1.586003
144231,ST AUGUSTINES RC PRIMARY SCHOOL (KITCHEN),5,5,0,0,2012-02-10,54.941689,-1.548025
144232,ST BEDES DAY CARE,5,0,0,0,2014-04-29,,
144233,ST CHADS CHURCH HALL,5,0,0,5,2014-10-16,54.949076,-1.613515
144234,ST CHADS COMMUNITY PROJECT,4,5,5,10,2014-07-22,54.951161,-1.613573
144235,ST CUTHBERTS HOUSE,5,5,5,5,2014-06-23,54.928738,-1.599026
144236,ST JOSEPHS RC INFANT SCHOOL (KITCHEN),5,0,0,0,2011-12-05,54.89958,-1.578342
144237,ST JOSEPHS RC PRIMARY SCHOOL (KITCHEN),5,0,0,0,2014-03-20,54.956618,-1.603106
144238,ST JOSEPHS RC PRIMARY SCHOOL (KITCHEN),5,0,0,5,2014-07-03,54.961217,-1.722235
144239,ST JOSEPHS RC SCHOOL (KITCHEN),5,5,0,5,2014-02-24,54.893812,-1.576173
144240,ST MARKS COURT,5,0,0,0,2014-01-28,54.951517,-1.59296
144241,ST MARKS LUNCHEON CLUB,5,5,5,5,2013-10-08,54.951653,-1.598798
144242,ST MARY & ST THOMAS RC PRIMARY SCHOOL (KITCHEN),5,5,0,0,2012-02-10,54.9696,-1.733596
144243,ST MARYS RC PRIMARY SCHOOL (KITCHEN),5,5,0,0,2014-03-03,54.945366,-1.668502
144244,ST OSWALDS CARE HOME,5,0,0,0,2014-07-23,54.947631,-1.566053
144245,ST OSWALDS RC PRIMARY SCHOOL (KITCHEN),5,5,0,0,2012-02-10,54.927138,-1.572265
144246,ST PETERS RC PRIMARY SCHOOL (KITCHEN),5,0,0,5,2012-01-11,54.941551,-1.595668
144247,ST PHILIP NERI RC SCHOOL (KITCHEN),5,0,0,0,2012-10-12,54.951538,-1.63649
144248,ST WILFREDS RC PRIMARY SCHOOL (KITCHEN),5,0,0,0,2012-10-18,54.957167,-1.581785
144249,STACEYS STEMS (CATERING),4,0,0,10,2013-10-09,,
144250,STAIRWAYZ CAFE,5,5,5,5,2014-02-10,54.937466,-1.599423
144251,Staiths Cafe Bar,AwaitingInspection,nan,nan,nan,,54.957262,-1.627663
144252,STAR OF ASIA,3,10,10,10,2015-01-13,54.95515,-1.63944
144253,STARBUCKS (LOWER RED MALL),5,0,0,5,2013-04-09,54.95765,-1.668573
144254,STARBUCKS (METROASIS),5,0,0,0,2014-07-28,54.936585,-1.599323
144255,STARBUCKS (Within NEXT),5,0,0,0,2012-10-25,54.923558,-1.619907
144256,STAR-BUNS,5,0,0,0,2014-09-04,,
144257,STARGATE & CROOKHILL COMMUNITY CENTRE,5,0,0,5,2014-01-27,54.969861,-1.751011
144258,STARGATE FISH &CHIP SHOP,5,5,0,5,2013-07-10,54.967404,-1.749168
144259,STENHOUSE,3,10,5,10,2014-07-21,54.95363,-1.607226
144260,STEPPING STONES DAY NURSERY,5,0,0,0,2013-01-17,54.953721,-1.677927
144261,STONECROFT SOCIAL AND RESIDENTIAL HOME,5,0,0,5,2013-10-03,54.905383,-1.615634
144262,STRATHMORE ROAD METHODIST CHURCH HALL,4,5,5,10,2012-11-28,54.919344,-1.748453
144263,Strothers Rare Breed Pork,AwaitingInspection,nan,nan,nan,,54.920542,-1.73314
144264,SUBWAY,5,5,0,0,2013-05-08,54.934698,-1.599513
144265,SUBWAY,5,5,0,5,2013-08-12,,
144266,SUBWAY,5,0,0,0,2013-10-09,54.961521,-1.601933
144267,SUBWAY (INTERCHANGE),5,0,0,5,2013-09-20,54.95765,-1.668573
144268,SUBWAY (LOWER QUBE),5,0,0,0,2013-05-13,54.947461,-1.640711
144269,SUBWAY (UPPER QUBE),5,0,0,0,2013-04-24,54.947461,-1.640711
144270,SULTAN TANDOORI,3,10,10,10,2014-01-23,54.954329,-1.727998
144271,SUMO DRINKS LTD/BRAINWAVE DRINKS LTD,4,0,0,10,2014-04-01,54.963924,-1.605845
144272,SUNARGA INDIAN RESTAURANT,4,5,5,10,2014-07-01,54.905959,-1.578042
144273,SUNDERLAND TALMUDICAL COLLEGE,3,10,5,10,2013-11-19,54.954494,-1.602049
144274,SUNNISIDE POST OFFICE,4,5,5,10,2013-08-16,54.922989,-1.675083
144275,SUPER CHEF,5,5,5,5,2013-10-24,54.893656,-1.577812
144276,SUPERPIE,4,10,5,5,2014-02-11,54.954341,-1.607313
144277,SUTHERLANDS,4,10,0,0,2013-02-05,54.940669,-1.57412
144278,SWALLOW HOTEL,3,10,10,10,2013-10-02,54.955982,-1.600816
144279,SWALWELL JUNIOR FOOTBALL CLUB,5,5,0,5,2013-02-25,54.94825,-1.699578
144280,SWALWELL NEWS FOOD & BOOZE,4,0,5,10,2013-02-06,54.952011,-1.683686
144281,SWALWELL PRIMARY SCHOOL (KITCHEN),4,10,0,5,2012-10-18,54.95094,-1.679635
144282,SWEET FACTORY,5,5,5,5,2014-04-28,,
144283,SWEET SURPRISE,5,0,5,5,2014-06-18,,
144284,SWEETS GALORE,4,0,5,10,2012-09-18,54.95765,-1.668573
144285,SWEETSWHOLESALE.CO.UK,4,5,5,10,2014-03-10,54.942909,-1.618242
144286,TAI ON CHOP SUEY HOUSE,3,10,10,10,2014-01-28,54.952011,-1.683686
144287,TAJ MAHAL,4,10,5,5,2014-07-14,54.955638,-1.608393
144288,Tammys Cafe,AwaitingInspection,nan,nan,nan,,54.952507,-1.569951
144289,TANFIELD RAILWAY (CAFE),5,5,0,5,2013-08-29,54.90977,-1.678122
144290,TASTE OF SPICE,4,5,10,5,2015-01-13,54.9195,-1.815489
144291,TASTY BITES,3,5,10,10,2014-01-23,54.953061,-1.683038
144292,TASTY THAI DELI,5,5,0,5,2013-03-19,,
144293,TASTYBAKE,4,10,5,5,2014-05-20,54.955709,-1.608018
144294,TASTYLICIOUS,5,0,0,5,2014-01-14,,
144295,TAYBARNS,5,0,5,0,2013-07-15,54.961298,-1.685519
144296,TEA JUNCTION,4,10,5,5,2014-12-11,,
144297,TEAMS & DISTRICT SOCIAL CLUB,4,5,5,10,2014-02-19,54.953458,-1.623826
144298,TEAMS PIZZA & GRILL BAR,3,10,5,10,2013-10-09,54.955593,-1.622713
144299,TEAMS SUPER SAVE OFF LICENCE &GROCERY,2,15,5,10,2013-06-24,54.955593,-1.622713
144300,TESCO,5,0,0,0,2013-09-11,,
144301,TESCO,5,0,0,0,2014-04-22,54.946252,-1.677487
144302,TESCO (catering),5,5,5,5,2013-11-22,,
144303,TESCO EXPRESS,5,5,0,5,2013-07-10,54.955709,-1.608018
144304,TESCO EXPRESS,5,0,0,0,2012-04-02,54.943927,-1.575584
144305,TESCO STORES LTD,5,0,0,0,2014-07-14,54.919808,-1.742412
144306,TETRIS PIZZA,4,5,0,10,2014-02-12,54.920242,-1.812662
144307,TGI FRIDAYS,5,5,0,0,2013-09-02,54.962703,-1.682978
144308,THAI MANNA,4,0,5,10,2014-07-03,,
144309,THAI WAH CHOP SUEY,4,5,5,10,2013-05-16,54.902906,-1.578666
144310,THAT LOVELY CAFE,3,5,10,10,2013-10-30,54.952633,-1.565062
144311,The Angel Cafe,AwaitingInspection,nan,nan,nan,,54.905959,-1.578042
144312,THE ANGEL VIEW INN,3,10,10,10,2014-04-24,54.913072,-1.584769
144313,THE ARK,5,5,0,5,2013-05-22,54.953796,-1.785041
144314,THE BEACONSFIELD,5,0,0,0,2013-08-05,54.937595,-1.597939
144315,THE BEEHIVE OUT OF SCHOOL CLUB,5,5,5,5,2014-03-28,54.948915,-1.652376
144316,THE BENSHAM JOCKEY,4,5,0,10,2014-06-26,54.95283,-1.6154
144317,"THE BEST DESIGNER CAKES, CATERING & TRAINING INSTITUTE",4,5,0,10,2014-02-27,54.964005,-1.704021
144318,THE BIG BOY COOKS & CAKES,5,5,5,5,2013-04-17,54.955593,-1.622713
144319,THE BIRTLEY ALE HOUSE,5,0,0,5,2014-01-30,54.896056,-1.577958
144320,THE BISTRO@STM,5,5,5,5,2013-11-13,54.961217,-1.722235
144321,THE BLACK HORSE INN,4,5,0,10,2013-06-26,54.942082,-1.758676
144322,THE BLAYDON CENTRE,5,5,0,0,2013-01-10,54.962811,-1.708325
144323,THE BLUE RENDEZVOUS,4,5,0,10,2014-01-28,54.93443,-1.578821
144324,THE BRIDLE PATH,4,10,0,0,2013-02-19,54.945555,-1.682348
144325,THE BRUNCH BOX,3,5,10,10,2013-12-12,,
144326,THE CAFE (NORTH EAST) LTD,5,0,0,5,2014-05-14,54.896112,-1.583852
144327,THE CAFE @ YORKSHIRE LINEN,4,0,5,10,2014-07-22,54.967315,-1.694609
144328,THE CANTEEN,5,5,5,0,2013-05-14,54.896445,-1.563469
144329,THE CHESTERS,5,5,0,5,2015-01-07,54.941068,-1.599028
144330,THE CHOP SHOP,4,5,5,10,2014-11-13,54.922381,-1.766095
144331,THE COACHMAN,4,5,0,10,2012-11-15,54.936712,-1.689113
144332,THE CO-OPERATIVE FOOD,5,0,5,5,2012-04-02,54.890944,-1.575845
144333,THE CO-OPERATIVE FOOD,5,5,0,5,2013-01-07,54.948733,-1.64529
144334,THE CO-OPERATIVE FOOD,5,5,0,0,2013-05-01,54.925385,-1.574765
144335,THE CO-OPERATIVE FOOD,5,5,0,0,2013-07-03,54.96468,-1.712091
144336,THE CO-OPERATIVE FOOD,5,5,0,0,2013-07-15,54.972223,-1.759167
144337,THE CO-OPERATIVE FOOD,5,5,0,5,2014-04-22,54.936585,-1.599323
144338,THE CO-OPERATIVE FOOD,5,5,0,0,2013-10-01,54.96658,-1.788674
144339,THE CO-OPERATIVE FOOD,5,5,0,0,2013-10-31,54.954793,-1.726902
144340,THE CO-OPERATIVE FOOD,5,0,0,5,2014-05-30,54.932021,-1.589084
144341,THE CO-OPERATIVE FOOD,4,10,5,5,2014-05-08,54.940591,-1.545306
144342,THE CO-OPERATIVE FOOD,5,0,0,0,2013-09-19,54.938142,-1.693082
144343,THE CORNER SHOP,4,5,5,10,2013-04-09,54.948287,-1.611041
144344,THE CRECHEMOBILE,5,0,0,0,2014-05-08,54.955489,-1.601321
144345,THE CRESCENT CAFE,4,5,5,10,2014-04-10,54.948733,-1.64529
144346,THE CROWN,5,5,5,5,2014-02-10,54.945825,-1.675398
144347,THE DESIGNER CAKE COMPANY,5,0,0,0,2013-07-16,,
144348,THE DRIVE PRIMARY SCHOOL (KITCHEN),5,5,0,0,2011-10-05,54.94968,-1.558474
144349,THE DROP IN,5,0,0,5,2014-03-26,54.896471,-1.578546
144350,THE DURHAM RANGER,5,5,5,5,2014-09-12,54.938958,-1.545824
144351,THE EAGLE,4,10,5,5,2013-07-22,54.935308,-1.550313
144352,THE EAGLES,4,5,5,10,2013-10-24,54.927753,-1.581107
144353,THE GIANTS DEN,5,5,0,0,2014-11-11,54.93426,-1.622834
144354,THE GINGERBREAD HOUSE,5,0,0,5,2014-05-13,,
144355,THE GOLD MEDAL,5,5,0,0,2013-10-09,54.927161,-1.603005
144356,THE GOOD CAKE COMPANY,AwaitingInspection,nan,nan,nan,,,
144357,THE GRANARY,4,0,5,10,2013-01-31,54.933655,-1.618891
144358,THE GREAT BRITISH CUP CAKERY,4,0,0,10,2012-06-26,,
144359,THE GREEN,5,5,0,5,2015-01-20,54.945658,-1.519115
144360,THE HAPPIEST SANDWICH SHOP IN THE WORLD,3,5,10,10,2014-07-14,54.919808,-1.742412
144361,THE HIGHLANDS,5,0,5,0,2014-06-11,54.900277,-1.577259
144362,THE HIGHWAYMAN,5,0,0,0,2013-10-20,54.94388,-1.651546
144363,THE HUNGRY ELEPHANT,AwaitingInspection,nan,nan,nan,,,
144364,THE HUNTSMAN,4,5,5,10,2013-03-20,54.961583,-1.717235
144365,THE IMPERIAL,4,10,5,5,2014-03-26,54.950795,-1.594888
144366,THE IMPERIAL RESTAURANT,4,5,5,10,2014-05-27,54.936585,-1.599323
144367,THE JOINT,5,5,0,0,2014-11-12,54.961197,-1.582883
144368,THE KITCHEN,5,0,0,5,2014-01-20,54.919808,-1.742412
144369,THE LAST DAYS OF THE MOGUL RAJ,4,5,5,10,2013-11-26,54.935056,-1.599026
144370,THE LITTLE COFFEE HOUSE,5,0,5,5,2013-06-06,54.937551,-1.626237
144371,THE LITTLE GRILL,4,0,5,10,2013-06-06,,
144372,THE LOUNGE,5,5,5,5,2014-10-21,54.936856,-1.622482
144373,THE MANOR HOUSE,5,0,5,5,2014-03-31,54.94682,-1.68507
144374,THE MEAL MACHINE,3,5,10,10,2014-02-19,54.965661,-1.694091
144375,THE MEAT MARKET,3,10,5,10,2013-05-29,54.96468,-1.712091
144376,THE MILLWAY CENTRE,5,5,0,0,2013-11-11,54.945202,-1.58845
144377,The Mint@DE LA RUE (CATERING),5,0,0,0,2014-06-30,54.92284,-1.614734
144378,THE MOULDERS ARMS,5,5,5,5,2013-12-17,54.897692,-1.575509
144379,THE NEW HOP ON,4,5,0,10,2014-04-09,54.940085,-1.587456
144380,THE NEW TREASURE EXPRESS,3,10,5,10,2014-02-10,54.941785,-1.61794
144381,THE NORWOOD,3,10,5,10,2014-08-12,54.943971,-1.636278
144382,THE NURSERY WORKING MENS CLUB,3,10,10,10,2013-11-07,54.955953,-1.60864
144383,THE OAKS,4,10,5,5,2014-05-20,54.962396,-1.715106
144384,THE OLD CANNON,3,10,5,10,2014-07-24,54.942646,-1.590037
144385,THE ORCHARD KITCHEN,5,0,0,5,2013-07-09,,
144386,THE ORIENT,3,10,5,10,2013-10-09,54.91924,-1.745754
144387,THE PADDOCK,4,0,0,10,2014-01-13,,
144388,THE PIZZA CHEFS,4,5,5,10,2014-02-11,54.95002,-1.605231
144389,THE PLACE TO BE,5,0,0,0,2013-05-01,54.969083,-1.589862
144390,THE PORK SHOP,2,15,10,10,2014-02-03,54.947037,-1.61366
144391,THE QUEENS HEAD,3,10,5,10,2014-08-04,54.942646,-1.590037
144392,THE RAZNI,3,10,10,10,2014-08-19,54.930844,-1.597195
144393,THE RED CHILLI,4,5,10,5,2014-10-06,54.894392,-1.577477
144394,THE RED KITE,4,5,5,10,2014-02-04,54.941603,-1.711897
144395,THE REGENT,4,5,5,10,2014-07-14,54.947422,-1.613266
144396,THE ROAST HUT SANDWICH BAR,4,5,5,10,2014-07-29,,
144397,THE ROPERY,5,0,5,5,2014-11-17,54.954734,-1.620847
144398,THE ROYAL KITCHEN,4,5,5,10,2014-08-11,54.945556,-1.675635
144399,THE RUNHEAD,4,5,5,10,2013-09-12,54.974116,-1.753094
144400,THE SALVATION ARMY,5,0,0,5,2013-09-30,54.956686,-1.588223
144401,THE SANDWICH HUT,5,5,5,0,2013-09-30,54.923491,-1.607379
144402,THE SANDWICH HUT,5,5,5,5,2014-05-02,54.947224,-1.633329
144403,THE SARNY STOP,5,5,5,5,2014-07-11,54.942646,-1.590037
144404,THE SCHOONER,4,5,5,10,2014-11-19,54.963687,-1.580483
144405,THE SHIP,1,10,10,20,2014-08-13,54.914677,-1.560698
144406,THE SIDEGATE GALLERY LTD,5,5,5,5,2014-08-12,54.925069,-1.673084
144407,THE SKIFF INN,5,5,5,5,2014-10-14,54.962703,-1.682978
144408,THE SUN AT SWALWELL,3,10,5,10,2012-08-08,54.954706,-1.683556
144409,THE TEMP,4,5,5,10,2014-06-09,54.952124,-1.78505
144410,THE TILLEY STONE,5,0,0,0,2013-10-17,54.961521,-1.601933
144411,THE TRAVELLERS REST,4,0,0,10,2014-03-03,54.923633,-1.673939
144412,THE TUCK INN,3,5,10,10,2014-07-31,54.950242,-1.604402
144413,THE TUDOR ROSE,4,10,5,5,2013-07-23,54.956447,-1.640444
144414,THE VALLEY NURSERY & KIDS CLUB,5,0,0,0,2014-02-04,54.940371,-1.628818
144415,THE VILLAGE MONTESSORI,5,0,0,5,2014-12-05,54.880788,-1.575499
144416,THE VILLAGE STORE,5,0,0,5,2013-12-10,54.942568,-1.713435
144417,THE WAGGON INN,5,0,5,0,2013-10-03,54.918466,-1.564697
144418,THE WAGGON TEAM,5,5,0,0,2013-06-18,54.941036,-1.628827
144419,THE WARDLEY,4,0,0,10,2013-09-05,54.957725,-1.53732
144420,THE WHEATSHEAF,3,5,10,10,2015-01-27,54.948733,-1.64529
144421,THE WILD ORCHARD,5,5,0,5,2014-05-20,,
144422,THE WINDMILL HILLS CENTRE,4,10,0,10,2014-05-15,54.956877,-1.610973
144423,THE WINLATON CENTRE,5,0,0,5,2014-02-19,54.954933,-1.729243
144424,THEVARS,5,5,0,5,2014-03-31,54.954762,-1.609698
144425,THOMAS HEPBURN SCHOOL (KITCHEN),5,0,5,0,2011-12-13,54.94389,-1.562581
144426,THREE FEATHERS,3,10,5,10,2013-10-04,54.928224,-1.587453
144427,TICK-A-TEA-BOO,5,0,0,5,2014-01-17,,
144428,TIK TOK NURSERY,5,0,0,0,2014-07-30,54.957167,-1.581785
144429,TINA'S CAKES,5,0,0,0,2014-03-05,,
144430,TOBY CARVERY,5,0,0,0,2014-07-28,54.95765,-1.668573
144431,TOP WOK,3,10,10,10,2014-03-19,54.95231,-1.688181
144432,TOPHAT TEACAKES,4,0,0,10,2013-07-04,,
144433,TOSCANA PIZZA,3,10,10,10,2014-02-12,54.961452,-1.59995
144434,TOUCAN CATERING,3,5,10,10,2014-06-03,54.941789,-1.622249
144435,TRINITY CORNER NURSERY SCHOOL,5,5,0,5,2014-10-17,54.951319,-1.615149
144436,TRULY SCRUMPTIOUS,5,0,0,0,2014-01-13,54.955526,-1.687672
144437,TYNE AND WEAR FIRE AND RESCUE SERVICE,5,0,0,0,2013-06-05,54.948918,-1.598014
144438,TYNE AND WEAR FIRE AND RESCUE SERVICE,5,0,0,5,2013-12-04,54.953229,-1.675136
144439,TYNE AND WEAR FIRE AND RESCUE SERVICE,5,0,5,5,2013-06-12,54.961644,-1.566839
144440,TYNE AND WEAR FIRE AND RESCUE SERVICE,5,0,5,5,2014-01-15,54.89958,-1.578342
144441,TYNEDALE PROMOTING INDEPENDENCE CENTRE,5,0,5,0,2014-04-29,54.975889,-1.758754
144442,TYNESIDE GOLF CLUB LTD,5,0,0,0,2013-01-17,54.976759,-1.767592
144443,TYNEVALE STORES,3,10,10,10,2014-08-05,54.956325,-1.720614
144444,TYNEVIEW SOCIAL CLUB,5,5,5,5,2015-01-29,54.955555,-1.543388
144445,U SAVE SUPERMARKET,4,5,5,10,2013-07-09,54.930198,-1.563525
144446,URBAN BAKERY,4,5,5,10,2014-02-05,54.937595,-1.597939
144447,V&A MURRAY,4,10,0,10,2014-08-04,54.944786,-1.584942
144448,VALLEY FARM,5,0,5,5,2013-11-29,54.943071,-1.624125
144449,VALLEY HOUSE DELI,4,0,5,10,2014-01-17,54.941785,-1.61794
144450,VALLEY VIEW RESIDENTIAL HOMES LTD,5,5,5,5,2014-10-30,54.956393,-1.730873
144451,VANGUARD DOWSON LTD,4,10,5,5,2013-10-16,54.956415,-1.609744
144452,VICTORIA INN,3,5,10,10,2014-10-01,54.931976,-1.597152
144453,VICTORIA STORES,4,5,5,10,2013-06-10,54.950698,-1.623492
144454,VIGO FOODSTORE,3,5,10,10,2013-08-23,54.883329,-1.564795
144455,VILLAGE CHIPPY,5,5,5,5,2013-05-21,54.904988,-1.61871
144456,VILLAGE SWEET SHOP,5,5,5,5,2013-09-04,54.953654,-1.727753
144457,VIP TEAS,5,0,5,0,2014-10-02,54.935907,-1.781921
144458,VIRGIN MEDIA,5,0,0,0,2012-07-02,54.924623,-1.624282
144459,VIRK CONVENIENCE STORE,3,10,5,10,2014-07-21,54.95461,-1.612885
144460,VISOCCHIS,3,10,5,10,2014-11-04,54.951671,-1.596253
144461,VIZUALISE,4,0,0,10,2012-07-05,,
144462,VOM FASS CONCESSIONS LTD,5,5,5,5,2014-02-03,54.95765,-1.668573
144463,VUE CINEMA,5,0,0,0,2014-02-21,,
144464,W WISHART & SON (shop),4,5,5,10,2014-03-11,54.953391,-1.785027
144465,WAGAMAMA,5,0,0,0,2014-06-11,,
144466,WALLACE HOUSE CARE HOME,5,0,0,0,2014-01-08,54.95515,-1.63944
144467,WARDLEY NEWS,4,0,0,10,2012-08-16,54.94966,-1.536195
144468,WARDLEY PRIMARY SCHOOL (KITCHEN),5,5,0,0,2012-11-21,54.950514,-1.540932
144469,WASHINGWELL PRIMARY SCHOOL (KITCHEN),5,5,0,0,2014-03-04,54.939152,-1.670145
144470,WATERSTONES,AwaitingInspection,nan,nan,nan,,54.95765,-1.668573
144471,WAVERLEY CONVENIENCE STORE,3,10,5,10,2014-07-21,54.920438,-1.589186
144472,WEDDING CAKES BY SUZANNE,5,0,0,5,2013-06-24,,
144473,WELLFIELD STORES,3,10,5,10,2014-04-30,54.94502,-1.57473
144474,WENDYS GENERAL DEALERS & OFF LICENSE,4,5,0,10,2013-02-14,54.923797,-1.681395
144475,WENSLEY GUEST HOUSE,5,0,0,5,2013-09-10,54.927243,-1.739977
144476,WESLEY MEMORIAL METHODIST CHURCH,4,0,5,10,2012-07-14,54.935056,-1.599026
144477,West View Chinese Take Away,3,10,10,5,2014-12-10,54.958303,-1.651405
144478,WETHERAL STORES,4,5,5,10,2013-05-08,54.927385,-1.589209
144479,WETHERSPOONS,5,5,0,0,2012-09-06,54.95765,-1.668573
144480,WHICKHAM COMMUNITY ASSOCIATION,5,0,5,0,2014-05-21,54.94518,-1.683022
144481,WHICKHAM COTTAGE NURSERY LTD,5,0,0,0,2013-10-24,54.954008,-1.687855
144482,WHICKHAM GOLF CLUB,5,5,0,0,2012-11-01,54.932978,-1.694229
144483,WHICKHAM HOUSE,3,10,10,10,2014-08-14,54.950974,-1.616729
144484,WHICKHAM PAROCHIAL CE PRIMARY SCHOOL (KITCHEN),5,0,0,0,2014-03-04,54.935592,-1.690136
144485,WHICKHAM SCHOOL AND SPORTS COLLEGE (KITCHEN),5,5,0,5,2014-05-16,54.940511,-1.684822
144486,WHITEMERE PRIMARY SCHOOL (KITCHEN),5,0,0,0,2014-03-31,54.942438,-1.532157
144487,WILDFIRE BAKERY,4,10,0,5,2013-07-11,,
144488,WILTSHIRE FARM FOODS,5,0,0,0,2013-07-10,54.973991,-1.73652
144489,WINDY NOOK CHIPPY,4,10,0,5,2013-09-23,54.942751,-1.575956
144490,WINDY NOOK PRIMARY SCHOOL (KITCHEN),5,5,0,0,2012-02-10,54.942057,-1.567783
144491,WING SUN CHOP SUEY HOUSE,5,5,5,5,2013-01-17,54.948783,-1.571411
144492,WINLATON CHIPPY,5,0,0,5,2013-10-04,54.956325,-1.720614
144493,WINLATON CONVENIENCE STORE,4,5,5,10,2013-08-23,54.950197,-1.724856
144494,WINLATON VILLAGE BAKERY,4,5,10,5,2013-09-26,54.954793,-1.726902
144495,WINLATON VULCAN RUGBY CLUB,4,0,5,10,2014-09-26,54.952508,-1.717721
144496,WINLATON WEST LANE PRIMARY SCHOOL (KITCHEN),5,0,0,5,2014-07-01,54.95086,-1.731878
144497,WINTON COURT COMMUNITY CAFE,5,0,5,5,2013-10-31,54.951619,-1.718133
144498,WOK EXPRESS,AwaitingInspection,nan,nan,nan,,54.941785,-1.61794
144499,WOK ON WHEELS,3,10,5,10,2014-01-23,,
144500,WOODMANS ARMS,5,5,0,0,2014-06-12,54.925384,-1.690651
144501,WOODSIDE DAY CENTRE,5,0,0,0,2014-04-29,54.947687,-1.650123
144502,WORLD PAY (CATERING),5,0,0,0,2013-05-21,54.934186,-1.613346
144503,WREKENTON CHOP SUEY HOUSE,3,10,5,10,2014-06-16,54.925385,-1.574765
144504,XIN DU,4,5,5,10,2013-11-18,54.935056,-1.599026
144505,YANKEE DOODLE CANDY,5,0,5,5,2013-06-20,54.95765,-1.668573
144506,YE OLDE CANNON,4,10,0,10,2013-09-12,54.937466,-1.599423
144507,YE OLDE CROSS,5,5,5,0,2013-03-12,54.976772,-1.764702
144508,YE OLDE FLEECE,3,10,5,10,2013-10-03,54.961452,-1.59995
144509,YESHIVA L'ZEIREM TIFERES YAACOV,4,10,0,10,2014-07-31,54.954548,-1.604719
144510,YO SUSHI,5,0,0,0,2013-10-03,,
144511,YORK ROAD FISH SHOP,5,0,0,0,2013-09-25,54.880788,-1.575499
144512,YUMMIES,5,5,5,5,2014-02-26,54.951378,-1.570806
144513,YUMMY YUMMY CHINESE TAKEAWAY,4,0,5,10,2014-03-26,54.893656,-1.577812
144514,YUMMY YUMMY CHINESE TAKEAWAY,3,5,10,10,2013-07-09,54.950362,-1.570786
144515,ZEST,4,0,10,10,2014-08-07,54.981952,-1.786578
144516,ZIZI PIZZERIA & GRILL HOUSE,4,5,5,10,2013-11-18,54.955638,-1.608393
144517,ZIZZI,5,0,0,0,2012-06-11,54.95765,-1.668573
144518,ZOE'S GRIDDLE,4,0,5,10,2012-05-04,,
144519,ZUBY CONVENIENCE STORE,4,5,5,10,2013-08-23,54.954175,-1.68292
