,businessname,ratingvalue,structural,hygiene,confidenceinmanagement,ratingdate,latitude,longitude
343913,7 Day Catering Ltd.; Sainsburys,5,5,0,0,2010-03-10,52.402,-1.820711
343914,7 Day Catering Ltd.; Sainsburys,5,5,5,5,2011-10-06,52.414396,-1.777686
343915,7 Downing Close,5,5,5,5,2011-02-27,52.379808,-1.744776
343916,8 Downing Close,5,0,0,0,2011-02-27,52.379808,-1.744776
343917,99p Stores,3,10,10,10,2014-06-03,52.480341,-1.739263
343918,A1 Bakehouse,5,5,5,5,2011-09-05,,
343919,Aani News & Wine,AwaitingInspection,nan,nan,nan,,52.423905,-1.77133
343920,Abbeyfield,5,0,0,0,2014-12-02,,
343921,Abbeyfield Society,5,5,5,5,2011-08-12,52.418368,-1.78643
343922,Abbeyfield Society,5,5,5,5,2011-08-12,52.418368,-1.78643
343923,Accent Catering,5,5,0,0,2014-05-07,52.416838,-1.780556
343924,Accord Housing,4,5,10,5,2014-05-01,52.506037,-1.771214
343925,Ace Childcare; Our Lady of Compassion R. C. School,3,5,10,10,2013-06-12,52.431151,-1.812254
343926,Acers Bed and breakfast,4,0,5,10,2011-02-27,52.42503,-1.786692
343927,Achill Guest House,5,0,0,5,2009-12-17,52.392087,-1.735815
343928,Active Angels Day Nursery,5,0,0,0,2014-02-17,52.39246,-1.825937
343929,Adaptive Catering,5,5,0,0,2011-09-02,,
343930,Aetco,AwaitingInspection,nan,nan,nan,,,
343931,Afrique,AwaitingInspection,nan,nan,nan,,52.479343,-1.739254
343932,Agrabad Tandoori,3,10,10,10,2014-02-25,52.447757,-1.776989
343933,Air Restaurant,5,5,0,0,2012-04-19,52.453266,-1.717158
343934,Air Restaurant; LG Arena,5,0,0,0,2012-04-19,52.453266,-1.717158
343935,AJ's Classic Cakes,AwaitingInspection,nan,nan,nan,,,
343936,Akamba Nurseries,3,10,5,10,2014-03-04,52.390307,-1.848413
343937,Al basha,0,15,20,20,2013-10-21,52.442108,-1.811089
343938,Alan Warwick Butchers,3,5,10,10,2013-11-13,52.494209,-1.750419
343939,Alderbrook School,5,5,0,0,2012-07-05,52.406188,-1.797322
343940,Aldi Stores Ltd,5,5,5,5,2011-06-27,52.410298,-1.826749
343941,Aldi Stores Ltd,5,5,0,0,2013-11-12,52.500127,-1.760034
343942,Alexandra Court,5,5,0,0,2014-06-27,52.442725,-1.809248
343943,Alexandra House,5,5,0,0,2014-06-27,52.442725,-1.809248
343944,All Bar One,5,5,0,5,2014-04-28,52.451294,-1.731076
343945,All Bar One - Landside T1,5,5,5,5,2014-10-14,52.447314,-1.736265
343946,Allergy Free Cakes,5,0,0,5,2011-06-03,,
343947,Alpha LSG Ltd- B'ham North Staff Canteen,4,10,5,5,2010-04-13,52.447392,-1.75186
343948,Andy Easter Catering (Solihull Indoor Bowls Club),AwaitingInspection,nan,nan,nan,,52.400291,-1.797878
343949,Anthony's B&B,5,0,0,5,2010-11-02,52.417787,-1.764613
343950,Any Occasion Cakes,5,5,5,5,2014-09-04,,
343951,Appletreewick Bed and Breakfast,4,5,5,10,2011-02-27,52.42787,-1.807106
343952,Apres,4,5,10,5,2014-03-28,52.414534,-1.779332
343953,Arbor Way Convenience Store,5,5,5,5,2011-01-26,52.47677,-1.734278
343954,Arden Academy,5,5,5,5,2014-02-13,52.38354,-1.741273
343955,Arden Brickworks - Staff restaurant,3,10,10,10,2014-09-04,52.444685,-1.696984
343956,Arden Forest Cricket Club,4,5,5,10,2010-07-28,52.423194,-1.753305
343957,Arden Hotel & Leisure Club Ltd,5,5,5,5,2014-06-05,52.445391,-1.721167
343958,Arden House Hotel,4,5,5,10,2011-10-14,52.469571,-1.739268
343959,Ardenlea Court,5,5,5,0,2014-02-19,52.419231,-1.776486
343960,Ardenlea Grove,5,5,5,0,2014-02-19,52.416932,-1.777703
343961,Arran Way Chip Shop,1,10,10,20,2014-03-13,52.500964,-1.74331
343962,ASDA,5,5,5,5,2012-11-21,52.479328,-1.740888
343963,Asda,AwaitingInspection,nan,nan,nan,,52.408615,-1.83856
343964,Asda Stores Limited,4,10,0,5,2014-08-20,,
343965,Ashiana,3,10,5,10,2014-05-12,52.40622,-1.823266
343966,Ask Italian,5,5,5,0,2013-01-15,52.412413,-1.779402
343967,Aspens Services ltd,5,5,5,5,2014-02-26,52.474678,-1.752458
343968,Aspire cakes,5,0,0,0,2013-05-09,52.383407,-1.83874
343969,Aspire Lounges Servisair Airside,5,5,0,5,2014-06-18,52.451294,-1.731076
343970,auckland education centre; bosworth wood centre,4,0,0,10,2013-02-12,52.507688,-1.751772
343971,Avenance - Orange,5,5,0,5,2012-09-05,52.467337,-1.721793
343972,Avenue Bowling Club,5,5,5,5,2009-01-06,52.401168,-1.753119
343973,Ayshea's Ices,AwaitingInspection,nan,nan,nan,,52.429906,-1.769093
343974,B & B,5,0,5,0,2011-02-27,52.432448,-1.692994
343975,B & B,4,5,5,10,2011-02-27,52.44267,-1.718285
343976,B & B,4,5,5,10,2011-02-27,52.437137,-1.724528
343977,B & B,4,5,5,10,2011-02-27,52.44267,-1.718285
343978,B & B,5,5,5,5,2012-01-04,52.396574,-1.6263
343979,B & B Glen Lyon,5,5,5,5,2010-06-21,52.432589,-1.702641
343980,B&B,4,5,5,10,2011-02-27,52.431137,-1.697238
343981,B&B,4,5,5,10,2011-02-27,52.409705,-1.764479
343982,B&B,5,0,0,0,2011-02-27,52.392534,-1.645526
343983,Bacons End Daycentre,5,5,0,0,2010-03-19,52.488955,-1.740228
343984,Bakes,AwaitingInspection,nan,nan,nan,,52.395389,-1.824456
343985,Balsall Common Primary School,5,5,0,5,2012-10-05,52.384556,-1.650218
343986,Balti Gardens,3,10,10,10,2014-02-26,52.503124,-1.771155
343987,Banbury Club,1,5,10,20,2011-12-07,52.479328,-1.740888
343988,Bangla Lounge,4,5,10,5,2013-02-20,52.37833,-1.815357
343989,Bannatynes Health Club,3,10,10,10,2014-01-20,52.395399,-1.777003
343990,Barnmoor B&B,3,5,10,10,2011-02-27,52.425572,-1.793174
343991,Barretts Butchers & Deli,1,15,10,20,2014-05-21,52.467334,-1.752808
343992,Baxterstorey,5,0,5,0,2010-10-14,52.412764,-1.784854
343993,BaxterStorey,5,5,0,0,2010-09-06,52.375668,-1.798358
343994,BaxterStorey,5,0,0,0,2014-03-28,52.376534,-1.79474
343995,BaxterStorey,5,5,0,0,2012-05-02,52.374128,-1.796852
343996,BaxterStorey Ltd @ Beiersdorf Uk Ltd,5,5,0,0,2012-07-09,52.468625,-1.718738
343997,Baxterstorey Ltd.; The Environment Agency Sapphire East,5,5,0,0,2013-08-30,52.418293,-1.80009
343998,BB's,4,10,0,5,2012-11-16,52.412413,-1.779402
343999,Bear Inn,4,10,5,5,2014-03-24,52.405923,-1.637643
344000,Bed & Breakfast,5,5,0,5,2014-05-16,52.430785,-1.69652
344001,Bed and Breakfast,5,5,5,5,2013-01-16,52.439574,-1.724851
344002,Bed And Breakfast,4,5,5,10,2011-02-27,52.391121,-1.726078
344003,Bedazzled Desserts,4,5,5,10,2010-09-02,,
344004,Beechwood Childcare Ltd,5,5,0,0,2012-07-11,52.439534,-1.645576
344005,Beechwood Childcare Ltd,5,0,0,0,2014-02-24,52.48069,-1.726671
344006,Beechwood Childcare@ Haslucks Green Junior School,5,0,0,0,2014-03-04,52.412276,-1.833357
344007,Bella Italia,5,5,0,0,2015-01-06,52.412413,-1.779402
344008,Bella Venezia,1,5,10,20,2013-07-30,52.389443,-1.735449
344009,Bentley Heath C Of E Primary School,5,5,0,0,2011-04-07,52.385725,-1.758274
344010,Bentley Heath Country Market Caterer,5,0,0,0,2013-07-22,,
344011,Bentley Heath Country Market Caterer,5,0,5,5,2013-02-06,,
344012,Bentley Heath Country Market Caterer,5,0,0,0,2013-07-10,,
344013,Berkswell & Balsall R F C,5,5,0,5,2011-03-30,52.361056,-1.656542
344014,Berkswell C Of E Primary School,5,0,5,0,2012-11-06,52.409397,-1.641731
344015,Berkswell Pre School,5,0,5,5,2013-06-06,52.410839,-1.639881
344016,Berkswell Village Stores,5,5,5,5,2011-02-27,52.409397,-1.641731
344017,Berryfields Farm,4,5,5,10,2014-04-22,52.430046,-1.641137
344018,BHS,5,0,0,5,2014-06-09,52.412981,-1.775576
344019,Bibury House,5,5,5,5,2010-02-17,52.41633,-1.676506
344020,Big Johns,2,10,15,10,2014-03-14,52.4092,-1.826327
344021,Big Johns,5,5,5,5,2014-02-24,,
344022,Bilash Indian Cuisine,4,5,5,10,2014-03-26,52.389443,-1.735449
344023,Billy Bears Nursery,4,5,5,10,2014-12-02,52.393749,-1.81037
344024,Birmingham Exiles RFC,1,5,5,20,2013-07-10,52.443101,-1.750163
344025,Bishop Wilson C Of E Junior & Infant School; School Breakfast Club,5,5,5,5,2009-06-12,52.480788,-1.734136
344026,Bishop Wilson C Of E Primary School,4,10,0,0,2012-03-28,52.480788,-1.734136
344027,Black Boy,4,5,10,5,2014-02-10,52.372677,-1.71638
344028,Black Firs Guest House - B & B,4,5,5,10,2011-02-27,52.469308,-1.730437
344029,Black Sugar Bakes,AwaitingInspection,nan,nan,nan,,,
344030,Blanning Day Centre,5,0,0,0,2014-07-21,52.377276,-1.759157
344031,Blossomfield Club,5,5,5,5,2014-05-01,52.399149,-1.792401
344032,Blossomfield Infant School,5,0,0,0,2012-01-11,52.411243,-1.815661
344033,Blossoms pre-school,4,5,10,5,2014-08-28,52.382719,-1.835172
344034,Blue Giraffe (Knowle) Limited,4,10,5,5,2014-11-25,52.38666,-1.733114
344035,Bluewood Fish Bar,1,15,5,20,2015-01-13,52.479722,-1.7524
344036,Bob Willock Butcher,4,10,5,5,2014-05-02,52.403576,-1.810798
344037,Bonham 1793 Ltd Auctioneers,5,5,5,5,2014-05-01,52.386969,-1.734773
344038,Bonita's Cake Creations,5,0,0,5,2013-03-07,,
344039,Bonjava Limited,4,5,5,10,2014-10-10,52.372786,-1.753042
344040,Boots The Chemist,5,5,0,0,2011-04-05,52.400986,-1.816321
344041,Boots The Chemist,5,0,5,5,2011-02-27,52.451083,-1.733255
344042,Boots The Chemist - T1 Airside,5,5,5,5,2010-08-11,52.447314,-1.736265
344043,Boots The Chemist - T1 Landside,5,5,5,5,2010-08-11,52.447314,-1.736265
344044,Bosworth News,1,15,15,20,2013-11-08,52.479722,-1.7524
344045,Bosworth Stores Limited,1,15,10,20,2013-11-08,52.479722,-1.7524
344046,Boulangerie Caterers Limited,5,0,0,5,2011-01-28,,
344047,Boulevard Chinese Takeaway,5,5,5,5,2014-03-05,52.396817,-1.811826
344048,Box Trees Farm - Boxtrees Farm Guest House,5,5,5,5,2011-02-27,52.365156,-1.781884
344049,BP Solihull,5,0,0,0,2014-04-23,52.404762,-1.822302
344050,BP Solihull Lodge (Euro Garage),4,10,5,5,2013-10-11,52.405786,-1.861898
344051,Bracey Nurseries Ltd - Lavender Cafe,3,5,10,10,2014-04-23,52.433595,-1.732214
344052,Brambles - Yorkswood Junior & Infant School,5,5,0,0,2014-05-27,52.492594,-1.756113
344053,Breakfast Club - Kingshurst Junior School,5,5,5,5,2010-03-18,52.495791,-1.749924
344054,Brian Oliver Centre,5,5,0,0,2011-08-09,52.468156,-1.737554
344055,Brickmakers Arms,3,10,10,5,2012-11-07,52.392834,-1.646479
344056,British Rail - L C Cafe,4,5,5,10,2010-04-09,52.41465,-1.788506
344057,Broad Oaks B & B,1,5,5,20,2014-09-10,52.419479,-1.794173
344058,Broad Oaks Garage,5,0,0,5,2011-02-27,52.424813,-1.79609
344059,Broadwell Guest House,5,5,0,0,2014-09-11,52.430046,-1.641137
344060,Bromford Housing,5,0,0,0,2011-02-27,52.379808,-1.744776
344061,Bromford Housing,5,5,5,5,2011-02-27,52.399098,-1.840608
344062,Brooklands - Amber Unit,5,5,5,5,2014-11-18,52.468156,-1.737554
344063,Brooklands Hospital - Jade Unit,5,0,0,0,2014-10-07,52.468156,-1.737554
344064,Brooklands Hospital - Mulberry Bush Creche,5,0,5,5,2014-12-11,52.468156,-1.737554
344065,Brookvale - Day Centre,5,0,0,0,2011-02-03,52.441036,-1.80977
344066,Brookvale Care Home,5,0,5,0,2012-10-23,52.441036,-1.80977
344067,Browns Of Solihull (UK Meats),4,5,5,10,2014-04-09,52.414901,-1.809206
344068,Bruce Burns/Day Hospital,5,5,5,0,2014-10-27,52.417132,-1.774379
344069,Brueton Park Service station,5,0,5,5,2011-06-21,,
344070,Bulls Head,4,10,5,5,2013-02-27,52.400543,-1.696698
344071,Bulls Head,5,5,5,5,2013-01-22,52.435864,-1.644605
344072,Burger King - Airside,5,5,0,0,2013-01-23,52.447314,-1.736265
344073,Burger King - Landside,5,0,0,0,2011-08-19,52.447314,-1.736265
344074,Burman Infant School,4,10,0,5,2013-01-22,52.406699,-1.837744
344075,Busy Bees,5,0,0,5,2014-06-30,52.373709,-1.798807
344076,Busy Little Bees Nursery,5,5,5,5,2014-07-07,52.411596,-1.835388
344077,Butchery Section Michaels Food Market,2,10,15,10,2014-06-09,52.444976,-1.784948
344078,C J News,3,5,10,10,2010-05-06,52.435419,-1.816487
344079,"C.P.U Soho Coffee, Airside T2",4,10,5,5,2013-02-15,52.447314,-1.736265
344080,Caddyshack Cafe & Bar,4,5,5,10,2014-09-02,52.377221,-1.772114
344081,Cafe Greggs,5,5,5,0,2013-01-28,52.479328,-1.740888
344082,Cafe Rouge,5,0,0,0,2014-06-04,52.412229,-1.777227
344083,Cafe Shirley,1,10,10,20,2014-11-24,52.404762,-1.822302
344084,Cafe Tamarinds,3,10,10,10,2014-01-22,52.393434,-1.651823
344085,Caffe Nero,5,0,0,0,2012-08-07,52.413769,-1.778733
344086,Caffe Nero - T1 Arrivals Airport,5,0,0,0,2014-01-24,52.447314,-1.736265
344087,Caffe Ritazza,4,5,10,0,2013-12-16,52.452175,-1.723508
344088,Cake Fantastique,5,0,0,0,2014-11-12,52.423905,-1.77133
344089,Cake Love Not War,AwaitingInspection,nan,nan,nan,,,
344090,Cake Made With Love,AwaitingInspection,nan,nan,nan,,,
344091,Cakes by Jo,5,5,5,5,2013-03-13,,
344092,Calvert's,4,0,5,10,2011-02-27,52.412655,-1.7607
344093,Camp Farm Guest House,5,5,5,5,2011-10-03,52.381822,-1.629348
344094,Camp Hill Rugby Football Club,3,10,10,10,2012-10-24,52.41128,-1.834272
344095,Capellas,5,0,5,5,2015-01-06,52.385461,-1.646214
344096,Capellas,5,0,0,0,2014-05-06,52.405873,-1.772658
344097,Capellas Ltd,5,5,5,5,2012-10-11,52.391028,-1.64689
344098,Cappuccino,5,5,5,5,2014-03-19,52.414033,-1.775571
344099,Caretech,5,0,0,5,2015-01-20,52.498762,-1.743838
344100,Caretech Community Services,5,5,5,5,2010-12-02,52.480559,-1.732518
344101,Caretech Community Services,5,0,5,5,2011-02-27,52.508446,-1.780498
344102,Caretech Community Services,5,0,5,5,2011-02-27,52.508446,-1.780498
344103,Caretech Community Services,5,5,5,0,2011-02-27,52.508446,-1.780498
344104,Caribbean Food,AwaitingInspection,nan,nan,nan,,,
344105,Carrasco Burrito,4,5,5,10,2014-10-16,,
344106,Carrot Tops,5,5,0,5,2012-10-24,,
344107,Caspian Pizza,4,10,5,5,2014-03-05,52.40622,-1.823266
344108,Castle Bromwich Cricket and Sports Club,3,10,5,10,2011-02-27,52.506463,-1.772803
344109,Castle Bromwich Hall Hotel,1,20,15,10,2014-03-10,52.505867,-1.79103
344110,Castle Bromwich Infant School,5,0,0,5,2012-09-20,52.506699,-1.76047
344111,Castle Bromwich Junior School,5,5,0,0,2011-09-22,52.503191,-1.763848
344112,Castle Bromwich Mens Club,4,5,5,10,2011-02-27,52.505215,-1.783328
344113,Castle Convenience Store,3,5,10,10,2012-11-27,52.501507,-1.781196
344114,Castle House,4,0,5,10,2011-11-09,52.506625,-1.759528
344115,Catering by Churchill,AwaitingInspection,nan,nan,nan,,52.409576,-1.792161
344116,Catherine De Barnes Cricket Club,3,10,10,10,2009-06-05,52.42075,-1.737056
344117,Central Library & Arts Complex Cafe Bar,4,10,5,5,2014-03-26,52.411677,-1.780052
344118,Chaggers Supermarket,3,10,5,10,2013-06-26,52.404657,-1.843234
344119,Champagne bar ; Select Service Partner,5,5,0,0,2013-01-23,52.447314,-1.736265
344120,Chapel Fields Primary School,5,5,0,0,2012-04-04,52.445618,-1.797583
344121,Charles John Giles,5,5,5,5,2011-02-27,52.505211,-1.771793
344122,Charlie's Candy Shop,5,5,5,5,2012-01-24,52.407903,-1.818159
344123,Charlton House Catering (Steria),AwaitingInspection,nan,nan,nan,,52.446942,-1.723143
344124,Cheese Cob Ray,5,0,5,5,2011-02-27,,
344125,Chelmsley Chippy,1,15,15,20,2014-01-06,52.474263,-1.735177
344126,Chelmsley Wood Baptist Church Centre,3,10,10,10,2012-04-26,52.477376,-1.728253
344127,Chelmsley Wood Conservative Club,3,10,10,10,2012-11-22,52.47886,-1.744793
344128,Chelmsley Wood Service Station,5,5,0,0,2012-07-17,52.490236,-1.738247
344129,Chelsea Lodge B&B,4,0,0,10,2011-02-27,52.430785,-1.69652
344130,chester road,AwaitingInspection,nan,nan,nan,,52.501337,-1.767379
344131,Cheswick Green Primary School,5,5,5,5,2012-10-03,52.381585,-1.810363
344132,Child First Nursery,5,0,0,0,2014-02-25,52.487674,-1.746156
344133,Chimichanga,5,0,5,0,2014-05-06,52.412413,-1.779402
344134,Chop and Wok,5,0,5,5,2014-02-18,52.412448,-1.82774
344135,Chuckles & Chums,5,0,0,5,2014-05-27,52.475054,-1.730961
344136,Chutney Express,4,5,10,5,2013-12-02,52.499496,-1.763971
344137,Cineworld,5,5,5,0,2012-10-15,52.412413,-1.779402
344138,Cinnamon Lounge & Takeaway,AwaitingInspection,nan,nan,nan,,52.442328,-1.772662
344139,Claire's Quality Cakes,AwaitingInspection,nan,nan,nan,2014-12-01,52.424338,-1.776769
344140,Classic Meats,4,10,5,5,2014-03-18,52.41144,-1.8272
344141,Clive Smith Butchers,3,10,10,10,2014-10-02,52.479343,-1.739254
344142,Cloud Bakery,4,5,5,10,2014-11-06,,
344143,Clovelly Guest House,5,5,5,5,2011-09-08,52.46885,-1.726627
344144,Co Operative Supermarket,5,5,0,5,2011-06-01,52.403307,-1.811181
344145,Coach & Horses,5,5,5,0,2014-01-30,52.502463,-1.782605
344146,Coach House,4,5,10,5,2012-12-03,52.413102,-1.782706
344147,Coast to Coast,5,5,0,0,2013-02-25,52.412413,-1.779402
344148,Coffee Bar - Brooklands Hospital,5,0,5,5,2014-10-07,52.468156,-1.737554
344149,Coffee Cloud,5,0,5,5,2014-03-04,52.385059,-1.836853
344150,Coffee Roamer,5,5,5,5,2010-11-01,52.44967,-1.776199
344151,Coffee Roaster,2,10,15,10,2012-11-05,52.414453,-1.828041
344152,Coffee Shop,5,0,0,0,2014-05-20,52.417132,-1.774379
344153,Cola Fish Saloon,4,5,5,10,2014-03-24,52.501479,-1.761736
344154,Coldland Colts,4,5,5,10,2008-03-27,52.41923,-1.749416
344155,Colebrook Centre,5,0,5,0,2014-02-25,52.479572,-1.745643
344156,Colebrook News,4,0,10,10,2014-06-20,52.407124,-1.845842
344157,Coleshill Heath Primary & Junior School,5,5,0,0,2012-01-16,52.475054,-1.730961
344158,Communal Home,5,5,5,5,2011-02-27,52.37819,-1.81809
344159,Communal Home,5,5,5,5,2011-02-27,52.378799,-1.810595
344160,Communal Home,5,0,0,0,2011-02-27,52.402426,-1.835437
344161,Communal Home,4,5,5,10,2011-02-27,52.472917,-1.728089
344162,Communal Housing,5,5,5,5,2011-02-27,52.381759,-1.757488
344163,Communal Housing,5,0,0,0,2011-02-27,52.379808,-1.744776
344164,Communal Housing,4,5,5,10,2011-02-27,52.379808,-1.744776
344165,"Compass, National Grid",AwaitingInspection,nan,nan,nan,2014-06-09,52.412825,-1.783795
344166,Concourse Suite 1,5,0,0,0,2013-03-21,52.453266,-1.717158
344167,Concourse Suite Bar,5,5,5,5,2011-02-27,52.453266,-1.717158
344168,Conifer Cottage,3,10,5,10,2011-02-27,52.445892,-1.748102
344169,Construction Catering,1,15,10,20,2014-09-09,52.436887,-1.780927
344170,Cook,AwaitingInspection,nan,nan,nan,,52.429203,-1.797849
344171,Cook a Curry,5,5,5,5,2011-07-06,,
344172,Coombes House,5,5,0,0,2010-09-02,52.406521,-1.859662
344173,Co-op,5,5,5,5,2011-06-21,52.411282,-1.835654
344174,Co-Operative Retail Services Ltd,5,5,5,5,2014-02-12,52.390746,-1.649023
344175,Co-operative Supermarket,5,0,5,0,2014-05-12,52.448642,-1.794199
344176,Co-operative Supermarket,4,5,10,5,2013-01-10,52.494209,-1.750419
344177,Co-operative Supermarket,5,5,5,5,2014-02-28,52.383372,-1.755363
344178,Co-operative Supermarket,5,0,0,0,2014-02-17,52.391359,-1.784855
344179,Coppice Fast Foods,4,5,10,5,2014-02-26,52.479037,-1.739285
344180,Coppice Junior School,5,5,5,5,2014-02-14,52.429668,-1.76252
344181,Coppice Junior School - Busy Lizzies B/a School Club,5,5,5,5,2011-02-27,52.429668,-1.76252
344182,Copt Heath Golf Club Ltd - Charles Wheelwright,4,5,5,10,2013-05-23,52.399005,-1.746032
344183,Corporate Occasions Prologis,5,0,0,0,2012-07-23,52.389486,-1.803673
344184,Corus Hotel,4,5,10,5,2013-03-19,52.389866,-1.80539
344185,Costa @ Next,AwaitingInspection,nan,nan,nan,,52.400986,-1.816321
344186,Costa Airport Airside  Pier 46,5,0,5,0,2011-05-23,52.447314,-1.736265
344187,Costa Coffee,5,5,5,5,2012-10-16,52.388453,-1.735043
344188,Costa Coffee,5,5,5,0,2012-11-07,52.412413,-1.779402
344189,Costa Coffee,5,0,0,0,2014-05-21,52.412448,-1.82774
344190,Costa Coffee,3,10,10,5,2013-10-30,52.413953,-1.776159
344191,Costa Coffee - Airside,5,5,0,5,2014-12-17,52.447314,-1.736265
344192,"Costa, Arrivals Lanside",4,10,5,5,2013-03-27,52.447314,-1.736265
344193,Costcutter,3,10,5,10,2010-03-09,52.404657,-1.843234
344194,Costcutters,1,10,10,20,2014-03-03,52.494209,-1.750419
344195,Cottage Farm,1,10,10,20,2014-01-03,52.436043,-1.679215
344196,Cottage Farm & Stables - Adrian Charles Banqueting,3,10,10,10,2012-10-12,52.36844,-1.809171
344197,Country Market Caterer,3,10,10,5,2011-02-27,,
344198,Country Market Caterer,5,5,5,5,2009-02-13,,
344199,Country Market Caterer,3,10,10,5,2012-01-04,,
344200,Country Market Caterer,5,0,0,5,2011-10-17,,
344201,Country Market Caterer,5,5,5,5,2011-02-27,,
344202,Country Market Caterer,5,5,0,5,2011-08-04,,
344203,Country Market Caterer,4,5,5,10,2009-02-27,,
344204,Country Market Caterer,5,0,5,0,2011-01-11,,
344205,Country Market Caterer,5,5,5,5,2011-01-17,,
344206,Country Market Caterer,5,0,0,0,2008-11-24,,
344207,Country Markets Ltd,4,0,0,10,2011-02-23,,
344208,Couture Cupcakes & Treats,AwaitingInspection,nan,nan,nan,,,
344209,Coventry Co-op Ltd,4,10,10,0,2010-11-24,52.437736,-1.648577
344210,Cranmore Cafe,4,5,10,5,2014-02-17,52.396817,-1.811826
344211,Cranmore Fish Bar,5,5,5,5,2014-02-17,52.396817,-1.811826
344212,Cranmore Guest House,5,5,5,5,2011-02-27,52.398003,-1.811454
344213,Cranmore Infant School,5,5,5,5,2014-03-04,52.401572,-1.805662
344214,Creamline,5,5,5,5,2011-08-17,52.406839,-1.784574
344215,Creamline,5,0,0,0,2014-08-12,52.426401,-1.804583
344216,Croft Day Centre,5,5,0,0,2010-08-12,52.444201,-1.788938
344217,Crossover Childcare Ltd,5,5,0,0,2014-05-14,52.385725,-1.758274
344218,Crowne Plaza - Restaurant,5,5,5,5,2012-09-04,,
344219,CRUMBS,5,0,5,5,2013-07-23,52.442108,-1.811089
344220,Crust,AwaitingInspection,nan,nan,nan,,52.411988,-1.826507
344221,CTC Kingshurst Academy,5,5,0,0,2014-06-23,52.487674,-1.746156
344222,Customer Cafe' Mothercare Store,AwaitingInspection,nan,nan,nan,,52.400448,-1.816999
344223,"D P Cappuccino Espresso, Atrium East",5,5,0,0,2012-11-09,52.453266,-1.717158
344224,"D P Cappuccino Espresso, Atrium West",5,5,0,0,2012-11-09,52.453266,-1.717158
344225,Da Corrado Restaurant,5,5,5,5,2012-02-02,52.389866,-1.80539
344226,Daizys Cakes,AwaitingInspection,nan,nan,nan,,,
344227,Damson Wood Nursery and Infant School,5,5,0,0,2011-09-16,52.430637,-1.765986
344228,Damson Wood Take Away,3,10,10,10,2013-10-15,52.431429,-1.766673
344229,Dan Mooney,5,5,5,5,2011-01-17,52.379808,-1.744776
344230,Dance Warehouse,4,5,5,10,2014-05-01,52.427086,-1.775431
344231,Daniel James Catering- Mobile,4,5,10,5,2014-03-27,52.404657,-1.843234
344232,Darjeeling Restaurant,4,10,5,5,2013-10-22,52.406843,-1.824646
344233,David Lloyd Leisure,4,5,10,5,2014-03-04,52.395464,-1.808966
344234,David Lloyd Leisure - Club Room,5,5,0,0,2013-10-28,52.39064,-1.805945
344235,Daylesford Hall Infant School - Daylesford Nursery,5,5,5,0,2011-02-27,52.448642,-1.794199
344236,Daylesford Infant School,5,5,0,0,2012-10-08,52.448642,-1.794199
344237,Decadent Chocolate,5,5,5,5,2011-05-12,52.472727,-1.743592
344238,Deerhurst Court,4,0,5,10,2014-03-19,52.41389,-1.771382
344239,Deli Pizza,2,15,10,10,2014-07-01,52.389508,-1.736271
344240,Deli300,AwaitingInspection,nan,nan,nan,,52.446942,-1.723143
344241,Delicious,3,10,5,10,2014-07-29,52.429203,-1.797849
344242,Delicious Donuts,AwaitingInspection,nan,nan,nan,,52.480315,-1.739646
344243,Desco Lounge,5,5,5,0,2014-08-21,,
344244,Dickens Heath Community Primary School,5,0,0,0,2014-10-07,52.388595,-1.839191
344245,Dickens Heath Vilage Hall - Little U Play Group,4,10,0,5,2011-02-27,52.38662,-1.834776
344246,Dinner Jackets,5,5,5,5,2012-04-12,52.410298,-1.826749
344247,Discoveryland - Busy Bees,5,0,5,0,2014-02-20,52.436887,-1.780927
344248,Dixy Chicken,4,5,10,5,2015-01-12,52.413004,-1.827106
344249,Domino's Pizza,5,5,0,0,2011-05-13,52.442989,-1.785001
344250,Domino's Pizza,5,5,0,0,2014-09-16,52.413761,-1.828397
344251,Dorridge Butchers,5,5,5,5,2014-02-05,52.37357,-1.753684
344252,Dorridge Cricket Club,3,5,10,10,2014-04-30,52.366336,-1.759716
344253,Dorridge Fish Bar,5,5,0,0,2014-09-03,52.372786,-1.753042
344254,Dorridge Infant School,5,5,0,0,2012-10-22,52.376035,-1.750453
344255,Dorridge Junior School,5,5,0,0,2012-07-13,52.376035,-1.750453
344256,Dove House Fish,1,10,10,20,2013-10-10,52.429203,-1.797849
344257,Dovehouse Butchers,4,5,5,10,2014-12-16,52.429203,-1.797849
344258,Dovehouse Court,5,0,5,5,2014-02-21,52.428541,-1.799646
344259,Dovehouse Fish Bar,5,5,0,0,2014-03-26,52.429203,-1.797849
344260,Dragon House Take Away,3,10,10,10,2014-04-15,52.447757,-1.776989
344261,Druckers,5,5,0,5,2014-03-26,52.412413,-1.779402
344262,Drum & Monkey,5,5,0,0,2014-02-24,52.375602,-1.767319
344263,D's Cake Boutique,AwaitingInspection,nan,nan,nan,,,
344264,Dyhouse Pharmacy,AwaitingInspection,nan,nan,nan,,,
344265,Dynamic Rides,1,0,5,20,2013-07-09,52.351106,-1.777769
344266,Eales Food Store - NISA,1,5,0,20,2012-01-23,52.506649,-1.757863
344267,Earls,3,5,10,10,2010-08-03,52.44117,-1.80359
344268,Earlswood Cricket Club,4,10,5,5,2011-11-04,52.376112,-1.816791
344269,East Woodhay,5,5,5,5,2011-02-28,52.462274,-1.736529
344270,Eastern Delight,3,10,10,10,2014-08-14,52.479011,-1.727816
344271,Easy Times Frozen Yogurt,AwaitingInspection,nan,nan,nan,,,
344272,EB Cake Ville of Solihull,4,10,5,5,2011-07-05,,
344273,Eden End Bed and Breakfast,5,0,5,0,2013-03-22,52.355692,-1.778039
344274,Eden Unit - Brooklands Hospital,5,0,5,5,2014-10-14,52.468156,-1.737554
344275,Ed's Eggs,Exempt,nan,nan,nan,2014-05-23,52.422794,-1.773644
344276,Elderly Day Hospital,5,0,0,0,2011-02-27,52.417132,-1.774379
344277,Elegant Bomboniere,5,5,5,5,2011-07-15,52.442108,-1.811089
344278,Elite Cake Designs Ltd,5,0,0,5,2010-08-03,,
344279,Elle Bakeswell Creative Cakes,AwaitingInspection,nan,nan,nan,,52.381105,-1.758975
344280,Ellora Curry Centre,3,10,10,10,2014-05-13,52.389298,-1.734979
344281,Elm Cottage,4,0,0,10,2011-06-20,52.445892,-1.748102
344282,Emirates Airline Lounge Restaurant Associates,5,0,5,0,2013-03-07,52.451294,-1.731076
344283,English Rose Cupcakes,AwaitingInspection,nan,nan,nan,,52.4221,-1.772427
344284,Enterprise Inns - Eurest,5,5,0,0,2010-02-15,52.389486,-1.803673
344285,Eric Lyons Ltd,5,5,5,5,2014-06-19,52.387678,-1.734107
344286,Esso - Tesco Express,5,5,0,0,2011-06-20,52.442108,-1.811089
344287,Est Presso,5,0,0,0,2010-11-25,52.447314,-1.736265
344288,"Est Presso, Frankie & Benny's",5,0,0,0,2010-11-25,52.447314,-1.736265
344289,Eurest - Executive Lounge,5,0,0,5,2011-02-27,52.451083,-1.733255
344290,Eurest (Compass) c/o Asda,5,5,0,0,2014-02-26,52.479328,-1.740888
344291,Eurest Food Service c/o Fujitsu,5,5,0,5,2014-11-06,52.466805,-1.713377
344292,Eurest services,5,0,5,0,2012-10-15,52.398609,-1.802824
344293,Eurest Services - Asda Superstore,5,5,0,5,2014-08-20,,
344294,Euro Bickenhill Service Station,1,15,5,20,2014-11-07,52.445391,-1.721167
344295,Eve Bloomer,4,0,10,10,2009-03-18,52.446923,-1.630465
344296,Everbright,3,5,10,10,2013-11-19,52.44857,-1.778809
344297,Exotic Thai Queens Head,1,10,5,20,2013-05-22,52.435805,-1.631397
344298,Fairfield Home,3,10,10,5,2014-02-20,52.438345,-1.808075
344299,Fairytale Delights,5,0,0,0,2013-08-01,52.395438,-1.815036
344300,Falcon Service Station,5,5,5,5,2013-05-20,52.437009,-1.804462
344301,Fan's House Chinese Takeaway,5,5,5,5,2014-03-27,52.404657,-1.843234
344302,Farm Foods,5,5,5,5,2011-09-08,52.501479,-1.761736
344303,Farm Fresh Organic,5,5,5,5,2011-03-08,52.447858,-1.787685
344304,Fat Sandwich,5,5,5,5,2012-11-06,52.412229,-1.777227
344305,Field Lane Sports Club,1,10,10,20,2006-09-29,52.41923,-1.749416
344306,Field Lane Sports Club - The Boggery,5,0,0,0,2011-02-27,52.41923,-1.749416
344307,Finest Catch,AwaitingInspection,nan,nan,nan,,52.389866,-1.80539
344308,Fiona Pearson (Cake Maker),AwaitingInspection,nan,nan,nan,,,
344309,First Choice Childcare - Langley Junior & Infant School,5,5,5,0,2014-03-18,52.424948,-1.812368
344310,First Steps Nursery,5,5,5,5,2012-09-13,52.447287,-1.770797
344311,Fit & Fresh,AwaitingInspection,nan,nan,nan,,,
344312,Five Guys,5,0,0,5,2014-09-30,52.412413,-1.779402
344313,Flour Power Cakes,5,5,5,0,2011-02-27,52.366974,-1.839343
344314,Flybe Executive Lounge Airside Airport,5,5,5,0,2011-06-29,52.447314,-1.736265
344315,"Food Express 1, Forum side, LG Arena",5,0,0,0,2012-11-01,52.453266,-1.717158
344316,"Food Express 2, Forum Side, LG Arena",5,0,0,0,2012-11-01,52.453266,-1.717158
344317,Food Features (pods),5,0,0,0,2012-04-19,52.453266,-1.717158
344318,Fordbridge Centre,4,5,10,0,2013-10-11,52.480458,-1.747523
344319,Fordbridge Community Full Day Care,3,10,5,10,2010-04-19,52.478569,-1.751494
344320,Fordbridge Community Primary School,5,5,0,0,2012-01-09,52.478569,-1.751494
344321,Forest Hotel,4,5,10,5,2014-05-08,52.372786,-1.753042
344322,Fortune Inn,4,5,10,5,2015-01-14,52.406843,-1.824646
344323,Forward Day Services Ltd,5,0,0,0,2013-06-26,52.443762,-1.811229
344324,Frais,AwaitingInspection,nan,nan,nan,,,
344325,Frankie & Benny's,5,5,0,0,2010-11-25,52.447314,-1.736265
344326,French Connection,1,10,10,20,2014-05-21,52.413329,-1.779279
344327,Friday Lunch Club,5,0,5,0,2014-10-10,52.450183,-1.791279
344328,Frisky Goat Coffee House,5,5,5,5,2014-04-17,52.397497,-1.804357
344329,Fruits in Bloom,5,5,5,5,2013-03-08,,
344330,Fruity Bouquet,5,0,0,5,2014-05-01,,
344331,Fun Loving Food,AwaitingInspection,nan,nan,nan,,52.48371,-1.75522
344332,G & G Bed And Breakfast,5,0,0,0,2011-02-27,52.390515,-1.659193
344333,Gallery Kitchen,5,0,0,0,2011-09-23,52.453266,-1.717158
344334,Garden Restaurant,4,10,5,5,2014-06-23,52.410758,-1.670754
344335,Gatehouse,4,10,5,5,2011-02-27,52.402999,-1.704604
344336,Genes Jackets,5,0,0,0,2011-02-27,52.48553,-1.752559
344337,George Fentham Junior & Infant School,5,5,5,5,2012-10-17,52.42543,-1.701278
344338,George In The Tree,2,15,5,5,2013-09-12,52.399721,-1.655962
344339,Georges,1,15,15,20,2013-10-10,52.500964,-1.74331
344340,Geraghtys Markets Ltd,4,5,5,10,2013-06-17,52.37564,-1.83843
344341,Giant Eats Caterers,3,5,10,10,2014-10-06,52.426572,-1.765536
344342,Gillian Wesley Design and the Catwalk Cafe,4,5,5,10,2014-03-28,52.387783,-1.732828
344343,Ginger Blue Indian Restaurant,1,10,5,20,2014-01-14,52.396817,-1.811826
344344,Giovannis Restaurant,5,0,5,5,2014-12-12,52.385193,-1.836515
344345,Giraffe,5,0,5,0,2012-08-21,52.412413,-1.779402
344346,Golden Bird Takeaway LTD,4,10,5,5,2014-03-24,52.501479,-1.761736
344347,Golden Dragon Cantonese Takeaway,3,5,10,10,2014-11-24,52.399771,-1.815032
344348,Golden Wok,1,15,10,20,2014-07-01,52.501479,-1.761736
344349,Golden Wok,3,10,10,5,2014-03-18,52.429203,-1.797849
344350,Good Wok,3,5,10,10,2012-11-14,52.41449,-1.828806
344351,Gordons,3,10,10,10,2014-03-03,52.433603,-1.81645
344352,Gorse Farm,5,5,5,5,2011-02-10,52.468965,-1.729629
344353,Gorse Farm - Day Centre,5,5,5,5,2009-05-19,52.468965,-1.729629
344354,Gourmet Coffee Bar & Kitchen,2,15,10,10,2013-12-18,52.452175,-1.723508
344355,Gourmet Foods,5,5,0,0,2012-09-12,52.386192,-1.737187
344356,Grange Farm,5,5,0,5,2011-02-27,52.453524,-1.622684
344357,Great Little Cake Company,5,5,5,5,2013-07-15,,
344358,Greebo's Grub,5,0,0,0,2011-02-27,52.48553,-1.752559
344359,Greedy Guts,4,10,5,5,2014-08-12,52.388453,-1.735043
344360,Green Acres Day Centre - Day Centre Kitchen,5,0,0,0,2014-02-21,52.451573,-1.799145
344361,Green Acres Day Centre - Support Kitchen,5,5,5,5,2011-02-27,52.451573,-1.799145
344362,Green Meadows preschool; Tidbury green School,4,5,5,10,2013-05-09,52.380682,-1.851193
344363,Greenhill Way Extra Care,5,5,0,0,2011-10-06,52.420617,-1.831988
344364,Greggs,5,0,5,0,2012-04-17,52.479343,-1.739254
344365,Greggs,5,0,0,0,2014-03-28,52.413769,-1.778733
344366,Greggs,5,5,0,0,2012-06-29,52.412413,-1.779402
344367,Greggs,5,5,0,0,2014-03-18,52.444976,-1.784948
344368,Greggs,5,0,5,5,2014-02-19,52.413004,-1.827106
344369,Greggs,5,5,0,5,2014-02-26,52.494209,-1.750419
344370,Greggs,AwaitingInspection,nan,nan,nan,,,
344371,Greggs,5,5,0,0,2014-11-19,52.501613,-1.748742
344372,Greggs Moment,5,5,0,0,2014-04-07,52.413953,-1.776159
344373,Gregory's Fish & Chip Shop,4,10,5,5,2014-11-13,52.506649,-1.757863
344374,Greswold Greyhounds,5,0,0,0,2014-03-06,52.423619,-1.781757
344375,Greswold Junior & Infant School,3,5,10,10,2014-03-06,52.423619,-1.781757
344376,Greswolde Hotel,3,10,10,5,2014-03-26,52.389298,-1.734979
344377,Greville Arms,4,10,5,5,2013-02-20,52.421907,-1.765782
344378,Greville Fish Bar,3,10,5,10,2014-10-21,52.422607,-1.764969
344379,Haigs Hotel,3,10,5,10,2014-03-04,52.393269,-1.650693
344380,Haj News,3,10,5,10,2014-09-04,52.480559,-1.732518
344381,Hall 1 Food & Bar,5,0,0,0,2012-04-24,52.453266,-1.717158
344382,Hall 10 Bar Kitchen,5,5,5,5,2011-02-27,52.453266,-1.717158
344383,Hall 11 & 12 Self Service Restaurant,5,5,0,0,2012-11-22,52.453266,-1.717158
344384,Hall 11 Bar,5,0,0,0,2011-02-27,52.453266,-1.717158
344385,Hall 12 Bar,5,0,0,0,2011-02-27,52.453266,-1.717158
344386,Hall 17 Damn Fine Sandwich Company,5,0,0,0,2013-03-21,52.453266,-1.717158
344387,Hall 17 Food & Bar,5,0,0,5,2011-09-13,52.453266,-1.717158
344388,Hall 18 Damn Fine Sandwich Company,5,0,0,5,2011-09-13,52.453266,-1.717158
344389,Hall 18 Food & Bar,5,0,0,0,2012-05-01,52.453266,-1.717158
344390,Hall 19 Damn Fine Sandwich Company,5,0,0,0,2013-03-21,52.453266,-1.717158
344391,Hall 19 Food & Bar,5,5,0,0,2011-11-03,52.453266,-1.717158
344392,Hall 2 Food Express,5,0,0,0,2013-03-07,52.453266,-1.717158
344393,Hall 2 Food Feature,5,5,0,0,2012-04-24,52.453266,-1.717158
344394,Hall 20 Damn Fine Sandwich Company,5,0,0,0,2012-11-09,52.453266,-1.717158
344395,Hall 20 Food Bank,5,0,0,0,2012-11-09,52.453266,-1.717158
344396,Hall 3 Food & Bar,5,0,0,0,2013-03-07,52.453266,-1.717158
344397,Hall 4 Food and Bar,5,0,5,0,2011-11-11,52.453266,-1.717158
344398,Hall 4 Food Express and Back Up Kitchen,5,5,5,5,2009-11-13,52.453266,-1.717158
344399,Hall 4 Food Feature,5,5,0,0,2010-10-08,52.453266,-1.717158
344400,Hall 5 Food & Bar,5,0,0,0,2012-11-09,52.453266,-1.717158
344401,Hall 5 Rooftop Cafe,5,5,5,0,2009-03-20,52.453266,-1.717158
344402,Hall 6 Cafe Bar,5,0,0,0,2013-03-21,52.453266,-1.717158
344403,Hall 6 Food Express,5,0,0,0,2013-03-21,52.453266,-1.717158
344404,Hall 7 Cafe Bar,5,0,5,0,2009-03-26,52.453266,-1.717158
344405,Hall 7 Food Express,5,0,0,0,2012-05-18,52.453266,-1.717158
344406,Hall 8 Cafe Bar,5,0,0,0,2011-11-11,52.453266,-1.717158
344407,Hall 8 Food Express,5,0,0,0,2012-05-18,52.453266,-1.717158
344408,Hall 9 & 10 Self Service Restaurant & Kiosks,5,0,0,0,2012-11-16,52.453266,-1.717158
344409,Hall 9 Bar,5,0,0,5,2011-03-09,52.453266,-1.717158
344410,Hallys Sandwich Bar,5,0,0,0,2014-09-29,52.372985,-1.753731
344411,Hampton Bites,5,0,0,0,2011-02-27,,
344412,Hampton Football Club,1,15,10,20,2013-07-18,52.41923,-1.749416
344413,Hampton Manor,3,5,10,10,2012-11-22,52.429027,-1.701739
344414,Hampton Nursery,5,5,5,5,2014-01-07,52.387526,-1.759954
344415,Hampton-In-Arden Sports Club Ltd,3,5,10,10,2010-06-04,52.429027,-1.701739
344416,Handmade Burger Co,5,0,5,0,2012-05-28,52.412413,-1.779402
344417,Happy Eating,4,5,5,10,2014-08-12,52.44117,-1.80359
344418,Happy Heart Cafe,5,0,5,0,2014-05-14,52.44117,-1.80359
344419,Happykidz,4,5,5,10,2013-05-09,52.398152,-1.803326
344420,Harper Fields Care Home,5,0,0,0,2015-01-06,52.382748,-1.644091
344421,Harvester Monkspath,5,0,0,0,2014-03-27,52.386991,-1.800936
344422,Harvey's Catering Food Bar & Diner,1,10,5,20,2014-04-22,52.49394,-1.75073
344423,Harvey's Fish Bar,1,10,5,20,2014-03-03,52.433603,-1.81645
344424,Harvey's Golf Ltd,5,5,0,0,2011-08-12,52.424948,-1.812368
344425,Haslucks Green County Junior School,5,5,0,5,2012-10-04,52.412276,-1.833357
344426,Haslucks Green Fish Bar,5,0,5,5,2014-03-27,52.408805,-1.839427
344427,Hatchford Brook Junior & Infant School,5,5,5,5,2014-03-18,52.447757,-1.776989
344428,Hatchford Brook Junior & Infant School- Happy Valley,4,5,5,10,2011-02-27,52.447757,-1.776989
344429,Hay Lane Lodge,5,5,5,5,2010-11-04,52.387472,-1.798583
344430,Haystacks Play Barn,5,0,5,0,2013-11-29,52.443101,-1.750163
344431,Hazel Oak School,4,10,0,5,2013-01-22,52.404717,-1.834679
344432,Heart Of England Club,3,10,5,10,2011-08-11,52.430046,-1.641137
344433,Heart Of England Secondary School,5,5,5,5,2014-02-12,52.385458,-1.648301
344434,Heath Lodge Hotel,2,15,10,10,2012-10-25,52.469308,-1.730437
344435,Heathers Kitchen,5,5,0,5,2012-08-01,,
344436,Heron Frozen Foods,5,5,5,5,2014-10-29,52.479343,-1.739254
344437,Hertford House,5,0,0,5,2014-05-01,52.438345,-1.808075
344438,Highgate United Football Club,1,15,10,20,2015-01-16,52.390307,-1.848413
344439,Hileys Coffee Shop,4,10,5,0,2014-01-20,52.365156,-1.781884
344440,Hillfield Grange,5,5,0,0,2013-11-19,52.40034,-1.823055
344441,Hilton B & B,5,5,5,5,2008-10-15,52.384264,-1.636777
344442,Hilton Birmingham Metropole,5,5,5,5,2014-03-24,52.450449,-1.715734
344443,Hobs Meadow,2,15,10,10,2013-11-05,52.444201,-1.788938
344444,Hockley Heath Mens Social Club,4,5,5,10,2009-03-31,52.348947,-1.776854
344445,Hockley Heath Primary School,5,5,5,5,2014-03-25,52.352297,-1.779994
344446,Hogarths Hotel Ltd,5,5,5,5,2013-03-26,52.381738,-1.774295
344447,Hogshead,5,5,5,5,2014-02-20,52.414492,-1.780582
344448,Holiday Inn,5,5,0,0,2014-04-30,52.410635,-1.780528
344449,Holiday Inn Birmingham Airport,5,5,5,5,2015-01-27,52.447392,-1.75186
344450,Holiday Inn Express Birmingham NEC,4,5,5,10,2014-01-07,52.463638,-1.715973
344451,Holland & Barrett,5,5,5,5,2011-05-20,52.411988,-1.826507
344452,Holland and Barrett,5,0,0,0,2011-02-27,52.412905,-1.778326
344453,Home Bargains,5,5,5,5,2010-10-20,52.479343,-1.739254
344454,Home Carterer,5,0,0,0,2011-02-27,,
344455,Home Caterer,4,5,10,5,2010-05-24,,
344456,Home Caterer,5,5,5,5,2011-02-27,,
344457,Home Caterer,4,0,5,10,2011-02-27,,
344458,Home Caterer,5,5,5,5,2009-02-24,,
344459,Home Caterer,5,5,5,5,2011-02-27,,
344460,Home Communal,4,5,5,10,2011-02-27,52.379808,-1.744776
344461,Honey Pot house Nursery,5,5,5,0,2013-07-03,52.415154,-1.827774
344462,Hotel Chocolat,5,5,0,0,2011-08-18,52.412413,-1.779402
344463,Hotel Ibis,5,0,5,0,2011-08-25,52.452507,-1.730863
344464,House of Fraser Cafe,5,5,0,0,2014-03-06,52.414329,-1.775481
344465,House of Fraser Restaurant,5,5,5,5,2015-02-06,52.414329,-1.775481
344466,Housing 21,5,5,5,5,2014-05-01,52.47438,-1.743067
344467,Hughes Butchers,4,10,5,5,2014-01-21,52.404657,-1.843234
344468,Hullait News,3,5,10,10,2012-02-07,52.484116,-1.743069
344469,Hungry Momma's,5,0,0,5,2014-10-08,,
344470,Hurst Lane Post Office,4,5,5,10,2012-11-01,52.501337,-1.767379
344471,I Crave,5,5,5,0,2012-10-31,52.351106,-1.777769
344472,I made it myself,4,10,0,10,2011-08-31,,
344473,Ibis Budget,5,5,5,5,2013-01-31,52.452507,-1.730863
344474,Ice Rink Fish bar,2,10,15,10,2012-11-26,52.444545,-1.785288
344475,Iceland Foods Plc,5,5,5,5,2011-07-25,52.47998,-1.738705
344476,Iceland Foods Plc,3,10,10,5,2014-01-28,52.410926,-1.826085
344477,IMI Plc,4,0,5,10,2012-10-25,52.468303,-1.719579
344478,Indian Dream,3,10,10,10,2012-12-11,52.429203,-1.797849
344479,Indigoxpress,5,5,0,0,2013-12-10,52.433603,-1.81645
344480,Island Bar Arena,5,0,0,0,2010-10-07,52.453266,-1.717158
344481,Ivy House Guest House,4,0,5,10,2012-11-06,52.372677,-1.71638
344482,J Sainsbury Plc,5,5,0,0,2012-07-17,52.402,-1.820711
344483,J Sainsbury Plc,5,5,0,0,2012-02-29,52.414396,-1.777686
344484,J Sainsbury Plc - Petrol Station,5,0,5,5,2011-02-27,52.402,-1.820711
344485,J Taylor And Son Ltd,5,5,5,5,2014-07-01,52.392534,-1.645526
344486,Jacs  Sweets,3,10,5,10,2015-01-15,52.479342,-1.739254
344487,Jacs Cafe,4,10,5,0,2014-10-27,52.479343,-1.739254
344488,Jacs Midlands Ltd,1,15,5,20,2014-10-17,52.442989,-1.785001
344489,Jade,5,0,5,0,2013-03-19,52.385059,-1.836853
344490,Jade Garden,1,20,10,20,2013-11-26,52.444976,-1.784948
344491,Jade Palace Chinese Take Away,3,10,10,10,2012-11-06,52.389443,-1.735449
344492,Jalfrezi,3,10,10,10,2015-01-19,52.403576,-1.810798
344493,Janaki Indian Cuisine,2,15,10,10,2013-03-19,52.385193,-1.836515
344494,Jane's Cafe,5,5,5,5,2015-01-08,52.503124,-1.771155
344495,Janet Shaw Clinic,5,0,5,0,2014-11-18,52.469372,-1.742831
344496,Janito,4,5,5,10,2014-03-26,52.389443,-1.735449
344497,Jeera Balti Tandoore,4,5,10,5,2014-03-24,52.501479,-1.761736
344498,Jenifer Jayne's Celebration Cakes,AwaitingInspection,nan,nan,nan,,52.440119,-1.639834
344499,Jennywrens,AwaitingInspection,nan,nan,nan,,,
344500,Jerry Howell Sales,AwaitingInspection,nan,nan,nan,,52.40784,-1.843384
344501,Jimmy Spices,5,5,0,5,2013-01-28,52.414656,-1.781949
344502,Jimmy Spices,5,0,0,5,2010-11-26,52.453266,-1.717158
344503,Jobs Close Home For The Elderly,5,5,5,0,2014-12-16,52.387644,-1.739162
344504,Joe & The Juice,5,0,5,5,2014-02-11,52.413908,-1.780732
344505,Joe Richards Ltd,3,10,5,10,2014-12-17,52.41144,-1.8272
344506,John Henry Newman Catholic College,5,0,0,5,2011-03-11,52.483486,-1.751334
344507,John Lewis,5,0,5,0,2014-01-20,52.394341,-1.798537
344508,John Lewis - The Partners Dining Room,5,0,5,0,2014-07-01,52.413908,-1.780732
344509,John Lewis Food Services,AwaitingInspection,nan,nan,nan,,52.392001,-1.802221
344510,John Lewis -The Place to Eat,5,0,5,0,2014-07-01,52.413908,-1.780732
344511,Jollys Kitchen,1,15,10,20,2014-08-29,52.404657,-1.843234
344512,Jolokia,2,10,15,10,2014-06-25,52.352606,-1.776836
344513,Jubilee Gardens,5,0,5,0,2014-02-27,52.503919,-1.7506
344514,Juci Luci Cupcake Factory,5,5,5,5,2014-12-01,,
344515,Julia Bidmead- Corporate Chef,5,0,0,5,2011-05-04,,
344516,Julia's Pizza & Grill,AwaitingInspection,nan,nan,nan,2014-09-03,52.424216,-1.764799
344517,Julie's Oriental Kitchen,AwaitingInspection,nan,nan,nan,,,
344518,Just Love Baking,5,5,0,5,2013-06-25,,
344519,K F C,4,10,5,5,2014-08-07,52.500127,-1.760034
344520,Kababish Deli,4,5,5,10,2014-02-18,52.447314,-1.736265
344521,Kairos Coffee,5,0,0,5,2014-08-26,52.414436,-1.828762
344522,Kam Shun Limited,AwaitingInspection,nan,nan,nan,,52.351106,-1.777768
344523,Karma Restaurant,5,5,5,5,2014-02-19,52.406843,-1.824646
344524,Kathryn Charmer,Exempt,nan,nan,nan,2013-05-14,,
344525,Kay News,AwaitingInspection,nan,nan,nan,2014-07-29,52.444976,-1.784948
344526,KDT Luncheon Club New Testament Church Centre,1,5,5,20,2012-06-19,,
344527,Kelly Regan,Exempt,nan,nan,nan,2013-06-17,,
344528,Kesh's Coffee Cup,AwaitingInspection,nan,nan,nan,,,
344529,Keu Ken Cafe,5,0,5,0,2014-03-19,52.444976,-1.784948
344530,keystone children's centre,5,0,0,5,2011-06-27,52.385725,-1.758274
344531,KFC,5,5,0,0,2013-01-17,,
344532,Kidz-R-Us,3,5,10,10,2013-05-30,,
344533,Kims Cafe,AwaitingInspection,nan,nan,nan,,52.444684,-1.696983
344534,Kineton Green Primary School,5,5,0,0,2011-09-12,52.435177,-1.811575
344535,King Fryer,AwaitingInspection,nan,nan,nan,,52.41379,-1.780277
344536,King George VI Memorial Club,5,0,5,0,2011-05-16,52.348947,-1.776854
344537,King of Curries,3,5,10,10,2012-05-10,52.49394,-1.75073
344538,King Valley,3,5,10,10,2014-02-24,52.49394,-1.75073
344539,Kings Arms,5,5,5,0,2014-09-09,52.374744,-1.72377
344540,Kingsford Court Limited,5,0,5,5,2014-03-19,52.444755,-1.787332
344541,Kingsgate House Tenants & Friends Social Club,3,5,10,10,2011-06-09,52.478382,-1.743736
344542,Kingshurst Caterpillars,3,5,10,10,2010-07-08,52.493668,-1.749671
344543,Kingshurst District Trades & Labour Club,3,10,5,10,2014-05-09,52.487039,-1.735365
344544,Kingshurst Primary School,5,5,0,0,2010-10-01,52.495791,-1.749924
344545,Kingshurst Primary School; Breakfast Club/Before & After School Club,5,0,5,5,2009-06-18,52.495791,-1.749924
344546,Kingsley Child Care,4,0,0,10,2011-02-27,52.378945,-1.753448
344547,Kingswood School - School Canteen,4,5,5,10,2014-03-05,52.40698,-1.826483
344548,Kiosk,5,5,5,5,2012-05-29,52.453266,-1.717158
344549,Kiosks,5,0,0,0,2012-04-19,52.453266,-1.717158
344550,Kismet,5,5,0,5,2014-11-25,52.501879,-1.773416
344551,"Kitchen Self Service, Forum side",5,0,0,0,2012-04-19,52.453266,-1.717158
344552,Knightsbridge Convience Store,1,5,5,20,2014-03-13,52.437318,-1.796223
344553,Knowle & Dorridge Cricket Club,5,5,5,5,2012-10-16,52.376993,-1.748274
344554,Knowle & Dorridge Raquets Club,4,10,5,5,2011-02-27,52.378659,-1.745708
344555,Knowle C Of E Primary Academy,5,5,5,5,2014-02-13,52.389361,-1.730821
344556,Knowle Fish Bar,2,0,15,10,2014-02-13,52.386502,-1.734776
344557,Knowle Football Club,1,10,5,20,2012-08-15,52.394952,-1.73061
344558,Knowle Indian Brasserie,3,10,10,10,2014-07-30,52.387678,-1.734107
344559,Knowle Primary School,5,5,0,0,2012-02-02,52.389361,-1.730821
344560,Knowle Royal British Legion,3,10,10,10,2014-02-13,52.395758,-1.741539
344561,Knowle Service Station,AwaitingInspection,nan,nan,nan,,52.387011,-1.729659
344562,Knowle Village Cricket Club,4,5,5,10,2011-02-27,52.394952,-1.73061
344563,Krispy Kreme Uk Ltd,AwaitingInspection,nan,nan,nan,,52.412413,-1.779402
344564,La Delicia,4,0,5,10,2014-03-04,52.392834,-1.646479
344565,Labour Ward,5,0,0,0,2011-02-27,52.417132,-1.774379
344566,Lady Katherine Leveson CE Primary School,5,5,0,0,2012-10-12,52.381853,-1.696914
344567,Lakeland Catering (UK),3,10,5,10,2014-11-27,52.479011,-1.727816
344568,Lakeside Gallery Bar,5,0,0,0,2010-10-07,52.453266,-1.717158
344569,"Lakeside Gallery Bar (1st fl), Arena",5,0,0,0,2010-10-07,52.453266,-1.717158
344570,Lakeside Gallery Showdeck Bar (2nd fl),5,0,0,0,2010-10-07,52.453266,-1.717158
344571,Lakeside Hospitality Bar,5,0,0,0,2010-10-07,52.453266,-1.717158
344572,Land Rover Ltd - O C S Catering Kiosks 1-10,5,5,5,5,2014-12-04,52.436887,-1.780927
344573,Land Rover Ltd - OCS Catering UK Ltd,5,5,5,5,2014-12-04,52.436887,-1.780927
344574,Land Rover Sports & Social Club,4,5,5,10,2013-04-04,52.430376,-1.775135
344575,Langley Childrens Centre,4,0,0,10,2011-02-03,52.424948,-1.812368
344576,Langley Hall Social Club,5,5,5,5,2014-05-01,52.429304,-1.821586
344577,Langley Primary School,5,5,0,0,2012-01-24,52.424948,-1.812368
344578,Langley Secondary School,5,0,0,0,2010-02-25,52.428588,-1.811882
344579,Lantern House,3,10,10,10,2013-04-10,52.448642,-1.794199
344580,Larges Farm,1,10,10,20,2014-07-17,52.422284,-1.628598
344581,Lavender Hall Farm - Lavender Hall Fisheries,3,10,10,10,2014-03-04,52.400439,-1.649534
344582,Lavender Hall Farm - Lavender Hall Guest Lodge,3,5,10,10,2011-02-27,52.400439,-1.649534
344583,Lawnswood Childcare,5,0,0,0,2014-02-18,52.421375,-1.821706
344584,Lawnswood Childcare,5,0,0,0,2014-02-18,52.404362,-1.818879
344585,Lawnswood Childcare Ltd,4,5,10,5,2014-02-04,52.507688,-1.751772
344586,LAYCA Community Centre,Exempt,nan,nan,nan,2011-02-27,52.396928,-1.825552
344587,Leap Frogs Nursery,5,0,5,5,2014-02-25,52.466425,-1.752151
344588,Lentinis Sweets,AwaitingInspection,nan,nan,nan,,,
344589,Lifestyle,2,15,10,10,2014-11-27,52.37833,-1.815357
344590,Light Hall School,5,5,0,0,2011-09-19,52.400298,-1.830918
344591,Lime Pickle Indian Takeaway,1,5,15,20,2013-12-09,52.506561,-1.758865
344592,Lincoln Farm Cafe,3,10,10,10,2013-11-15,52.420057,-1.678596
344593,Lincoln News & Convenience,1,10,5,20,2014-09-30,52.447918,-1.80718
344594,Lingam Supermarket,3,10,5,10,2013-05-09,52.479416,-1.723882
344595,Link Logistics - Canteen,5,5,5,5,2012-02-06,52.396462,-1.79838
344596,Little Folks Day Nursery,AwaitingInspection,nan,nan,nan,,52.355694,-1.697886
344597,Little Owl,5,5,5,5,2015-01-20,52.463638,-1.715973
344598,Little Poppets Pre-School,5,0,0,0,2010-10-05,52.435177,-1.811575
344599,Little Puddings Cupcake Bakery,5,0,0,5,2013-05-08,,
344600,Little Scholars Day Nursery,3,10,10,10,2012-12-10,52.447918,-1.80718
344601,Loch Fyne,5,0,5,5,2014-05-19,52.389443,-1.735449
344602,Lode Heath High School,3,10,5,10,2014-03-07,52.425498,-1.777278
344603,Log Home Farm,4,5,5,10,2014-06-25,52.362449,-1.688691
344604,Londis,4,0,0,10,2011-02-27,52.409068,-1.810157
344605,Londis,4,5,5,10,2011-05-05,52.481987,-1.75679
344606,Londis,1,0,5,20,2012-07-24,52.431429,-1.766673
344607,Longfellows,5,5,5,5,2013-03-20,52.42075,-1.737056
344608,Longmore Nursing Home,4,10,0,5,2014-05-12,52.406861,-1.818663
344609,Longview Extra Care Scheme,5,5,5,5,2012-11-20,52.439599,-1.784444
344610,Love Cupcakes,5,5,0,0,2010-05-13,,
344611,Loving Cupcakes,AwaitingInspection,nan,nan,nan,,,
344612,Luck-e-chef,4,10,5,5,2014-11-18,52.421638,-1.775577
344613,Lucky House,5,5,5,5,2014-07-15,52.40622,-1.823266
344614,Luna,AwaitingInspection,nan,nan,nan,,52.412229,-1.777227
344615,Luna Rosa,4,10,0,5,2014-07-15,52.389508,-1.736271
344616,Lyndon Croft Residential Home,5,5,5,0,2014-02-14,52.444201,-1.788938
344617,Lyndon Fish Bar,5,5,5,0,2014-01-16,52.448642,-1.794199
344618,Lyndon Methodist Church - Lyndon Nursery,5,5,5,5,2013-03-07,52.450183,-1.791279
344619,Lyndon School,5,5,5,0,2013-01-31,52.448149,-1.789523
344620,M & A Lilly,3,5,10,10,2014-02-25,52.480846,-1.748536
344621,M & S Simply Food,5,0,0,0,2011-06-29,52.447314,-1.736265
344622,M Firkin Ltd,3,10,10,10,2015-01-19,52.41379,-1.780277
344623,M.A.D Catering,AwaitingInspection,nan,nan,nan,2013-05-16,52.447927,-1.749459
344624,Mad Hatters Day Nursery,4,0,0,10,2014-08-18,52.40034,-1.823055
344625,Magnolia Bakery,AwaitingInspection,nan,nan,nan,,,
344626,Malcolms Stores,3,5,10,10,2014-07-16,52.479722,-1.7524
344627,Malt Shovel,4,5,10,5,2014-08-21,52.407051,-1.710986
344628,Malt Shovel,5,5,5,0,2014-03-25,52.445914,-1.689031
344629,Malvern Unit - Brooklands Hospital,5,0,5,5,2014-10-14,52.468156,-1.737554
344630,Manor Hill Day Nursery,5,0,5,5,2014-04-03,52.395504,-1.811347
344631,Manor Hotel,3,5,10,10,2014-03-18,52.435016,-1.637934
344632,Manor House Tea Rooms,5,0,5,0,2014-03-19,52.412229,-1.777227
344633,Manor House Tearooms,5,5,0,5,2014-03-25,52.366974,-1.839343
344634,MAPA Cafe,4,5,0,10,2014-04-24,52.486073,-1.737727
344635,Marie Curie Hospice,5,0,0,0,2013-05-30,52.411031,-1.762076
344636,Market Garden,1,10,20,20,2014-11-20,52.382666,-1.757145
344637,Market Stall,AwaitingInspection,nan,nan,nan,,52.422977,-1.805509
344638,Marks & Spencer Cafe,5,5,0,0,2014-08-18,52.414323,-1.776716
344639,Marks & Spencer Plc,5,0,0,0,2014-09-22,52.414323,-1.776716
344640,Marks & Spencer Simply Food,5,0,0,0,2014-05-13,52.400986,-1.816321
344641,Marston Green Chop Suey House,5,5,0,0,2011-03-09,52.467334,-1.752808
344642,Marston Green Club Ltd,4,5,5,10,2011-02-27,52.465994,-1.744043
344643,Marston Green Club Ltd,AwaitingInspection,nan,nan,nan,,52.465994,-1.744043
344644,Marston Green Cricket Club,5,5,5,5,2011-06-14,52.464168,-1.735384
344645,Marston Green Fish Bar,3,5,10,10,2014-12-11,52.467334,-1.752808
344646,Marston Green Infant School,5,0,0,5,2012-02-07,52.466425,-1.752151
344647,Marston Green Junior School,5,0,0,5,2011-12-08,52.467157,-1.749659
344648,Marston Green Junior School; The Ark Before & After School Club,5,0,5,5,2014-02-25,52.467157,-1.749659
344649,Marston Green Service Station,4,0,10,10,2014-02-26,52.467334,-1.752808
344650,Marston Green Tavern,4,5,10,0,2012-11-19,52.467813,-1.753836
344651,Masala Club,3,10,10,10,2014-01-22,52.392834,-1.646479
344652,Masonic Lodge,5,5,5,5,2014-05-01,52.392203,-1.739415
344653,Masons Arms,5,5,0,0,2014-03-28,52.412173,-1.776213
344654,Matthews Convenience Store,3,10,10,10,2012-10-12,52.437755,-1.815786
344655,Maxine's Classic Cakes,5,5,5,0,2013-02-13,,
344656,Mccann Erickson,5,0,5,0,2014-05-28,52.397806,-1.806061
344657,McDonalds,5,5,5,5,2012-11-14,52.413329,-1.779279
344658,Mcdonalds Restaurants Ltd,5,0,0,0,2014-03-21,52.479328,-1.740888
344659,Mcdonalds Restaurants Ltd,5,0,0,0,2014-11-10,52.441659,-1.811326
344660,Mcdonalds Restaurants Ltd,5,5,0,0,2014-02-06,52.383102,-1.792653
344661,Megabites,3,5,10,10,2011-02-28,52.462274,-1.736529
344662,Melting Moments Designer Cakes,4,5,0,10,2010-09-06,52.365156,-1.781884
344663,Mencap,5,5,5,5,2009-01-06,52.475692,-1.734785
344664,Mereside Home,5,5,0,0,2010-09-22,52.43632,-1.806377
344665,Meriden C Of E School,5,0,5,5,2014-02-12,52.439534,-1.645576
344666,Meriden Fish and Chips,5,5,5,5,2014-11-11,52.437809,-1.648855
344667,Meriden Tea Room,3,10,10,10,2013-08-07,52.439534,-1.645576
344668,Merstone School,5,0,0,5,2012-02-06,52.498525,-1.746226
344669,Merstone School - Marstone Solo Holiday Activities,4,5,10,5,2009-09-29,52.498525,-1.746226
344670,Metro Bar And Grill,4,10,5,5,2014-01-07,52.414791,-1.777258
344671,Michael Food Market Limited,AwaitingInspection,nan,nan,nan,,52.442989,-1.785001
344672,Michaels Foodmarket,4,10,5,5,2011-08-23,52.444976,-1.784948
344673,Mickeys Catering,3,10,10,10,2013-06-17,52.449613,-1.751657
344674,Middleway Care,5,5,5,0,2010-08-24,52.432993,-1.800582
344675,Midway Care,5,5,5,5,2010-12-02,52.459578,-1.745169
344676,Mike Rooke Catering,5,5,5,5,2011-02-27,52.382748,-1.644091
344677,Milbury Care Services Ltd,5,5,0,0,2010-12-02,52.42573,-1.796247
344678,Mill Lodge Primary School,5,5,0,0,2014-06-23,52.40608,-1.851828
344679,Mill Lodge Primary School - Beechwood Childcare Ltd,4,5,5,10,2014-01-23,52.40608,-1.851828
344680,Miller & Carter,5,5,5,0,2013-11-06,52.390743,-1.825753
344681,Miller & Carter,5,0,0,5,2012-01-24,52.352606,-1.776836
344682,Millies Cookies,4,0,5,10,2011-02-27,52.412413,-1.779402
344683,Millies Cookies,5,5,5,5,2011-02-27,52.451083,-1.733255
344684,Mills Butchers,5,5,5,0,2014-06-24,52.351106,-1.777769
344685,Mills News,5,5,0,5,2012-10-08,52.396817,-1.811826
344686,Minhs Restaurant,2,15,10,10,2014-06-16,52.373292,-1.754097
344687,Missoula,5,5,5,5,2014-09-18,52.412229,-1.777227
344688,Mitie Catering - Lloyds Banking Group Learning Centre,5,0,0,0,2012-08-09,52.381419,-1.807308
344689,MK Juice Lounge,5,0,5,5,2014-11-04,52.400458,-1.806108
344690,Mobile Food Vendor (name not yet decided),AwaitingInspection,nan,nan,nan,,,
344691,Monkspath Chinese Take Away,4,5,10,5,2015-01-13,52.391359,-1.784855
344692,Monkspath Junior & Infant School,5,5,0,0,2011-05-13,52.391359,-1.784855
344693,Morrisons,5,5,0,5,2013-01-24,52.409253,-1.825077
344694,Morrisons,5,5,5,5,2014-03-31,52.413032,-1.773915
344695,Morrisons,5,5,5,5,2014-03-24,52.500127,-1.760034
344696,Morrisons - Service Station,5,5,5,5,2011-02-27,52.500127,-1.760034
344697,"Mortons Kitchen, Bar & Deli",5,5,0,5,2013-03-07,52.385193,-1.836515
344698,Moseley Cricket Club,4,5,0,10,2012-11-05,52.421375,-1.821706
344699,Moseley Cricket Club Kitchen,5,5,0,5,2012-11-05,52.421375,-1.821706
344700,Mr T Payne,AwaitingInspection,nan,nan,nan,,52.391408,-1.621671
344701,Mrs R Needham,4,5,10,5,2011-02-27,,
344702,Mrs Stone's Cakes,5,0,0,5,2013-06-13,,
344703,Mucky Pups Day Nursery,5,0,0,0,2014-02-20,52.448642,-1.794199
344704,Mummy's Cupcake Parties,AwaitingInspection,nan,nan,nan,,,
344705,Munch,AwaitingInspection,nan,nan,nan,,52.412448,-1.82774
344706,My Little Bakery,AwaitingInspection,nan,nan,nan,,,
344707,N Holloway,5,5,5,5,2012-04-12,52.501879,-1.773416
344708,Nailcote Hall Hotel,3,10,10,10,2014-12-02,52.393359,-1.613425
344709,Nandos,5,5,0,0,2014-12-17,52.412448,-1.82774
344710,Nando's,5,5,0,0,2011-11-29,52.412413,-1.779402
344711,National Grid  - Eurest,5,5,0,0,2011-11-30,52.411229,-1.780834
344712,National Motorcycle Museum,4,0,10,10,2012-10-09,52.444726,-1.706414
344713,Natural Childcare Company,5,5,5,5,2014-06-17,52.370532,-1.771987
344714,Neeta's Cakes,AwaitingInspection,nan,nan,nan,,52.403262,-1.848898
344715,Nelsons,5,0,5,0,2013-05-14,52.351106,-1.777769
344716,New City Chinese Takeaway,4,5,10,5,2012-10-11,52.403576,-1.810798
344717,New Dorridge Cantonese,4,5,5,10,2013-03-26,52.372786,-1.753042
344718,News and Food Market,3,5,10,10,2011-04-13,52.430875,-1.782589
344719,News Feed,1,10,10,20,2014-01-27,52.431429,-1.766673
344720,NHS Care Trust,5,5,5,5,2011-02-27,52.466906,-1.745937
344721,Nisa Local,2,15,10,10,2012-11-29,52.406855,-1.868863
344722,No 1 Traveller,5,5,5,0,2013-04-03,52.447314,-1.736265
344723,Noahs Ark Play Group,5,0,0,0,2014-11-20,52.385725,-1.758274
344724,North Solihull Sports Centre - Kosmic Kids Creche,5,5,5,5,2013-10-16,52.482922,-1.744136
344725,North Warwickshire Golf Club,5,5,5,5,2010-02-03,52.434943,-1.664999
344726,Northwick B&B,4,0,5,10,2011-02-27,52.356512,-1.779547
344727,Norwich Convenience Store,1,0,5,20,2013-01-17,52.472366,-1.751617
344728,Novotel - Restaurant,4,10,5,5,2013-03-26,52.452536,-1.731657
344729,Nursery,5,5,5,0,2009-03-19,52.41885,-1.770238
344730,Oak Cottage Primary School,5,0,0,5,2010-07-12,52.425751,-1.803085
344731,Oak Cottage Primary School - Orchids Childcare Ltd,5,0,0,0,2011-02-27,52.425751,-1.803085
344732,"Oakes Farm Shop, Oakes Farm",5,0,5,5,2013-05-09,52.39066,-1.672138
344733,Oaklands School and PRU,5,0,0,0,2010-11-17,52.510255,-1.758668
344734,Oaks Hotel,4,0,5,10,2011-02-27,52.405522,-1.825283
344735,Oasis Community Cafe; St. Clements Church Hall,4,5,0,10,2013-01-17,,
344736,Oasis Tandoori Restaurant,5,0,5,5,2014-03-04,52.41449,-1.828806
344737,Octagon Coffee Shop,5,0,0,0,2014-12-03,52.410926,-1.826085
344738,Old Edwardians Sports Club,1,10,10,20,2014-03-07,52.421375,-1.821706
344739,Old Lode Lane Fish Bar,3,10,10,5,2013-11-12,52.445366,-1.777222
344740,Old Silhillians Association Ltd,3,10,10,10,2014-05-01,52.401173,-1.747034
344741,Old Yardleians Rugby Football Club,3,10,10,10,2012-03-17,52.382438,-1.85345
344742,Olive Branch (Three Trees),1,10,5,20,2014-05-12,52.477376,-1.728253
344743,Oliver Bird Hall - St Alphege Pre School,5,5,0,0,2012-10-01,52.410931,-1.775322
344744,Olton & West Warwickshire Club Ltd,3,5,10,10,2013-01-25,52.428409,-1.806794
344745,Olton Filling Station (Murco),5,0,5,5,2012-02-02,52.441659,-1.811326
344746,Olton Fish Bar and Indian Take Away,3,5,10,10,2014-02-11,52.442108,-1.811089
344747,Olton Grange,5,0,5,5,2014-02-14,52.440245,-1.809685
344748,Olton Mere Sailing Club,4,5,5,10,2014-05-01,52.436055,-1.804143
344749,Olton Tavern,4,5,10,5,2014-03-18,52.438445,-1.782758
344750,Oltons,3,5,10,10,2014-11-10,52.433603,-1.81645
344751,Once upon a cook,AwaitingInspection,nan,nan,nan,,,
344752,One Stop,5,5,0,5,2014-08-27,52.403756,-1.822718
344753,One Stop,5,5,0,0,2011-06-08,52.421035,-1.765801
344754,One Stop,5,5,5,5,2012-01-25,52.414901,-1.809206
344755,One Stop,4,5,10,5,2013-05-16,52.406415,-1.861499
344756,One Stop,5,5,5,5,2011-10-31,52.391763,-1.649412
344757,One Stop,5,5,0,5,2012-09-24,52.467334,-1.752808
344758,One Stop,5,5,0,5,2012-05-08,52.429203,-1.797849
344759,One Stop Convenience Store,5,0,0,5,2012-02-10,52.467334,-1.752808
344760,One Stop Convenience Store,4,10,5,5,2010-08-10,52.424216,-1.764799
344761,One Stop Convenience Store,4,10,5,5,2014-02-17,52.388453,-1.735043
344762,One Stop Shop,5,5,5,5,2011-05-31,52.445608,-1.7765
344763,One Stop Shop,5,5,5,5,2009-04-30,52.352606,-1.776836
344764,O'Neills,5,5,5,0,2013-01-23,52.414534,-1.779332
344765,Oriental Express,4,5,5,10,2014-03-12,52.391763,-1.649412
344766,Oriental Jade Cafe,4,5,10,5,2014-03-06,52.437318,-1.796223
344767,Our Lady Of Compassion Primary School,5,5,0,0,2012-10-23,52.431151,-1.812254
344768,Our Lady of the Wayside RC Primary School,5,5,5,5,2014-03-04,52.398368,-1.820785
344769,Pahal News,1,10,5,20,2013-10-16,52.448642,-1.794199
344770,Pairc Na Heireann,3,5,10,10,2009-10-08,52.433595,-1.732214
344771,Paircside Cafe,3,10,10,10,2013-11-07,52.433595,-1.732214
344772,Pan Asia,4,5,5,10,2014-09-02,52.449111,-1.794859
344773,Panchuli,5,5,5,5,2014-01-20,52.412173,-1.776213
344774,Pane & Caffe,4,0,10,10,2014-03-27,52.371157,-1.799289
344775,Pane e Caffe,4,0,0,10,2014-02-27,52.467337,-1.721793
344776,Papa Johns,2,15,5,5,2012-11-27,52.443834,-1.785056
344777,Papa's Pizza,0,15,20,20,2014-10-28,52.435419,-1.816487
344778,Paprika Lounge,4,5,5,10,2012-10-09,52.443834,-1.785056
344779,Park Hall Academy,4,0,5,10,2012-11-22,52.511382,-1.764452
344780,Park View Cafe,4,10,5,5,2014-11-18,52.437755,-1.815786
344781,Park View Day Centre,5,0,5,0,2012-10-15,52.406839,-1.784574
344782,Parkside Bistro,5,5,0,5,2014-12-22,52.41144,-1.8272
344783,Partners Dining Room (John Lewis),AwaitingInspection,nan,nan,nan,,52.394341,-1.798537
344784,"Pasty Presto, Piazza",5,5,0,0,2012-11-16,52.453266,-1.717158
344785,Pathways Nursery,2,15,10,10,2012-10-12,52.384556,-1.650218
344786,Pattie Sue's Cupcakes,AwaitingInspection,nan,nan,nan,,,
344787,Paul Harris Meats,4,0,5,10,2012-01-17,,
344788,Pauls Convenience Store,5,5,5,5,2011-03-16,52.494181,-1.741508
344789,Pauls Convenience Store - P Harris Meats,5,5,5,5,2014-07-22,52.494181,-1.741508
344790,Pauls News & General Stores,3,5,10,10,2013-02-13,52.505471,-1.753184
344791,Pauls Newsagents,1,10,10,20,2014-04-24,52.497353,-1.740842
344792,Pauls Newsagents,3,5,10,10,2014-01-24,52.508752,-1.753018
344793,Pavarotti,4,5,10,5,2014-12-02,52.444976,-1.784948
344794,Pavilion Restaurant,5,5,0,0,2011-11-03,52.453266,-1.717158
344795,Pavillion Sporting Club,3,10,5,10,2010-05-20,52.491079,-1.745208
344796,Paws & Grizzlies,AwaitingInspection,nan,nan,nan,,52.405888,-1.857635
344797,Pebble Cottage Guest House,5,5,5,5,2009-07-27,52.470191,-1.755943
344798,Peepo Day Nursery,5,0,0,0,2014-02-21,52.448534,-1.778751
344799,Peepos Childrens Nursery,4,10,5,0,2014-10-17,52.445608,-1.7765
344800,Peper's Piri Piri,1,5,10,20,2013-07-12,52.414492,-1.780582
344801,Perfetto Pizza,AwaitingInspection,nan,nan,nan,,52.41385,-1.827191
344802,Performance Caterers,5,0,5,5,2014-03-31,,
344803,Perios,AwaitingInspection,nan,nan,nan,,,
344804,Peterbrook Junior & Infant School - Junior School,5,0,0,0,2012-01-17,52.405889,-1.857635
344805,Peter's Catering Services,5,5,0,0,2012-10-22,52.392203,-1.739415
344806,Phonlik House Restaurant,4,5,10,5,2014-03-26,52.386969,-1.734773
344807,Pickles takeaway,4,5,10,5,2014-11-25,52.447918,-1.80718
344808,Pickley Moo Limited T/A Cafe2u Warwick,AwaitingInspection,nan,nan,nan,,,
344809,Pizza Express,5,0,0,5,2015-01-06,52.412413,-1.779402
344810,Pizza Express,5,5,0,0,2014-08-27,,
344811,Pizza Hut,4,5,10,0,2012-12-03,52.412413,-1.779402
344812,Pizza Hut,5,5,0,0,2010-09-07,52.414453,-1.828041
344813,Playpals,5,5,0,0,2014-03-06,52.421638,-1.775577
344814,Podiem Cafe Bar,5,0,5,0,2014-02-10,,
344815,Posh Posh cakes,5,0,0,5,2012-08-30,,
344816,Post Office,5,5,5,5,2014-05-01,52.391763,-1.649412
344817,Poundland,4,10,0,10,2014-09-30,52.413282,-1.777824
344818,Powers News,4,5,5,10,2012-07-19,52.44857,-1.778809
344819,Preeti Yummy Cakes,5,0,0,5,2011-06-01,,
344820,Premier Fruits of Solihull,AwaitingInspection,nan,nan,nan,,,
344821,Premier Inn,5,5,0,0,2013-02-26,52.414655,-1.781948
344822,Premier Inn,5,5,0,0,2014-10-27,52.463638,-1.715973
344823,Pret A Manger,5,5,0,0,2012-11-07,52.412905,-1.778326
344824,Pret A Manger - Airside,5,5,0,5,2014-08-26,52.447314,-1.736265
344825,Prezzo,AwaitingInspection,nan,nan,nan,,,
344826,Prince Of Wales,4,10,5,5,2013-01-08,52.404811,-1.866487
344827,Prince of Wales Nursing Home,5,0,0,5,2014-10-14,52.406855,-1.868863
344828,Princes Convenience Store,1,0,5,20,2012-10-31,52.406855,-1.868863
344829,Punch Bowl,3,10,5,10,2012-10-29,52.491521,-1.746016
344830,QS - Restaurant,5,5,5,5,2010-02-15,52.398152,-1.803326
344831,QSL Convenience,AwaitingInspection,nan,nan,nan,,52.507218,-1.768187
344832,Queen of Hearts Cafe,AwaitingInspection,nan,nan,nan,2015-01-22,52.40622,-1.823266
344833,Queens Head,1,10,5,20,2013-01-29,52.435805,-1.631397
344834,Railway Inn,4,5,5,10,2013-10-08,52.395509,-1.642387
344835,Rainbows Feature Cakes,AwaitingInspection,nan,nan,nan,,,
344836,Rais Newsagents,1,5,5,20,2013-01-29,52.487383,-1.740576
344837,Rajasthan,3,10,10,10,2013-09-16,52.438026,-1.805679
344838,Rajnagar International,4,5,5,10,2014-03-19,52.448642,-1.794199
344839,Ramada Birmingham Solihull,2,15,0,10,2014-02-10,52.411839,-1.775567
344840,Ramada Encore NEC,5,0,5,0,2012-01-05,52.453266,-1.717158
344841,Rasa Indian cuisine,3,5,10,10,2014-02-20,52.468538,-1.752272
344842,Ravenhurst Guest House,4,10,5,5,2011-02-27,52.419823,-1.775718
344843,Rayner House,5,0,0,0,2013-01-07,52.421893,-1.76315
344844,RB Catering,2,5,15,10,2013-12-16,52.456419,-1.731501
344845,RD Catering Ltd; Old Silhillians Club,4,10,5,5,2014-02-10,52.401173,-1.747034
344846,Red house,4,5,10,5,2013-06-20,52.422794,-1.773644
344847,Red Lion,5,5,5,5,2014-02-04,52.413913,-1.827235
344848,Red Lion Hotel,5,5,0,0,2012-02-06,52.369926,-1.835264
344849,Red Spice,1,15,20,10,2014-12-02,52.414453,-1.828041
344850,Redwood House Social Club,4,0,5,10,2013-04-25,52.493016,-1.751472
344851,Reed Smith,4,0,5,10,2011-02-27,52.372017,-1.797948
344852,Reliance,1,0,0,20,2011-10-13,52.411229,-1.780834
344853,Remembrance Social Club,4,5,5,10,2012-10-19,52.505531,-1.78891
344854,Renewal Christian Centre,5,5,5,5,2010-02-17,52.426834,-1.775065
344855,Renewal Coffee Shop,5,5,0,0,2014-06-10,52.426904,-1.774153
344856,Residential Home- Court of Lady Katherine Leveson,5,0,0,0,2014-02-10,52.381879,-1.700014
344857,Restaurant Bar,5,5,0,0,2012-05-29,52.453266,-1.717158
344858,Restored Furniture,1,15,10,20,2014-09-30,52.410926,-1.826085
344859,Revital,4,0,10,5,2011-11-28,52.412229,-1.777227
344860,Reynalds Cross School,5,0,0,0,2010-02-25,52.428588,-1.811882
344861,Riley's,3,10,10,10,2014-06-02,52.444976,-1.784948
344862,Ristorante Dal Forno,3,10,10,10,2012-02-22,52.388926,-1.85118
344863,RJS Catering,5,5,5,0,2015-01-20,,
344864,Robbins Family Butchers,3,10,10,10,2014-01-28,52.480315,-1.739646
344865,Roberts Deli,5,5,5,5,2013-11-18,52.501858,-1.767052
344866,ROC  UK Limited,AwaitingInspection,nan,nan,nan,,52.445391,-1.721167
344867,ROC UK Ltd,AwaitingInspection,nan,nan,nan,,52.381548,-1.751245
344868,Ron's Place,5,5,5,5,2011-09-19,52.472005,-1.750751
344869,Rossiters,3,10,10,10,2014-01-28,52.406855,-1.868863
344870,Roundmead Day Centre,5,5,0,0,2011-06-29,,
344871,Rowood Fish Bar and Pizza,AwaitingInspection,nan,nan,nan,,52.431429,-1.766673
344872,Royal Chinese Takeaway,1,10,15,20,2014-05-01,52.442144,-1.811118
344873,Royal Mencap,5,5,5,5,2009-08-10,52.472917,-1.728089
344874,Royal Mencap,4,5,5,10,2011-02-27,52.472917,-1.728089
344875,Royal Mencap,5,5,5,5,2011-02-27,52.472917,-1.728089
344876,Royal Star & Garter Home - Mitie Catering,5,0,0,5,2014-07-21,52.406779,-1.785736
344877,Ruckleigh School - Palmer & Howells (Catering),4,10,5,0,2014-03-06,52.416932,-1.777703
344878,Ruckleigh School - Playpals At Ruckleigh,5,0,0,0,2014-03-06,52.416932,-1.777703
344879,Ruths Bakery Limited,AwaitingInspection,nan,nan,nan,,,
344880,S & J Catering - Have a Bite,3,5,10,10,2014-03-05,,
344881,S I M T R,5,5,0,0,2010-02-09,52.421893,-1.76315
344882,Saffron Indian Takeaway,3,5,10,10,2013-01-29,52.424216,-1.764799
344883,Sainsbury's,5,5,0,0,2014-01-07,,
344884,Sainsbury's,AwaitingInspection,nan,nan,nan,,,
344885,Sainsburys Filling Station,5,0,0,0,2014-09-09,52.372447,-1.754234
344886,Sainsburys Petrol Station,AwaitingInspection,nan,nan,nan,,52.398206,-1.654402
344887,Saleem Bagh,2,10,15,10,2013-05-14,52.37357,-1.753684
344888,Sally Sweethearts,5,5,5,5,2012-03-23,,
344889,Sampan Take Away,3,5,10,10,2014-01-28,52.424216,-1.764799
344890,Sandhu Convenience Stores,4,5,5,10,2014-02-24,52.477934,-1.7487
344891,Sandwiches@No 6,AwaitingInspection,nan,nan,nan,,52.425306,-1.70219
344892,Sans Souci,5,0,0,0,2010-09-02,52.395156,-1.825236
344893,Saracens Head,5,5,5,5,2014-11-27,52.41144,-1.8272
344894,Sarah Green,5,5,5,5,2011-11-28,,
344895,Sarah Jane Wedding Cakes & Events Ltd,5,0,5,5,2013-02-08,,
344896,Scrummy Bakes Ltd,AwaitingInspection,nan,nan,nan,,,
344897,Scrumptious Cupcake Kitchen,AwaitingInspection,nan,nan,nan,,,
344898,Seasons Restaurant,5,0,0,0,2014-05-20,52.417132,-1.774379
344899,Seaspray,3,10,10,10,2014-02-19,52.40622,-1.823266
344900,Select & Save,4,5,5,10,2012-04-10,52.47174,-1.740403
344901,Select & Save,1,10,15,20,2014-03-03,,
344902,Select Lifestyles Ltd.,5,5,0,0,2012-10-08,52.398368,-1.820785
344903,Select Sandwiches,5,5,5,5,2014-02-17,,
344904,Shake Waffle and Roll,3,5,10,10,2014-12-09,,
344905,Shapla Tandoori,3,10,10,10,2014-01-28,52.413913,-1.827235
344906,Sharmans Cross,4,10,5,5,2012-10-09,52.414901,-1.809206
344907,Sharmans Cross Junior School,4,10,5,5,2014-03-26,52.414096,-1.806445
344908,Shell Balsall Common,5,0,5,0,2011-05-12,52.39129,-1.650459
344909,Shell Box Trees,5,5,5,5,2013-05-17,52.362141,-1.780033
344910,Shell Shirley Triangle,5,0,5,5,2010-10-11,52.400896,-1.822038
344911,Shelly Farm Chip Shop,5,0,5,5,2014-03-04,52.391359,-1.784855
344912,Shepherdson Court Day Care Centre,5,0,0,0,2014-02-19,52.421893,-1.76315
344913,Shimla Pinks,3,10,10,10,2014-02-11,52.414656,-1.781949
344914,Shirley Express,1,15,15,20,2014-10-01,52.414453,-1.828041
344915,Shirley Golf Club Ltd,3,5,10,10,2014-02-17,52.381364,-1.796363
344916,Shirley Heath Junior School,5,0,0,0,2014-07-16,52.404362,-1.818879
344917,Shirley Kebab House,3,10,10,10,2015-01-12,52.413913,-1.827235
344918,Shirley Old People's Welfare,4,5,5,10,2014-02-18,52.40617,-1.819504
344919,Shirley Park - Ice Cream Van,5,5,5,5,2011-08-17,52.410298,-1.826749
344920,Shirley Social Club Ltd,4,5,5,10,2011-02-27,52.402149,-1.812141
344921,Shirley Spice,5,5,5,5,2014-03-03,52.40622,-1.823266
344922,Shirley Town Football Club,4,0,0,10,2011-02-27,52.390107,-1.846959
344923,Shirley Town Football Club - Cafe,3,5,10,10,2014-03-04,52.390107,-1.846959
344924,Silhill Football Club,4,5,5,10,2011-02-27,52.41569,-1.802454
344925,Silver Birchs,5,0,0,5,2015-01-06,52.488372,-1.736594
344926,Simply Foods (Marks & Spencer),5,5,0,0,2010-10-11,52.413913,-1.827235
344927,Simply Fresh,4,5,10,5,2014-01-06,52.475524,-1.752556
344928,Simply Local,1,15,15,20,2014-10-27,52.435419,-1.816487
344929,Six Seasons Indian Cuisine,1,10,15,20,2014-11-19,52.431429,-1.766673
344930,Sloe Bar,5,0,0,0,2010-03-26,52.452175,-1.723508
344931,Slug & Lettuce,5,0,5,0,2014-03-27,52.412413,-1.779402
344932,SMBC,4,5,5,10,2011-02-27,52.477889,-1.736244
344933,Smbc,5,0,0,0,2011-02-27,52.393184,-1.652486
344934,Smiley Cakes,5,0,5,5,2011-03-28,,
344935,Smiths Wood Community Primary School,5,5,0,0,2010-10-11,52.504307,-1.747224
344936,Smiths Wood Snooker Club,5,5,5,5,2011-02-27,52.501332,-1.743234
344937,Smith's Wood Sports College,5,0,0,5,2012-05-23,52.498525,-1.746226
344938,Smoode,5,5,5,5,2014-09-08,52.387678,-1.734107
344939,Snappy Tomato Pizza,2,10,15,10,2015-01-08,52.479722,-1.7524
344940,Snowdon Unit - Brooklands Hospital,AwaitingInspection,nan,nan,nan,,52.468156,-1.737554
344941,Sodexo Ltd - 3i PLC,5,0,0,0,2010-10-06,52.446042,-1.722737
344942,Solihull Arden Club,4,10,5,5,2011-02-27,52.416636,-1.798494
344943,Solihull Care Trust,4,0,10,10,2011-02-27,52.375638,-1.741113
344944,Solihull Children's Special Needs Association,4,0,0,10,2014-05-01,52.4038,-1.847926
344945,Solihull Cricket & Tennis Club,3,10,5,10,2011-02-25,52.414562,-1.761145
344946,"Solihull Day Nursery, c/o David Lloyd Leisure Club",5,0,5,0,2014-03-04,52.39064,-1.805945
344947,Solihull Fish Bar,2,15,15,10,2014-01-07,52.443834,-1.785056
344948,Solihull Health Authority - Emi Unit,5,0,0,0,2014-03-06,52.406806,-1.830599
344949,Solihull Healthcare,5,5,5,0,2014-05-01,52.485465,-1.743223
344950,Solihull Ice Rink,4,5,5,10,2005-02-01,52.444976,-1.784948
344951,Solihull ice rink cafe,3,10,10,5,2012-11-26,52.444976,-1.784948
344952,Solihull Metropolitan Borough Council - Civic Suite,5,0,5,0,2014-05-01,,
344953,Solihull Metropolitan Borough Council - Solihull Catering Services 2nd,5,0,0,0,2010-03-16,,
344954,Solihull Metropolitan Borough Council - Solihull Catering Services Civ,5,0,0,0,2010-03-16,,
344955,Solihull Moors Football Club,2,15,10,10,2013-01-07,52.421893,-1.76315
344956,Solihull Municipal Club,5,0,0,5,2012-08-17,52.400291,-1.797878
344957,Solihull NHS Care Trust,5,5,5,5,2011-02-27,52.476321,-1.755747
344958,Solihull NHS Care Trust,5,5,5,5,2011-02-27,52.466906,-1.745937
344959,Solihull Riding Club - Full Monty Caterers,2,15,10,10,2014-01-14,52.381738,-1.774295
344960,Solihull School Refectory,5,0,5,0,2012-10-10,52.414591,-1.771363
344961,Solihull Sixth Form College - Aramark Ltd,5,0,0,0,2010-02-23,52.405873,-1.772658
344962,Sonjas,3,10,5,10,2013-02-21,52.429203,-1.797849
344963,Spar,3,10,10,10,2014-01-23,52.42075,-1.737056
344964,Spar,4,5,10,0,2009-03-05,52.414534,-1.779332
344965,Spar,4,5,10,5,2014-03-26,52.447314,-1.736265
344966,Spar Stores,5,5,5,5,2014-01-24,52.509273,-1.775838
344967,Spar Stores,3,10,10,10,2014-02-11,52.414901,-1.809206
344968,Spar Stores,4,5,5,10,2012-02-17,52.429203,-1.797849
344969,Spar Stores,3,10,10,10,2013-12-05,52.482822,-1.727174
344970,Spar Stores,3,5,10,10,2010-03-30,52.437736,-1.648577
344971,Spectrum For Arcadia - Aramark Limited,5,5,0,0,2011-08-16,52.39064,-1.805945
344972,Spice It Up,3,5,10,10,2013-06-17,,
344973,Spicewoods,4,5,5,10,2014-10-15,52.444976,-1.784948
344974,Spire Healthcare,5,5,0,5,2014-03-18,52.421893,-1.76315
344975,Spire News,1,10,10,20,2014-04-29,52.42039,-1.818505
344976,Springfield House School,5,5,0,5,2013-01-16,52.383591,-1.705174
344977,Spud U Like,5,0,5,0,2012-10-01,52.412413,-1.779402
344978,Sreepur Indian Cuisine,5,5,0,5,2014-03-25,52.450958,-1.763435
344979,SSP Ltd - Wilson Vale Catering,5,5,5,0,2013-01-07,52.471122,-1.717692
344980,St Annes Early Years,4,0,5,10,2012-01-09,52.479572,-1.745643
344981,St Augustines Church Hall - St Augustines Pre School,4,5,5,10,2011-02-27,52.41379,-1.780277
344982,St Bernards Guest House,4,5,5,10,2011-02-27,52.436527,-1.806994
344983,St Martin's School,5,5,5,0,2013-01-10,52.411102,-1.766104
344984,St Mary And St Margarets C of E Primary School - The Den,5,5,5,5,2010-05-26,52.504167,-1.785705
344985,St Michael's Residential Home,5,5,0,0,2013-12-10,52.434549,-1.801311
344986,St. Alphege C Of E Infant School,5,0,0,0,2010-09-22,52.411064,-1.774719
344987,St. Alphege Junior School,5,0,0,5,2010-09-10,52.405386,-1.776556
344988,St. Andrews Rc Junior & Infant School,5,0,0,0,2012-11-13,52.443248,-1.788811
344989,St. Annes Rc Junior & Infant School,4,5,10,5,2014-02-24,52.479572,-1.745643
344990,St. Anthonys Rc Junior & Infant School,5,5,0,0,2012-09-12,52.490173,-1.750309
344991,St. Anthonys Rc Junior & Infant School - St Anthonys Nursery School,3,5,10,10,2011-02-03,52.490173,-1.750309
344992,St. Augustines Catholic Primary School,5,5,0,0,2011-09-12,52.405445,-1.788873
344993,St. Bernards Residential Care Home,5,0,0,0,2013-11-06,52.431397,-1.80862
344994,St. George & St. Teresa Rc Junior & Infant School,5,0,5,0,2014-02-13,52.379684,-1.749904
344995,St. Georges Home,3,5,10,10,2014-03-20,52.400264,-1.814031
344996,St. John The Baptist Rc Junior & Infant School - The Base School Club,5,5,5,5,2010-06-23,52.500261,-1.742725
344997,St. John The Baptist RC Primary School,5,5,0,0,2013-10-24,52.500261,-1.742725
344998,St. John's Hotel,5,5,0,0,2014-06-06,52.416838,-1.780556
344999,St. Margarets C Of E Junior & Infant School,5,5,0,0,2011-04-06,52.443038,-1.802626
345000,St. Mary & St. Margarets C Of E Nursery School - St Mary and St Margar,4,5,5,10,2011-02-27,52.504167,-1.785705
345001,St. Mary & St. Margarets C Of E Primary School,5,5,0,0,2011-11-21,52.504167,-1.785705
345002,St. Patricks C Of E Junior & Infant School,5,5,0,5,2012-10-10,52.371488,-1.82104
345003,St. Peters Rc School - School Kitchen,2,15,5,5,2014-06-10,52.405445,-1.788873
345004,Starbucks,5,5,0,0,2014-07-30,52.413329,-1.779279
345005,Starbucks,5,5,0,0,2012-11-09,52.453266,-1.717158
345006,Starbucks,5,5,0,5,2013-01-25,52.393324,-1.820129
345007,"Starbucks, Piazza",5,0,0,0,2010-10-07,52.453266,-1.717158
345008,Station Approach Bed and Breakfast,4,0,5,10,2011-02-27,52.41533,-1.786988
345009,Station Cafe Bar,1,10,10,20,2014-01-10,52.372652,-1.753454
345010,Station Fish Bar,3,10,10,10,2014-08-20,52.404657,-1.843234
345011,Stonham Housing Association,5,5,5,5,2013-02-19,52.476457,-1.743202
345012,Stop & Shop,1,10,10,20,2014-02-24,52.471237,-1.728732
345013,Strawberry Bank Hotel & Restaurant,2,15,5,10,2013-01-29,52.436022,-1.646575
345014,Strawberry Fields,4,5,5,10,2013-07-05,52.406843,-1.824646
345015,Streetchef,AwaitingInspection,nan,nan,nan,,,
345016,Streetsbrook Childcare,1,0,5,20,2013-05-16,52.415372,-1.817275
345017,Streetsbrook Infant & Nursery School,5,0,0,0,2012-05-02,52.415372,-1.817275
345018,String Beans Bistro @ Ambleside,5,0,0,5,2014-10-27,52.371698,-1.842219
345019,Subway,5,5,5,5,2014-11-07,52.467334,-1.752808
345020,Subway,5,5,5,5,2014-07-16,52.41385,-1.827191
345021,Subway,4,10,5,5,2014-02-20,52.412413,-1.779402
345022,Subway,5,0,0,0,2014-02-25,52.479037,-1.739285
345023,Subway,5,5,0,0,2012-11-09,52.452175,-1.723508
345024,Subway @ Bickenhill Service Station,5,0,5,5,2014-11-07,52.445391,-1.721167
345025,"Subway, Atrium",5,0,0,0,2013-03-21,52.453266,-1.717158
345026,"Subway, Piazza",5,0,5,0,2011-11-11,52.453266,-1.717158
345027,Sue's Cakes Solihull,5,0,0,0,2013-03-14,,
345028,Sugar  Lips,5,0,0,0,2011-02-27,52.42635,-1.806421
345029,Sugar & Spice on Tour Ltd,AwaitingInspection,nan,nan,nan,,,
345030,Sugar Bliss Cake Company,3,10,10,10,2013-07-29,52.388604,-1.73441
345031,Sugar High cakes & Bakes,5,0,5,5,2013-02-15,,
345032,Sunny Mount,4,5,10,5,2011-02-27,52.389615,-1.748555
345033,Sunnys,1,10,5,20,2012-11-16,52.474263,-1.735177
345034,Sunrise Senior Living,5,5,0,0,2014-06-17,52.393623,-1.821788
345035,Sunrise Senior Living,5,0,0,0,2014-04-24,52.395959,-1.742699
345036,Super Snaxs,AwaitingInspection,nan,nan,nan,,,
345037,Swallows Meadow Court,5,0,0,5,2014-07-28,52.397507,-1.816291
345038,Sweetie Paradise,5,5,5,5,2014-05-01,,
345039,T & J Wide Range Snacks,5,5,0,5,2012-11-01,52.505877,-1.786434
345040,T G I Fridays,5,5,0,0,2014-08-21,52.412413,-1.779402
345041,T R W Conekt - Quartet Catering,5,0,5,0,2012-10-10,,
345042,T S Supermarket,1,10,10,20,2014-03-26,52.474061,-1.725255
345043,T&T Dynamite Event Catering,5,5,5,5,2011-03-09,52.509812,-1.752688
345044,Tandas Ltd,4,10,5,5,2014-11-18,52.494951,-1.756837
345045,Tanworth & Camp Hill Cricket Club,4,5,0,10,2011-02-27,52.383283,-1.839842
345046,Taste Buds,4,5,5,10,2009-03-19,,
345047,Tender Years,5,0,5,5,2014-03-18,52.437365,-1.797223
345048,Tesco,AwaitingInspection,nan,nan,nan,,52.39216,-1.649747
345049,Tesco Express,5,5,5,5,2012-11-16,52.421638,-1.775577
345050,Tesco Express,5,5,0,0,2011-06-23,52.385059,-1.836853
345051,Tesco Express,3,10,5,10,2013-01-11,52.506699,-1.76047
345052,Tesco Express,5,5,0,0,2011-06-20,52.373292,-1.754097
345053,Tesco Extra,4,10,5,5,2012-11-21,52.382899,-1.789774
345054,Tesco Extra - Filling Station,5,5,5,0,2014-11-19,52.382899,-1.789774
345055,Tesco Extra Customer Cafe,AwaitingInspection,nan,nan,nan,,52.382899,-1.789774
345056,Tesco Hobs Moat Express,5,5,0,0,2011-07-13,52.442989,-1.785001
345057,Tesco Stores,5,0,5,0,2012-07-25,52.419305,-1.832095
345058,Tesco Stores Ltd,5,5,5,5,2012-10-16,52.389508,-1.736271
345059,TGI Fridays,AwaitingInspection,nan,nan,nan,,52.453057,-1.720073
345060,Thai Village,3,10,10,10,2014-07-30,52.390012,-1.736665
345061,The Acres,3,10,10,10,2013-03-25,52.431429,-1.766673
345062,The Assembly Rooms,5,5,0,0,2012-01-10,52.414514,-1.778333
345063,The Barn Beefeater,5,5,0,0,2014-09-19,52.358349,-1.780933
345064,The Barns - B & B,5,5,5,5,2010-02-18,52.429448,-1.712163
345065,The Beeches,4,10,5,5,2014-10-14,52.424191,-1.701815
345066,The Bengal Brasserie,4,10,5,5,2014-03-25,52.390746,-1.649023
345067,The Big Little Cake Company,5,0,0,0,2014-12-02,,
345068,The Boat Inn,5,5,5,5,2014-03-31,52.42075,-1.737056
345069,The Bread Collection,3,10,10,10,2013-01-14,52.388604,-1.73441
345070,The Buddies Bar,5,5,5,5,2014-08-19,52.479343,-1.739254
345071,The Bulls head,3,5,10,10,2013-05-23,52.36699,-1.81934
345072,The Cabin,5,5,5,5,2012-09-05,52.393756,-1.734424
345073,The Cafe Saffron,3,10,10,10,2013-07-16,52.389298,-1.734979
345074,The Cake Artists,5,0,0,0,2014-07-08,52.414323,-1.776716
345075,The Cake Hut,5,5,5,5,2009-02-13,,
345076,The Cake Stand,5,0,0,0,2014-11-12,,
345077,The Cardamom Pod,5,0,0,0,2013-07-11,,
345078,The Centurion Public house,3,10,5,10,2014-04-14,52.486616,-1.739241
345079,The Chef,3,10,10,10,2012-02-28,52.500127,-1.760034
345080,The Chocolate Fix,5,5,5,5,2013-01-24,,
345081,The Classic Sweet Company,Exempt,nan,nan,nan,,,
345082,The Colebrook,5,5,0,5,2014-02-19,52.408615,-1.83856
345083,The Co-operative,5,5,5,5,2012-01-06,52.391359,-1.784855
345084,The Corner Shop,3,10,5,10,2013-03-11,52.425306,-1.70219
345085,The Crown At Olton Members Club,AwaitingInspection,nan,nan,nan,,52.441249,-1.808077
345086,The Cupcake factory,4,0,0,10,2012-02-06,,
345087,The Delhi,4,10,5,5,2014-08-12,52.414791,-1.777258
345088,The Farm,3,10,10,5,2012-10-11,52.391359,-1.784855
345089,The Farthings,5,5,5,5,2014-02-27,52.507218,-1.768187
345090,The Field House Ember Inn,5,5,5,5,2014-01-22,52.396939,-1.78812
345091,The Fish Bar,4,0,10,10,2014-02-12,52.392159,-1.649541
345092,The Fordbridge Social,5,5,5,5,2014-05-01,52.48371,-1.75522
345093,The Friendly Inn Residential Home,4,5,0,10,2014-11-03,52.474062,-1.749915
345094,The Gables Hotel and Restaurant,Exempt,nan,nan,nan,2015-01-21,52.443101,-1.750163
345095,The Glades Football Centre,1,10,5,20,2013-03-20,52.423194,-1.753305
345096,The Greenwood,2,15,10,10,2013-03-25,52.472071,-1.727682
345097,The Grove Residential Home,5,5,0,0,2014-12-04,52.418807,-1.775826
345098,The Harvester,1,10,10,20,2012-11-20,52.442328,-1.772662
345099,The Highwood,5,5,5,5,2014-03-19,52.437692,-1.788911
345100,The Hollies Guest House,5,5,0,5,2011-03-04,52.410758,-1.670754
345101,The Honey Club,5,0,0,5,2011-08-01,52.412905,-1.778326
345102,The Jade Wok,3,5,10,10,2013-02-20,52.414656,-1.781949
345103,The Kingfisher,3,10,10,10,2010-05-12,52.509004,-1.7534
345104,The Lazy Cow,3,10,5,10,2013-04-17,52.415132,-1.7768
345105,The Leaded Light,5,5,5,5,2011-09-09,52.432883,-1.799568
345106,The Little Cake Boutique,AwaitingInspection,nan,nan,nan,,,
345107,The Little Cakery,AwaitingInspection,nan,nan,nan,,,
345108,The Lloyds,5,5,5,5,2014-03-26,52.389599,-1.745014
345109,The Local Balti Takeaway,1,10,10,20,2012-10-16,52.500964,-1.74331
345110,The Lodge,2,15,10,10,2014-02-03,52.406594,-1.86094
345111,The Lyndon,4,10,5,5,2014-03-18,52.449025,-1.796979
345112,The Meriden Bar & Restaurant,5,5,5,0,2014-02-04,52.447314,-1.736265
345113,The Natural childcare Company,AwaitingInspection,nan,nan,nan,,52.406421,-1.825852
345114,The New Cornucopia,4,5,5,10,2010-03-12,52.429203,-1.797849
345115,The New Waterside,4,5,5,10,2014-02-28,52.467337,-1.721793
345116,The Oaks,3,10,5,10,2011-02-27,52.381585,-1.810363
345117,The Officers Mess Ltd,5,0,5,0,2014-12-03,52.384435,-1.658153
345118,The Olton Golf Club Ltd,4,5,10,5,2014-02-20,52.427139,-1.794432
345119,The Parkridge Centre - Dragonfly Tea Rooms,5,5,0,0,2012-01-31,52.406954,-1.760099
345120,The Pear Tree Cake,5,0,5,5,2010-02-04,,
345121,The Picnic Basket,3,5,10,10,2012-08-07,52.467897,-1.755263
345122,The Pines,5,5,0,5,2011-02-27,52.402395,-1.820254
345123,The Plough,4,10,5,0,2014-09-19,52.386134,-1.799382
345124,The Plume Of Feathers,4,10,5,0,2014-02-18,52.40622,-1.823266
345125,The Point Birmingham International,4,0,5,10,2012-03-21,52.452175,-1.723508
345126,The Poison Chalice,5,5,5,5,2012-01-12,52.385059,-1.836853
345127,The Priory Nursing & Residential Home,4,10,5,0,2014-11-24,52.391661,-1.783105
345128,The Pudding Bowl,AwaitingInspection,nan,nan,nan,,,
345129,The Pump House,AwaitingInspection,nan,nan,nan,,,
345130,The Railway,4,10,5,5,2014-03-12,52.366336,-1.759716
345131,The Red Lion,5,5,0,0,2012-06-18,52.387678,-1.734107
345132,The Royal British Legion,4,0,0,10,2014-05-01,52.395509,-1.642387
345133,The Royal British Legion,4,5,5,10,2014-03-07,52.415295,-1.772933
345134,The Royal British Legion,4,5,5,10,2010-09-01,52.412997,-1.828076
345135,The Royal British Legion,4,5,5,10,2011-02-27,52.487039,-1.735365
345136,The Sadlers,3,10,10,5,2013-01-21,52.414791,-1.777258
345137,The Sandwich Board,5,5,5,5,2014-01-14,,
345138,The Saxon,3,10,5,10,2015-01-13,52.37833,-1.815357
345139,The Solihull Fryer,AwaitingInspection,nan,nan,nan,,52.414901,-1.778272
345140,The Spice Club,1,10,10,20,2013-10-09,52.415132,-1.7768
345141,The Tree of Health,AwaitingInspection,nan,nan,nan,,,
345142,The Tuxfords,5,0,5,5,2014-10-07,52.468156,-1.737554
345143,The Vaults,3,10,5,10,2012-04-24,52.389443,-1.735449
345144,"The View Wilsonvale Catering Management, Lafarge Tarmac Ltd",5,0,5,5,2014-05-06,52.447699,-1.723948
345145,The Vintage tea Company,5,0,0,0,2013-06-28,,
345146,The Waffle Wagon,4,5,5,10,2013-06-17,52.379798,-1.75719
345147,The White House  Bed and Breakfast,5,5,5,5,2009-10-29,52.464326,-1.745981
345148,Theobroma,5,0,5,5,2014-04-10,52.413465,-1.779558
345149,Theos Food,1,10,10,20,2014-03-17,52.423905,-1.77133
345150,Thorntons,5,0,0,0,2011-06-06,52.413407,-1.777427
345151,Tidbury Green Golf Club,2,15,5,10,2014-04-28,52.38574,-1.856157
345152,Tidbury Green Primary School - A.I.P.  (ALLIANCE IN PARTNERSHIP),5,0,0,5,2014-09-29,52.380682,-1.851193
345153,Tidbury Green Primary School - Flamingos After School Club,5,5,0,5,2011-02-27,52.380682,-1.851193
345154,Tidbury Green Private Nursery,5,5,0,0,2014-07-29,52.388596,-1.85362
345155,Timberley Service Station,5,5,5,0,2009-03-12,52.500127,-1.760034
345156,Tiny Teddies Day Nursery Ltd,AwaitingInspection,nan,nan,nan,,52.387008,-1.646672
345157,Tipperary Inn,1,5,15,20,2014-03-25,52.365147,-1.644482
345158,Toby Carvery,4,10,5,5,2014-02-27,52.503394,-1.775662
345159,Toby Indian,1,5,10,20,2014-03-18,52.497806,-1.75062
345160,Toby Jug,3,10,5,10,2013-02-19,52.497806,-1.75062
345161,Tom Li Cantonese Take Away,3,5,10,10,2012-11-26,52.389508,-1.736271
345162,Toms Butchers,5,5,5,5,2014-07-08,52.437736,-1.648577
345163,Top Shop Limited,1,10,5,20,2014-12-19,52.490708,-1.756993
345164,Tower Deck Bar,5,0,0,0,2010-10-07,52.453266,-1.717158
345165,"Tower Deck Restaurant and Finishing Kitchen, Arena",5,0,0,0,2012-11-01,52.453266,-1.717158
345166,Tracey's Diner,4,5,10,5,2014-03-18,52.44857,-1.778809
345167,Travelodge,5,0,0,0,2011-08-26,52.447392,-1.75186
345168,Travelodge,5,5,5,5,2011-04-06,52.503394,-1.775662
345169,Tree C's Catering; St. Annes Catholic Community Centre,5,5,0,0,2012-10-02,52.479572,-1.745643
345170,Tri Star House Hotel,4,0,5,10,2012-06-19,52.446057,-1.745512
345171,Triple Crown Centre,4,5,5,10,2011-02-27,52.425498,-1.777278
345172,Tudor Court Hotel,5,0,5,5,2011-02-27,52.43513,-1.810428
345173,Tudor Grange Academy,5,5,5,5,2013-03-05,52.404553,-1.793037
345174,Tudor Grange Primary Acadamy  - St James C of E School,5,0,0,5,2014-09-23,52.409005,-1.827901
345175,Tug's,3,10,10,10,2014-02-11,52.419305,-1.832095
345176,Tuk Tuk,4,5,5,10,2008-09-24,,
345177,Ulverley Junior & Infant School,4,10,5,5,2014-02-14,52.436247,-1.785108
345178,Ulverley Junior & Infant School - Fun Factory (Wrap Around Holiday/Aft,5,0,5,0,2015-01-07,52.436247,-1.785108
345179,Umami,5,5,5,0,2014-06-05,,
345180,Under 5's,5,0,0,5,2011-06-08,52.351086,-1.776506
345181,Upper Crust T1 landside Airport,5,5,0,0,2012-08-01,52.447314,-1.736265
345182,V&S Catering,5,5,5,0,2013-01-28,52.447918,-1.80718
345183,Valley Infant School,5,5,5,5,2012-10-19,52.447287,-1.770797
345184,Valley Spice,3,10,10,10,2011-10-06,52.506649,-1.757863
345185,Vernon James Butchers,5,0,0,5,2014-10-09,52.383185,-1.755981
345186,Verve Grill & Victory Pub: The Village Hotel,5,5,0,5,2013-01-25,52.393324,-1.820129
345187,Vichag Foods,AwaitingInspection,nan,nan,nan,,,
345188,Victorian Jackets of Solihull,5,5,5,5,2014-01-15,52.413282,-1.777824
345189,Village Stores,3,10,10,5,2010-05-24,52.425306,-1.70219
345190,Viola,1,10,10,20,2014-11-25,52.390012,-1.736665
345191,Virgin Active Club Lounge,5,5,0,0,2014-03-28,52.372723,-1.800471
345192,Wadlee Hughes Butcher,5,5,5,5,2012-08-07,52.421035,-1.765801
345193,Wagamama,5,0,0,0,2010-08-16,52.412413,-1.779402
345194,Walter Smith Butchers,5,5,0,0,2014-07-17,52.389508,-1.736271
345195,Ward 12,5,5,5,0,2014-10-27,52.417132,-1.774379
345196,Ward 15 And 16,5,5,5,0,2014-10-27,52.417132,-1.774379
345197,Ward 17,5,5,5,0,2014-10-27,52.417132,-1.774379
345198,Ward 18 And 19,5,5,5,0,2014-10-27,52.417132,-1.774379
345199,Ward 8 And 9,5,5,5,0,2014-10-27,52.417132,-1.774379
345200,Warden Services,5,5,5,5,2014-05-01,52.40617,-1.819504
345201,Ware Transport (Bham) Ltd,AwaitingInspection,nan,nan,nan,,52.4478,-1.75333
345202,Warstock Post Office,2,15,10,10,2012-11-29,52.406855,-1.868863
345203,WDF Catering,4,0,10,5,2012-10-17,52.434943,-1.664999
345204,Welcome,3,10,10,10,2010-07-21,52.478799,-1.737078
345205,Wellies Private Day Nursery,4,10,5,5,2014-11-17,52.467157,-1.749659
345206,West Cornwall Pasty Company,5,5,0,0,2012-08-29,52.413329,-1.779279
345207,West Midlands Bridge Club,5,5,5,5,2013-01-10,52.413501,-1.76565
345208,West Midlands Golf Club,3,10,10,5,2014-05-09,52.412544,-1.686251
345209,Westside Bar,5,0,0,0,2010-10-07,52.453266,-1.717158
345210,Westside Restaurant and Kitchen,5,0,0,0,2012-04-19,52.453266,-1.717158
345211,Wetherspoons T1 Airside Departure Lounge,5,5,5,0,2014-04-16,52.447314,-1.736265
345212,"Wetherspoons, Piazza",5,0,0,5,2011-09-13,52.453266,-1.717158
345213,"Wetherspoons, The Atrium",5,5,0,0,2013-03-21,52.453266,-1.717158
345214,WH Smith IDL Airside Airport,5,5,0,0,2011-07-01,52.447314,-1.736265
345215,WH smith T1 Airside gate 48 Int. Pier Airport,5,5,5,5,2010-11-26,52.447314,-1.736265
345216,WH Smith TI Food Village Airport Landside,5,5,0,5,2010-11-26,52.447314,-1.736265
345217,Wharf Tavern,5,5,5,5,2014-03-25,52.351106,-1.777769
345218,Wheatcroft Food Stores,3,5,10,10,2014-09-04,52.472713,-1.729224
345219,White Horse,4,10,5,5,2015-01-13,52.387009,-1.646672
345220,White House Farm (Food) Ltd,5,0,0,5,2013-07-05,,
345221,White Lion,3,10,10,10,2014-09-30,52.425306,-1.70219
345222,White Swan,5,5,5,0,2012-11-07,52.414492,-1.780582
345223,Whitesmore Neighbourhood Nursery,5,5,0,0,2014-12-11,52.474678,-1.752458
345224,Widney Junior School,5,5,5,5,2013-01-30,52.400478,-1.802022
345225,Widney Manor Golf Club,4,10,5,5,2014-03-07,52.395399,-1.777003
345226,Wilkinson,4,5,5,10,2015-01-20,52.479794,-1.74034
345227,Willow Grange - 3A Care Solihull Ltd,5,0,5,5,2015-02-06,52.426384,-1.811083
345228,Willow House Bed and Breakfast,5,0,0,0,2011-02-27,52.390515,-1.659193
345229,Willow Way Convenience Store,5,5,5,5,2009-03-03,52.475713,-1.740115
345230,Wilson Vale Catering,5,0,0,0,2012-10-10,52.399669,-1.807669
345231,Wilsons Arms Toby Carvery,5,5,5,0,2012-12-14,52.390813,-1.736998
345232,Windmills Pre School,5,5,0,5,2011-10-13,52.379109,-1.75878
345233,Windward Way Sheltered Housing,5,5,5,5,2011-02-27,52.503039,-1.755511
345234,Windy Arbor Junior School,5,0,5,5,2012-10-19,52.48069,-1.726671
345235,Wise Owls Nursery,5,0,0,0,2014-02-27,52.501936,-1.743938
345236,Wongs (HZ Catering),AwaitingInspection,nan,nan,nan,,52.443834,-1.785056
345237,Woodbourne Social Club,4,5,5,10,2014-05-01,52.372401,-1.850677
345238,Woodlands Campus Solihull College - Redcliffe Catering Ltd,5,5,5,5,2012-11-08,52.496207,-1.738933
345239,Woodlands Infant School,5,0,0,0,2010-07-01,52.399276,-1.826454
345240,Woodmans Rest,5,0,0,0,2014-03-04,52.404283,-1.81469
345241,World Duty Free T1 Airside Airport,5,0,5,5,2014-06-26,52.447314,-1.736265
345242,Wychall Wanderers,3,10,5,10,2011-02-27,52.390307,-1.848413
345243,Wyndley Garden Centre - Gardeners Retreat,4,5,5,10,2014-12-17,52.379349,-1.732292
345244,Ye Olde Saracens Head,4,10,0,5,2014-03-25,52.39066,-1.672138
345245,Yew Tree Primary School,5,5,0,0,2013-04-19,52.422405,-1.763176
345246,Yo Yo Noodle,5,0,5,5,2014-10-24,52.413282,-1.777824
345247,Yorkswood Junior & Infant School,5,5,0,0,2012-09-20,52.492594,-1.756113
345248,Your Lounge+ (Staff Canteen); Marks and Spencer,5,5,0,0,2014-08-18,52.414323,-1.776716
345249,Zengz Indian Fine Dining,1,5,10,20,2014-03-27,52.448534,-1.778751
345250,Zizzis,5,5,0,0,2014-10-22,52.414534,-1.779332
