,addressline1,addressline2,addressline3,addressline4,businessname,businesstype,businesstypeid,confidenceinmanagement,extractdate,fhrsid,hygiene,itemcount,latitude,localauthoritybusinessid,localauthoritycode,localauthorityemailaddress,localauthorityname,localauthoritywebsite,longitude,postcode,ratingdate,ratingkey,ratingvalue,returncode,schemetype,structural
343913,,545 Stratford Road,Shirley,"Solihull, West Midlands",7 Day Catering Ltd.; Sainsburys,Restaurant/Cafe/Canteen,1,0,,523247,0,,52.40200000000000,105078,426,pprotection@solihull.gov.uk,Solihull,http://www.solihull.gov.uk/foodhygieneratingscheme/default.htm,-1.82071100000000,B90 4AJ,2010-03-10,fhrs_5_en-GB,5,,FHRS,5
343914,J Sainsbury Plc,Poplar Way,Solihull,West Midlands,7 Day Catering Ltd.; Sainsburys,Restaurant/Cafe/Canteen,1,5,,523248,5,,52.41439600000000,105079,426,pprotection@solihull.gov.uk,Solihull,http://www.solihull.gov.uk/foodhygieneratingscheme/default.htm,-1.77768600000000,B91 3BX,2011-10-06,fhrs_5_en-GB,5,,FHRS,5
343915,,7 Downing Close,Knowle,"Solihull, West Midlands",7 Downing Close,Hospitals/Childcare/Caring Premises,5,5,,523736,5,,52.37980800000000,12501,426,pprotection@solihull.gov.uk,Solihull,http://www.solihull.gov.uk/foodhygieneratingscheme/default.htm,-1.74477600000000,B93 0QA,2011-02-27,fhrs_5_en-GB,5,,FHRS,5
343916,,8 Downing Close,Knowle,"Solihull, West Midlands",8 Downing Close,Hospitals/Childcare/Caring Premises,5,0,,523743,0,,52.37980800000000,13317,426,pprotection@solihull.gov.uk,Solihull,http://www.solihull.gov.uk/foodhygieneratingscheme/default.htm,-1.74477600000000,B93 0QA,2011-02-27,fhrs_5_en-GB,5,,FHRS,0
343917,Kwik Save,Chestnut Walk,Chelmsley Wood,"Solihull, Solihull",99p Stores,Retailers - supermarkets/hypermarkets,7840,10,,523570,10,,52.48034100000000,109252,426,pprotection@solihull.gov.uk,Solihull,http://www.solihull.gov.uk/foodhygieneratingscheme/default.htm,-1.73926300000000,B37 5TT,2014-06-03,fhrs_3_en-GB,3,,FHRS,10
343918,,,,,A1 Bakehouse,Restaurant/Cafe/Canteen,1,5,,523544,5,,,109128,426,pprotection@solihull.gov.uk,Solihull,http://www.solihull.gov.uk/foodhygieneratingscheme/default.htm,,,2011-09-05,fhrs_5_en-GB,5,,FHRS,5
343919,,1 Cornyx Lane,Solihull,,Aani News & Wine,Retailers - other,4613,,,714971,,,52.42390500000000,110278,426,pprotection@solihull.gov.uk,Solihull,http://www.solihull.gov.uk/foodhygieneratingscheme/default.htm,-1.77133000000000,B91 2SJ,,fhrs_awaitinginspection_en-GB,AwaitingInspection,,FHRS,
343920,Hampton House,17-19 Hampton Lane,Solihull,,Abbeyfield,Hospitals/Childcare/Caring Premises,5,0,,639528,0,,,110020,426,pprotection@solihull.gov.uk,Solihull,http://www.solihull.gov.uk/foodhygieneratingscheme/default.htm,,B91 2QT,2014-12-02,fhrs_5_en-GB,5,,FHRS,0
343921,,1a Ashleigh Road,Solihull,West Midlands,Abbeyfield Society,Hospitals/Childcare/Caring Premises,5,5,,523952,5,,52.41836800000000,38330,426,pprotection@solihull.gov.uk,Solihull,http://www.solihull.gov.uk/foodhygieneratingscheme/default.htm,-1.78643000000000,B91 1AE,2011-08-12,fhrs_5_en-GB,5,,FHRS,5
343922,Abbeyfield House,1 Ashleigh Road,Solihull,West Midlands,Abbeyfield Society,Hospitals/Childcare/Caring Premises,5,5,,524489,5,,52.41836800000000,92427,426,pprotection@solihull.gov.uk,Solihull,http://www.solihull.gov.uk/foodhygieneratingscheme/default.htm,-1.78643000000000,B91 1AE,2011-08-12,fhrs_5_en-GB,5,,FHRS,5
343923,Eversfield School,647 Warwick Road,Solihull,,Accent Catering,School/college/university,7845,0,,629258,0,,52.41683800000000,109970,426,pprotection@solihull.gov.uk,Solihull,http://www.solihull.gov.uk/foodhygieneratingscheme/default.htm,-1.78055600000000,B91 1AT,2014-05-07,fhrs_5_en-GB,5,,FHRS,5
343924,,1a West Avenue,Castle Bromwich,"Solihull, Birmingham, West Mid",Accord Housing,Hospitals/Childcare/Caring Premises,5,5,,524553,10,,52.50603700000000,93478,426,pprotection@solihull.gov.uk,Solihull,http://www.solihull.gov.uk/foodhygieneratingscheme/default.htm,-1.77121400000000,B36 0EB,2014-05-01,fhrs_4_en-GB,4,,FHRS,5
343925,Our Lady Of Compassion Catholic Primary School,Kineton Green Road,Olton,Solihull,Ace Childcare; Our Lady of Compassion R. C. School,Hospitals/Childcare/Caring Premises,5,10,,523656,10,,52.43115100000000,109546,426,pprotection@solihull.gov.uk,Solihull,http://www.solihull.gov.uk/foodhygieneratingscheme/default.htm,-1.81225400000000,B92 7EG,2013-06-12,fhrs_3_en-GB,3,,FHRS,5
343926,,99 Buryfield Road,Solihull,West Midlands,Acers Bed and breakfast,Hotel/bed & breakfast/guest house,7842,10,,524744,5,,52.42503000000000,97670,426,pprotection@solihull.gov.uk,Solihull,http://www.solihull.gov.uk/foodhygieneratingscheme/default.htm,-1.78669200000000,B91 2DQ,2011-02-27,fhrs_4_en-GB,4,,FHRS,0
343927,,35 Hampton Road,Knowle,"Solihull, West Midlands",Achill Guest House,Hotel/bed & breakfast/guest house,7842,5,,523871,0,,52.39208700000000,28827,426,pprotection@solihull.gov.uk,Solihull,http://www.solihull.gov.uk/foodhygieneratingscheme/default.htm,-1.73581500000000,B93 0NR,2009-12-17,fhrs_5_en-GB,5,,FHRS,0
343928,Solihull A F A Club,Tanworth Lane,Shirley,"Solihull, West Midlands",Active Angels Day Nursery,Hospitals/Childcare/Caring Premises,5,0,,524778,0,,52.39246000000000,98104,426,pprotection@solihull.gov.uk,Solihull,http://www.solihull.gov.uk/foodhygieneratingscheme/default.htm,-1.82593700000000,B90 4BY,2014-02-17,fhrs_5_en-GB,5,,FHRS,0
343929,,,,,Adaptive Catering,Restaurant/Cafe/Canteen,1,0,,524592,0,,,94244,426,pprotection@solihull.gov.uk,Solihull,http://www.solihull.gov.uk/foodhygieneratingscheme/default.htm,,,2011-09-02,fhrs_5_en-GB,5,,FHRS,5
343930,,,,,Aetco,Restaurant/Cafe/Canteen,1,,,682750,,,,110093,426,pprotection@solihull.gov.uk,Solihull,http://www.solihull.gov.uk/foodhygieneratingscheme/default.htm,,,,fhrs_awaitinginspection_en-GB,AwaitingInspection,,FHRS,
343931,Unit 47,2-8 Greenwood Way,Chelmsley Wood,Birmingham,Afrique,Retailers - other,4613,,,693395,,,52.47934300000000,110191,426,pprotection@solihull.gov.uk,Solihull,http://www.solihull.gov.uk/foodhygieneratingscheme/default.htm,-1.73925400000000,B37 5TL,,fhrs_awaitinginspection_en-GB,AwaitingInspection,,FHRS,
343932,,884 Old Lode Lane,Elmdon,"Solihull, West Midlands",Agrabad Tandoori,Restaurant/Cafe/Canteen,1,10,,524374,10,,52.44775700000000,90298,426,pprotection@solihull.gov.uk,Solihull,http://www.solihull.gov.uk/foodhygieneratingscheme/default.htm,-1.77698900000000,B92 8LW,2014-02-25,fhrs_3_en-GB,3,,FHRS,10
343933,The Arena,National Exhibition Centre,Bickenhill,"Solihull, Birmingham, West Mid",Air Restaurant,Restaurant/Cafe/Canteen,1,0,,524287,0,,52.45326600000000,88892,426,pprotection@solihull.gov.uk,Solihull,http://www.solihull.gov.uk/foodhygieneratingscheme/default.htm,-1.71715800000000,B40 1NT,2012-04-19,fhrs_5_en-GB,5,,FHRS,5
343934,The Arena,National Exhibition Centre,Bickenhill,"Solihull, Birmingham, West Mid",Air Restaurant; LG Arena,Restaurant/Cafe/Canteen,1,0,,524316,0,,52.45326600000000,89420,426,pprotection@solihull.gov.uk,Solihull,http://www.solihull.gov.uk/foodhygieneratingscheme/default.htm,-1.71715800000000,B40 1NT,2012-04-19,fhrs_5_en-GB,5,,FHRS,0
343935,,,,,AJ's Classic Cakes,Restaurant/Cafe/Canteen,1,,,651016,,,,110051,426,pprotection@solihull.gov.uk,Solihull,http://www.solihull.gov.uk/foodhygieneratingscheme/default.htm,,,,fhrs_awaitinginspection_en-GB,AwaitingInspection,,FHRS,
343936,Dickens Heath Village Nursery,Tythe Barn Lane,Shirley,"Solihull, West Midlands",Akamba Nurseries,Restaurant/Cafe/Canteen,1,10,,524755,5,,52.39030700000000,97797,426,pprotection@solihull.gov.uk,Solihull,http://www.solihull.gov.uk/foodhygieneratingscheme/default.htm,-1.84841300000000,B90 1PH,2014-03-04,fhrs_3_en-GB,3,,FHRS,10
343937,,33 Warwick Road,Solihull,,Al basha,Restaurant/Cafe/Canteen,1,20,,523653,20,,52.44210800000000,109533,426,pprotection@solihull.gov.uk,Solihull,http://www.solihull.gov.uk/foodhygieneratingscheme/default.htm,-1.81108900000000,B92 7HS,2013-10-21,fhrs_0_en-GB,0,,FHRS,15
343938,,41 The Parade,Kingshurst,"Solihull, Birmingham, West Mid",Alan Warwick Butchers,Retailers - other,4613,10,,524182,10,,52.49420900000000,76767,426,pprotection@solihull.gov.uk,Solihull,http://www.solihull.gov.uk/foodhygieneratingscheme/default.htm,-1.75041900000000,B37 6BB,2013-11-13,fhrs_3_en-GB,3,,FHRS,5
343939,Alderbrook School,Blossomfield Road,Solihull,West Midlands,Alderbrook School,School/college/university,7845,0,,524145,0,,52.40618800000000,69248,426,pprotection@solihull.gov.uk,Solihull,http://www.solihull.gov.uk/foodhygieneratingscheme/default.htm,-1.79732200000000,B91 1SN,2012-07-05,fhrs_5_en-GB,5,,FHRS,5
343940,,240-244 Stratford Road,Shirley,"Solihull, West Midlands",Aldi Stores Ltd,Retailers - supermarkets/hypermarkets,7840,5,,523919,5,,52.41029800000000,34550,426,pprotection@solihull.gov.uk,Solihull,http://www.solihull.gov.uk/foodhygieneratingscheme/default.htm,-1.82674900000000,B90 3AE,2011-06-27,fhrs_5_en-GB,5,,FHRS,5
343941,,284 Chester Road,Solihull,"Birmingham, West Midlands",Aldi Stores Ltd,Retailers - supermarkets/hypermarkets,7840,0,,523845,0,,52.50012700000000,2562,426,pprotection@solihull.gov.uk,Solihull,http://www.solihull.gov.uk/foodhygieneratingscheme/default.htm,-1.76003400000000,B36 0LB,2013-11-12,fhrs_5_en-GB,5,,FHRS,5
343942,Sir Josiah Mason Trust,Hillborough Road,Olton,,Alexandra Court,Hospitals/Childcare/Caring Premises,5,0,,691490,0,,52.44272500000000,110133,426,pprotection@solihull.gov.uk,Solihull,http://www.solihull.gov.uk/foodhygieneratingscheme/default.htm,-1.80924800000000,B27 6PF,2014-06-27,fhrs_5_en-GB,5,,FHRS,5
343943,Sir Josiah Mason Trust,Hillborough Road,,,Alexandra House,Hospitals/Childcare/Caring Premises,5,0,,691489,0,,52.44272500000000,110132,426,pprotection@solihull.gov.uk,Solihull,http://www.solihull.gov.uk/foodhygieneratingscheme/default.htm,-1.80924800000000,B27 6PF,2014-06-27,fhrs_5_en-GB,5,,FHRS,5
343944,"Terminal 2, Birmingham International Airport",Airport Way,Birmingham Airport,Birmingham,All Bar One,Pub/bar/nightclub,7843,5,,691499,0,,52.45129400000000,110146,426,pprotection@solihull.gov.uk,Solihull,http://www.solihull.gov.uk/foodhygieneratingscheme/default.htm,-1.73107600000000,B26 3QJ,2014-04-28,fhrs_5_en-GB,5,,FHRS,5
343945,"Terminal 1, Birmingham International Airport",Airport Way,Birmingham Airport,Birmingham,All Bar One - Landside T1,Pub/bar/nightclub,7843,5,,682768,5,,52.44731400000000,110126,426,pprotection@solihull.gov.uk,Solihull,http://www.solihull.gov.uk/foodhygieneratingscheme/default.htm,-1.73626500000000,B26 3QY,2014-10-14,fhrs_5_en-GB,5,,FHRS,5
343946,,,,,Allergy Free Cakes,Restaurant/Cafe/Canteen,1,5,,523452,0,,,108323,426,pprotection@solihull.gov.uk,Solihull,http://www.solihull.gov.uk/foodhygieneratingscheme/default.htm,,,2011-06-03,fhrs_5_en-GB,5,,FHRS,0
343947,Catering Commissary,Commissary Road,Birmingham Airport,"Solihull, Birmingham, West Mid",Alpha LSG Ltd- B'ham North Staff Canteen,Restaurant/Cafe/Canteen,1,5,,524261,5,,52.44739200000000,88216,426,pprotection@solihull.gov.uk,Solihull,http://www.solihull.gov.uk/foodhygieneratingscheme/default.htm,-1.75186000000000,B26 3QW,2010-04-13,fhrs_4_en-GB,4,,FHRS,10
343948,Solihull Indoor Bowls Club,Brick Kiln Lane,Solihull,,Andy Easter Catering (Solihull Indoor Bowls Club),Restaurant/Cafe/Canteen,1,,,534777,,,52.40029100000000,109771,426,pprotection@solihull.gov.uk,Solihull,http://www.solihull.gov.uk/foodhygieneratingscheme/default.htm,-1.79787800000000,B91 3LE,,fhrs_awaitinginspection_en-GB,AwaitingInspection,,FHRS,
343949,,1 Radford Rise,Solihull,West Midlands,Anthony's B&B,Hotel/bed & breakfast/guest house,7842,5,,523784,0,,52.41778700000000,18086,426,pprotection@solihull.gov.uk,Solihull,http://www.solihull.gov.uk/foodhygieneratingscheme/default.htm,-1.76461300000000,B91 2QH,2010-11-02,fhrs_5_en-GB,5,,FHRS,0
343950,,,,,Any Occasion Cakes,Restaurant/Cafe/Canteen,1,5,,629268,5,,,109988,426,pprotection@solihull.gov.uk,Solihull,http://www.solihull.gov.uk/foodhygieneratingscheme/default.htm,,,2014-09-04,fhrs_5_en-GB,5,,FHRS,5
343951,,91 Grange Road,Olton,"Solihull, West Midlands",Appletreewick Bed and Breakfast,Hotel/bed & breakfast/guest house,7842,10,,524783,5,,52.42787000000000,98279,426,pprotection@solihull.gov.uk,Solihull,http://www.solihull.gov.uk/foodhygieneratingscheme/default.htm,-1.80710600000000,B91 1BZ,2011-02-27,fhrs_4_en-GB,4,,FHRS,5
343952,,16 Poplar Road,Solihull,West Midlands,Apres,Restaurant/Cafe/Canteen,1,5,,524800,10,,52.41453400000000,98549,426,pprotection@solihull.gov.uk,Solihull,http://www.solihull.gov.uk/foodhygieneratingscheme/default.htm,-1.77933200000000,B91 3AB,2014-03-28,fhrs_4_en-GB,4,,FHRS,5
343953,,25 Arbor Way,Chelmsley Wood,"Solihull, Birmingham, West Mid",Arbor Way Convenience Store,Retailers - other,4613,5,,524795,5,,52.47677000000000,98506,426,pprotection@solihull.gov.uk,Solihull,http://www.solihull.gov.uk/foodhygieneratingscheme/default.htm,-1.73427800000000,B37 7LA,2011-01-26,fhrs_5_en-GB,5,,FHRS,5
343954,Arden School,Station Road,Knowle,"Solihull, West Midlands",Arden Academy,School/college/university,7845,5,,524125,5,,52.38354000000000,66853,426,pprotection@solihull.gov.uk,Solihull,http://www.solihull.gov.uk/foodhygieneratingscheme/default.htm,-1.74127300000000,B93 0PT,2014-02-13,fhrs_5_en-GB,5,,FHRS,5
343955,The Brickworks,Coventry Road,Solihull,,Arden Brickworks - Staff restaurant,Restaurant/Cafe/Canteen,1,10,,682751,10,,52.44468500000000,110094,426,pprotection@solihull.gov.uk,Solihull,http://www.solihull.gov.uk/foodhygieneratingscheme/default.htm,-1.69698400000000,B92 0DY,2014-09-04,fhrs_3_en-GB,3,,FHRS,10
343956,Sports Ground,239-293 Lugtrout Lane,Solihull,West Midlands,Arden Forest Cricket Club,Pub/bar/nightclub,7843,10,,524283,5,,52.42319400000000,88813,426,pprotection@solihull.gov.uk,Solihull,http://www.solihull.gov.uk/foodhygieneratingscheme/default.htm,-1.75330500000000,B91 2RX,2010-07-28,fhrs_4_en-GB,4,,FHRS,5
343957,Arden Hotel And Leisure Club L,Coventry Road,Solihull,"Birmingham, West Midlands",Arden Hotel & Leisure Club Ltd,Hotel/bed & breakfast/guest house,7842,5,,524505,5,,52.44539100000000,92688,426,pprotection@solihull.gov.uk,Solihull,http://www.solihull.gov.uk/foodhygieneratingscheme/default.htm,-1.72116700000000,B92 0EH,2014-06-05,fhrs_5_en-GB,5,,FHRS,5
343958,,74 Maple Leaf Drive,Marston Green,"Solihull, West Midlands",Arden House Hotel,Hotel/bed & breakfast/guest house,7842,10,,523547,5,,52.46957100000000,109144,426,pprotection@solihull.gov.uk,Solihull,http://www.solihull.gov.uk/foodhygieneratingscheme/default.htm,-1.73926800000000,B37 7JB,2011-10-14,fhrs_4_en-GB,4,,FHRS,5
343959,Ardenlea Court Nursing Home,39-41 Lode Lane,Solihull,West Midlands,Ardenlea Court,Hospitals/Childcare/Caring Premises,5,0,,523793,5,,52.41923100000000,20172,426,pprotection@solihull.gov.uk,Solihull,http://www.solihull.gov.uk/foodhygieneratingscheme/default.htm,-1.77648600000000,B91 2AF,2014-02-19,fhrs_5_en-GB,5,,FHRS,5
343960,Ardenlea Grove Nursing Home,19-21 Lode Lane,Solihull,West Midlands,Ardenlea Grove,Hospitals/Childcare/Caring Premises,5,0,,524467,5,,52.41693200000000,92109,426,pprotection@solihull.gov.uk,Solihull,http://www.solihull.gov.uk/foodhygieneratingscheme/default.htm,-1.77770300000000,B91 2AB,2014-02-19,fhrs_5_en-GB,5,,FHRS,5
343961,,8 Arran Way,Smiths Wood,"Solihull, Birmingham, West Mid",Arran Way Chip Shop,Takeaway/sandwich shop,7844,20,,524194,10,,52.50096400000000,78812,426,pprotection@solihull.gov.uk,Solihull,http://www.solihull.gov.uk/foodhygieneratingscheme/default.htm,-1.74331000000000,B36 0QG,2014-03-13,fhrs_1_en-GB,1,,FHRS,10
343962,Asda Superstore,341 Bosworth Drive,Fordbridge,"Solihull, Birmingham, West Mid",ASDA,Retailers - supermarkets/hypermarkets,7840,5,,523240,5,,52.47932800000000,104950,426,pprotection@solihull.gov.uk,Solihull,http://www.solihull.gov.uk/foodhygieneratingscheme/default.htm,-1.74088800000000,B37 5EX,2012-11-21,fhrs_5_en-GB,5,,FHRS,5
343963,Street Record,Haslucks Green Road,Shirley,,Asda,Retailers - supermarkets/hypermarkets,7840,,,629256,,,52.40861500000000,109966,426,pprotection@solihull.gov.uk,Solihull,http://www.solihull.gov.uk/foodhygieneratingscheme/default.htm,-1.83856000000000,B90 2LL,,fhrs_awaitinginspection_en-GB,AwaitingInspection,,FHRS,
343964,"Asda, Parkgate",Stratford Road,Shirley,Solihull,Asda Stores Limited,Retailers - supermarkets/hypermarkets,7840,5,,668870,0,,,110080,426,pprotection@solihull.gov.uk,Solihull,http://www.solihull.gov.uk/foodhygieneratingscheme/default.htm,,B90 3GG,2014-08-20,fhrs_4_en-GB,4,,FHRS,10
343965,,373 Stratford Road,Shirley,"Solihull, West Midlands",Ashiana,Takeaway/sandwich shop,7844,10,,523325,5,,52.40622000000000,105981,426,pprotection@solihull.gov.uk,Solihull,http://www.solihull.gov.uk/foodhygieneratingscheme/default.htm,-1.82326600000000,B90 3BW,2014-05-12,fhrs_3_en-GB,3,,FHRS,10
343966,,21 Mill Lane Arcade,Solihull,West Midlands,Ask Italian,Restaurant/Cafe/Canteen,1,0,,523435,5,,52.41241300000000,108216,426,pprotection@solihull.gov.uk,Solihull,http://www.solihull.gov.uk/foodhygieneratingscheme/default.htm,-1.77940200000000,B91 3GS,2013-01-15,fhrs_5_en-GB,5,,FHRS,5
343967,Grace Academy,Chapelhouse Road,Fordbridge,"Solihull, West Midlands",Aspens Services ltd,Restaurant/Cafe/Canteen,1,5,,523525,5,,52.47467800000000,108952,426,pprotection@solihull.gov.uk,Solihull,http://www.solihull.gov.uk/foodhygieneratingscheme/default.htm,-1.75245800000000,B37 5JS,2014-02-26,fhrs_5_en-GB,5,,FHRS,5
343968,,29 Hirdemonsway,Dickens Heath,Solihull,Aspire cakes,Restaurant/Cafe/Canteen,1,0,,523580,0,,52.38340700000000,109306,426,pprotection@solihull.gov.uk,Solihull,http://www.solihull.gov.uk/foodhygieneratingscheme/default.htm,-1.83874000000000,B90 1SE,2013-05-09,fhrs_5_en-GB,5,,FHRS,0
343969,Merlin Building,Airport Way,Birmingham Airport,Solihull,Aspire Lounges Servisair Airside,Restaurant/Cafe/Canteen,1,5,,523673,0,,52.45129400000000,109591,426,pprotection@solihull.gov.uk,Solihull,http://www.solihull.gov.uk/foodhygieneratingscheme/default.htm,-1.73107600000000,B26 3QJ,2014-06-18,fhrs_5_en-GB,5,,FHRS,5
343970,Auckland Education Centre,Auckland Drive,Smiths Wood,Solihull,auckland education centre; bosworth wood centre,School/college/university,7845,10,,523663,0,,52.50768800000000,109555,426,pprotection@solihull.gov.uk,Solihull,http://www.solihull.gov.uk/foodhygieneratingscheme/default.htm,-1.75177200000000,B36 0DD,2013-02-12,fhrs_4_en-GB,4,,FHRS,0
343971,,4520 Solihull Parkway,Marston Green,"Solihull, Solihull",Avenance - Orange,Restaurant/Cafe/Canteen,1,5,,523374,0,,52.46733700000000,107362,426,pprotection@solihull.gov.uk,Solihull,http://www.solihull.gov.uk/foodhygieneratingscheme/default.htm,-1.72179300000000,B37 7YN,2012-09-05,fhrs_5_en-GB,5,,FHRS,5
343972,,34 Lady Byron Lane,Knowle,"Solihull, West Midlands",Avenue Bowling Club,Pub/bar/nightclub,7843,5,,523730,5,,52.40116800000000,12039,426,pprotection@solihull.gov.uk,Solihull,http://www.solihull.gov.uk/foodhygieneratingscheme/default.htm,-1.75311900000000,B93 9AU,2009-01-06,fhrs_5_en-GB,5,,FHRS,5
343973,,192 Rowood Drive,Solihull,,Ayshea's Ices,Mobile caterer,7846,,,682764,,,52.42990600000000,110118,426,pprotection@solihull.gov.uk,Solihull,http://www.solihull.gov.uk/foodhygieneratingscheme/default.htm,-1.76909300000000,B92 9LJ,,fhrs_awaitinginspection_en-GB,AwaitingInspection,,FHRS,
343974,,1 Diddington Lane,Hampton In Arden,"Solihull, West Midlands",B & B,Hotel/bed & breakfast/guest house,7842,0,,524857,5,,52.43244800000000,99790,426,pprotection@solihull.gov.uk,Solihull,http://www.solihull.gov.uk/foodhygieneratingscheme/default.htm,-1.69299400000000,B92 0BY,2011-02-27,fhrs_5_en-GB,5,,FHRS,0
343975,Kingscliffe,Church Lane,Bickenhill,"Solihull, West Midlands",B & B,Hotel/bed & breakfast/guest house,7842,10,,524697,5,,52.44267000000000,96686,426,pprotection@solihull.gov.uk,Solihull,http://www.solihull.gov.uk/foodhygieneratingscheme/default.htm,-1.71828500000000,B92 0DT,2011-02-27,fhrs_4_en-GB,4,,FHRS,5
343976,Lachain,St. Peters Lane,Bickenhill,"Solihull, West Midlands",B & B,Hotel/bed & breakfast/guest house,7842,10,,524691,5,,52.43713700000000,96574,426,pprotection@solihull.gov.uk,Solihull,http://www.solihull.gov.uk/foodhygieneratingscheme/default.htm,-1.72452800000000,B92 0DP,2011-02-27,fhrs_4_en-GB,4,,FHRS,5
343977,Redlands,Church Lane,Bickenhill,"Solihull, West Midlands",B & B,Hotel/bed & breakfast/guest house,7842,10,,524686,5,,52.44267000000000,96390,426,pprotection@solihull.gov.uk,Solihull,http://www.solihull.gov.uk/foodhygieneratingscheme/default.htm,-1.71828500000000,B92 0DT,2011-02-27,fhrs_4_en-GB,4,,FHRS,5
343978,The Fordrough,Truggist Lane,Berkswell,"Solihull, Coventry, West Midla",B & B,Hotel/bed & breakfast/guest house,7842,5,,524706,5,,52.39657400000000,96881,426,pprotection@solihull.gov.uk,Solihull,http://www.solihull.gov.uk/foodhygieneratingscheme/default.htm,-1.62630000000000,CV7 7BX,2012-01-04,fhrs_5_en-GB,5,,FHRS,5
343979,Glen Lyon,8 Old Station Road,Hampton In Arden,"Solihull, West Midlands",B & B Glen Lyon,Hotel/bed & breakfast/guest house,7842,5,,524764,5,,52.43258900000000,97924,426,pprotection@solihull.gov.uk,Solihull,http://www.solihull.gov.uk/foodhygieneratingscheme/default.htm,-1.70264100000000,B92 0EY,2010-06-21,fhrs_5_en-GB,5,,FHRS,5
343980,,23 Meriden Road,Hampton In Arden,"Solihull, West Midlands",B&B,Hotel/bed & breakfast/guest house,7842,10,,524214,5,,52.43113700000000,81498,426,pprotection@solihull.gov.uk,Solihull,http://www.solihull.gov.uk/foodhygieneratingscheme/default.htm,-1.69723800000000,B92 0BS,2011-02-27,fhrs_4_en-GB,4,,FHRS,5
343981,,1 Blythe Way,Solihull,West Midlands,B&B,Hotel/bed & breakfast/guest house,7842,10,,524136,5,,52.40970500000000,67811,426,pprotection@solihull.gov.uk,Solihull,http://www.solihull.gov.uk/foodhygieneratingscheme/default.htm,-1.76447900000000,B91 3EY,2011-02-27,fhrs_4_en-GB,4,,FHRS,5
343982,Mews Cottage,Station Road,Balsall Common,"Solihull, Coventry, West Midla",B&B,Hotel/bed & breakfast/guest house,7842,0,,523977,0,,52.39253400000000,40760,426,pprotection@solihull.gov.uk,Solihull,http://www.solihull.gov.uk/foodhygieneratingscheme/default.htm,-1.64552600000000,CV7 7EE,2011-02-27,fhrs_5_en-GB,5,,FHRS,0
343983,"Adult Training Centre, Chelmsley Wood Industrial Estate",Waterloo Avenue,Fordbridge,Birmingham,Bacons End Daycentre,Hospitals/Childcare/Caring Premises,5,0,,524534,0,,52.48895500000000,93041,426,pprotection@solihull.gov.uk,Solihull,http://www.solihull.gov.uk/foodhygieneratingscheme/default.htm,-1.74022800000000,B37 6QQ,2010-03-19,fhrs_5_en-GB,5,,FHRS,5
343984,,205 Tanworth Lane,Shirley,Solihull,Bakes,Restaurant/Cafe/Canteen,1,,,621555,,,52.39538900000000,109826,426,pprotection@solihull.gov.uk,Solihull,http://www.solihull.gov.uk/foodhygieneratingscheme/default.htm,-1.82445600000000,B90 4BZ,,fhrs_awaitinginspection_en-GB,AwaitingInspection,,FHRS,
343985,Balsall Primary School,Balsall Street East,Balsall Common,"Solihull, Coventry, West Midla",Balsall Common Primary School,School/college/university,7845,5,,523747,0,,52.38455600000000,13903,426,pprotection@solihull.gov.uk,Solihull,http://www.solihull.gov.uk/foodhygieneratingscheme/default.htm,-1.65021800000000,CV7 7FS,2012-10-05,fhrs_5_en-GB,5,,FHRS,5
343986,,1a Manor Park Road,Castle Bromwich,"Solihull, Birmingham, West Mid",Balti Gardens,Restaurant/Cafe/Canteen,1,10,,524076,10,,52.50312400000000,5727,426,pprotection@solihull.gov.uk,Solihull,http://www.solihull.gov.uk/foodhygieneratingscheme/default.htm,-1.77115500000000,B36 0DG,2014-02-26,fhrs_3_en-GB,3,,FHRS,10
343987,Banbury Club,Bosworth Drive,Fordbridge,"Solihull, Birmingham, West Mid",Banbury Club,Pub/bar/nightclub,7843,20,,524190,10,,52.47932800000000,78500,426,pprotection@solihull.gov.uk,Solihull,http://www.solihull.gov.uk/foodhygieneratingscheme/default.htm,-1.74088800000000,B37 5EX,2011-12-07,fhrs_1_en-GB,1,,FHRS,5
343988,,18 Cheswick Way,Cheswick Green,"Solihull, West Midlands",Bangla Lounge,Restaurant/Cafe/Canteen,1,5,,524306,10,,52.37833000000000,89173,426,pprotection@solihull.gov.uk,Solihull,http://www.solihull.gov.uk/foodhygieneratingscheme/default.htm,-1.81535700000000,B90 4JA,2013-02-20,fhrs_4_en-GB,4,,FHRS,5
343989,Living Well Health And Leisure,Saintbury Drive,Solihull,,Bannatynes Health Club,Restaurant/Cafe/Canteen,1,10,,524730,10,,52.39539900000000,97446,426,pprotection@solihull.gov.uk,Solihull,http://www.solihull.gov.uk/foodhygieneratingscheme/default.htm,-1.77700300000000,B91 3SZ,2014-01-20,fhrs_3_en-GB,3,,FHRS,10
343990,,25 Buryfield Road,Solihull,West Midlands,Barnmoor B&B,Hotel/bed & breakfast/guest house,7842,10,,524577,10,,52.42557200000000,93873,426,pprotection@solihull.gov.uk,Solihull,http://www.solihull.gov.uk/foodhygieneratingscheme/default.htm,-1.79317400000000,B91 2DF,2011-02-27,fhrs_3_en-GB,3,,FHRS,5
343991,,35 Station Road,Marston Green,"Solihull, West Midlands",Barretts Butchers & Deli,Retailers - other,4613,20,,523460,10,,52.46733400000000,108461,426,pprotection@solihull.gov.uk,Solihull,http://www.solihull.gov.uk/foodhygieneratingscheme/default.htm,-1.75280800000000,B37 7AB,2014-05-21,fhrs_1_en-GB,1,,FHRS,15
343992,,2 Princes Way,Solihull,West Midlands,Baxterstorey,Restaurant/Cafe/Canteen,1,0,,523331,5,,52.41276400000000,106008,426,pprotection@solihull.gov.uk,Solihull,http://www.solihull.gov.uk/foodhygieneratingscheme/default.htm,-1.78485400000000,B91 3ES,2010-10-14,fhrs_5_en-GB,5,,FHRS,0
343993,The Arup Campus,Blythe Gate,Shirley,"Solihull, West Midlands",BaxterStorey,Restaurant/Cafe/Canteen,1,0,,523978,0,,52.37566800000000,40854,426,pprotection@solihull.gov.uk,Solihull,http://www.solihull.gov.uk/foodhygieneratingscheme/default.htm,-1.79835800000000,B90 8AE,2010-09-06,fhrs_5_en-GB,5,,FHRS,5
343994,The Oracle Building,Oracle Drive,Shirley,Solihull,BaxterStorey,Restaurant/Cafe/Canteen,1,0,,524073,0,,52.37653400000000,56954,426,pprotection@solihull.gov.uk,Solihull,http://www.solihull.gov.uk/foodhygieneratingscheme/default.htm,-1.79474000000000,B90 8AD,2014-03-28,fhrs_5_en-GB,5,,FHRS,0
343995,The Phoenix Building,Central Boulevard,Shirley,"Solihull, West Midlands",BaxterStorey,Restaurant/Cafe/Canteen,1,0,,523522,0,,52.37412800000000,108948,426,pprotection@solihull.gov.uk,Solihull,http://www.solihull.gov.uk/foodhygieneratingscheme/default.htm,-1.79685200000000,B90 8BG,2012-05-02,fhrs_5_en-GB,5,,FHRS,5
343996,,1760 Solihull Parkway,Marston Green,Solihull,BaxterStorey Ltd @ Beiersdorf Uk Ltd,Restaurant/Cafe/Canteen,1,0,,524715,0,,52.46862500000000,97012,426,pprotection@solihull.gov.uk,Solihull,http://www.solihull.gov.uk/foodhygieneratingscheme/default.htm,-1.71873800000000,B37 7YD,2012-07-09,fhrs_5_en-GB,5,,FHRS,5
343997,,500 Streetsbrook Road,Solihull,,Baxterstorey Ltd.; The Environment Agency Sapphire East,Restaurant/Cafe/Canteen,1,0,,523712,0,,52.41829300000000,109743,426,pprotection@solihull.gov.uk,Solihull,http://www.solihull.gov.uk/foodhygieneratingscheme/default.htm,-1.80009000000000,B91 1RH,2013-08-30,fhrs_5_en-GB,5,,FHRS,5
343998,,10 Crescent Arcade,Solihull,West Midlands,BB's,Restaurant/Cafe/Canteen,1,5,,524673,0,,52.41241300000000,96161,426,pprotection@solihull.gov.uk,Solihull,http://www.solihull.gov.uk/foodhygieneratingscheme/default.htm,-1.77940200000000,B91 3GZ,2012-11-16,fhrs_4_en-GB,4,,FHRS,10
343999,Bear Inn,Spencers Lane,Berkswell,"Solihull, Coventry, West Midla",Bear Inn,Pub/bar/nightclub,7843,5,,524471,5,,52.40592300000000,92159,426,pprotection@solihull.gov.uk,Solihull,http://www.solihull.gov.uk/foodhygieneratingscheme/default.htm,-1.63764300000000,CV7 7BB,2014-03-24,fhrs_4_en-GB,4,,FHRS,10
344000,,34 Meriden Road,Hampton In Arden,Solihull,Bed & Breakfast,Hotel/bed & breakfast/guest house,7842,5,,523672,0,,52.43078500000000,109590,426,pprotection@solihull.gov.uk,Solihull,http://www.solihull.gov.uk/foodhygieneratingscheme/default.htm,-1.69652000000000,B92 0BT,2014-05-16,fhrs_5_en-GB,5,,FHRS,5
344001,Church Farm,Church Lane,Bickenhill,"Solihull, West Midlands",Bed and Breakfast,Hotel/bed & breakfast/guest house,7842,5,,524708,5,,52.43957400000000,96924,426,pprotection@solihull.gov.uk,Solihull,http://www.solihull.gov.uk/foodhygieneratingscheme/default.htm,-1.72485100000000,B92 0DN,2013-01-16,fhrs_5_en-GB,5,,FHRS,5
344002,Far End,Kixley Lane,Knowle,"Solihull, West Midlands",Bed And Breakfast,Hotel/bed & breakfast/guest house,7842,10,,524518,5,,52.39112100000000,92844,426,pprotection@solihull.gov.uk,Solihull,http://www.solihull.gov.uk/foodhygieneratingscheme/default.htm,-1.72607800000000,B93 0JF,2011-02-27,fhrs_4_en-GB,4,,FHRS,5
344003,,,,,Bedazzled Desserts,Restaurant/Cafe/Canteen,1,10,,523287,5,,,105401,426,pprotection@solihull.gov.uk,Solihull,http://www.solihull.gov.uk/foodhygieneratingscheme/default.htm,,,2010-09-02,fhrs_4_en-GB,4,,FHRS,5
344004,Meriden Church Of England Prim,Fillongley Road,Meriden,"Solihull, Coventry, West Midla",Beechwood Childcare Ltd,Hospitals/Childcare/Caring Premises,5,0,,524631,0,,52.43953400000000,95177,426,pprotection@solihull.gov.uk,Solihull,http://www.solihull.gov.uk/foodhygieneratingscheme/default.htm,-1.64557600000000,CV7 7LW,2012-07-11,fhrs_5_en-GB,5,,FHRS,5
344005,Windy Arbour Junior And Infant,Woodlands Way,Chelmsley Wood,"Solihull, Birmingham, West Mid",Beechwood Childcare Ltd,Hospitals/Childcare/Caring Premises,5,0,,523175,0,,52.48069000000000,10126,426,pprotection@solihull.gov.uk,Solihull,http://www.solihull.gov.uk/foodhygieneratingscheme/default.htm,-1.72667100000000,B37 6RN,2014-02-24,fhrs_5_en-GB,5,,FHRS,0
344006,Haslucks Green School,Haslucks Green Road,Shirley,Solihull,Beechwood Childcare@ Haslucks Green Junior School,Hospitals/Childcare/Caring Premises,5,0,,524406,0,,52.41227600000000,91145,426,pprotection@solihull.gov.uk,Solihull,http://www.solihull.gov.uk/foodhygieneratingscheme/default.htm,-1.83335700000000,B90 2EJ,2014-03-04,fhrs_5_en-GB,5,,FHRS,0
344007,,25 Mill Lane Arcade,Solihull,West Midlands,Bella Italia,Restaurant/Cafe/Canteen,1,0,,523380,0,,52.41241300000000,10751,426,pprotection@solihull.gov.uk,Solihull,http://www.solihull.gov.uk/foodhygieneratingscheme/default.htm,-1.77940200000000,B91 3GS,2015-01-06,fhrs_5_en-GB,5,,FHRS,5
344008,,1628 High Street,Knowle,"Solihull, West Midlands",Bella Venezia,Restaurant/Cafe/Canteen,1,20,,523429,10,,52.38944300000000,108195,426,pprotection@solihull.gov.uk,Solihull,http://www.solihull.gov.uk/foodhygieneratingscheme/default.htm,-1.73544900000000,B93 0JU,2013-07-30,fhrs_1_en-GB,1,,FHRS,5
344009,Bentley Heath Church Of Englan,Widney Close,Bentley Heath,"Solihull, West Midlands",Bentley Heath C Of E Primary School,School/college/university,7845,0,,524014,0,,52.38572500000000,4835,426,pprotection@solihull.gov.uk,Solihull,http://www.solihull.gov.uk/foodhygieneratingscheme/default.htm,-1.75827400000000,B93 9AS,2011-04-07,fhrs_5_en-GB,5,,FHRS,5
344010,,,,,Bentley Heath Country Market Caterer,Restaurant/Cafe/Canteen,1,0,,523492,0,,,108747,426,pprotection@solihull.gov.uk,Solihull,http://www.solihull.gov.uk/foodhygieneratingscheme/default.htm,,,2013-07-22,fhrs_5_en-GB,5,,FHRS,0
344011,,,,,Bentley Heath Country Market Caterer,Restaurant/Cafe/Canteen,1,5,,523493,5,,,108748,426,pprotection@solihull.gov.uk,Solihull,http://www.solihull.gov.uk/foodhygieneratingscheme/default.htm,,,2013-02-06,fhrs_5_en-GB,5,,FHRS,0
344012,,,,,Bentley Heath Country Market Caterer,Restaurant/Cafe/Canteen,1,0,,523494,0,,,108749,426,pprotection@solihull.gov.uk,Solihull,http://www.solihull.gov.uk/foodhygieneratingscheme/default.htm,,,2013-07-10,fhrs_5_en-GB,5,,FHRS,0
344013,Berkswell And Balsall Common R,Honiley Road,Balsall Common,"Solihull, Kenilworth, West Mid",Berkswell & Balsall R F C,Pub/bar/nightclub,7843,5,,524209,0,,52.36105600000000,81014,426,pprotection@solihull.gov.uk,Solihull,http://www.solihull.gov.uk/foodhygieneratingscheme/default.htm,-1.65654200000000,CV8 1NQ,2011-03-30,fhrs_5_en-GB,5,,FHRS,5
344014,Berkswell Church Of England Vo,Church Lane,Berkswell,"Solihull, Coventry, West Midla",Berkswell C Of E Primary School,School/college/university,7845,0,,524162,5,,52.40939700000000,72337,426,pprotection@solihull.gov.uk,Solihull,http://www.solihull.gov.uk/foodhygieneratingscheme/default.htm,-1.64173100000000,CV7 7BJ,2012-11-06,fhrs_5_en-GB,5,,FHRS,0
344015,Reading Room,Meriden Road,Berkswell,Coventry,Berkswell Pre School,Hospitals/Childcare/Caring Premises,5,5,,523708,5,,52.41083900000000,109734,426,pprotection@solihull.gov.uk,Solihull,http://www.solihull.gov.uk/foodhygieneratingscheme/default.htm,-1.63988100000000,CV7 7BE,2013-06-06,fhrs_5_en-GB,5,,FHRS,0
344016,Village Stores,Church Lane,Berkswell,"Solihull, Coventry, West Midla",Berkswell Village Stores,Retailers - other,4613,5,,523174,5,,52.40939700000000,10087,426,pprotection@solihull.gov.uk,Solihull,http://www.solihull.gov.uk/foodhygieneratingscheme/default.htm,-1.64173100000000,CV7 7BJ,2011-02-27,fhrs_5_en-GB,5,,FHRS,5
344017,Berryfields Farm,Berkswell Road,Meriden,"Solihull, Coventry, West Midla",Berryfields Farm,Farmers/growers,7838,10,,523746,5,,52.43004600000000,13655,426,pprotection@solihull.gov.uk,Solihull,http://www.solihull.gov.uk/foodhygieneratingscheme/default.htm,-1.64113700000000,CV7 7LB,2014-04-22,fhrs_4_en-GB,4,,FHRS,5
344018,,32-34 Drury Lane,Solihull,West Midlands,BHS,Retailers - other,4613,5,,524387,0,,52.41298100000000,90485,426,pprotection@solihull.gov.uk,Solihull,http://www.solihull.gov.uk/foodhygieneratingscheme/default.htm,-1.77557600000000,B91 3BG,2014-06-09,fhrs_5_en-GB,5,,FHRS,0
344019,Bibury House,Kenilworth Road,Balsall Common,"Solihull, West Midlands",Bibury House,Hotel/bed & breakfast/guest house,7842,5,,524159,5,,52.41633000000000,72004,426,pprotection@solihull.gov.uk,Solihull,http://www.solihull.gov.uk/foodhygieneratingscheme/default.htm,-1.67650600000000,B92 0LR,2010-02-17,fhrs_5_en-GB,5,,FHRS,5
344020,,260-262 Stratford Road,Shirley,"Solihull, West Midlands",Big Johns,Takeaway/sandwich shop,7844,10,,523478,15,,52.40920000000000,10865,426,pprotection@solihull.gov.uk,Solihull,http://www.solihull.gov.uk/foodhygieneratingscheme/default.htm,-1.82632700000000,B90 3AD,2014-03-14,fhrs_2_en-GB,2,,FHRS,10
344021,Big Johns,Cooks Lane,Kingshurst,Solihull,Big Johns,Takeaway/sandwich shop,7844,5,,524581,5,,,93929,426,pprotection@solihull.gov.uk,Solihull,http://www.solihull.gov.uk/foodhygieneratingscheme/default.htm,,B37 6TF,2014-02-24,fhrs_5_en-GB,5,,FHRS,5
344022,,1608 High Street,Knowle,"Solihull, West Midlands",Bilash Indian Cuisine,Restaurant/Cafe/Canteen,1,10,,523827,5,,52.38944300000000,24274,426,pprotection@solihull.gov.uk,Solihull,http://www.solihull.gov.uk/foodhygieneratingscheme/default.htm,-1.73544900000000,B93 0JU,2014-03-26,fhrs_4_en-GB,4,,FHRS,5
344023,Billy Bears Nursery,Brownley Road,Shirley,Solihull,Billy Bears Nursery,Hospitals/Childcare/Caring Premises,5,10,,524858,5,,52.39374900000000,99797,426,pprotection@solihull.gov.uk,Solihull,http://www.solihull.gov.uk/foodhygieneratingscheme/default.htm,-1.81037000000000,B90 4QP,2014-12-02,fhrs_4_en-GB,4,,FHRS,5
344024,Birmingham Area Civil Service Sports Club,Old Damson Lane,Solihull,,Birmingham Exiles RFC,Restaurant/Cafe/Canteen,1,20,,523675,5,,52.44310100000000,109597,426,pprotection@solihull.gov.uk,Solihull,http://www.solihull.gov.uk/foodhygieneratingscheme/default.htm,-1.75016300000000,B92 9ED,2013-07-10,fhrs_1_en-GB,1,,FHRS,5
344025,Bishop Wilson Church Of Englan,Pike Drive,Chelmsley Wood,"Solihull, Birmingham, West Mid",Bishop Wilson C Of E Junior & Infant School; School Breakfast Club,School/college/university,7845,5,,523212,5,,52.48078800000000,104763,426,pprotection@solihull.gov.uk,Solihull,http://www.solihull.gov.uk/foodhygieneratingscheme/default.htm,-1.73413600000000,B37 7US,2009-06-12,fhrs_5_en-GB,5,,FHRS,5
344026,Bishop Wilson Church Of Englan,Pike Drive,Chelmsley Wood,"Solihull, Birmingham, West Mid",Bishop Wilson C Of E Primary School,School/college/university,7845,0,,524211,0,,52.48078800000000,81277,426,pprotection@solihull.gov.uk,Solihull,http://www.solihull.gov.uk/foodhygieneratingscheme/default.htm,-1.73413600000000,B37 7US,2012-03-28,fhrs_4_en-GB,4,,FHRS,10
344027,Black Boy,Warwick Road,Knowle,"Solihull, West Midlands",Black Boy,Pub/bar/nightclub,7843,5,,523864,10,,52.37267700000000,28185,426,pprotection@solihull.gov.uk,Solihull,http://www.solihull.gov.uk/foodhygieneratingscheme/default.htm,-1.71638000000000,B93 0EB,2014-02-10,fhrs_4_en-GB,4,,FHRS,5
344028,,113 Coleshill Road,Marston Green,"Solihull, Birmingham, West Mid",Black Firs Guest House - B & B,Hotel/bed & breakfast/guest house,7842,10,,524688,5,,52.46930800000000,96466,426,pprotection@solihull.gov.uk,Solihull,http://www.solihull.gov.uk/foodhygieneratingscheme/default.htm,-1.73043700000000,B37 7HT,2011-02-27,fhrs_4_en-GB,4,,FHRS,5
344029,,,,,Black Sugar Bakes,Restaurant/Cafe/Canteen,1,,,730042,,,,110314,426,pprotection@solihull.gov.uk,Solihull,http://www.solihull.gov.uk/foodhygieneratingscheme/default.htm,,,,fhrs_awaitinginspection_en-GB,AwaitingInspection,,FHRS,
344030,,1 Michael Blanning Gardens,Dorridge,"Solihull, West Midlands",Blanning Day Centre,Hospitals/Childcare/Caring Premises,5,0,,524279,0,,52.37727600000000,88795,426,pprotection@solihull.gov.uk,Solihull,http://www.solihull.gov.uk/foodhygieneratingscheme/default.htm,-1.75915700000000,B93 8SN,2014-07-21,fhrs_5_en-GB,5,,FHRS,0
344031,Blossomfield Club,Widney Lane,Solihull,West Midlands,Blossomfield Club,Restaurant/Cafe/Canteen,1,5,,523964,5,,52.39914900000000,39354,426,pprotection@solihull.gov.uk,Solihull,http://www.solihull.gov.uk/foodhygieneratingscheme/default.htm,-1.79240100000000,B91 3JY,2014-05-01,fhrs_5_en-GB,5,,FHRS,5
344032,Blossomfield Infant School,Eastcote Close,Shirley,"Solihull, West Midlands",Blossomfield Infant School,School/college/university,7845,0,,524176,0,,52.41124300000000,76010,426,pprotection@solihull.gov.uk,Solihull,http://www.solihull.gov.uk/foodhygieneratingscheme/default.htm,-1.81566100000000,B90 3QX,2012-01-11,fhrs_5_en-GB,5,,FHRS,0
344033,58 Bridge House,Waterside,Dickens Heath,Solihull,Blossoms pre-school,Restaurant/Cafe/Canteen,1,5,,621574,10,,52.38271900000000,109862,426,pprotection@solihull.gov.uk,Solihull,http://www.solihull.gov.uk/foodhygieneratingscheme/default.htm,-1.83517200000000,B90 1UD,2014-08-28,fhrs_4_en-GB,4,,FHRS,5
344034,,1741 Warwick Road,Knowle,Solihull,Blue Giraffe (Knowle) Limited,Hospitals/Childcare/Caring Premises,5,5,,691502,5,,52.38666000000000,110150,426,pprotection@solihull.gov.uk,Solihull,http://www.solihull.gov.uk/foodhygieneratingscheme/default.htm,-1.73311400000000,B93 0LX,2014-11-25,fhrs_4_en-GB,4,,FHRS,10
344035,,147 Bosworth Drive,Fordbridge,Birmingham,Bluewood Fish Bar,Takeaway/sandwich shop,7844,20,,590378,5,,52.47972200000000,109841,426,pprotection@solihull.gov.uk,Solihull,http://www.solihull.gov.uk/foodhygieneratingscheme/default.htm,-1.75240000000000,B37 5BT,2015-01-13,fhrs_1_en-GB,1,,FHRS,15
344036,,251 Longmore Road,Shirley,"Solihull, West Midlands",Bob Willock Butcher,Retailers - other,4613,5,,524133,5,,52.40357600000000,67239,426,pprotection@solihull.gov.uk,Solihull,http://www.solihull.gov.uk/foodhygieneratingscheme/default.htm,-1.81079800000000,B90 3ER,2014-05-02,fhrs_4_en-GB,4,,FHRS,10
344037,,14 Station Road,Knowle,"Solihull, West Midlands",Bonham 1793 Ltd Auctioneers,Restaurant/Cafe/Canteen,1,5,,524602,5,,52.38696900000000,94409,426,pprotection@solihull.gov.uk,Solihull,http://www.solihull.gov.uk/foodhygieneratingscheme/default.htm,-1.73477300000000,B93 0HT,2014-05-01,fhrs_5_en-GB,5,,FHRS,5
344038,,,,,Bonita's Cake Creations,Restaurant/Cafe/Canteen,1,5,,523621,0,,,109418,426,pprotection@solihull.gov.uk,Solihull,http://www.solihull.gov.uk/foodhygieneratingscheme/default.htm,,,2013-03-07,fhrs_5_en-GB,5,,FHRS,0
344039,Knowle And Dorridge Railway St,Station Approach,Dorridge,"Solihull, West Midlands",Bonjava Limited,Restaurant/Cafe/Canteen,1,10,,524751,5,,52.37278600000000,97765,426,pprotection@solihull.gov.uk,Solihull,http://www.solihull.gov.uk/foodhygieneratingscheme/default.htm,-1.75304200000000,B93 8JA,2014-10-10,fhrs_4_en-GB,4,,FHRS,5
344040,"Boots, Sears Retail Park",Oakenshaw Road,Shirley,"Solihull, West Midlands",Boots The Chemist,Retailers - other,4613,0,,524555,0,,52.40098600000000,93579,426,pprotection@solihull.gov.uk,Solihull,http://www.solihull.gov.uk/foodhygieneratingscheme/default.htm,-1.81632100000000,B90 4QY,2011-04-05,fhrs_5_en-GB,5,,FHRS,5
344041,"Terminal 2, Birmingham Interna",Airport Way,Birmingham Airport,"Solihull, Birmingham, West Mid",Boots The Chemist,Retailers - other,4613,5,,524712,5,,52.45108300000000,96955,426,pprotection@solihull.gov.uk,Solihull,http://www.solihull.gov.uk/foodhygieneratingscheme/default.htm,-1.73325500000000,B26 3TZ,2011-02-27,fhrs_5_en-GB,5,,FHRS,0
344042,"Terminal 1, Birmingham Interna",Airport Way,Birmingham Airport,"Solihull, Birmingham, West Mid",Boots The Chemist - T1 Airside,Retailers - other,4613,5,,524761,5,,52.44731400000000,97874,426,pprotection@solihull.gov.uk,Solihull,http://www.solihull.gov.uk/foodhygieneratingscheme/default.htm,-1.73626500000000,B26 3QY,2010-08-11,fhrs_5_en-GB,5,,FHRS,5
344043,"Terminal 1, Birmingham Interna",Airport Way,Birmingham Airport,"Solihull, Birmingham, West Mid",Boots The Chemist - T1 Landside,Retailers - other,4613,5,,524338,5,,52.44731400000000,89807,426,pprotection@solihull.gov.uk,Solihull,http://www.solihull.gov.uk/foodhygieneratingscheme/default.htm,-1.73626500000000,B26 3QY,2010-08-11,fhrs_5_en-GB,5,,FHRS,5
344044,,157 Bosworth Drive,Fordbridge,"Solihull, Birmingham, West Mid",Bosworth News,Retailers - other,4613,20,,524187,15,,52.47972200000000,77209,426,pprotection@solihull.gov.uk,Solihull,http://www.solihull.gov.uk/foodhygieneratingscheme/default.htm,-1.75240000000000,B37 5BT,2013-11-08,fhrs_1_en-GB,1,,FHRS,15
344045,,151 Bosworth Drive,Fordbridge,"Solihull, Birmingham, West Mid",Bosworth Stores Limited,Retailers - other,4613,20,,524679,10,,52.47972200000000,96259,426,pprotection@solihull.gov.uk,Solihull,http://www.solihull.gov.uk/foodhygieneratingscheme/default.htm,-1.75240000000000,B37 5BT,2013-11-08,fhrs_1_en-GB,1,,FHRS,15
344046,,,,,Boulangerie Caterers Limited,Restaurant/Cafe/Canteen,1,5,,523723,0,,,11066,426,pprotection@solihull.gov.uk,Solihull,http://www.solihull.gov.uk/foodhygieneratingscheme/default.htm,,,2011-01-28,fhrs_5_en-GB,5,,FHRS,0
344047,,252 Cranmore Boulevard,Shirley,"Solihull, West Midlands",Boulevard Chinese Takeaway,Takeaway/sandwich shop,7844,5,,524121,5,,52.39681700000000,66439,426,pprotection@solihull.gov.uk,Solihull,http://www.solihull.gov.uk/foodhygieneratingscheme/default.htm,-1.81182600000000,B90 4PX,2014-03-05,fhrs_5_en-GB,5,,FHRS,5
344048,Box Trees Farm,Stratford Road,Hockley Heath,"Solihull, West Midlands",Box Trees Farm - Boxtrees Farm Guest House,Hotel/bed & breakfast/guest house,7842,5,,524498,5,,52.36515600000000,92617,426,pprotection@solihull.gov.uk,Solihull,http://www.solihull.gov.uk/foodhygieneratingscheme/default.htm,-1.78188400000000,B94 6EA,2011-02-27,fhrs_5_en-GB,5,,FHRS,5
344049,,457 Stratford Road,Shirley,"Solihull, West Midlands",BP Solihull,Retailers - other,4613,0,,523990,0,,52.40476200000000,43838,426,pprotection@solihull.gov.uk,Solihull,http://www.solihull.gov.uk/foodhygieneratingscheme/default.htm,-1.82230200000000,B90 4AA,2014-04-23,fhrs_5_en-GB,5,,FHRS,0
344050,,96 High Street,Solihull Lodge,"Solihull, West Midlands",BP Solihull Lodge (Euro Garage),Retailers - other,4613,5,,523413,5,,52.40578600000000,10806,426,pprotection@solihull.gov.uk,Solihull,http://www.solihull.gov.uk/foodhygieneratingscheme/default.htm,-1.86189800000000,B90 1JS,2013-10-11,fhrs_4_en-GB,4,,FHRS,10
344051,Bracey Nurseries Ltd,Catherine De Barnes Lane,Catherine De Barnes,"Solihull, West Midlands",Bracey Nurseries Ltd - Lavender Cafe,Restaurant/Cafe/Canteen,1,10,,524665,10,,52.43359500000000,96022,426,pprotection@solihull.gov.uk,Solihull,http://www.solihull.gov.uk/foodhygieneratingscheme/default.htm,-1.73221400000000,B92 0DB,2014-04-23,fhrs_3_en-GB,3,,FHRS,5
344052,Yorkswood Primary School,Kingshurst Way,Kingshurst,"Solihull, Birmingham, West Mid",Brambles - Yorkswood Junior & Infant School,Hospitals/Childcare/Caring Premises,5,0,,524732,0,,52.49259400000000,97497,426,pprotection@solihull.gov.uk,Solihull,http://www.solihull.gov.uk/foodhygieneratingscheme/default.htm,-1.75611300000000,B37 6DF,2014-05-27,fhrs_5_en-GB,5,,FHRS,5
344053,Kingshurst Primary School,School Close,Kingshurst,Solihull,Breakfast Club - Kingshurst Junior School,School/college/university,7845,5,,523347,5,,52.49579100000000,106289,426,pprotection@solihull.gov.uk,Solihull,http://www.solihull.gov.uk/foodhygieneratingscheme/default.htm,-1.74992400000000,B37 6BN,2010-03-18,fhrs_5_en-GB,5,,FHRS,5
344054,Brooklands,Coleshill Road,Marston Green,"Solihull, Birmingham, West Mid",Brian Oliver Centre,Hospitals/Childcare/Caring Premises,5,0,,524583,0,,52.46815600000000,94030,426,pprotection@solihull.gov.uk,Solihull,http://www.solihull.gov.uk/foodhygieneratingscheme/default.htm,-1.73755400000000,B37 7HL,2011-08-09,fhrs_5_en-GB,5,,FHRS,5
344055,Brickmakers Arms,307 Station Road,Balsall Common,"Solihull, Coventry, West Midla",Brickmakers Arms,Pub/bar/nightclub,7843,5,,523980,10,,52.39283400000000,41992,426,pprotection@solihull.gov.uk,Solihull,http://www.solihull.gov.uk/foodhygieneratingscheme/default.htm,-1.64647900000000,CV7 7EG,2012-11-07,fhrs_3_en-GB,3,,FHRS,10
344056,Solihull Railway Station,Station Approach,Solihull,West Midlands,British Rail - L C Cafe,Restaurant/Cafe/Canteen,1,10,,524410,5,,52.41465000000000,91227,426,pprotection@solihull.gov.uk,Solihull,http://www.solihull.gov.uk/foodhygieneratingscheme/default.htm,-1.78850600000000,B91 1LE,2010-04-09,fhrs_4_en-GB,4,,FHRS,5
344057,,90 Broad Oaks Road,Solihull,,Broad Oaks B & B,Hotel/bed & breakfast/guest house,7842,20,,629260,5,,52.41947900000000,109973,426,pprotection@solihull.gov.uk,Solihull,http://www.solihull.gov.uk/foodhygieneratingscheme/default.htm,-1.79417300000000,B91 1HZ,2014-09-10,fhrs_1_en-GB,1,,FHRS,5
344058,,386 Warwick Road,Solihull,West Midlands,Broad Oaks Garage,Retailers - other,4613,5,,523948,0,,52.42481300000000,37814,426,pprotection@solihull.gov.uk,Solihull,http://www.solihull.gov.uk/foodhygieneratingscheme/default.htm,-1.79609000000000,B91 1BB,2011-02-27,fhrs_5_en-GB,5,,FHRS,0
344059,Broadwell Guest House,3 Berkswell Road,Meriden,Coventry,Broadwell Guest House,Hotel/bed & breakfast/guest house,7842,0,,668868,0,,52.43004600000000,110075,426,pprotection@solihull.gov.uk,Solihull,http://www.solihull.gov.uk/foodhygieneratingscheme/default.htm,-1.64113700000000,CV7 7LB,2014-09-11,fhrs_5_en-GB,5,,FHRS,5
344060,,9 Downing Close,Knowle,"Solihull, West Midlands",Bromford Housing,Hospitals/Childcare/Caring Premises,5,0,,523742,0,,52.37980800000000,13286,426,pprotection@solihull.gov.uk,Solihull,http://www.solihull.gov.uk/foodhygieneratingscheme/default.htm,-1.74477600000000,B93 0QA,2011-02-27,fhrs_5_en-GB,5,,FHRS,0
344061,,222 Bills Lane,Shirley,"Solihull, West Midlands",Bromford Housing,Hospitals/Childcare/Caring Premises,5,5,,523908,5,,52.39909800000000,33140,426,pprotection@solihull.gov.uk,Solihull,http://www.solihull.gov.uk/foodhygieneratingscheme/default.htm,-1.84060800000000,B90 2PP,2011-02-27,fhrs_5_en-GB,5,,FHRS,5
344062,Brooklands - Amber Unit,Coleshill Road,Marston Green,"Solihull, Birmingham, West Mid",Brooklands - Amber Unit,Hospitals/Childcare/Caring Premises,5,5,,524354,5,,52.46815600000000,90061,426,pprotection@solihull.gov.uk,Solihull,http://www.solihull.gov.uk/foodhygieneratingscheme/default.htm,-1.73755400000000,B37 7HL,2014-11-18,fhrs_5_en-GB,5,,FHRS,5
344063,Brooklands Hospital - Jade Unit,Coleshill Road,Marston Green,"Solihull, Birmingham, West Mid",Brooklands Hospital - Jade Unit,Hospitals/Childcare/Caring Premises,5,0,,524365,0,,52.46815600000000,90216,426,pprotection@solihull.gov.uk,Solihull,http://www.solihull.gov.uk/foodhygieneratingscheme/default.htm,-1.73755400000000,B37 7HL,2014-10-07,fhrs_5_en-GB,5,,FHRS,0
344064,Brooklands,Coleshill Road,Marston Green,"Solihull, Birmingham, West Mid",Brooklands Hospital - Mulberry Bush Creche,Hospitals/Childcare/Caring Premises,5,5,,524366,5,,52.46815600000000,90217,426,pprotection@solihull.gov.uk,Solihull,http://www.solihull.gov.uk/foodhygieneratingscheme/default.htm,-1.73755400000000,B37 7HL,2014-12-11,fhrs_5_en-GB,5,,FHRS,0
344065,Brookvale,111 Warwick Road,Solihull,West Midlands,Brookvale - Day Centre,Hospitals/Childcare/Caring Premises,5,0,,524441,0,,52.44103600000000,91773,426,pprotection@solihull.gov.uk,Solihull,http://www.solihull.gov.uk/foodhygieneratingscheme/default.htm,-1.80977000000000,B92 7HP,2011-02-03,fhrs_5_en-GB,5,,FHRS,0
344066,Brookvale,111 Warwick Road,Solihull,West Midlands,Brookvale Care Home,Hospitals/Childcare/Caring Premises,5,0,,524516,5,,52.44103600000000,92809,426,pprotection@solihull.gov.uk,Solihull,http://www.solihull.gov.uk/foodhygieneratingscheme/default.htm,-1.80977000000000,B92 7HP,2012-10-23,fhrs_5_en-GB,5,,FHRS,0
344067,,117 Prospect Lane,Solihull,West Midlands,Browns Of Solihull (UK Meats),Retailers - other,4613,10,,523809,5,,52.41490100000000,22191,426,pprotection@solihull.gov.uk,Solihull,http://www.solihull.gov.uk/foodhygieneratingscheme/default.htm,-1.80920600000000,B91 1HT,2014-04-09,fhrs_4_en-GB,4,,FHRS,5
344068,Solihull Hospital,Lode Lane,Solihull,West Midlands,Bruce Burns/Day Hospital,Hospitals/Childcare/Caring Premises,5,0,,524307,5,,52.41713200000000,89216,426,pprotection@solihull.gov.uk,Solihull,http://www.solihull.gov.uk/foodhygieneratingscheme/default.htm,-1.77437900000000,B91 2JL,2014-10-27,fhrs_5_en-GB,5,,FHRS,5
344069,Brueton Petrol Station,Warwick Road,Solihull,Solihull,Brueton Park Service station,Retailers - other,4613,5,,523451,5,,,108319,426,pprotection@solihull.gov.uk,Solihull,http://www.solihull.gov.uk/foodhygieneratingscheme/default.htm,,B91 3DD,2011-06-21,fhrs_5_en-GB,5,,FHRS,0
344070,Bulls Head,Barston Lane,Barston,"Solihull, West Midlands",Bulls Head,Pub/bar/nightclub,7843,5,,524118,5,,52.40054300000000,65989,426,pprotection@solihull.gov.uk,Solihull,http://www.solihull.gov.uk/foodhygieneratingscheme/default.htm,-1.69669800000000,B92 0JU,2013-02-27,fhrs_4_en-GB,4,,FHRS,10
344071,Bulls Head,Main Road,Meriden,"Solihull, Coventry, West Midla",Bulls Head,Pub/bar/nightclub,7843,5,,523758,5,,52.43586400000000,14975,426,pprotection@solihull.gov.uk,Solihull,http://www.solihull.gov.uk/foodhygieneratingscheme/default.htm,-1.64460500000000,CV7 7NN,2013-01-22,fhrs_5_en-GB,5,,FHRS,5
344072,"Terminal 1, Birmingham Interna",Airport Way,Birmingham Airport,"Solihull, Birmingham, West Mid",Burger King - Airside,Takeaway/sandwich shop,7844,0,,524260,0,,52.44731400000000,88198,426,pprotection@solihull.gov.uk,Solihull,http://www.solihull.gov.uk/foodhygieneratingscheme/default.htm,-1.73626500000000,B26 3QY,2013-01-23,fhrs_5_en-GB,5,,FHRS,5
344073,"Terminal 1, Birmingham Interna",Airport Way,Birmingham Airport,"Solihull, Birmingham, West Mid",Burger King - Landside,Restaurant/Cafe/Canteen,1,0,,524276,0,,52.44731400000000,88683,426,pprotection@solihull.gov.uk,Solihull,http://www.solihull.gov.uk/foodhygieneratingscheme/default.htm,-1.73626500000000,B26 3QY,2011-08-19,fhrs_5_en-GB,5,,FHRS,0
344074,Burman Infant School,Velsheda Road,Shirley,"Solihull, West Midlands",Burman Infant School,School/college/university,7845,5,,524207,0,,52.40669900000000,80884,426,pprotection@solihull.gov.uk,Solihull,http://www.solihull.gov.uk/foodhygieneratingscheme/default.htm,-1.83774400000000,B90 2JW,2013-01-22,fhrs_4_en-GB,4,,FHRS,10
344075,Busy Bees Day Nursery,Blythe Gate,Shirley,Solihull,Busy Bees,Hospitals/Childcare/Caring Premises,5,5,,523187,0,,52.37370900000000,10305,426,pprotection@solihull.gov.uk,Solihull,http://www.solihull.gov.uk/foodhygieneratingscheme/default.htm,-1.79880700000000,B90 8AF,2014-06-30,fhrs_5_en-GB,5,,FHRS,0
344076,,2 Newborough Road,Shirley,"Solihull, West Midlands",Busy Little Bees Nursery,Hospitals/Childcare/Caring Premises,5,5,,524685,5,,52.41159600000000,96369,426,pprotection@solihull.gov.uk,Solihull,http://www.solihull.gov.uk/foodhygieneratingscheme/default.htm,-1.83538800000000,B90 2HA,2014-07-07,fhrs_5_en-GB,5,,FHRS,5
344077,,115-117 Hobs Moat Road,Elmdon,"Solihull, West Midlands",Butchery Section Michaels Food Market,Retailers - other,4613,10,,523326,15,,52.44497600000000,105982,426,pprotection@solihull.gov.uk,Solihull,http://www.solihull.gov.uk/foodhygieneratingscheme/default.htm,-1.78494800000000,B92 8JN,2014-06-09,fhrs_2_en-GB,2,,FHRS,10
344078,,252 Gospel Lane,Olton,"Solihull, Birmingham, West Mid",C J News,Retailers - other,4613,10,,524616,10,,52.43541900000000,94871,426,pprotection@solihull.gov.uk,Solihull,http://www.solihull.gov.uk/foodhygieneratingscheme/default.htm,-1.81648700000000,B27 7AH,2010-05-06,fhrs_3_en-GB,3,,FHRS,5
344079,Birmingham International Airpo,Airport Way,Birmingham Airport,"Solihull, West Midlands","C.P.U Soho Coffee, Airside T2",Restaurant/Cafe/Canteen,1,5,,523457,5,,52.44731400000000,108453,426,pprotection@solihull.gov.uk,Solihull,http://www.solihull.gov.uk/foodhygieneratingscheme/default.htm,-1.73626500000000,B26 3QY,2013-02-15,fhrs_4_en-GB,4,,FHRS,10
344080,Four Ashes Golf Club,Four Ashes Road,Dorridge,Solihull,Caddyshack Cafe & Bar,Restaurant/Cafe/Canteen,1,10,,702394,5,,52.37722100000000,110205,426,pprotection@solihull.gov.uk,Solihull,http://www.solihull.gov.uk/foodhygieneratingscheme/default.htm,-1.77211400000000,B93 8NQ,2014-09-02,fhrs_4_en-GB,4,,FHRS,5
344081,,Lower West Mall,Unit 1LG,Bosworth Drive,Cafe Greggs,Restaurant/Cafe/Canteen,1,0,,523661,5,,52.47932800000000,109551,426,pprotection@solihull.gov.uk,Solihull,http://www.solihull.gov.uk/foodhygieneratingscheme/default.htm,-1.74088800000000,B37 5EX,2013-01-28,fhrs_5_en-GB,5,,FHRS,5
344082,,134 High Street,Solihull,West Midlands,Cafe Rouge,Restaurant/Cafe/Canteen,1,0,,523392,0,,52.41222900000000,10799,426,pprotection@solihull.gov.uk,Solihull,http://www.solihull.gov.uk/foodhygieneratingscheme/default.htm,-1.77722700000000,B91 3SX,2014-06-04,fhrs_5_en-GB,5,,FHRS,0
344083,,403 Stratford Road,Shirley,"Solihull, West Midlands",Cafe Shirley,Restaurant/Cafe/Canteen,1,20,,524655,10,,52.40476200000000,95629,426,pprotection@solihull.gov.uk,Solihull,http://www.solihull.gov.uk/foodhygieneratingscheme/default.htm,-1.82230200000000,B90 4AA,2014-11-24,fhrs_1_en-GB,1,,FHRS,10
344084,,376 Kenilworth Road,Balsall Common,"Solihull, West Midlands",Cafe Tamarinds,Restaurant/Cafe/Canteen,1,10,,523781,10,,52.39343400000000,17842,426,pprotection@solihull.gov.uk,Solihull,http://www.solihull.gov.uk/foodhygieneratingscheme/default.htm,-1.65182300000000,CV7 7ER,2014-01-22,fhrs_3_en-GB,3,,FHRS,10
344085,Unit 2,15-19 High Street,Solihull,,Caffe Nero,Restaurant/Cafe/Canteen,1,0,,523598,0,,52.41376900000000,109367,426,pprotection@solihull.gov.uk,Solihull,http://www.solihull.gov.uk/foodhygieneratingscheme/default.htm,-1.77873300000000,B91 3SJ,2012-08-07,fhrs_5_en-GB,5,,FHRS,0
344086,Birmingham International Airport,Airport Way,Birmingham Airport,Solihull,Caffe Nero - T1 Arrivals Airport,Restaurant/Cafe/Canteen,1,0,,523607,0,,52.44731400000000,109380,426,pprotection@solihull.gov.uk,Solihull,http://www.solihull.gov.uk/foodhygieneratingscheme/default.htm,-1.73626500000000,B26 3QY,2014-01-24,fhrs_5_en-GB,5,,FHRS,0
344087,Birmingham International Stati,Bickenhill Lane,Marston Green,"Solihull, Birmingham, West Mid",Caffe Ritazza,Restaurant/Cafe/Canteen,1,0,,524371,10,,52.45217500000000,90250,426,pprotection@solihull.gov.uk,Solihull,http://www.solihull.gov.uk/foodhygieneratingscheme/default.htm,-1.72350800000000,B40 1PA,2013-12-16,fhrs_4_en-GB,4,,FHRS,5
344088,Unit 1 Star Court Rear Of 1,Cornyx Lane,Solihull,,Cake Fantastique,Restaurant/Cafe/Canteen,1,0,,706008,0,,52.42390500000000,110220,426,pprotection@solihull.gov.uk,Solihull,http://www.solihull.gov.uk/foodhygieneratingscheme/default.htm,-1.77133000000000,B91 2SJ,2014-11-12,fhrs_5_en-GB,5,,FHRS,0
344089,,,,,Cake Love Not War,Restaurant/Cafe/Canteen,1,,,629236,,,,109920,426,pprotection@solihull.gov.uk,Solihull,http://www.solihull.gov.uk/foodhygieneratingscheme/default.htm,,,,fhrs_awaitinginspection_en-GB,AwaitingInspection,,FHRS,
344090,,,,,Cake Made With Love,Restaurant/Cafe/Canteen,1,,,629266,,,,109982,426,pprotection@solihull.gov.uk,Solihull,http://www.solihull.gov.uk/foodhygieneratingscheme/default.htm,,,,fhrs_awaitinginspection_en-GB,AwaitingInspection,,FHRS,
344091,,,,,Cakes by Jo,Restaurant/Cafe/Canteen,1,5,,523603,5,,,109374,426,pprotection@solihull.gov.uk,Solihull,http://www.solihull.gov.uk/foodhygieneratingscheme/default.htm,,,2013-03-13,fhrs_5_en-GB,5,,FHRS,5
344092,,6 Gillott Close,Solihull,West Midlands,Calvert's,Hotel/bed & breakfast/guest house,7842,10,,524251,5,,52.41265500000000,87561,426,pprotection@solihull.gov.uk,Solihull,http://www.solihull.gov.uk/foodhygieneratingscheme/default.htm,-1.76070000000000,B91 2QY,2011-02-27,fhrs_4_en-GB,4,,FHRS,0
344093,Camp Farm,Hob Lane,Burton Green,Coventry,Camp Farm Guest House,Hotel/bed & breakfast/guest house,7842,5,,524713,5,,52.38182200000000,96970,426,pprotection@solihull.gov.uk,Solihull,http://www.solihull.gov.uk/foodhygieneratingscheme/default.htm,-1.62934800000000,CV7 7GX,2011-10-03,fhrs_5_en-GB,5,,FHRS,5
344094,Sports Ground Rear  Of,119 Haslucks Green Road,Shirley,"Solihull, West Midlands",Camp Hill Rugby Football Club,Restaurant/Cafe/Canteen,1,10,,524043,10,,52.41128000000000,52831,426,pprotection@solihull.gov.uk,Solihull,http://www.solihull.gov.uk/foodhygieneratingscheme/default.htm,-1.83427200000000,B90 2EF,2012-10-24,fhrs_3_en-GB,3,,FHRS,10
344095,,656 Kenilworth Road,Balsall Common,"Solihull, West Midlands",Capellas,Hospitals/Childcare/Caring Premises,5,5,,523198,5,,52.38546100000000,104708,426,pprotection@solihull.gov.uk,Solihull,http://www.solihull.gov.uk/foodhygieneratingscheme/default.htm,-1.64621400000000,CV7 7DY,2015-01-06,fhrs_5_en-GB,5,,FHRS,0
344096,The Bungalow Solihull Sixth Form College,Widney Manor Road,Solihull,,Capellas,Hospitals/Childcare/Caring Premises,5,0,,629255,0,,52.40587300000000,109956,426,pprotection@solihull.gov.uk,Solihull,http://www.solihull.gov.uk/foodhygieneratingscheme/default.htm,-1.77265800000000,B91 3WR,2014-05-06,fhrs_5_en-GB,5,,FHRS,0
344097,The Lant Recreation Ground,Meeting House Lane,Balsall Common,"Solihull, West Midlands",Capellas Ltd,Hospitals/Childcare/Caring Premises,5,5,,524789,5,,52.39102800000000,98408,426,pprotection@solihull.gov.uk,Solihull,http://www.solihull.gov.uk/foodhygieneratingscheme/default.htm,-1.64689000000000,CV7 7FX,2012-10-11,fhrs_5_en-GB,5,,FHRS,5
344098,,43 Drury Lane,Solihull,West Midlands,Cappuccino,Restaurant/Cafe/Canteen,1,5,,523468,5,,52.41403300000000,108524,426,pprotection@solihull.gov.uk,Solihull,http://www.solihull.gov.uk/foodhygieneratingscheme/default.htm,-1.77557100000000,B91 3BP,2014-03-19,fhrs_5_en-GB,5,,FHRS,5
344099,,170 Windward Way,Smiths Wood,"Solihull, Birmingham, West Mid",Caretech,Hospitals/Childcare/Caring Premises,5,5,,524129,0,,52.49876200000000,66960,426,pprotection@solihull.gov.uk,Solihull,http://www.solihull.gov.uk/foodhygieneratingscheme/default.htm,-1.74383800000000,B36 0PS,2015-01-20,fhrs_5_en-GB,5,,FHRS,0
344100,,1 Yorkminster Drive,Chelmsley Wood,"Solihull, Birmingham, West Mid",Caretech Community Services,Hospitals/Childcare/Caring Premises,5,5,,524711,5,,52.48055900000000,96952,426,pprotection@solihull.gov.uk,Solihull,http://www.solihull.gov.uk/foodhygieneratingscheme/default.htm,-1.73251800000000,B37 7UG,2010-12-02,fhrs_5_en-GB,5,,FHRS,5
344101,,45 Danzey Green Road,Castle Bromwich,"Solihull, Birmingham, West Mid",Caretech Community Services,Hospitals/Childcare/Caring Premises,5,5,,524725,5,,52.50844600000000,97286,426,pprotection@solihull.gov.uk,Solihull,http://www.solihull.gov.uk/foodhygieneratingscheme/default.htm,-1.78049800000000,B36 9EE,2011-02-27,fhrs_5_en-GB,5,,FHRS,0
344102,,43 Danzey Green Road,Castle Bromwich,"Solihull, Birmingham, West Mid",Caretech Community Services,Hospitals/Childcare/Caring Premises,5,5,,524731,5,,52.50844600000000,97492,426,pprotection@solihull.gov.uk,Solihull,http://www.solihull.gov.uk/foodhygieneratingscheme/default.htm,-1.78049800000000,B36 9EE,2011-02-27,fhrs_5_en-GB,5,,FHRS,0
344103,,41 Danzey Green Road,Castle Bromwich,"Solihull, Birmingham, West Mid",Caretech Community Services,Hospitals/Childcare/Caring Premises,5,0,,524549,5,,52.50844600000000,93285,426,pprotection@solihull.gov.uk,Solihull,http://www.solihull.gov.uk/foodhygieneratingscheme/default.htm,-1.78049800000000,B36 9EE,2011-02-27,fhrs_5_en-GB,5,,FHRS,5
344104,,,,,Caribbean Food,Restaurant/Cafe/Canteen,1,,,734787,,,,110323,426,pprotection@solihull.gov.uk,Solihull,http://www.solihull.gov.uk/foodhygieneratingscheme/default.htm,,,,fhrs_awaitinginspection_en-GB,AwaitingInspection,,FHRS,
344105,,,,,Carrasco Burrito,Restaurant/Cafe/Canteen,1,10,,523482,5,,,108687,426,pprotection@solihull.gov.uk,Solihull,http://www.solihull.gov.uk/foodhygieneratingscheme/default.htm,,,2014-10-16,fhrs_4_en-GB,4,,FHRS,5
344106,,,,,Carrot Tops,Restaurant/Cafe/Canteen,1,5,,524718,0,,,97029,426,pprotection@solihull.gov.uk,Solihull,http://www.solihull.gov.uk/foodhygieneratingscheme/default.htm,,,2012-10-24,fhrs_5_en-GB,5,,FHRS,5
344107,,381 Stratford Road,Shirley,Solihull,Caspian Pizza,Restaurant/Cafe/Canteen,1,5,,523703,5,,52.40622000000000,109718,426,pprotection@solihull.gov.uk,Solihull,http://www.solihull.gov.uk/foodhygieneratingscheme/default.htm,-1.82326600000000,B90 3BW,2014-03-05,fhrs_4_en-GB,4,,FHRS,10
344108,Castle Bromwich Playing Fields,Water Orton Road,Castle Bromwich,"Solihull, Birmingham, West Mid",Castle Bromwich Cricket and Sports Club,Pub/bar/nightclub,7843,10,,524853,5,,52.50646300000000,99754,426,pprotection@solihull.gov.uk,Solihull,http://www.solihull.gov.uk/foodhygieneratingscheme/default.htm,-1.77280300000000,B36 9EY,2011-02-27,fhrs_3_en-GB,3,,FHRS,10
344109,Castle Bromwich Hall Hotel,Chester Road,Solihull,,Castle Bromwich Hall Hotel,Hotel/bed & breakfast/guest house,7842,10,,523523,15,,52.50586700000000,108949,426,pprotection@solihull.gov.uk,Solihull,http://www.solihull.gov.uk/foodhygieneratingscheme/default.htm,-1.79103000000000,B36 9DE,2014-03-10,fhrs_1_en-GB,1,,FHRS,20
344110,Castle Bromwich Infant School,Green Lane,Castle Bromwich,"Solihull, Birmingham, West Mid",Castle Bromwich Infant School,School/college/university,7845,5,,524080,0,,52.50669900000000,58274,426,pprotection@solihull.gov.uk,Solihull,http://www.solihull.gov.uk/foodhygieneratingscheme/default.htm,-1.76047000000000,B36 0BX,2012-09-20,fhrs_5_en-GB,5,,FHRS,0
344111,Castle Bromwich Junior School,Hurst Lane North,Castle Bromwich,"Solihull, Birmingham, West Mid",Castle Bromwich Junior School,School/college/university,7845,0,,524005,0,,52.50319100000000,46815,426,pprotection@solihull.gov.uk,Solihull,http://www.solihull.gov.uk/foodhygieneratingscheme/default.htm,-1.76384800000000,B36 0HD,2011-09-22,fhrs_5_en-GB,5,,FHRS,5
344112,,78 Chester Road,Solihull,"Birmingham, West Midlands",Castle Bromwich Mens Club,Pub/bar/nightclub,7843,10,,523988,5,,52.50521500000000,43448,426,pprotection@solihull.gov.uk,Solihull,http://www.solihull.gov.uk/foodhygieneratingscheme/default.htm,-1.78332800000000,B36 9BU,2011-02-27,fhrs_4_en-GB,4,,FHRS,5
344113,,202 Bradford Road,Castle Bromwich,"Solihull, Birmingham, West Mid",Castle Convenience Store,Retailers - other,4613,10,,523813,10,,52.50150700000000,22664,426,pprotection@solihull.gov.uk,Solihull,http://www.solihull.gov.uk/foodhygieneratingscheme/default.htm,-1.78119600000000,B36 9AA,2012-11-27,fhrs_3_en-GB,3,,FHRS,5
344114,,78-80 Windleaves Road,Castle Bromwich,"Solihull, Birmingham, West Mid",Castle House,Takeaway/sandwich shop,7844,10,,524052,5,,52.50662500000000,53573,426,pprotection@solihull.gov.uk,Solihull,http://www.solihull.gov.uk/foodhygieneratingscheme/default.htm,-1.75952800000000,B36 0BT,2011-11-09,fhrs_4_en-GB,4,,FHRS,0
344115,Solihull College,Blossomfield Road,Solihull,,Catering by Churchill,Restaurant/Cafe/Canteen,1,,,734786,,,52.40957600000000,110322,426,pprotection@solihull.gov.uk,Solihull,http://www.solihull.gov.uk/foodhygieneratingscheme/default.htm,-1.79216100000000,B91 1SB,,fhrs_awaitinginspection_en-GB,AwaitingInspection,,FHRS,
344116,Catherine De Barnes Cricket Cl,Hampton Lane,Catherine De Barnes,"Solihull, West Midlands",Catherine De Barnes Cricket Club,Restaurant/Cafe/Canteen,1,10,,524724,10,,52.42075000000000,97210,426,pprotection@solihull.gov.uk,Solihull,http://www.solihull.gov.uk/foodhygieneratingscheme/default.htm,-1.73705600000000,B91 2TJ,2009-06-05,fhrs_3_en-GB,3,,FHRS,10
344117,Central Library,Homer Road,Solihull,West Midlands,Central Library & Arts Complex Cafe Bar,Restaurant/Cafe/Canteen,1,5,,524403,5,,52.41167700000000,91055,426,pprotection@solihull.gov.uk,Solihull,http://www.solihull.gov.uk/foodhygieneratingscheme/default.htm,-1.78005200000000,B91 3RG,2014-03-26,fhrs_4_en-GB,4,,FHRS,10
344118,,347 Haslucks Green Road,Shirley,"Solihull, West Midlands",Chaggers Supermarket,Retailers - other,4613,10,,524049,5,,52.40465700000000,53012,426,pprotection@solihull.gov.uk,Solihull,http://www.solihull.gov.uk/foodhygieneratingscheme/default.htm,-1.84323400000000,B90 2NG,2013-06-26,fhrs_3_en-GB,3,,FHRS,10
344119,"Terminal 1, Birmingham Interna",Airport Way,Birmingham Airport,"Solihull, Birmingham, West Mid",Champagne bar ; Select Service Partner,Restaurant/Cafe/Canteen,1,0,,523434,0,,52.44731400000000,108213,426,pprotection@solihull.gov.uk,Solihull,http://www.solihull.gov.uk/foodhygieneratingscheme/default.htm,-1.73626500000000,B26 3QY,2013-01-23,fhrs_5_en-GB,5,,FHRS,5
344120,Chapel Fields Junior School,Lyndon Road,Solihull,West Midlands,Chapel Fields Primary School,School/college/university,7845,0,,523851,0,,52.44561800000000,26441,426,pprotection@solihull.gov.uk,Solihull,http://www.solihull.gov.uk/foodhygieneratingscheme/default.htm,-1.79758300000000,B92 7QF,2012-04-04,fhrs_5_en-GB,5,,FHRS,5
344121,,12 Springfield Road,Castle Bromwich,"Solihull, Birmingham, West Mid",Charles John Giles,Mobile caterer,7846,5,,524001,5,,52.50521100000000,4568,426,pprotection@solihull.gov.uk,Solihull,http://www.solihull.gov.uk/foodhygieneratingscheme/default.htm,-1.77179300000000,B36 0DT,2011-02-27,fhrs_5_en-GB,5,,FHRS,5
344122,,68 Moorlands Drive,Shirley,"Solihull, Solihull",Charlie's Candy Shop,Mobile caterer,7846,5,,523577,5,,52.40790300000000,109294,426,pprotection@solihull.gov.uk,Solihull,http://www.solihull.gov.uk/foodhygieneratingscheme/default.htm,-1.81815900000000,B90 3RE,2012-01-24,fhrs_5_en-GB,5,,FHRS,5
344123,Steria Limited Ground Floor,3 Trinity Park,Bickenhill Lane,Solihull,Charlton House Catering (Steria),Restaurant/Cafe/Canteen,1,,,707542,,,52.44694200000000,110247,426,pprotection@solihull.gov.uk,Solihull,http://www.solihull.gov.uk/foodhygieneratingscheme/default.htm,-1.72314300000000,B37 7ES,,fhrs_awaitinginspection_en-GB,AwaitingInspection,,FHRS,
344124,,,,,Cheese Cob Ray,Restaurant/Cafe/Canteen,1,5,,524726,5,,,97370,426,pprotection@solihull.gov.uk,Solihull,http://www.solihull.gov.uk/foodhygieneratingscheme/default.htm,,,2011-02-27,fhrs_5_en-GB,5,,FHRS,0
344125,,105 Alder Drive,Chelmsley Wood,Birmingham,Chelmsley Chippy,Takeaway/sandwich shop,7844,20,,632147,15,,52.47426300000000,109997,426,pprotection@solihull.gov.uk,Solihull,http://www.solihull.gov.uk/foodhygieneratingscheme/default.htm,-1.73517700000000,B37 7QG,2014-01-06,fhrs_1_en-GB,1,,FHRS,15
344126,Chelmsley Wood Baptist Church,Hedingham Grove,Chelmsley Wood,"Solihull, Birmingham, West Mid",Chelmsley Wood Baptist Church Centre,Restaurant/Cafe/Canteen,1,10,,523764,10,,52.47737600000000,16136,426,pprotection@solihull.gov.uk,Solihull,http://www.solihull.gov.uk/foodhygieneratingscheme/default.htm,-1.72825300000000,B37 7TP,2012-04-26,fhrs_3_en-GB,3,,FHRS,10
344127,,174 Bosworth Drive,Fordbridge,"Solihull, Birmingham, West Mid",Chelmsley Wood Conservative Club,Pub/bar/nightclub,7843,10,,524180,10,,52.47886000000000,76585,426,pprotection@solihull.gov.uk,Solihull,http://www.solihull.gov.uk/foodhygieneratingscheme/default.htm,-1.74479300000000,B37 5DZ,2012-11-22,fhrs_3_en-GB,3,,FHRS,10
344128,Chelmsley Wood Garage,Chester Road,Solihull,"Birmingham, West Midlands",Chelmsley Wood Service Station,Retailers - other,4613,0,,523756,0,,52.49023600000000,14610,426,pprotection@solihull.gov.uk,Solihull,http://www.solihull.gov.uk/foodhygieneratingscheme/default.htm,-1.73824700000000,B37 6RD,2012-07-17,fhrs_5_en-GB,5,,FHRS,5
344129,,48 Meriden Road,Hampton In Arden,"Solihull, West Midlands",Chelsea Lodge B&B,Hotel/bed & breakfast/guest house,7842,10,,524227,0,,52.43078500000000,83635,426,pprotection@solihull.gov.uk,Solihull,http://www.solihull.gov.uk/foodhygieneratingscheme/default.htm,-1.69652000000000,B92 0BT,2011-02-27,fhrs_4_en-GB,4,,FHRS,0
344130,Golden Wok,343 Chester Road,Castle Bromwich,,chester road,Takeaway/sandwich shop,7844,,,691487,,,52.50133700000000,110129,426,pprotection@solihull.gov.uk,Solihull,http://www.solihull.gov.uk/foodhygieneratingscheme/default.htm,-1.76737900000000,B36 0JE,,fhrs_awaitinginspection_en-GB,AwaitingInspection,,FHRS,
344131,Cheswick Green Primary School,Cheswick Way,Cheswick Green,"Solihull, West Midlands",Cheswick Green Primary School,School/college/university,7845,5,,523928,5,,52.38158500000000,35612,426,pprotection@solihull.gov.uk,Solihull,http://www.solihull.gov.uk/foodhygieneratingscheme/default.htm,-1.81036300000000,B90 4HG,2012-10-03,fhrs_5_en-GB,5,,FHRS,5
344132,City Technology College,Cooks Lane,Kingshurst,"Solihull, Birmingham, West Mid",Child First Nursery,Hospitals/Childcare/Caring Premises,5,0,,524422,0,,52.48767400000000,91377,426,pprotection@solihull.gov.uk,Solihull,http://www.solihull.gov.uk/foodhygieneratingscheme/default.htm,-1.74615600000000,B37 6NU,2014-02-25,fhrs_5_en-GB,5,,FHRS,0
344133,,47 Mill Lane Arcade,Solihull,,Chimichanga,Restaurant/Cafe/Canteen,1,0,,621572,5,,52.41241300000000,109858,426,pprotection@solihull.gov.uk,Solihull,http://www.solihull.gov.uk/foodhygieneratingscheme/default.htm,-1.77940200000000,B91 3GS,2014-05-06,fhrs_5_en-GB,5,,FHRS,0
344134,,202 Stratford Road,Shirley,"Solihull, Solihull",Chop and Wok,Restaurant/Cafe/Canteen,1,5,,523574,5,,52.41244800000000,109278,426,pprotection@solihull.gov.uk,Solihull,http://www.solihull.gov.uk/foodhygieneratingscheme/default.htm,-1.82774000000000,B90 3AQ,2014-02-18,fhrs_5_en-GB,5,,FHRS,0
344135,Coleshill Heath School,Marlene Croft,Chelmsley Wood,"Solihull, Birmingham, West Mid",Chuckles & Chums,School/college/university,7845,5,,524421,0,,52.47505400000000,91376,426,pprotection@solihull.gov.uk,Solihull,http://www.solihull.gov.uk/foodhygieneratingscheme/default.htm,-1.73096100000000,B37 7JT,2014-05-27,fhrs_5_en-GB,5,,FHRS,0
344136,,8 Hurst Lane,Castle Bromwich,Birmingham,Chutney Express,Takeaway/sandwich shop,7844,5,,629251,10,,52.49949600000000,109949,426,pprotection@solihull.gov.uk,Solihull,http://www.solihull.gov.uk/foodhygieneratingscheme/default.htm,-1.76397100000000,B34 7HR,2013-12-02,fhrs_4_en-GB,4,,FHRS,5
344137,,47 Mill Lane Arcade,Solihull,West Midlands,Cineworld,Restaurant/Cafe/Canteen,1,0,,524464,5,,52.41241300000000,92096,426,pprotection@solihull.gov.uk,Solihull,http://www.solihull.gov.uk/foodhygieneratingscheme/default.htm,-1.77940200000000,B91 3GS,2012-10-15,fhrs_5_en-GB,5,,FHRS,5
344138,The Harvester Public House,Tanhouse Farm Road,Elmdon,Solihull,Cinnamon Lounge & Takeaway,Takeaway/sandwich shop,7844,,,691503,,,52.44232800000000,110163,426,pprotection@solihull.gov.uk,Solihull,http://www.solihull.gov.uk/foodhygieneratingscheme/default.htm,-1.77266200000000,B92 9EY,,fhrs_awaitinginspection_en-GB,AwaitingInspection,,FHRS,
344139,,130 Lode Lane,Solihull,,Claire's Quality Cakes,Restaurant/Cafe/Canteen,1,,,621553,,,52.42433800000000,109819,426,pprotection@solihull.gov.uk,Solihull,http://www.solihull.gov.uk/foodhygieneratingscheme/default.htm,-1.77676900000000,B91 2HN,2014-12-01,fhrs_awaitinginspection_en-GB,AwaitingInspection,,FHRS,
344140,,222 Stratford Road,Shirley,"Solihull, West Midlands",Classic Meats,Retailers - other,4613,5,,524589,5,,52.41144000000000,94190,426,pprotection@solihull.gov.uk,Solihull,http://www.solihull.gov.uk/foodhygieneratingscheme/default.htm,-1.82720000000000,B90 3AG,2014-03-18,fhrs_4_en-GB,4,,FHRS,10
344141,,2-8 Greenwood Way,Chelmsley Wood,Birmingham,Clive Smith Butchers,Retailers - other,4613,10,,629269,10,,52.47934300000000,109989,426,pprotection@solihull.gov.uk,Solihull,http://www.solihull.gov.uk/foodhygieneratingscheme/default.htm,-1.73925400000000,B37 5TL,2014-10-02,fhrs_3_en-GB,3,,FHRS,10
344142,,,,,Cloud Bakery,Manufacturers/packers,7839,10,,718133,5,,,110279,426,pprotection@solihull.gov.uk,Solihull,http://www.solihull.gov.uk/foodhygieneratingscheme/default.htm,,,2014-11-06,fhrs_4_en-GB,4,,FHRS,5
344143,Clovelly,269 Coleshill Heath Road,Chelmsley Wood,"Solihull, Birmingham, West Mid",Clovelly Guest House,Hotel/bed & breakfast/guest house,7842,5,,524108,5,,52.46885000000000,64873,426,pprotection@solihull.gov.uk,Solihull,http://www.solihull.gov.uk/foodhygieneratingscheme/default.htm,-1.72662700000000,B37 7HY,2011-09-08,fhrs_5_en-GB,5,,FHRS,5
344144,,252 Longmore Road,Shirley,"Solihull, West Midlands",Co Operative Supermarket,Retailers - supermarkets/hypermarkets,7840,5,,524638,0,,52.40330700000000,95375,426,pprotection@solihull.gov.uk,Solihull,http://www.solihull.gov.uk/foodhygieneratingscheme/default.htm,-1.81118100000000,B90 3ES,2011-06-01,fhrs_5_en-GB,5,,FHRS,5
344145,Coach And Horses,The Green,Castle Bromwich,"Solihull, Birmingham, West Mid",Coach & Horses,Pub/bar/nightclub,7843,0,,523404,5,,52.50246300000000,10805,426,pprotection@solihull.gov.uk,Solihull,http://www.solihull.gov.uk/foodhygieneratingscheme/default.htm,-1.78260500000000,B36 9AR,2014-01-30,fhrs_5_en-GB,5,,FHRS,5
344146,Coach House,Herbert Road,Solihull,West Midlands,Coach House,Pub/bar/nightclub,7843,5,,524100,10,,52.41310200000000,62728,426,pprotection@solihull.gov.uk,Solihull,http://www.solihull.gov.uk/foodhygieneratingscheme/default.htm,-1.78270600000000,B91 3QE,2012-12-03,fhrs_4_en-GB,4,,FHRS,5
344147,,44 Mill Lane Arcade,Solihull,,Coast to Coast,Restaurant/Cafe/Canteen,1,0,,523629,0,,52.41241300000000,109447,426,pprotection@solihull.gov.uk,Solihull,http://www.solihull.gov.uk/foodhygieneratingscheme/default.htm,-1.77940200000000,B91 3GS,2013-02-25,fhrs_5_en-GB,5,,FHRS,5
344148,Brooklands,Coleshill Road,Marston Green,Birmingham,Coffee Bar - Brooklands Hospital,Restaurant/Cafe/Canteen,1,5,,682756,5,,52.46815600000000,110105,426,pprotection@solihull.gov.uk,Solihull,http://www.solihull.gov.uk/foodhygieneratingscheme/default.htm,-1.73755400000000,B37 7HL,2014-10-07,fhrs_5_en-GB,5,,FHRS,0
344149,,36 Main Street,Dickens Heath,"Solihull, West Midlands",Coffee Cloud,Restaurant/Cafe/Canteen,1,5,,523543,5,,52.38505900000000,109127,426,pprotection@solihull.gov.uk,Solihull,http://www.solihull.gov.uk/foodhygieneratingscheme/default.htm,-1.83685300000000,B90 1UA,2014-03-04,fhrs_5_en-GB,5,,FHRS,0
344150,,22 Valley Road,Elmdon,"Solihull, West Midlands",Coffee Roamer,Mobile caterer,7846,5,,523338,5,,52.44967000000000,106052,426,pprotection@solihull.gov.uk,Solihull,http://www.solihull.gov.uk/foodhygieneratingscheme/default.htm,-1.77619900000000,B92 9AD,2010-11-01,fhrs_5_en-GB,5,,FHRS,5
344151,,143 Stratford Road,Shirley,"Solihull, West Midlands",Coffee Roaster,Restaurant/Cafe/Canteen,1,10,,523915,15,,52.41445300000000,34218,426,pprotection@solihull.gov.uk,Solihull,http://www.solihull.gov.uk/foodhygieneratingscheme/default.htm,-1.82804100000000,B90 3AY,2012-11-05,fhrs_2_en-GB,2,,FHRS,10
344152,Solihull Hospital,Lode Lane,Solihull,West Midlands,Coffee Shop,Hospitals/Childcare/Caring Premises,5,0,,524320,0,,52.41713200000000,89453,426,pprotection@solihull.gov.uk,Solihull,http://www.solihull.gov.uk/foodhygieneratingscheme/default.htm,-1.77437900000000,B91 2JL,2014-05-20,fhrs_5_en-GB,5,,FHRS,0
344153,,319 Chester Road,Solihull,"Birmingham, West Midlands",Cola Fish Saloon,Takeaway/sandwich shop,7844,10,,523795,5,,52.50147900000000,2040,426,pprotection@solihull.gov.uk,Solihull,http://www.solihull.gov.uk/foodhygieneratingscheme/default.htm,-1.76173600000000,B36 0JG,2014-03-24,fhrs_4_en-GB,4,,FHRS,5
344154,Coldlands Colts Afc,Field Lane,Solihull,West Midlands,Coldland Colts,Restaurant/Cafe/Canteen,1,10,,524285,5,,52.41923000000000,88861,426,pprotection@solihull.gov.uk,Solihull,http://www.solihull.gov.uk/foodhygieneratingscheme/default.htm,-1.74941600000000,B91 2RT,2008-03-27,fhrs_4_en-GB,4,,FHRS,5
344155,,291 Bosworth Drive,Fordbridge,"Solihull, Birmingham, West Mid",Colebrook Centre,Hospitals/Childcare/Caring Premises,5,0,,524193,5,,52.47957200000000,78731,426,pprotection@solihull.gov.uk,Solihull,http://www.solihull.gov.uk/foodhygieneratingscheme/default.htm,-1.74564300000000,B37 5DP,2014-02-25,fhrs_5_en-GB,5,,FHRS,0
344156,,63 Colebrook Road,Shirley,"Solihull, West Midlands",Colebrook News,Retailers - other,4613,10,,523894,10,,52.40712400000000,31627,426,pprotection@solihull.gov.uk,Solihull,http://www.solihull.gov.uk/foodhygieneratingscheme/default.htm,-1.84584200000000,B90 2JZ,2014-06-20,fhrs_4_en-GB,4,,FHRS,0
344157,Coleshill Heath School,Marlene Croft,Chelmsley Wood,"Solihull, Birmingham, West Mid",Coleshill Heath Primary & Junior School,School/college/university,7845,0,,524439,0,,52.47505400000000,91689,426,pprotection@solihull.gov.uk,Solihull,http://www.solihull.gov.uk/foodhygieneratingscheme/default.htm,-1.73096100000000,B37 7JT,2012-01-16,fhrs_5_en-GB,5,,FHRS,5
344158,,1 Coppice Close,Cheswick Green,"Solihull, West Midlands",Communal Home,Hospitals/Childcare/Caring Premises,5,5,,524156,5,,52.37819000000000,71638,426,pprotection@solihull.gov.uk,Solihull,http://www.solihull.gov.uk/foodhygieneratingscheme/default.htm,-1.81809000000000,B90 4HX,2011-02-27,fhrs_5_en-GB,5,,FHRS,5
344159,,268 Creynolds Lane,Cheswick Green,"Solihull, West Midlands",Communal Home,Hospitals/Childcare/Caring Premises,5,5,,524127,5,,52.37879900000000,66872,426,pprotection@solihull.gov.uk,Solihull,http://www.solihull.gov.uk/foodhygieneratingscheme/default.htm,-1.81059500000000,B90 4ET,2011-02-27,fhrs_5_en-GB,5,,FHRS,5
344160,,137 Bills Lane,Shirley,"Solihull, West Midlands",Communal Home,Hospitals/Childcare/Caring Premises,5,0,,523927,0,,52.40242600000000,35412,426,pprotection@solihull.gov.uk,Solihull,http://www.solihull.gov.uk/foodhygieneratingscheme/default.htm,-1.83543700000000,B90 2PQ,2011-02-27,fhrs_5_en-GB,5,,FHRS,0
344161,,11 Eden Grove,Chelmsley Wood,"Solihull, Birmingham, West Mid",Communal Home,Hospitals/Childcare/Caring Premises,5,10,,523837,5,,52.47291700000000,24779,426,pprotection@solihull.gov.uk,Solihull,http://www.solihull.gov.uk/foodhygieneratingscheme/default.htm,-1.72808900000000,B37 7JN,2011-02-27,fhrs_4_en-GB,4,,FHRS,5
344162,,9 Hurst Green Road,Bentley Heath,"Solihull, West Midlands",Communal Housing,Hospitals/Childcare/Caring Premises,5,5,,524104,5,,52.38175900000000,63960,426,pprotection@solihull.gov.uk,Solihull,http://www.solihull.gov.uk/foodhygieneratingscheme/default.htm,-1.75748800000000,B93 8AE,2011-02-27,fhrs_5_en-GB,5,,FHRS,5
344163,2 Woodside,Downing Close,Knowle,"Solihull, West Midlands",Communal Housing,Hospitals/Childcare/Caring Premises,5,0,,523749,0,,52.37980800000000,13992,426,pprotection@solihull.gov.uk,Solihull,http://www.solihull.gov.uk/foodhygieneratingscheme/default.htm,-1.74477600000000,B93 0QA,2011-02-27,fhrs_5_en-GB,5,,FHRS,0
344164,3 Woodside,Downing Close,Knowle,"Solihull, West Midlands",Communal Housing,Hospitals/Childcare/Caring Premises,5,10,,523752,5,,52.37980800000000,14169,426,pprotection@solihull.gov.uk,Solihull,http://www.solihull.gov.uk/foodhygieneratingscheme/default.htm,-1.74477600000000,B93 0QA,2011-02-27,fhrs_4_en-GB,4,,FHRS,5
344165,,31 Homer Road,Solihull,,"Compass, National Grid",Restaurant/Cafe/Canteen,1,,,621586,,,52.41282500000000,109900,426,pprotection@solihull.gov.uk,Solihull,http://www.solihull.gov.uk/foodhygieneratingscheme/default.htm,-1.78379500000000,B91 3LT,2014-06-09,fhrs_awaitinginspection_en-GB,AwaitingInspection,,FHRS,
344166,Atrium Halls,National Exhibition Centre,Bickenhill,"Solihull, Birmingham, West Mid",Concourse Suite 1,Restaurant/Cafe/Canteen,1,0,,524380,0,,52.45326600000000,90379,426,pprotection@solihull.gov.uk,Solihull,http://www.solihull.gov.uk/foodhygieneratingscheme/default.htm,-1.71715800000000,B40 1NT,2013-03-21,fhrs_5_en-GB,5,,FHRS,0
344167,Atrium Halls,National Exhibition Centre,Bickenhill,"Solihull, Birmingham, West Mid",Concourse Suite Bar,Restaurant/Cafe/Canteen,1,5,,524383,5,,52.45326600000000,90423,426,pprotection@solihull.gov.uk,Solihull,http://www.solihull.gov.uk/foodhygieneratingscheme/default.htm,-1.71715800000000,B40 1NT,2011-02-27,fhrs_5_en-GB,5,,FHRS,5
344168,,10 Coventry Road,Solihull,"Birmingham, West Midlands",Conifer Cottage,Hotel/bed & breakfast/guest house,7842,10,,524030,5,,52.44589200000000,51398,426,pprotection@solihull.gov.uk,Solihull,http://www.solihull.gov.uk/foodhygieneratingscheme/default.htm,-1.74810200000000,B26 3QS,2011-02-27,fhrs_3_en-GB,3,,FHRS,10
344169,Land Rover Ltd,Lode Lane,Solihull,,Construction Catering,Restaurant/Cafe/Canteen,1,20,,709182,10,,52.43688700000000,110262,426,pprotection@solihull.gov.uk,Solihull,http://www.solihull.gov.uk/foodhygieneratingscheme/default.htm,-1.78092700000000,B92 8NW,2014-09-09,fhrs_1_en-GB,1,,FHRS,15
344170,,355 Warwick Road,Solihull,,Cook,Retailers - other,4613,,,707537,,,52.42920300000000,110241,426,pprotection@solihull.gov.uk,Solihull,http://www.solihull.gov.uk/foodhygieneratingscheme/default.htm,-1.79784900000000,B91 1BQ,,fhrs_awaitinginspection_en-GB,AwaitingInspection,,FHRS,
344171,,,,,Cook a Curry,Restaurant/Cafe/Canteen,1,5,,524779,5,,,98121,426,pprotection@solihull.gov.uk,Solihull,http://www.solihull.gov.uk/foodhygieneratingscheme/default.htm,,,2011-07-06,fhrs_5_en-GB,5,,FHRS,5
344172,,1360 Yardley Wood Road,Solihull Lodge,"Solihull, West Midlands",Coombes House,Hospitals/Childcare/Caring Premises,5,0,,523899,0,,52.40652100000000,31927,426,pprotection@solihull.gov.uk,Solihull,http://www.solihull.gov.uk/foodhygieneratingscheme/default.htm,-1.85966200000000,B90 1JT,2010-09-02,fhrs_5_en-GB,5,,FHRS,5
344173,,122 Haslucks Green Road,Shirley,"Solihull, West Midlands",Co-op,Retailers - supermarkets/hypermarkets,7840,5,,524671,5,,52.41128200000000,96154,426,pprotection@solihull.gov.uk,Solihull,http://www.solihull.gov.uk/foodhygieneratingscheme/default.htm,-1.83565400000000,B90 2EH,2011-06-21,fhrs_5_en-GB,5,,FHRS,5
344174,,343 Kenilworth Road,Balsall Common,"Solihull, West Midlands",Co-Operative Retail Services Ltd,Retailers - supermarkets/hypermarkets,7840,5,,524585,5,,52.39074600000000,94056,426,pprotection@solihull.gov.uk,Solihull,http://www.solihull.gov.uk/foodhygieneratingscheme/default.htm,-1.64902300000000,CV7 7DL,2014-02-12,fhrs_5_en-GB,5,,FHRS,5
344175,,254 Lyndon Road,Solihull,,Co-operative Supermarket,Retailers - other,4613,0,,629231,5,,52.44864200000000,109912,426,pprotection@solihull.gov.uk,Solihull,http://www.solihull.gov.uk/foodhygieneratingscheme/default.htm,-1.79419900000000,B92 7QW,2014-05-12,fhrs_5_en-GB,5,,FHRS,0
344176,,81-87 The Parade,Kingshurst,"Solihull, Birmingham, West Mid",Co-operative Supermarket,Retailers - supermarkets/hypermarkets,7840,5,,524179,10,,52.49420900000000,76506,426,pprotection@solihull.gov.uk,Solihull,http://www.solihull.gov.uk/foodhygieneratingscheme/default.htm,-1.75041900000000,B37 6BB,2013-01-10,fhrs_4_en-GB,4,,FHRS,5
344177,,102-104 Widney Road,Bentley Heath,"Solihull, West Midlands",Co-operative Supermarket,Retailers - supermarkets/hypermarkets,7840,5,,524653,5,,52.38337200000000,95570,426,pprotection@solihull.gov.uk,Solihull,http://www.solihull.gov.uk/foodhygieneratingscheme/default.htm,-1.75536300000000,B93 9BN,2014-02-28,fhrs_5_en-GB,5,,FHRS,5
344178,,4 Farmhouse Way,Monkspath,"Solihull, West Midlands",Co-operative Supermarket,Retailers - supermarkets/hypermarkets,7840,0,,524611,0,,52.39135900000000,94688,426,pprotection@solihull.gov.uk,Solihull,http://www.solihull.gov.uk/foodhygieneratingscheme/default.htm,-1.78485500000000,B90 4EH,2014-02-17,fhrs_5_en-GB,5,,FHRS,0
344179,,3 Coppice Way,Chelmsley Wood,"Solihull, Birmingham, West Mid",Coppice Fast Foods,Takeaway/sandwich shop,7844,5,,523165,10,,52.47903700000000,10025,426,pprotection@solihull.gov.uk,Solihull,http://www.solihull.gov.uk/foodhygieneratingscheme/default.htm,-1.73928500000000,B37 5TX,2014-02-26,fhrs_4_en-GB,4,,FHRS,5
344180,Coppice Junior And Infant Scho,Coppice Road,Solihull,West Midlands,Coppice Junior School,School/college/university,7845,5,,523821,5,,52.42966800000000,2356,426,pprotection@solihull.gov.uk,Solihull,http://www.solihull.gov.uk/foodhygieneratingscheme/default.htm,-1.76252000000000,B92 9JY,2014-02-14,fhrs_5_en-GB,5,,FHRS,5
344181,Coppice Junior And Infant Scho,Coppice Road,Solihull,West Midlands,Coppice Junior School - Busy Lizzies B/a School Club,Hospitals/Childcare/Caring Premises,5,5,,524621,5,,52.42966800000000,94955,426,pprotection@solihull.gov.uk,Solihull,http://www.solihull.gov.uk/foodhygieneratingscheme/default.htm,-1.76252000000000,B92 9JY,2011-02-27,fhrs_5_en-GB,5,,FHRS,5
344182,,1220 Warwick Road,Knowle,"Solihull, West Midlands",Copt Heath Golf Club Ltd - Charles Wheelwright,Restaurant/Cafe/Canteen,1,10,,524591,5,,52.39900500000000,94220,426,pprotection@solihull.gov.uk,Solihull,http://www.solihull.gov.uk/foodhygieneratingscheme/default.htm,-1.74603200000000,B93 9LN,2013-05-23,fhrs_4_en-GB,4,,FHRS,5
344183,Prologis House,Monkspath Hall Road,Monkspath,"Solihull, West Midlands",Corporate Occasions Prologis,Restaurant/Cafe/Canteen,1,0,,524574,0,,52.38948600000000,93765,426,pprotection@solihull.gov.uk,Solihull,http://www.solihull.gov.uk/foodhygieneratingscheme/default.htm,-1.80367300000000,B90 4FY,2012-07-23,fhrs_5_en-GB,5,,FHRS,0
344184,Corus Hotel,Stratford Road,Shirley,"Solihull, West Midlands",Corus Hotel,Hotel/bed & breakfast/guest house,7842,5,,524544,10,,52.38986600000000,93227,426,pprotection@solihull.gov.uk,Solihull,http://www.solihull.gov.uk/foodhygieneratingscheme/default.htm,-1.80539000000000,B90 4EB,2013-03-19,fhrs_4_en-GB,4,,FHRS,5
344185,Sears Retail Park,Oakenshaw Road,Shirley,Solihull,Costa @ Next,Restaurant/Cafe/Canteen,1,,,718137,,,52.40098600000000,110285,426,pprotection@solihull.gov.uk,Solihull,http://www.solihull.gov.uk/foodhygieneratingscheme/default.htm,-1.81632100000000,B90 4QY,,fhrs_awaitinginspection_en-GB,AwaitingInspection,,FHRS,
344186,Birmingham International Airpo,Airport Way,Birmingham Airport,"Solihull, West Midlands",Costa Airport Airside  Pier 46,Restaurant/Cafe/Canteen,1,0,,523500,5,,52.44731400000000,108834,426,pprotection@solihull.gov.uk,Solihull,http://www.solihull.gov.uk/foodhygieneratingscheme/default.htm,-1.73626500000000,B26 3QY,2011-05-23,fhrs_5_en-GB,5,,FHRS,0
344187,,1648 High Street,Knowle,"Solihull, West Midlands",Costa Coffee,Restaurant/Cafe/Canteen,1,5,,523480,5,,52.38845300000000,108665,426,pprotection@solihull.gov.uk,Solihull,http://www.solihull.gov.uk/foodhygieneratingscheme/default.htm,-1.73504300000000,B93 0NA,2012-10-16,fhrs_5_en-GB,5,,FHRS,5
344188,,29 Mill Lane Arcade,Solihull,West Midlands,Costa Coffee,Restaurant/Cafe/Canteen,1,0,,524491,5,,52.41241300000000,92448,426,pprotection@solihull.gov.uk,Solihull,http://www.solihull.gov.uk/foodhygieneratingscheme/default.htm,-1.77940200000000,B91 3GS,2012-11-07,fhrs_5_en-GB,5,,FHRS,5
344189,,196 Stratford Road,Shirley,"Solihull, West Midlands",Costa Coffee,Restaurant/Cafe/Canteen,1,0,,523517,0,,52.41244800000000,108929,426,pprotection@solihull.gov.uk,Solihull,http://www.solihull.gov.uk/foodhygieneratingscheme/default.htm,-1.82774000000000,B90 3AQ,2014-05-21,fhrs_5_en-GB,5,,FHRS,0
344190,Cafe In Centre Of,Mell Square,Solihull,West Midlands,Costa Coffee,Restaurant/Cafe/Canteen,1,5,,524238,10,,52.41395300000000,86648,426,pprotection@solihull.gov.uk,Solihull,http://www.solihull.gov.uk/foodhygieneratingscheme/default.htm,-1.77615900000000,B91 3AY,2013-10-30,fhrs_3_en-GB,3,,FHRS,10
344191,"Terminal 1, Airside",Airport Way,Birmingham Airport,"Solihull, Birmingham, West Mid",Costa Coffee - Airside,Restaurant/Cafe/Canteen,1,5,,523256,0,,52.44731400000000,105146,426,pprotection@solihull.gov.uk,Solihull,http://www.solihull.gov.uk/foodhygieneratingscheme/default.htm,-1.73626500000000,B26 3QY,2014-12-17,fhrs_5_en-GB,5,,FHRS,5
344192,Birmingham International Airpo,Airport Way,Birmingham Airport,"Solihull, West Midlands","Costa, Arrivals Lanside",Restaurant/Cafe/Canteen,1,5,,523489,5,,52.44731400000000,108724,426,pprotection@solihull.gov.uk,Solihull,http://www.solihull.gov.uk/foodhygieneratingscheme/default.htm,-1.73626500000000,B26 3QY,2013-03-27,fhrs_4_en-GB,4,,FHRS,10
344193,,355 Haslucks Green Road,Shirley,"Solihull, West Midlands",Costcutter,Retailers - other,4613,10,,523219,5,,52.40465700000000,104825,426,pprotection@solihull.gov.uk,Solihull,http://www.solihull.gov.uk/foodhygieneratingscheme/default.htm,-1.84323400000000,B90 2NG,2010-03-09,fhrs_3_en-GB,3,,FHRS,10
344194,,63-65 The Parade,Kingshurst,"Solihull, Birmingham, West Mid",Costcutters,Retailers - supermarkets/hypermarkets,7840,20,,524859,10,,52.49420900000000,99814,426,pprotection@solihull.gov.uk,Solihull,http://www.solihull.gov.uk/foodhygieneratingscheme/default.htm,-1.75041900000000,B37 6BB,2014-03-03,fhrs_1_en-GB,1,,FHRS,10
344195,Cottage Farm,Kenilworth Road,Balsall Common,"Solihull, West Midlands",Cottage Farm,Retailers - other,4613,20,,629271,10,,52.43604300000000,59944,426,pprotection@solihull.gov.uk,Solihull,http://www.solihull.gov.uk/foodhygieneratingscheme/default.htm,-1.67921500000000,CV7 7LJ,2014-01-03,fhrs_1_en-GB,1,,FHRS,10
344196,Cottage Farm,100 Illshaw Heath Road,Hockley Heath,"Solihull, West Midlands",Cottage Farm & Stables - Adrian Charles Banqueting,Restaurant/Cafe/Canteen,1,10,,524415,10,,52.36844000000000,91276,426,pprotection@solihull.gov.uk,Solihull,http://www.solihull.gov.uk/foodhygieneratingscheme/default.htm,-1.80917100000000,B94 6DL,2012-10-12,fhrs_3_en-GB,3,,FHRS,10
344197,,,,,Country Market Caterer,Restaurant/Cafe/Canteen,1,5,,524345,10,,,89917,426,pprotection@solihull.gov.uk,Solihull,http://www.solihull.gov.uk/foodhygieneratingscheme/default.htm,,,2011-02-27,fhrs_3_en-GB,3,,FHRS,10
344198,,,,,Country Market Caterer,Restaurant/Cafe/Canteen,1,5,,524694,5,,,96660,426,pprotection@solihull.gov.uk,Solihull,http://www.solihull.gov.uk/foodhygieneratingscheme/default.htm,,,2009-02-13,fhrs_5_en-GB,5,,FHRS,5
344199,,,,,Country Market Caterer,Restaurant/Cafe/Canteen,1,5,,524677,10,,,96217,426,pprotection@solihull.gov.uk,Solihull,http://www.solihull.gov.uk/foodhygieneratingscheme/default.htm,,,2012-01-04,fhrs_3_en-GB,3,,FHRS,10
344200,,,,,Country Market Caterer,Restaurant/Cafe/Canteen,1,5,,523421,0,,,10814,426,pprotection@solihull.gov.uk,Solihull,http://www.solihull.gov.uk/foodhygieneratingscheme/default.htm,,,2011-10-17,fhrs_5_en-GB,5,,FHRS,0
344201,,,,,Country Market Caterer,Restaurant/Cafe/Canteen,1,5,,524168,5,,,74028,426,pprotection@solihull.gov.uk,Solihull,http://www.solihull.gov.uk/foodhygieneratingscheme/default.htm,,,2011-02-27,fhrs_5_en-GB,5,,FHRS,5
344202,,,,,Country Market Caterer,Restaurant/Cafe/Canteen,1,5,,524720,0,,,97138,426,pprotection@solihull.gov.uk,Solihull,http://www.solihull.gov.uk/foodhygieneratingscheme/default.htm,,,2011-08-04,fhrs_5_en-GB,5,,FHRS,5
344203,,,,,Country Market Caterer,Restaurant/Cafe/Canteen,1,10,,524690,5,,,96481,426,pprotection@solihull.gov.uk,Solihull,http://www.solihull.gov.uk/foodhygieneratingscheme/default.htm,,,2009-02-27,fhrs_4_en-GB,4,,FHRS,5
344204,,,,,Country Market Caterer,Restaurant/Cafe/Canteen,1,0,,524735,5,,,97530,426,pprotection@solihull.gov.uk,Solihull,http://www.solihull.gov.uk/foodhygieneratingscheme/default.htm,,,2011-01-11,fhrs_5_en-GB,5,,FHRS,0
344205,,,,,Country Market Caterer,Restaurant/Cafe/Canteen,1,5,,524704,5,,,96802,426,pprotection@solihull.gov.uk,Solihull,http://www.solihull.gov.uk/foodhygieneratingscheme/default.htm,,,2011-01-17,fhrs_5_en-GB,5,,FHRS,5
344206,,,,,Country Market Caterer,Restaurant/Cafe/Canteen,1,0,,524137,0,,,67839,426,pprotection@solihull.gov.uk,Solihull,http://www.solihull.gov.uk/foodhygieneratingscheme/default.htm,,,2008-11-24,fhrs_5_en-GB,5,,FHRS,0
344207,,,,,Country Markets Ltd,Restaurant/Cafe/Canteen,1,10,,524707,0,,,96912,426,pprotection@solihull.gov.uk,Solihull,http://www.solihull.gov.uk/foodhygieneratingscheme/default.htm,,,2011-02-23,fhrs_4_en-GB,4,,FHRS,0
344208,,,,,Couture Cupcakes & Treats,Restaurant/Cafe/Canteen,1,,,629234,,,,109915,426,pprotection@solihull.gov.uk,Solihull,http://www.solihull.gov.uk/foodhygieneratingscheme/default.htm,,,,fhrs_awaitinginspection_en-GB,AwaitingInspection,,FHRS,
344209,Unit 2,The Green,Meriden,"Solihull, West Midlands",Coventry Co-op Ltd,Retailers - other,4613,0,,524331,10,,52.43773600000000,89676,426,pprotection@solihull.gov.uk,Solihull,http://www.solihull.gov.uk/foodhygieneratingscheme/default.htm,-1.64857700000000,CV7 7LN,2010-11-24,fhrs_4_en-GB,4,,FHRS,10
344210,,258 Cranmore Boulevard,Shirley,"Solihull, West Midlands",Cranmore Cafe,Restaurant/Cafe/Canteen,1,5,,523881,10,,52.39681700000000,30016,426,pprotection@solihull.gov.uk,Solihull,http://www.solihull.gov.uk/foodhygieneratingscheme/default.htm,-1.81182600000000,B90 4PX,2014-02-17,fhrs_4_en-GB,4,,FHRS,5
344211,,244 Cranmore Boulevard,Shirley,"Solihull, West Midlands",Cranmore Fish Bar,Takeaway/sandwich shop,7844,5,,524134,5,,52.39681700000000,67688,426,pprotection@solihull.gov.uk,Solihull,http://www.solihull.gov.uk/foodhygieneratingscheme/default.htm,-1.81182600000000,B90 4PX,2014-02-17,fhrs_5_en-GB,5,,FHRS,5
344212,,69-71 Cranmore Road,Shirley,"Solihull, West Midlands",Cranmore Guest House,Hotel/bed & breakfast/guest house,7842,5,,524797,5,,52.39800300000000,98517,426,pprotection@solihull.gov.uk,Solihull,http://www.solihull.gov.uk/foodhygieneratingscheme/default.htm,-1.81145400000000,B90 4PU,2011-02-27,fhrs_5_en-GB,5,,FHRS,5
344213,Cranmore Infant School,Northland Road,Shirley,"Solihull, West Midlands",Cranmore Infant School,School/college/university,7845,5,,524026,5,,52.40157200000000,51121,426,pprotection@solihull.gov.uk,Solihull,http://www.solihull.gov.uk/foodhygieneratingscheme/default.htm,-1.80566200000000,B90 4SA,2014-03-04,fhrs_5_en-GB,5,,FHRS,5
344214,,Tudor Grange Park,Monkspath Hall Road,Solihull,Creamline,Mobile caterer,7846,5,,523361,5,,52.40683900000000,106723,426,pprotection@solihull.gov.uk,Solihull,http://www.solihull.gov.uk/foodhygieneratingscheme/default.htm,-1.78457400000000,B91 3LU,2011-08-17,fhrs_5_en-GB,5,,FHRS,5
344215,,96 Monastery Drive,Olton,"Solihull, West Midlands",Creamline,Mobile caterer,7846,0,,524146,0,,52.42640100000000,69259,426,pprotection@solihull.gov.uk,Solihull,http://www.solihull.gov.uk/foodhygieneratingscheme/default.htm,-1.80458300000000,B91 1DP,2014-08-12,fhrs_5_en-GB,5,,FHRS,0
344216,Croft Day Centre,Ulleries Road,Solihull,West Midlands,Croft Day Centre,Hospitals/Childcare/Caring Premises,5,0,,524215,0,,52.44420100000000,81753,426,pprotection@solihull.gov.uk,Solihull,http://www.solihull.gov.uk/foodhygieneratingscheme/default.htm,-1.78893800000000,B92 8ED,2010-08-12,fhrs_5_en-GB,5,,FHRS,5
344217,Bentley Heath Church Of England Primary School,Widney Close,Bentley Heath,Solihull,Crossover Childcare Ltd,Restaurant/Cafe/Canteen,1,0,,639522,0,,52.38572500000000,110003,426,pprotection@solihull.gov.uk,Solihull,http://www.solihull.gov.uk/foodhygieneratingscheme/default.htm,-1.75827400000000,B93 9AS,2014-05-14,fhrs_5_en-GB,5,,FHRS,5
344218,,Pendigo Way,National Exhibition Centre,"Solihull, Birmingham, West Mid",Crowne Plaza - Restaurant,Restaurant/Cafe/Canteen,1,5,,523318,5,,,105892,426,pprotection@solihull.gov.uk,Solihull,http://www.solihull.gov.uk/foodhygieneratingscheme/default.htm,,,2012-09-04,fhrs_5_en-GB,5,,FHRS,5
344219,,41 Warwick Road,Solihull,Solihull,CRUMBS,Restaurant/Cafe/Canteen,1,5,,523546,5,,52.44210800000000,109141,426,pprotection@solihull.gov.uk,Solihull,http://www.solihull.gov.uk/foodhygieneratingscheme/default.htm,-1.81108900000000,B92 7HS,2013-07-23,fhrs_5_en-GB,5,,FHRS,0
344220,,227 Stratford Road,Shirley,Solihull,Crust,Restaurant/Cafe/Canteen,1,,,702398,,,52.41198800000000,110212,426,pprotection@solihull.gov.uk,Solihull,http://www.solihull.gov.uk/foodhygieneratingscheme/default.htm,-1.82650700000000,B90 3AH,,fhrs_awaitinginspection_en-GB,AwaitingInspection,,FHRS,
344221,City Technology College,Cooks Lane,Kingshurst,"Solihull, Birmingham, West Mid",CTC Kingshurst Academy,Restaurant/Cafe/Canteen,1,0,,524828,0,,52.48767400000000,99308,426,pprotection@solihull.gov.uk,Solihull,http://www.solihull.gov.uk/foodhygieneratingscheme/default.htm,-1.74615600000000,B37 6NU,2014-06-23,fhrs_5_en-GB,5,,FHRS,5
344222,"Mothercare Store, Solihull Retail Park",Chalford Way,Shirley,Solihull,Customer Cafe' Mothercare Store,Restaurant/Cafe/Canteen,1,,,710408,,,52.40044800000000,110270,426,pprotection@solihull.gov.uk,Solihull,http://www.solihull.gov.uk/foodhygieneratingscheme/default.htm,-1.81699900000000,B90 4LD,,fhrs_awaitinginspection_en-GB,AwaitingInspection,,FHRS,
344223,National Exhibition Centre,National Exhibition Centre,Bickenhill,Solihull,"D P Cappuccino Espresso, Atrium East",Takeaway/sandwich shop,7844,0,,523177,0,,52.45326600000000,10136,426,pprotection@solihull.gov.uk,Solihull,http://www.solihull.gov.uk/foodhygieneratingscheme/default.htm,-1.71715800000000,B40 1NT,2012-11-09,fhrs_5_en-GB,5,,FHRS,5
344224,Atrium Halls,National Exhibition Centre,Bickenhill,Solihull,"D P Cappuccino Espresso, Atrium West",Takeaway/sandwich shop,7844,0,,523178,0,,52.45326600000000,10137,426,pprotection@solihull.gov.uk,Solihull,http://www.solihull.gov.uk/foodhygieneratingscheme/default.htm,-1.71715800000000,B40 1NT,2012-11-09,fhrs_5_en-GB,5,,FHRS,5
344225,,1097 Stratford Road,Shirley,"Solihull, West Midlands",Da Corrado Restaurant,Restaurant/Cafe/Canteen,1,5,,523379,5,,52.38986600000000,10741,426,pprotection@solihull.gov.uk,Solihull,http://www.solihull.gov.uk/foodhygieneratingscheme/default.htm,-1.80539000000000,B90 4EB,2012-02-02,fhrs_5_en-GB,5,,FHRS,5
344226,,,,,Daizys Cakes,Restaurant/Cafe/Canteen,1,,,621571,,,,109856,426,pprotection@solihull.gov.uk,Solihull,http://www.solihull.gov.uk/foodhygieneratingscheme/default.htm,,,,fhrs_awaitinginspection_en-GB,AwaitingInspection,,FHRS,
344227,Damson Wood Infant School,Stockwell Rise,Solihull,West Midlands,Damson Wood Nursery and Infant School,School/college/university,7845,0,,523778,0,,52.43063700000000,17549,426,pprotection@solihull.gov.uk,Solihull,http://www.solihull.gov.uk/foodhygieneratingscheme/default.htm,-1.76598600000000,B92 9LX,2011-09-16,fhrs_5_en-GB,5,,FHRS,5
344228,,69 Rowood Drive,Solihull,West Midlands,Damson Wood Take Away,Takeaway/sandwich shop,7844,10,,523812,10,,52.43142900000000,22649,426,pprotection@solihull.gov.uk,Solihull,http://www.solihull.gov.uk/foodhygieneratingscheme/default.htm,-1.76667300000000,B92 9NG,2013-10-15,fhrs_3_en-GB,3,,FHRS,10
344229,1 Woodside,Downing Close,Knowle,"Solihull, West Midlands",Dan Mooney,Hospitals/Childcare/Caring Premises,5,5,,523737,5,,52.37980800000000,12572,426,pprotection@solihull.gov.uk,Solihull,http://www.solihull.gov.uk/foodhygieneratingscheme/default.htm,-1.74477600000000,B93 0QA,2011-01-17,fhrs_5_en-GB,5,,FHRS,5
344230,Collets House,Boulton Road,Solihull,West Midlands,Dance Warehouse,Pub/bar/nightclub,7843,10,,524716,5,,52.42708600000000,97023,426,pprotection@solihull.gov.uk,Solihull,http://www.solihull.gov.uk/foodhygieneratingscheme/default.htm,-1.77543100000000,B91 2JU,2014-05-01,fhrs_4_en-GB,4,,FHRS,5
344231,,357-363 Haslucks Green Road,Shirley,"Solihull, West Midlands",Daniel James Catering- Mobile,Mobile caterer,7846,5,,523327,10,,52.40465700000000,105983,426,pprotection@solihull.gov.uk,Solihull,http://www.solihull.gov.uk/foodhygieneratingscheme/default.htm,-1.84323400000000,B90 2NG,2014-03-27,fhrs_4_en-GB,4,,FHRS,5
344232,,326 Stratford Road,Shirley,"Solihull, West Midlands",Darjeeling Restaurant,Restaurant/Cafe/Canteen,1,5,,523917,5,,52.40684300000000,34431,426,pprotection@solihull.gov.uk,Solihull,http://www.solihull.gov.uk/foodhygieneratingscheme/default.htm,-1.82464600000000,B90 3DN,2013-10-22,fhrs_4_en-GB,4,,FHRS,10
