,addressline1,addressline2,addressline3,addressline4,businessname,businesstype,businesstypeid,confidenceinmanagement,extractdate,fhrsid,hygiene,itemcount,latitude,localauthoritybusinessid,localauthoritycode,localauthorityemailaddress,localauthorityname,localauthoritywebsite,longitude,postcode,ratingdate,ratingkey,ratingvalue,returncode,schemetype,structural
354632,Coniston House,Neachells Lane,Wolverhampton,West Midlands,1 Stop Cafe & Fish Bar,Takeaway/sandwich shop,7844,0,,584976,0,,52.58786900000000,32556,436,environmentalhealth@wolverhampton.gov.uk,Wolverhampton,http://www.wolverhampton.gov.uk/,-2.07777200000000,WV13 3RG,2012-08-02,fhrs_5_en-GB,5,,FHRS,0
354633,1st Choice,14 Cleveland Street,Wolverhampton,West Midlands,1ST Choice,Retailers - other,4613,,,609033,,,52.58321400000000,39571,436,environmentalhealth@wolverhampton.gov.uk,Wolverhampton,http://www.wolverhampton.gov.uk/,-2.12701300000000,WV1 3HH,2013-08-12,fhrs_exempt_en-GB,Exempt,,FHRS,
354634,Integrity Industrial Estate,Cousins Street,Wolverhampton,West Midlands,1ST Stop,Distributors/Transporters,7,,,585027,,,,35418,436,environmentalhealth@wolverhampton.gov.uk,Wolverhampton,http://www.wolverhampton.gov.uk/,,,2013-01-24,fhrs_exempt_en-GB,Exempt,,FHRS,
354635,316A Dudley Road,Wolverhampton,West Midlands,,1st Stop Fighting Cocks,Retailers - other,4613,5,,609053,5,,52.56794400000000,39725,436,environmentalhealth@wolverhampton.gov.uk,Wolverhampton,http://www.wolverhampton.gov.uk/,-2.12393000000000,WV2 3JY,2013-10-14,fhrs_4_en-GB,4,,FHRS,10
354636,287 Willenhall Road,Wolverhampton,West Midlands,,3 Jyot Off Licence,Retailers - other,4613,5,,609041,5,,52.58355900000000,39632,436,environmentalhealth@wolverhampton.gov.uk,Wolverhampton,http://www.wolverhampton.gov.uk/,-2.09466300000000,WV1 2HY,2013-06-25,fhrs_5_en-GB,5,,FHRS,5
354637,Four Seasons,2 Raynor Road,Wolverhampton,West Midlands,4 Seasons,Takeaway/sandwich shop,7844,5,,584786,0,,52.60494500000000,18248,436,environmentalhealth@wolverhampton.gov.uk,Wolverhampton,http://www.wolverhampton.gov.uk/,-2.10597600000000,WV10 9QY,2014-07-03,fhrs_5_en-GB,5,,FHRS,0
354638,St Josephs Church,Coalway Road,Wolverhampton,West Midlands,5 Ways Luncheon Club,Other catering premises,7841,0,,623007,5,,52.57074300000000,39779,436,environmentalhealth@wolverhampton.gov.uk,Wolverhampton,http://www.wolverhampton.gov.uk/,-2.17138800000000,WV3 7LF,2013-12-11,fhrs_5_en-GB,5,,FHRS,0
354639,196 Hawksford Crescent,Wolverhampton,West Midlands,,7 Till Late,Retailers - other,4613,5,,629696,5,,52.60978600000000,14264,436,environmentalhealth@wolverhampton.gov.uk,Wolverhampton,http://www.wolverhampton.gov.uk/,-2.12063700000000,WV10 9SN,2014-01-21,fhrs_5_en-GB,5,,FHRS,0
354640,88 Griffiths Drive,Wolverhampton,West Midlands,,A Brickley (Chemist) Ltd,Retailers - other,4613,,,697092,,,52.61440700000000,1026,436,environmentalhealth@wolverhampton.gov.uk,Wolverhampton,http://www.wolverhampton.gov.uk/,-2.06163200000000,WV11 2JW,2014-06-17,fhrs_exempt_en-GB,Exempt,,FHRS,
354641,12/13,Park Road West,Whitmore Reans,Wolverhampton,A Park View Hotel,Hotel/bed & breakfast/guest house,7842,0,,653373,0,,52.58696600000000,21604,436,environmentalhealth@wolverhampton.gov.uk,Wolverhampton,http://www.wolverhampton.gov.uk/,-2.13988000000000,WV1 4PP,2014-03-28,fhrs_5_en-GB,5,,FHRS,0
354642,Princess Lofts,33 Princess Street,Wolverhampton,West Midlands,A Taste Of Ochi,Other catering premises,7841,0,,609003,0,,52.58609300000000,38911,436,environmentalhealth@wolverhampton.gov.uk,Wolverhampton,http://www.wolverhampton.gov.uk/,-2.12520600000000,WV1 1HD,2013-08-08,fhrs_5_en-GB,5,,FHRS,0
354643,,,,,A. S Torty (Cakes Only),Retailers - other,4613,5,,623005,0,,,39771,436,environmentalhealth@wolverhampton.gov.uk,Wolverhampton,http://www.wolverhampton.gov.uk/,,,2013-12-06,fhrs_5_en-GB,5,,FHRS,5
354644,A F Blakemore & Sons Ltd,Coxwell Avenue,Wolverhampton,West Midlands,A.F. Blakemore & Son Ltd,Distributors/Transporters,7,0,,608789,0,,52.60101700000000,17175,436,environmentalhealth@wolverhampton.gov.uk,Wolverhampton,http://www.wolverhampton.gov.uk/,-2.12436300000000,WV10 9RT,2013-08-13,fhrs_5_en-GB,5,,FHRS,0
354645,38 Graiseley Lane,Wolverhampton,West Midlands,,AA Convenience Store,Retailers - other,4613,5,,584893,5,,52.60041000000000,27291,436,environmentalhealth@wolverhampton.gov.uk,Wolverhampton,http://www.wolverhampton.gov.uk/,-2.08997500000000,WV11 1PD,2012-07-25,fhrs_5_en-GB,5,,FHRS,5
354646,Abbey Lodge Care Home,Cranmere Avenue,Wolverhampton,West Midlands,Abbey Lodge,Hospitals/Childcare/Caring Premises,5,0,,622893,0,,52.60577200000000,23388,436,environmentalhealth@wolverhampton.gov.uk,Wolverhampton,http://www.wolverhampton.gov.uk/,-2.19209400000000,WV6 8TW,2013-10-31,fhrs_5_en-GB,5,,FHRS,0
354647,2A Duke Street,Wednesfield,Wolverhampton,West Midlands,Abbeyfield House,Hospitals/Childcare/Caring Premises,5,5,,629723,0,,52.60182800000000,7306,436,environmentalhealth@wolverhampton.gov.uk,Wolverhampton,http://www.wolverhampton.gov.uk/,-2.08070500000000,WV11 1TG,2014-01-21,fhrs_5_en-GB,5,,FHRS,0
354648,91 Tettenhall Road,Wolverhampton,West Midlands,,Abbeyfield Parkdale,Hospitals/Childcare/Caring Premises,5,0,,584812,0,,52.58813500000000,2230,436,environmentalhealth@wolverhampton.gov.uk,Wolverhampton,http://www.wolverhampton.gov.uk/,-2.14727900000000,WV3 9PG,2014-08-19,fhrs_5_en-GB,5,,FHRS,0
354649,ABC Childcare Centre,Brabourne Avenue,Wolverhampton,,ABC Early Learning & Childcare Centre UK Ltd,Hospitals/Childcare/Caring Premises,5,0,,585073,0,,52.63598100000000,37138,436,environmentalhealth@wolverhampton.gov.uk,Wolverhampton,http://www.wolverhampton.gov.uk/,-2.12104900000000,WV10 6AU,2014-11-18,fhrs_5_en-GB,5,,FHRS,0
354650,Stall 28,Retail Market Hall,Salop Street,City Centre,Abundant Food Centre,Retailers - other,4613,0,,697120,0,,52.58342400000000,18171,436,environmentalhealth@wolverhampton.gov.uk,Wolverhampton,http://www.wolverhampton.gov.uk/,-2.13281400000000,WV3 0SG,2014-06-17,fhrs_5_en-GB,5,,FHRS,0
354651,106 Newhampton Road West,Wolverhampton,West Midlands,,Ackee Tree,Retailers - other,4613,0,,584764,0,,52.59444500000000,16792,436,environmentalhealth@wolverhampton.gov.uk,Wolverhampton,http://www.wolverhampton.gov.uk/,-2.14814100000000,WV6 0RU,2012-12-05,fhrs_5_en-GB,5,,FHRS,0
354652,Unit 20,New Enterprise Centre,Monmore Road,Wolverhampton,Adassa Catering,Other catering premises,7841,0,,622931,0,,52.57549100000000,30507,436,environmentalhealth@wolverhampton.gov.uk,Wolverhampton,http://www.wolverhampton.gov.uk/,-2.09982500000000,WV1 2TZ,2013-10-24,fhrs_5_en-GB,5,,FHRS,5
354653,African Caribbean Community Initati,217 Waterloo Terrace,Newhampton Road East,Wolverhampton,African Caribbean Community Initiative,Other catering premises,7841,0,,584875,0,,52.59217500000000,26112,436,environmentalhealth@wolverhampton.gov.uk,Wolverhampton,http://www.wolverhampton.gov.uk/,-2.13715100000000,WV1 4BA,2013-03-19,fhrs_5_en-GB,5,,FHRS,0
354654,165 Dudley Road,Wolverhampton,West Midlands,,Aibe Mini Market,Retailers - other,4613,5,,585118,5,,52.57215000000000,38761,436,environmentalhealth@wolverhampton.gov.uk,Wolverhampton,http://www.wolverhampton.gov.uk/,-2.12509300000000,WV2 3DN,2013-04-29,fhrs_4_en-GB,4,,FHRS,10
354655,175 Wellington Road,Wolverhampton,West Midlands,,Aimee's Cafe,Restaurant/Cafe/Canteen,1,5,,661532,5,,52.57193700000000,39873,436,environmentalhealth@wolverhampton.gov.uk,Wolverhampton,http://www.wolverhampton.gov.uk/,-2.09263100000000,WV14 6RN,2014-04-29,fhrs_4_en-GB,4,,FHRS,10
354656,10 Craddock Street,Wolverhampton,West Midlands,,Al Medinah Halal Meat Centre,Retailers - other,4613,0,,585053,0,,52.59752900000000,36416,436,environmentalhealth@wolverhampton.gov.uk,Wolverhampton,http://www.wolverhampton.gov.uk/,-2.14015000000000,WV6 0QJ,2013-01-02,fhrs_5_en-GB,5,,FHRS,0
354657,Alan Garbett Butchers,1 Hilton Street,Wolverhampton,West Midlands,Alan Garbett & Son,Retailers - other,4613,5,,609064,5,,52.59368800000000,592,436,environmentalhealth@wolverhampton.gov.uk,Wolverhampton,http://www.wolverhampton.gov.uk/,-2.11795000000000,WV10 0LF,2013-08-27,fhrs_5_en-GB,5,,FHRS,5
354658,,,,,Alan Graham,Mobile caterer,7846,5,,653419,5,,,39869,436,environmentalhealth@wolverhampton.gov.uk,Wolverhampton,http://www.wolverhampton.gov.uk/,,,2014-04-17,fhrs_5_en-GB,5,,FHRS,5
354659,280A Penn Road,Wolverhampton,West Midlands,,Aldergrove Manor Nursing Home - HC-One,Hospitals/Childcare/Caring Premises,5,0,,584700,0,,52.56629100000000,13573,436,environmentalhealth@wolverhampton.gov.uk,Wolverhampton,http://www.wolverhampton.gov.uk/,-2.14664500000000,WV4 4AD,2013-06-25,fhrs_5_en-GB,5,,FHRS,0
354660,Christ The King Church,Pendeford Avenue,Wolverhampton,West Midlands,Aldersley Church Playgroup,Hospitals/Childcare/Caring Premises,5,5,,608793,0,,52.61119400000000,17337,436,environmentalhealth@wolverhampton.gov.uk,Wolverhampton,http://www.wolverhampton.gov.uk/,-2.16076600000000,WV6 9EJ,2013-05-13,fhrs_5_en-GB,5,,FHRS,5
354661,Barnhurst Lane,Wolverhampton,West Midlands,,Aldersley High School,School/college/university,7845,0,,608830,0,,52.61782600000000,24104,436,environmentalhealth@wolverhampton.gov.uk,Wolverhampton,http://www.wolverhampton.gov.uk/,-2.16300500000000,WV8 1RT,2013-10-21,fhrs_5_en-GB,5,,FHRS,0
354662,Aldersley Stadium,Aldersley Road,Wolverhampton,West Midlands,Aldersley Leisure Village,Other catering premises,7841,0,,585137,0,,52.60548100000000,492,436,environmentalhealth@wolverhampton.gov.uk,Wolverhampton,http://www.wolverhampton.gov.uk/,-2.15074800000000,WV6 9NW,2014-03-28,fhrs_5_en-GB,5,,FHRS,0
354663,All In One,327 - 329 Bushbury Lane,Wolverhampton,West Midlands,All In One Supersave,Retailers - other,4613,0,,584689,0,,52.61589300000000,12344,436,environmentalhealth@wolverhampton.gov.uk,Wolverhampton,http://www.wolverhampton.gov.uk/,-2.11796600000000,WV10 9UJ,2012-12-20,fhrs_5_en-GB,5,,FHRS,0
354664,55 Vicarage Road,Parkfield,Wolverhampton,West Midlands,All Saints Chip Shop,Takeaway/sandwich shop,7844,10,,608798,5,,52.57913900000000,18940,436,environmentalhealth@wolverhampton.gov.uk,Wolverhampton,http://www.wolverhampton.gov.uk/,-2.12139400000000,WV2 1DF,2013-01-10,fhrs_4_en-GB,4,,FHRS,5
354665,114 - 115 Newhampton Road West,Wolverhampton,West Midlands,,Aman News,Retailers - other,4613,,,584985,,,52.59504200000000,33151,436,environmentalhealth@wolverhampton.gov.uk,Wolverhampton,http://www.wolverhampton.gov.uk/,-2.15193700000000,WV6 0RR,2012-12-07,fhrs_exempt_en-GB,Exempt,,FHRS,
354666,3 Raynor Road,Wolverhampton,West Midlands,,Amba's Authentic Carribean Cuisine,Takeaway/sandwich shop,7844,5,,585095,0,,52.60494500000000,37841,436,environmentalhealth@wolverhampton.gov.uk,Wolverhampton,http://www.wolverhampton.gov.uk/,-2.10597600000000,WV10 9QY,2014-06-02,fhrs_5_en-GB,5,,FHRS,5
354667,72 Leicester Street,Wolverhampton,West Midlands,,Amin Mini Market,Retailers - other,4613,5,,584908,0,,52.59463000000000,28514,436,environmentalhealth@wolverhampton.gov.uk,Wolverhampton,http://www.wolverhampton.gov.uk/,-2.13588900000000,WV6 0PS,2013-05-14,fhrs_5_en-GB,5,,FHRS,0
354668,7 New Street,Ettingshall,Wolverhampton,West Midlands,Angie's Cafe,Other catering premises,7841,,,680874,,,52.56994500000000,30266,436,environmentalhealth@wolverhampton.gov.uk,Wolverhampton,http://www.wolverhampton.gov.uk/,-2.09863200000000,WV2 2LR,2014-06-10,fhrs_5_en-GB,5,,FHRS,
354669,41B Dunkley Street,Wolverhampton,West Midlands,,Anna Mini-Market,Retailers - other,4613,5,,609019,5,,52.59161300000000,39406,436,environmentalhealth@wolverhampton.gov.uk,Wolverhampton,http://www.wolverhampton.gov.uk/,-2.13308900000000,WV1 4AN,2013-08-12,fhrs_5_en-GB,5,,FHRS,5
354670,Goldthorn Hill,Wolverhampton,West Midlands,,Anville Court Nursing Home,Hospitals/Childcare/Caring Premises,5,0,,622855,0,,52.56859800000000,11683,436,environmentalhealth@wolverhampton.gov.uk,Wolverhampton,http://www.wolverhampton.gov.uk/,-2.14140000000000,WV2 4PZ,2013-11-18,fhrs_5_en-GB,5,,FHRS,5
354671,451-473 Cannock Road,Wolverhampton,,,Applegreen,Retailers - other,4613,0,,585013,0,,52.60011600000000,34668,436,environmentalhealth@wolverhampton.gov.uk,Wolverhampton,http://www.wolverhampton.gov.uk/,-2.10844400000000,WV10 0RJ,2013-07-01,fhrs_5_en-GB,5,,FHRS,0
354672,Municipal Art Gallery,Lichfield Street,City Centre,Wolverhampton,Art Gallery,Other catering premises,7841,0,,584731,0,,52.58686400000000,15530,436,environmentalhealth@wolverhampton.gov.uk,Wolverhampton,http://www.wolverhampton.gov.uk/,-2.12703900000000,WV1 1DU,2013-03-06,fhrs_5_en-GB,5,,FHRS,0
354673,164 Dunstall Road,Wolverhampton,West Midlands,,Aryana Super,Retailers - other,4613,5,,584933,0,,52.59593400000000,29828,436,environmentalhealth@wolverhampton.gov.uk,Wolverhampton,http://www.wolverhampton.gov.uk/,-2.13590800000000,WV6 0NR,2012-06-25,fhrs_5_en-GB,5,,FHRS,5
354674,Asda Stores Limited,Jack Hayward Way,Wolverhampton,West Midlands,Asda,Retailers - supermarkets/hypermarkets,7840,0,,608815,0,,52.59266100000000,2279,436,environmentalhealth@wolverhampton.gov.uk,Wolverhampton,http://www.wolverhampton.gov.uk/,-2.12876800000000,WV1 4DE,2013-07-05,fhrs_5_en-GB,5,,FHRS,0
354675,Asda Stores Limited,Wolverhampton Road,Heath Town,Wolverhampton,Asda Supermarket,Retailers - supermarkets/hypermarkets,7840,0,,585048,0,,,36290,436,environmentalhealth@wolverhampton.gov.uk,Wolverhampton,http://www.wolverhampton.gov.uk/,,WV10 0QR,2013-01-30,fhrs_5_en-GB,5,,FHRS,5
354676,21A Chapel Ash,Wolverhampton,West Midlands,,Ash Spice,Takeaway/sandwich shop,7844,10,,585052,10,,52.58502500000000,36388,436,environmentalhealth@wolverhampton.gov.uk,Wolverhampton,http://www.wolverhampton.gov.uk/,-2.13892900000000,WV3 0TZ,2013-05-14,fhrs_3_en-GB,3,,FHRS,10
354677,251 Penn Road,Wolverhampton,West Midlands,,Ashley Court Care,Hospitals/Childcare/Caring Premises,5,0,,608792,0,,52.56480700000000,17290,436,environmentalhealth@wolverhampton.gov.uk,Wolverhampton,http://www.wolverhampton.gov.uk/,-2.14715600000000,WV4 5SF,2013-07-19,fhrs_5_en-GB,5,,FHRS,5
354678,44 Griffiths Drive,Wolverhampton,West Midlands,,Ashmore Chippy,Takeaway/sandwich shop,7844,5,,584774,10,,52.61440700000000,17197,436,environmentalhealth@wolverhampton.gov.uk,Wolverhampton,http://www.wolverhampton.gov.uk/,-2.06163200000000,WV11 2JW,2014-02-01,fhrs_4_en-GB,4,,FHRS,5
354679,The Ashmore,Griffiths Drive,Wolverhampton,West Midlands,Ashmore Inn,Pub/bar/nightclub,7843,0,,608996,0,,52.61296000000000,38588,436,environmentalhealth@wolverhampton.gov.uk,Wolverhampton,http://www.wolverhampton.gov.uk/,-2.06111300000000,WV11 2LJ,2013-07-09,fhrs_5_en-GB,5,,FHRS,0
354680,80 Griffiths Drive,Wolverhampton,West Midlands,,Ashmore's Kandy Box,Retailers - other,4613,,,697179,,,52.61440700000000,39904,436,environmentalhealth@wolverhampton.gov.uk,Wolverhampton,http://www.wolverhampton.gov.uk/,-2.06163200000000,WV11 2JW,2014-06-17,fhrs_exempt_en-GB,Exempt,,FHRS,
354681,Asia Takeaway And Restaurant,Great Hampton Street,Wolverhampton,West Midlands,Asia Restaurant,Other catering premises,7841,5,,622901,0,,52.59359800000000,26098,436,environmentalhealth@wolverhampton.gov.uk,Wolverhampton,http://www.wolverhampton.gov.uk/,-2.13473400000000,WV1 4AY,2013-11-19,fhrs_5_en-GB,5,,FHRS,0
354682,213 Staveley Road,Wolverhampton,West Midlands,,Astera Bakery,Retailers - other,4613,5,,585049,0,,52.59475800000000,36293,436,environmentalhealth@wolverhampton.gov.uk,Wolverhampton,http://www.wolverhampton.gov.uk/,-2.13439800000000,WV1 4RS,2013-04-16,fhrs_5_en-GB,5,,FHRS,5
354683,Nursing Home 98 To 100,Richmond Road,Wolverhampton,West Midlands,Atholl Nursing Home,Hospitals/Childcare/Caring Premises,5,5,,626325,0,,52.58581100000000,28247,436,environmentalhealth@wolverhampton.gov.uk,Wolverhampton,http://www.wolverhampton.gov.uk/,-2.15829600000000,WV3 9JJ,2013-11-28,fhrs_5_en-GB,5,,FHRS,0
354684,173 Stafford Street,Whitmore Reans,Wolverhampton,West Midlands,Atlanta,Restaurant/Cafe/Canteen,1,0,,680890,0,,,39876,436,environmentalhealth@wolverhampton.gov.uk,Wolverhampton,http://www.wolverhampton.gov.uk/,,,2014-06-27,fhrs_5_en-GB,5,,FHRS,0
354685,29 - 31 Temple Street,City Centre,Wolverhampton,West Midlands,Atrium & City Tots,Other catering premises,7841,0,,584771,0,,52.58194400000000,17129,436,environmentalhealth@wolverhampton.gov.uk,Wolverhampton,http://www.wolverhampton.gov.uk/,-2.12981400000000,WV2 4AN,2012-11-27,fhrs_5_en-GB,5,,FHRS,0
354686,112 Salop Street,City Centre,Wolverhampton,West Midlands,Augira,Retailers - other,4613,0,,626336,0,,52.58389100000000,39799,436,environmentalhealth@wolverhampton.gov.uk,Wolverhampton,http://www.wolverhampton.gov.uk/,-2.13281500000000,WV3 0SR,2014-01-14,fhrs_5_en-GB,5,,FHRS,5
354687,25 Broad Street,City Centre,Wolverhampton,West Midlands,Aunt Sallys,Takeaway/sandwich shop,7844,5,,584924,0,,52.58761300000000,29552,436,environmentalhealth@wolverhampton.gov.uk,Wolverhampton,http://www.wolverhampton.gov.uk/,-2.12479700000000,WV1 1HZ,2014-07-03,fhrs_5_en-GB,5,,FHRS,5
354688,113 Salop Street,City Centre,Wolverhampton,West Midlands,Ausra,Retailers - other,4613,0,,626324,0,,52.58389100000000,27026,436,environmentalhealth@wolverhampton.gov.uk,Wolverhampton,http://www.wolverhampton.gov.uk/,-2.13281500000000,WV3 0SR,2014-01-14,fhrs_5_en-GB,5,,FHRS,0
354689,26 Clifton Road,Wolverhampton,West Midlands,,Avenue House,Hospitals/Childcare/Caring Premises,5,5,,622895,5,,52.59987900000000,24340,436,environmentalhealth@wolverhampton.gov.uk,Wolverhampton,http://www.wolverhampton.gov.uk/,-2.16556700000000,WV6 9AP,2013-12-05,fhrs_5_en-GB,5,,FHRS,0
354690,2 Bargate Drive,Wolverhampton,West Midlands,,Avion Grill,Takeaway/sandwich shop,7844,5,,622994,5,,52.59424500000000,39746,436,environmentalhealth@wolverhampton.gov.uk,Wolverhampton,http://www.wolverhampton.gov.uk/,-2.14290000000000,WV6 0QW,2013-11-07,fhrs_5_en-GB,5,,FHRS,0
354691,143 Dudley Road,Wolverhampton,West Midlands,,Aylin Supermarket,Retailers - other,4613,10,,622986,10,,52.57280500000000,39738,436,environmentalhealth@wolverhampton.gov.uk,Wolverhampton,http://www.wolverhampton.gov.uk/,-2.12571400000000,WV2 3DH,2013-12-10,fhrs_3_en-GB,3,,FHRS,10
354692,B & M Home Bargains,Unit B6,Bentley Bridge Retail Park,Bentleybridge Way,B & M Bargains,Retailers - other,4613,,,584905,,,52.59692200000000,28259,436,environmentalhealth@wolverhampton.gov.uk,Wolverhampton,http://www.wolverhampton.gov.uk/,-2.09029200000000,WV11 1BP,2013-01-28,fhrs_exempt_en-GB,Exempt,,FHRS,
354693,BHS,44 - 45 Dudley Street,City Centre,Wolverhampton,B H S,Other catering premises,7841,0,,585135,5,,52.58468900000000,4410,436,environmentalhealth@wolverhampton.gov.uk,Wolverhampton,http://www.wolverhampton.gov.uk/,-2.12685500000000,WV1 3ER,2013-01-15,fhrs_5_en-GB,5,,FHRS,0
354694,46 Park Street South,Wolverhampton,West Midlands,,Bagri Food Store,Retailers - other,4613,5,,629697,5,,52.56889900000000,1465,436,environmentalhealth@wolverhampton.gov.uk,Wolverhampton,http://www.wolverhampton.gov.uk/,-2.13067500000000,WV2 3JG,2014-01-29,fhrs_5_en-GB,5,,FHRS,0
354695,3 Rookery Street,Wolverhampton,West Midlands,,Bajwa Sweet Centre,Takeaway/sandwich shop,7844,0,,584980,5,,52.59888500000000,32733,436,environmentalhealth@wolverhampton.gov.uk,Wolverhampton,http://www.wolverhampton.gov.uk/,-2.08586700000000,WV11 1UN,2014-02-27,fhrs_5_en-GB,5,,FHRS,0
354696,1 Upper Green,Wolverhampton,West Midlands,,Baked In Tettenhall,Other catering premises,7841,0,,609016,0,,52.59801300000000,39344,436,environmentalhealth@wolverhampton.gov.uk,Wolverhampton,http://www.wolverhampton.gov.uk/,-2.16885200000000,WV6 8QQ,2013-07-02,fhrs_5_en-GB,5,,FHRS,0
354697,76 Old Heath Road,Wolverhampton,West Midlands,,Bal News & Off Licence Ltd,Retailers - other,4613,0,,689573,5,,52.58763400000000,39905,436,environmentalhealth@wolverhampton.gov.uk,Wolverhampton,http://www.wolverhampton.gov.uk/,-2.10307000000000,WV1 2SQ,2014-06-25,fhrs_5_en-GB,5,,FHRS,5
354698,9 High Street,Tettenhall,Wolverhampton,West Midlands,Balti Hut Indian Takeaway,Takeaway/sandwich shop,7844,5,,653413,5,,52.59788900000000,39788,436,environmentalhealth@wolverhampton.gov.uk,Wolverhampton,http://www.wolverhampton.gov.uk/,-2.16787700000000,WV6 8QS,2014-04-08,fhrs_5_en-GB,5,,FHRS,0
354699,231A Trysull Road,Wolverhampton,West Midlands,,Balti Palace,Other catering premises,7841,5,,608995,10,,52.57149500000000,38553,436,environmentalhealth@wolverhampton.gov.uk,Wolverhampton,http://www.wolverhampton.gov.uk/,-2.16740700000000,WV3 7JP,2013-08-14,fhrs_4_en-GB,4,,FHRS,5
354700,180 Newhampton Road East,Wolverhampton,West Midlands,,Banga Stores,Retailers - other,4613,,,584678,,,52.59287100000000,11074,436,environmentalhealth@wolverhampton.gov.uk,Wolverhampton,http://www.wolverhampton.gov.uk/,-2.14112400000000,WV1 4PQ,,fhrs_awaitinginspection_en-GB,AwaitingInspection,,FHRS,
354701,337 Cannock Road,Wolverhampton,West Midlands,,Banga Stores,Retailers - other,4613,5,,585150,10,,52.59712700000000,7237,436,environmentalhealth@wolverhampton.gov.uk,Wolverhampton,http://www.wolverhampton.gov.uk/,-2.11298400000000,WV10 0BG,2012-11-27,fhrs_4_en-GB,4,,FHRS,5
354702,16 Trysull Road,Wolverhampton,West Midlands,,Bantock Balti,Takeaway/sandwich shop,7844,10,,608804,10,,52.57632900000000,19480,436,environmentalhealth@wolverhampton.gov.uk,Wolverhampton,http://www.wolverhampton.gov.uk/,-2.15662400000000,WV3 7HU,2013-01-17,fhrs_3_en-GB,3,,FHRS,10
354703,Bantock House,Finchfield Road,Wolverhampton,West Midlands,Bantock House & Park,Other catering premises,7841,0,,680846,0,,52.58096900000000,10376,436,environmentalhealth@wolverhampton.gov.uk,Wolverhampton,http://www.wolverhampton.gov.uk/,-2.15497300000000,WV3 9LQ,2012-07-03,fhrs_5_en-GB,5,,FHRS,5
354704,9 Showell Circus,Low Hill,Wolverhampton,,Bargain Beerz,Retailers - other,4613,,,626313,,,52.61019800000000,1827,436,environmentalhealth@wolverhampton.gov.uk,Wolverhampton,http://www.wolverhampton.gov.uk/,-2.11275200000000,WV10 9BA,2014-01-07,fhrs_exempt_en-GB,Exempt,,FHRS,
354705,21 Broad Street,City Centre,Wolverhampton,West Midlands,Bargain Grill,Takeaway/sandwich shop,7844,5,,700376,0,,52.58761200000000,39256,436,environmentalhealth@wolverhampton.gov.uk,Wolverhampton,http://www.wolverhampton.gov.uk/,-2.12479700000000,WV1 1HZ,2014-09-03,fhrs_5_en-GB,5,,FHRS,0
354706,Unit 1,Cross Street North,Heath Town,Wolverhampton,Bargain Grill Cafe,Other catering premises,7841,5,,585008,0,,52.59440900000000,34498,436,environmentalhealth@wolverhampton.gov.uk,Wolverhampton,http://www.wolverhampton.gov.uk/,-2.12430000000000,WV1 1PP,2012-12-17,fhrs_5_en-GB,5,,FHRS,5
354707,142 Goldthorn Hill,Wolverhampton,West Midlands,,Barons Court Hotel,Hotel/bed & breakfast/guest house,7842,0,,697158,5,,52.56788100000000,34672,436,environmentalhealth@wolverhampton.gov.uk,Wolverhampton,http://www.wolverhampton.gov.uk/,-2.13208800000000,WV2 3JE,2014-05-07,fhrs_5_en-GB,5,,FHRS,5
354708,57 Pendeford Avenue,Wolverhampton,West Midlands,,Bates Butchers,Manufacturers/packers,7839,0,,609067,5,,52.61116700000000,672,436,environmentalhealth@wolverhampton.gov.uk,Wolverhampton,http://www.wolverhampton.gov.uk/,-2.16141500000000,WV6 9EH,2013-08-09,fhrs_5_en-GB,5,,FHRS,0
354709,26 Birches Barn Avenue,Wolverhampton,West Midlands,,Beans & Leaves,Mobile caterer,7846,0,,697127,0,,52.57426500000000,19279,436,environmentalhealth@wolverhampton.gov.uk,Wolverhampton,http://www.wolverhampton.gov.uk/,-2.15353300000000,WV3 7BT,2011-03-24,fhrs_5_en-GB,5,,FHRS,0
354710,Neachells Lane,Wolverhampton,West Midlands,,Beddoes Service Station,Retailers - other,4613,0,,608832,0,,52.59165300000000,24162,436,environmentalhealth@wolverhampton.gov.uk,Wolverhampton,http://www.wolverhampton.gov.uk/,-2.07907800000000,WV13 3SJ,2013-07-29,fhrs_5_en-GB,5,,FHRS,0
354711,Chalet Tea Rooms,West Park,Park Road West,Wolverhampton,Beeches Catering Services,Other catering premises,7841,0,,584825,0,,52.58879700000000,22662,436,environmentalhealth@wolverhampton.gov.uk,Wolverhampton,http://www.wolverhampton.gov.uk/,-2.14311800000000,WV1 4PN,2012-08-24,fhrs_5_en-GB,5,,FHRS,0
354712,82 Chapel Ash,Wolverhampton,West Midlands,,Bella,Other catering premises,7841,0,,584717,0,,52.58577100000000,14724,436,environmentalhealth@wolverhampton.gov.uk,Wolverhampton,http://www.wolverhampton.gov.uk/,-2.14006800000000,WV3 0TY,2013-06-12,fhrs_5_en-GB,5,,FHRS,0
354713,Unit 3,Bentleybridge Way,Wednesfield,Wolverhampton,Bella Italia,Other catering premises,7841,0,,609010,0,,52.59692200000000,39242,436,environmentalhealth@wolverhampton.gov.uk,Wolverhampton,http://www.wolverhampton.gov.uk/,-2.09029200000000,WV11 1BP,2013-09-25,fhrs_5_en-GB,5,,FHRS,0
354714,Bellevue Court Nursing Home,Woodcross Street,Wolverhampton,West Midlands,Bellevue Court Nursing Home - HC-One,Hospitals/Childcare/Caring Premises,5,0,,584760,0,,52.54941500000000,16694,436,environmentalhealth@wolverhampton.gov.uk,Wolverhampton,http://www.wolverhampton.gov.uk/,-2.10625400000000,WV14 9RT,2015-01-13,fhrs_5_en-GB,5,,FHRS,0
354715,121 Parkfield Road,Wolverhampton,West Midlands,,Belly Busters,Restaurant/Cafe/Canteen,1,5,,653414,5,,,39812,436,environmentalhealth@wolverhampton.gov.uk,Wolverhampton,http://www.wolverhampton.gov.uk/,,,2014-04-25,fhrs_5_en-GB,5,,FHRS,5
354716,Unit 1,Bizspace Business Park,Upper Villiers Street,Wolverhampton,Belly Busters Cafe,Restaurant/Cafe/Canteen,1,5,,585026,5,,52.57188900000000,35394,436,environmentalhealth@wolverhampton.gov.uk,Wolverhampton,http://www.wolverhampton.gov.uk/,-2.13378200000000,WV2 4XA,2013-03-15,fhrs_5_en-GB,5,,FHRS,5
354717,Bentley Court Home,29 Nordley Road,Wolverhampton,West Midlands,Bentley Court,Hospitals/Childcare/Caring Premises,5,0,,584948,0,,52.60189500000000,30280,436,environmentalhealth@wolverhampton.gov.uk,Wolverhampton,http://www.wolverhampton.gov.uk/,-2.08709900000000,WV11 1PX,2014-02-25,fhrs_5_en-GB,5,,FHRS,0
354718,Greenacres Avenue,Wolverhampton,West Midlands,,Berrybrook Primary School,School/college/university,7845,0,,584911,0,,52.62077600000000,2886,436,environmentalhealth@wolverhampton.gov.uk,Wolverhampton,http://www.wolverhampton.gov.uk/,-2.09527500000000,WV10 8NZ,2012-11-28,fhrs_5_en-GB,5,,FHRS,0
354719,Bert Williams Sports Centre,Nettlefolds Way,Wolverhampton,,Bert Williams Leisure Centre,Other catering premises,7841,0,,608988,0,,52.56283200000000,37938,436,environmentalhealth@wolverhampton.gov.uk,Wolverhampton,http://www.wolverhampton.gov.uk/,-2.07775700000000,WV14 0EF,2013-08-21,fhrs_5_en-GB,5,,FHRS,0
354720,Day Centre,Albert Road,Whitmore Reans,Wolverhampton,Bertie's,School/college/university,7845,0,,585009,0,,52.59099400000000,34547,436,environmentalhealth@wolverhampton.gov.uk,Wolverhampton,http://www.wolverhampton.gov.uk/,-2.14718500000000,WV6 0AF,2013-01-16,fhrs_5_en-GB,5,,FHRS,0
354721,Bargain Booze,291 Tettenhall Road,Wolverhampton,West Midlands,Best One,Retailers - other,4613,0,,622980,0,,52.59596900000000,39464,436,environmentalhealth@wolverhampton.gov.uk,Wolverhampton,http://www.wolverhampton.gov.uk/,-2.15824400000000,WV6 0LE,2013-10-30,fhrs_5_en-GB,5,,FHRS,0
354722,Connaught Hotel,Tettenhall Road,Finchfield,Wolverhampton,Best Western Connaught,Hotel/bed & breakfast/guest house,7842,0,,584830,0,,52.58806600000000,23028,436,environmentalhealth@wolverhampton.gov.uk,Wolverhampton,http://www.wolverhampton.gov.uk/,-2.14510900000000,WV1 4SW,2012-12-19,fhrs_5_en-GB,5,,FHRS,5
354723,43 Goldthorn Hill,Wolverhampton,West Midlands,,Bethrey House,Hospitals/Childcare/Caring Premises,5,0,,639671,0,,52.56708500000000,15981,436,environmentalhealth@wolverhampton.gov.uk,Wolverhampton,http://www.wolverhampton.gov.uk/,-2.12813200000000,WV2 3HR,2015-01-20,fhrs_5_en-GB,5,,FHRS,0
354724,7 The Haymarket,Wolverhampton,West Midlands,,Bevton Ltd,Retailers - other,4613,5,,584693,0,,52.61710500000000,13113,436,environmentalhealth@wolverhampton.gov.uk,Wolverhampton,http://www.wolverhampton.gov.uk/,-2.15734600000000,WV8 1XE,2013-04-22,fhrs_4_en-GB,4,,FHRS,10
354725,Bhylls Acre County Primary School,Bhylls Lane,Wolverhampton,West Midlands,Bhylls Acre Primary School,School/college/university,7845,5,,584680,0,,52.57563700000000,11319,436,environmentalhealth@wolverhampton.gov.uk,Wolverhampton,http://www.wolverhampton.gov.uk/,-2.18130900000000,WV3 8DZ,2014-06-20,fhrs_5_en-GB,5,,FHRS,5
354726,480 Dudley Road,Wolverhampton,West Midlands,,Big Chilli,Other catering premises,7841,0,,585102,5,,52.57502500000000,38030,436,environmentalhealth@wolverhampton.gov.uk,Wolverhampton,http://www.wolverhampton.gov.uk/,-2.12641400000000,WV2 3AF,2013-04-24,fhrs_5_en-GB,5,,FHRS,0
354727,The Big Pan,Bilston Road,Portobello,Wolverhampton,Big Pan Chinese Restaurant,Other catering premises,7841,5,,584891,5,,52.57595900000000,27153,436,environmentalhealth@wolverhampton.gov.uk,Wolverhampton,http://www.wolverhampton.gov.uk/,-2.05840500000000,WV13 2JL,2012-05-22,fhrs_5_en-GB,5,,FHRS,5
354728,The Bilash,2 Cheapside,Wolverhampton,West Midlands,Bilash Tandoori Restaurant,Other catering premises,7841,0,,629702,0,,52.58597200000000,2144,436,environmentalhealth@wolverhampton.gov.uk,Wolverhampton,http://www.wolverhampton.gov.uk/,-2.12886600000000,WV1 1TU,2014-01-29,fhrs_5_en-GB,5,,FHRS,0
354729,480 Dudley Road,Blakenhall,Wolverhampton,,Billa's Bar,Pub/bar/nightclub,7843,5,,585050,5,,52.57502500000000,36309,436,environmentalhealth@wolverhampton.gov.uk,Wolverhampton,http://www.wolverhampton.gov.uk/,-2.12641400000000,WV2 3AF,2013-02-21,fhrs_4_en-GB,4,,FHRS,10
354730,7 Mount Pleasant,Wolverhampton,West Midlands,,Bilston Balti,Takeaway/sandwich shop,7844,5,,622900,0,,52.56741900000000,25745,436,environmentalhealth@wolverhampton.gov.uk,Wolverhampton,http://www.wolverhampton.gov.uk/,-2.07465200000000,WV14 7LJ,2013-11-12,fhrs_5_en-GB,5,,FHRS,0
354731,Prouds Lane,Wolverhampton,West Midlands,,Bilston Baptist Church,Other catering premises,7841,0,,633450,0,,52.56846000000000,1070,436,environmentalhealth@wolverhampton.gov.uk,Wolverhampton,http://www.wolverhampton.gov.uk/,-2.07717700000000,WV14 6PW,2014-02-21,fhrs_5_en-GB,5,,FHRS,5
354732,Albany Crescent,Wolverhampton,West Midlands,,Bilston Church Of England Primary School,School/college/university,7845,0,,689565,0,,52.56695900000000,2938,436,environmentalhealth@wolverhampton.gov.uk,Wolverhampton,http://www.wolverhampton.gov.uk/,-2.08995000000000,WV14 0HU,2014-07-16,fhrs_5_en-GB,5,,FHRS,5
354733,Churchill Conservative Club,43 Mount Pleasant,Wolverhampton,West Midlands,Bilston Churchill Cons Club,Pub/bar/nightclub,7843,10,,697183,5,,52.56769900000000,797,436,environmentalhealth@wolverhampton.gov.uk,Wolverhampton,http://www.wolverhampton.gov.uk/,-2.07310300000000,WV14 7LS,2014-05-22,fhrs_4_en-GB,4,,FHRS,5
354734,20 Willenhall Road,Bilston,Wolverhampton,West Midlands,Bilston Fish Bar,Takeaway/sandwich shop,7844,,,709416,,,52.57050700000000,34360,436,environmentalhealth@wolverhampton.gov.uk,Wolverhampton,http://www.wolverhampton.gov.uk/,-2.06751600000000,WV14 6NL,2014-10-14,fhrs_exempt_en-GB,Exempt,,FHRS,
354735,71 Wellington Road,Wolverhampton,West Midlands,,Bilston Labour Club,Pub/bar/nightclub,7843,5,,697185,5,,52.56907600000000,855,436,environmentalhealth@wolverhampton.gov.uk,Wolverhampton,http://www.wolverhampton.gov.uk/,-2.08313800000000,WV14 6AY,2010-12-03,fhrs_4_en-GB,4,,FHRS,10
354736,Bilston Methodist Church,Lewis Street,Wolverhampton,West Midlands,Bilston Methodist Church & Community Centre,Other catering premises,7841,0,,622941,5,,52.56676400000000,33171,436,environmentalhealth@wolverhampton.gov.uk,Wolverhampton,http://www.wolverhampton.gov.uk/,-2.07295400000000,WV14 7NB,2013-11-12,fhrs_5_en-GB,5,,FHRS,5
354737,30 High Street,Bilston,Wolverhampton,West Midlands,Bilston News,Retailers - other,4613,,,697176,,,52.56390000000000,39883,436,environmentalhealth@wolverhampton.gov.uk,Wolverhampton,http://www.wolverhampton.gov.uk/,-2.08004500000000,WV14 0EP,2014-05-07,fhrs_exempt_en-GB,Exempt,,FHRS,
354738,77A Mount Pleasant,Wolverhampton,West Midlands,,Bilston No 1,Takeaway/sandwich shop,7844,5,,623002,0,,52.56958000000000,39766,436,environmentalhealth@wolverhampton.gov.uk,Wolverhampton,http://www.wolverhampton.gov.uk/,-2.06882800000000,WV14 7NR,2013-12-09,fhrs_5_en-GB,5,,FHRS,5
354739,Pentecostal Church,Wolverhampton Street,Wolverhampton,West Midlands,Bilston Pentecostal Church,Other catering premises,7841,5,,697153,5,,52.56565900000000,30263,436,environmentalhealth@wolverhampton.gov.uk,Wolverhampton,http://www.wolverhampton.gov.uk/,-2.08530100000000,WV14 0LT,2012-12-06,fhrs_5_en-GB,5,,FHRS,5
354740,Villiers Avenue,Wolverhampton,West Midlands,,Bilston Town Bowling Club,Pub/bar/nightclub,7843,5,,697186,5,,52.56975300000000,861,436,environmentalhealth@wolverhampton.gov.uk,Wolverhampton,http://www.wolverhampton.gov.uk/,-2.08020400000000,WV14 6AU,2011-03-24,fhrs_4_en-GB,4,,FHRS,10
354741,14 Lichfield Street,Bilston,Wolverhampton,West Midlands,Bilston Wines,Retailers - other,4613,0,,680849,5,,52.56604400000000,11018,436,environmentalhealth@wolverhampton.gov.uk,Wolverhampton,http://www.wolverhampton.gov.uk/,-2.07380900000000,WV14 0AG,2014-06-04,fhrs_5_en-GB,5,,FHRS,5
354742,61 Norfolk Road,Wolverhampton,West Midlands,,Bingley Stores,Retailers - other,4613,10,,629719,10,,52.57589500000000,39806,436,environmentalhealth@wolverhampton.gov.uk,Wolverhampton,http://www.wolverhampton.gov.uk/,-2.14415300000000,WV3 0HZ,2014-01-21,fhrs_3_en-GB,3,,FHRS,10
354743,38 Birchwood Road,Wolverhampton,West Midlands,,Birchwood Stores,Retailers - other,4613,0,,622869,0,,52.56398700000000,16726,436,environmentalhealth@wolverhampton.gov.uk,Wolverhampton,http://www.wolverhampton.gov.uk/,-2.14083900000000,WV4 5UH,2013-10-23,fhrs_5_en-GB,5,,FHRS,0
354744,232 - 234 Cannock Road,Wolverhampton,West Midlands,,Bishop General Store,Retailers - other,4613,0,,633460,0,,52.62327900000000,23415,436,environmentalhealth@wolverhampton.gov.uk,Wolverhampton,http://www.wolverhampton.gov.uk/,-2.09130700000000,WV10 8QN,2014-02-05,fhrs_5_en-GB,5,,FHRS,5
354745,1 Great Hampton Street,Wolverhampton,West Midlands,,Bites Takeaway,Takeaway/sandwich shop,7844,5,,608962,0,,52.59250900000000,36343,436,environmentalhealth@wolverhampton.gov.uk,Wolverhampton,http://www.wolverhampton.gov.uk/,-2.13592700000000,WV1 4AX,2013-09-20,fhrs_5_en-GB,5,,FHRS,5
354746,Units 1 To 2,Oakleigh Trading Estate,Anchor Road,Wolverhampton,Black Country Bread & Confectionery,Manufacturers/packers,7839,0,,730656,0,,52.55186500000000,40489,436,environmentalhealth@wolverhampton.gov.uk,Wolverhampton,http://www.wolverhampton.gov.uk/,-2.08980100000000,WV14 9NA,2014-12-23,fhrs_5_en-GB,5,,FHRS,5
354747,Stag Industrial Est,Oxford Street,Bilston,Wolverhampton,Black Country Grills,Mobile caterer,7846,5,,622989,5,,52.56046800000000,39741,436,environmentalhealth@wolverhampton.gov.uk,Wolverhampton,http://www.wolverhampton.gov.uk/,-2.06142300000000,WV14 7HZ,2013-10-29,fhrs_5_en-GB,5,,FHRS,5
354748,Green Lane,Wolverhampton,West Midlands,,Blakeley Green House,Hospitals/Childcare/Caring Premises,5,5,,639684,0,,52.61079200000000,27447,436,environmentalhealth@wolverhampton.gov.uk,Wolverhampton,http://www.wolverhampton.gov.uk/,-2.15233200000000,WV6 9HU,2014-03-13,fhrs_5_en-GB,5,,FHRS,0
354749,Sedgley Street,Wolverhampton,West Midlands,,Blakenhall Neighbourhood Nursery,Hospitals/Childcare/Caring Premises,5,0,,584804,0,,52.57411600000000,19527,436,environmentalhealth@wolverhampton.gov.uk,Wolverhampton,http://www.wolverhampton.gov.uk/,-2.12788700000000,WV2 3AJ,2013-01-11,fhrs_5_en-GB,5,,FHRS,5
354750,88 Upper Villiers Street,Wolverhampton,West Midlands,,Blakenhall Post Office,Retailers - other,4613,,,709415,,,52.56905600000000,280,436,environmentalhealth@wolverhampton.gov.uk,Wolverhampton,http://www.wolverhampton.gov.uk/,-2.13409800000000,WV2 4NX,2014-10-21,fhrs_exempt_en-GB,Exempt,,FHRS,
354751,Blakenhall House Nursing Home,Haggar Street,Blakenhall,Wolverhampton,Blakenhall Resource Centre,Hospitals/Childcare/Caring Premises,5,5,,626318,5,,52.57014200000000,2200,436,environmentalhealth@wolverhampton.gov.uk,Wolverhampton,http://www.wolverhampton.gov.uk/,-2.12828800000000,WV2 3ET,2014-01-09,fhrs_5_en-GB,5,,FHRS,0
354752,Shaw House,Shaw Road,Bushbury,Wolverhampton,Blue Mountain Foods Ltd,Manufacturers/packers,7839,0,,584793,0,,52.60708500000000,19071,436,environmentalhealth@wolverhampton.gov.uk,Wolverhampton,http://www.wolverhampton.gov.uk/,-2.12466100000000,WV10 9LA,2014-07-22,fhrs_5_en-GB,5,,FHRS,5
354753,314 Prestwood Road,Wolverhampton,West Midlands,,Bobbies News & Off Licence,Retailers - other,4613,0,,626333,0,,52.60358500000000,39780,436,environmentalhealth@wolverhampton.gov.uk,Wolverhampton,http://www.wolverhampton.gov.uk/,-2.09861900000000,WV11 1RH,2014-01-09,fhrs_5_en-GB,5,,FHRS,0
354754,Booker Belmont Warehouse,Stafford Road,Wolverhampton,West Midlands,Booker Cash & Carry,Distributors/Transporters,7,5,,639682,0,,52.63595700000000,2543,436,environmentalhealth@wolverhampton.gov.uk,Wolverhampton,http://www.wolverhampton.gov.uk/,-2.12744700000000,WV10 7EL,2014-02-19,fhrs_5_en-GB,5,,FHRS,5
354755,61 Stubby Lane,Wolverhampton,West Midlands,,Booze Corner,Retailers - other,4613,0,,585000,0,,52.60381800000000,34211,436,environmentalhealth@wolverhampton.gov.uk,Wolverhampton,http://www.wolverhampton.gov.uk/,-2.05925500000000,WV11 3NL,2012-06-27,fhrs_5_en-GB,5,,FHRS,0
354756,150 Oxford Street,Bilston,Wolverhampton,West Midlands,Bostin Butties,Mobile caterer,7846,,,730653,,,,34030,436,environmentalhealth@wolverhampton.gov.uk,Wolverhampton,http://www.wolverhampton.gov.uk/,,,2012-11-27,fhrs_exempt_en-GB,Exempt,,FHRS,
354757,145 Highfields Road,Wolverhampton,West Midlands,,Bradley Fish Bar,Takeaway/sandwich shop,7844,10,,608829,5,,52.55801800000000,2393,436,environmentalhealth@wolverhampton.gov.uk,Wolverhampton,http://www.wolverhampton.gov.uk/,-2.07142000000000,WV14 0LH,2013-07-10,fhrs_4_en-GB,4,,FHRS,5
354758,132 Rocket Pool Drive,Wolverhampton,West Midlands,,Bradley News,Retailers - other,4613,5,,608954,5,,52.54853100000000,35922,436,environmentalhealth@wolverhampton.gov.uk,Wolverhampton,http://www.wolverhampton.gov.uk/,-2.05953400000000,WV14 8BD,2013-08-01,fhrs_5_en-GB,5,,FHRS,5
354759,2 Mervyn Place,Wolverhampton,West Midlands,,Bradley's No.1 Pizza,Takeaway/sandwich shop,7844,0,,585099,0,,52.55388000000000,37954,436,environmentalhealth@wolverhampton.gov.uk,Wolverhampton,http://www.wolverhampton.gov.uk/,-2.05901000000000,WV14 8DF,2013-07-01,fhrs_5_en-GB,5,,FHRS,0
354760,Bradmore Arms Public House,Trysull Road,Wolverhampton,West Midlands,Bradmore Arms,Pub/bar/nightclub,7843,5,,584750,5,,52.57611400000000,16290,436,environmentalhealth@wolverhampton.gov.uk,Wolverhampton,http://www.wolverhampton.gov.uk/,-2.15600300000000,WV3 7HX,2014-03-28,fhrs_5_en-GB,5,,FHRS,5
354761,60 - 62 Church Road,Bradmore,Wolverhampton,West Midlands,Bradmore Club,Pub/bar/nightclub,7843,0,,697189,0,,52.57355100000000,893,436,environmentalhealth@wolverhampton.gov.uk,Wolverhampton,http://www.wolverhampton.gov.uk/,-2.15649600000000,WV3 7ER,2011-03-24,fhrs_5_en-GB,5,,FHRS,0
354762,14 Trysull Road,Wolverhampton,West Midlands,,Bradmore Fish Fryer,Takeaway/sandwich shop,7844,5,,629703,5,,52.57632800000000,2414,436,environmentalhealth@wolverhampton.gov.uk,Wolverhampton,http://www.wolverhampton.gov.uk/,-2.15662400000000,WV3 7HU,2014-01-20,fhrs_5_en-GB,5,,FHRS,5
354763,Shop,18 - 20 Trysull Road,Wolverhampton,West Midlands,Bradmore Wines & Nijjar Superm,Retailers - other,4613,10,,608762,5,,52.57632900000000,1481,436,environmentalhealth@wolverhampton.gov.uk,Wolverhampton,http://www.wolverhampton.gov.uk/,-2.15662400000000,WV3 7HU,2013-05-21,fhrs_3_en-GB,3,,FHRS,10
354764,Unit 7,East Park Trading Estate,Hickman Avenue,Wolverhampton,Brady's Brunch Cafe,Other catering premises,7841,0,,608849,0,,52.57924600000000,26186,436,environmentalhealth@wolverhampton.gov.uk,Wolverhampton,http://www.wolverhampton.gov.uk/,-2.10347900000000,WV1 2XF,2013-07-17,fhrs_5_en-GB,5,,FHRS,0
354765,4A Upper Green,Wolverhampton,West Midlands,,Bravaccio's,Other catering premises,7841,5,,622956,0,,52.59801300000000,37172,436,environmentalhealth@wolverhampton.gov.uk,Wolverhampton,http://www.wolverhampton.gov.uk/,-2.16885200000000,WV6 8QQ,2013-10-25,fhrs_5_en-GB,5,,FHRS,0
354766,Lichfield Street,City Centre,Wolverhampton,West Midlands,Britannia Hotel,Hotel/bed & breakfast/guest house,7842,0,,608784,0,,52.58647200000000,1685,436,environmentalhealth@wolverhampton.gov.uk,Wolverhampton,http://www.wolverhampton.gov.uk/,-2.12371600000000,WV1 1DD,2013-07-04,fhrs_5_en-GB,5,,FHRS,5
354767,The British Queen,381 Dudley Road,Wolverhampton,West Midlands,British Queen,Pub/bar/nightclub,7843,5,,585025,5,,52.57061300000000,35337,436,environmentalhealth@wolverhampton.gov.uk,Wolverhampton,http://www.wolverhampton.gov.uk/,-2.12507300000000,WV2 3AY,2013-03-11,fhrs_5_en-GB,5,,FHRS,5
354768,West Park Infant School,Devon Road,Wolverhampton,West Midlands,Broadmeadow Nursery School,School/college/university,7845,0,,639670,0,,52.59166100000000,12547,436,environmentalhealth@wolverhampton.gov.uk,Wolverhampton,http://www.wolverhampton.gov.uk/,-2.13794600000000,WV1 4BE,2013-05-21,fhrs_5_en-GB,5,,FHRS,0
354769,Broadway Gardens,Broadway,Bushbury,Wolverhampton,Broadway Gardens (Extra Care Charitable Trust),Hospitals/Childcare/Caring Premises,5,0,,584669,0,,,10462,436,environmentalhealth@wolverhampton.gov.uk,Wolverhampton,http://www.wolverhampton.gov.uk/,,,2013-05-14,fhrs_5_en-GB,5,,FHRS,0
354770,11 Hollington Road,Wolverhampton,West Midlands,,Broatch's Store,Retailers - other,4613,5,,633451,5,,52.58024300000000,11017,436,environmentalhealth@wolverhampton.gov.uk,Wolverhampton,http://www.wolverhampton.gov.uk/,-2.09393300000000,WV1 2DR,2014-01-29,fhrs_5_en-GB,5,,FHRS,0
354771,48 Brooklands Parade,Wolverhampton,West Midlands,,Brooklands Pharmacy,Retailers - other,4613,,,697091,,,52.58551800000000,1023,436,environmentalhealth@wolverhampton.gov.uk,Wolverhampton,http://www.wolverhampton.gov.uk/,-2.09640900000000,WV1 2NE,2014-06-17,fhrs_exempt_en-GB,Exempt,,FHRS,
354772,,,,,Buffets 2 Go,Other catering premises,7841,10,,585077,0,,,37182,436,environmentalhealth@wolverhampton.gov.uk,Wolverhampton,http://www.wolverhampton.gov.uk/,,,2014-09-18,fhrs_4_en-GB,4,,FHRS,5
354773,1A Willenhall Road,Bilston,Wolverhampton,West Midlands,Bunkers Hill Post Office,Retailers - other,4613,,,653382,,,52.57050700000000,270,436,environmentalhealth@wolverhampton.gov.uk,Wolverhampton,http://www.wolverhampton.gov.uk/,-2.06751600000000,WV14 6NL,2014-04-15,fhrs_exempt_en-GB,Exempt,,FHRS,
354774,Pipers Row,City Centre,Wolverhampton,,Bus Drivers Canteen,Other catering premises,7841,0,,585002,0,,52.58623100000000,34273,436,environmentalhealth@wolverhampton.gov.uk,Wolverhampton,http://www.wolverhampton.gov.uk/,-2.12232800000000,WV1 1LD,2013-01-07,fhrs_5_en-GB,5,,FHRS,0
354775,Hellier Road,Wolverhampton,West Midlands,,Bushbury Court Nursing Home,Hospitals/Childcare/Caring Premises,5,0,,623015,0,,52.62275700000000,7847,436,environmentalhealth@wolverhampton.gov.uk,Wolverhampton,http://www.wolverhampton.gov.uk/,-2.11293200000000,WV10 8EE,2013-11-20,fhrs_5_en-GB,5,,FHRS,0
354776,325 Bushbury Lane,Wolverhampton,West Midlands,,Bushbury Fish Bar,Takeaway/sandwich shop,7844,0,,584841,0,,52.61589200000000,2360,436,environmentalhealth@wolverhampton.gov.uk,Wolverhampton,http://www.wolverhampton.gov.uk/,-2.11796500000000,WV10 9UJ,2015-01-12,fhrs_5_en-GB,5,,FHRS,0
354777,325A Bushbury Lane,Wolverhampton,West Midlands,,Bushbury Fruit And Veg,Retailers - other,4613,0,,609029,0,,52.61589300000000,39491,436,environmentalhealth@wolverhampton.gov.uk,Wolverhampton,http://www.wolverhampton.gov.uk/,-2.11796600000000,WV10 9UJ,2013-07-29,fhrs_5_en-GB,5,,FHRS,0
354778,Bushbury Infant School,Old Fallings Lane,Wolverhampton,West Midlands,Bushbury Hill Primary School,School/college/university,7845,0,,626326,0,,52.61179600000000,2890,436,environmentalhealth@wolverhampton.gov.uk,Wolverhampton,http://www.wolverhampton.gov.uk/,-2.10593300000000,WV10 8BN,2014-01-09,fhrs_5_en-GB,5,,FHRS,0
354779,72 Stanley Road,Wolverhampton,West Midlands,,Bushbury Triangle Childrens Centre,Hospitals/Childcare/Caring Premises,5,0,,608858,0,,52.61589800000000,27323,436,environmentalhealth@wolverhampton.gov.uk,Wolverhampton,http://www.wolverhampton.gov.uk/,-2.12103800000000,WV10 9EL,2013-10-16,fhrs_5_en-GB,5,,FHRS,0
354780,Stanley Road,Wolverhampton,West Midlands,,Bushbury Triangle Neighbourhood Nursery,Hospitals/Childcare/Caring Premises,5,0,,608861,0,,52.61589800000000,27844,436,environmentalhealth@wolverhampton.gov.uk,Wolverhampton,http://www.wolverhampton.gov.uk/,-2.12103800000000,WV10 9EL,2013-10-16,fhrs_5_en-GB,5,,FHRS,0
354781,Oxford Street,Bilston,Wolverhampton,West Midlands,Bushfield Court,Hospitals/Childcare/Caring Premises,5,5,,691472,5,,,16297,436,environmentalhealth@wolverhampton.gov.uk,Wolverhampton,http://www.wolverhampton.gov.uk/,,,2014-08-07,fhrs_5_en-GB,5,,FHRS,0
354782,Dunstall Park Racecourse,Gorsebrook Road,Wolverhampton,West Midlands,Butchers Block,Other catering premises,7841,0,,585110,0,,52.60172400000000,38327,436,environmentalhealth@wolverhampton.gov.uk,Wolverhampton,http://www.wolverhampton.gov.uk/,-2.13551200000000,WV6 0PE,2012-11-23,fhrs_5_en-GB,5,,FHRS,0
354783,31 Welbeck Avenue,Wolverhampton,West Midlands,,C & J Mobile Refreshments,Mobile caterer,7846,0,,622972,0,,52.60713100000000,39172,436,environmentalhealth@wolverhampton.gov.uk,Wolverhampton,http://www.wolverhampton.gov.uk/,-2.12297700000000,WV10 9LS,2013-11-04,fhrs_5_en-GB,5,,FHRS,0
354784,,,,,C & J Mobile Refreshments,Mobile caterer,7846,0,,622948,5,,,34676,436,environmentalhealth@wolverhampton.gov.uk,Wolverhampton,http://www.wolverhampton.gov.uk/,,,2013-11-01,fhrs_5_en-GB,5,,FHRS,0
354785,Wolverhampton Science Park,Glaisher Drive,Wolverhampton,West Midlands,Cafe Bar,Takeaway/sandwich shop,7844,0,,584773,0,,,17176,436,environmentalhealth@wolverhampton.gov.uk,Wolverhampton,http://www.wolverhampton.gov.uk/,,,2012-01-20,fhrs_5_en-GB,5,,FHRS,0
354786,82 High Street,Wednesfield,Wolverhampton,West Midlands,Cafe Des Marguerites,Other catering premises,7841,0,,608925,0,,52.59983100000000,33204,436,environmentalhealth@wolverhampton.gov.uk,Wolverhampton,http://www.wolverhampton.gov.uk/,-2.08211900000000,WV11 1SZ,2013-07-30,fhrs_5_en-GB,5,,FHRS,0
354787,New Cross Hospital,Wolverhampton Road,Heath Town,Wolverhampton,Cafe Escape Ltd,Other catering premises,7841,0,,653376,5,,52.59773500000000,23055,436,environmentalhealth@wolverhampton.gov.uk,Wolverhampton,http://www.wolverhampton.gov.uk/,-2.09596300000000,WV10 0QP,2014-03-31,fhrs_5_en-GB,5,,FHRS,5
354788,21 Finchfield Road West,Wolverhampton,West Midlands,,Cafe Latuske's,Other catering premises,7841,5,,584954,5,,52.58037200000000,30649,436,environmentalhealth@wolverhampton.gov.uk,Wolverhampton,http://www.wolverhampton.gov.uk/,-2.17080600000000,WV3 8AY,2013-03-28,fhrs_5_en-GB,5,,FHRS,5
354789,46 Church Street,Bilston,Wolverhampton,West Midlands,Cafe Metro,Other catering premises,7841,0,,680868,0,,52.56606200000000,26237,436,environmentalhealth@wolverhampton.gov.uk,Wolverhampton,http://www.wolverhampton.gov.uk/,-2.07454600000000,WV14 0AH,2014-06-05,fhrs_5_en-GB,5,,FHRS,5
354790,20 Chapel Ash,Wolverhampton,West Midlands,,Cafe Rickshaw,Other catering premises,7841,0,,584892,0,,52.58498300000000,27240,436,environmentalhealth@wolverhampton.gov.uk,Wolverhampton,http://www.wolverhampton.gov.uk/,-2.13729100000000,WV3 0TN,2013-05-15,fhrs_5_en-GB,5,,FHRS,0
354791,273 Dudley Road,Wolverhampton,West Midlands,,Cafe Xamayca,Takeaway/sandwich shop,7844,0,,622959,5,,52.56778300000000,37366,436,environmentalhealth@wolverhampton.gov.uk,Wolverhampton,http://www.wolverhampton.gov.uk/,-2.12325100000000,WV2 3JU,2013-10-29,fhrs_5_en-GB,5,,FHRS,5
354792,House Of Fraser,71 - 78 Victoria Street,Wolverhampton,West Midlands,Caffe Nero,Other catering premises,7841,0,,608847,0,,52.58525200000000,26014,436,environmentalhealth@wolverhampton.gov.uk,Wolverhampton,http://www.wolverhampton.gov.uk/,-2.13004500000000,WV1 3PQ,2013-08-07,fhrs_5_en-GB,5,,FHRS,0
354793,,,,,Cake Delights,Other catering premises,7841,0,,585075,0,,,37156,436,environmentalhealth@wolverhampton.gov.uk,Wolverhampton,http://www.wolverhampton.gov.uk/,,,2013-03-26,fhrs_5_en-GB,5,,FHRS,0
354794,461 Dudley Road,Wolverhampton,West Midlands,,Cake Shop,Manufacturers/packers,7839,0,,689575,0,,52.57502500000000,40185,436,environmentalhealth@wolverhampton.gov.uk,Wolverhampton,http://www.wolverhampton.gov.uk/,-2.12641400000000,WV2 3AF,2014-07-10,fhrs_5_en-GB,5,,FHRS,0
354795,,,,,Cake That And Party,Other catering premises,7841,0,,585098,0,,,37920,436,environmentalhealth@wolverhampton.gov.uk,Wolverhampton,http://www.wolverhampton.gov.uk/,,,2013-02-21,fhrs_5_en-GB,5,,FHRS,0
354796,172 Steelhouse Lane,Wolverhampton,West Midlands,,Caledonia Stores,Retailers - other,4613,5,,735922,0,,52.57579200000000,40590,436,environmentalhealth@wolverhampton.gov.uk,Wolverhampton,http://www.wolverhampton.gov.uk/,-2.11502400000000,WV2 2AT,2015-02-02,fhrs_5_en-GB,5,,FHRS,5
354797,575 Parkfield Road,Wolverhampton,West Midlands,,Cameron Convenience,Retailers - other,4613,10,,691480,5,,52.56647700000000,29766,436,environmentalhealth@wolverhampton.gov.uk,Wolverhampton,http://www.wolverhampton.gov.uk/,-2.10707800000000,WV4 6EL,2014-08-11,fhrs_4_en-GB,4,,FHRS,5
354798,The Canal Club,Wednesfield Road,Wolverhampton,West Midlands,Canal Club,Pub/bar/nightclub,7843,0,,622955,0,,52.58836200000000,36991,436,environmentalhealth@wolverhampton.gov.uk,Wolverhampton,http://www.wolverhampton.gov.uk/,-2.12209800000000,WV1 1LJ,2013-11-27,fhrs_5_en-GB,5,,FHRS,0
354799,80 Cannock Road,Wolverhampton,West Midlands,,Cannock Road Filling Station,Retailers - other,4613,0,,609036,0,,52.61056000000000,39609,436,environmentalhealth@wolverhampton.gov.uk,Wolverhampton,http://www.wolverhampton.gov.uk/,-2.10051000000000,WV10 8PJ,2013-08-19,fhrs_5_en-GB,5,,FHRS,5
354800,236 - 238 Cannock Road,Wolverhampton,West Midlands,,Cannock Road Fish Bar,Takeaway/sandwich shop,7844,5,,639702,0,,52.61765800000000,39835,436,environmentalhealth@wolverhampton.gov.uk,Wolverhampton,http://www.wolverhampton.gov.uk/,-2.09460400000000,WV10 8QD,2014-03-05,fhrs_5_en-GB,5,,FHRS,0
354801,14 High Street,Wednesfield,Wolverhampton,West Midlands,Card Factory,Retailers - other,4613,,,622983,,,52.59981300000000,39729,436,environmentalhealth@wolverhampton.gov.uk,Wolverhampton,http://www.wolverhampton.gov.uk/,-2.08219300000000,WV11 1SZ,2013-10-25,fhrs_exempt_en-GB,Exempt,,FHRS,
354802,Construction House,24 Birch Street,Wolverhampton,West Midlands,Carillion Construction Ltd,Other catering premises,7841,0,,584952,0,,52.58696500000000,3062,436,environmentalhealth@wolverhampton.gov.uk,Wolverhampton,http://www.wolverhampton.gov.uk/,-2.13379900000000,WV1 4HY,2013-06-14,fhrs_5_en-GB,5,,FHRS,0
354803,,,,,Carlton Catering Service,Other catering premises,7841,5,,608898,0,,,30561,436,environmentalhealth@wolverhampton.gov.uk,Wolverhampton,http://www.wolverhampton.gov.uk/,,,2013-07-04,fhrs_5_en-GB,5,,FHRS,0
354804,,,,,Carys' Childcare,Hospitals/Childcare/Caring Premises,5,0,,608980,0,,,37556,436,environmentalhealth@wolverhampton.gov.uk,Wolverhampton,http://www.wolverhampton.gov.uk/,,,2013-08-15,fhrs_5_en-GB,5,,FHRS,0
354805,85 Rugby Street,Wolverhampton,West Midlands,,Casper Stores Ltd,Retailers - other,4613,0,,584814,0,,52.59336900000000,22396,436,environmentalhealth@wolverhampton.gov.uk,Wolverhampton,http://www.wolverhampton.gov.uk/,-2.13823200000000,WV1 4PG,2014-06-26,fhrs_5_en-GB,5,,FHRS,0
354806,Casper Stores Limited,Unit 3,Strawberry Lane,Wolverhampton,Casper Stores Ltd,Retailers - other,4613,,,608924,,,52.58871000000000,33169,436,environmentalhealth@wolverhampton.gov.uk,Wolverhampton,http://www.wolverhampton.gov.uk/,-2.08375100000000,WV13 3RS,2013-07-16,fhrs_exempt_en-GB,Exempt,,FHRS,
354807,1 Broad Street,City Centre,Wolverhampton,West Midlands,Caspian,Takeaway/sandwich shop,7844,5,,680876,5,,52.58739600000000,30713,436,environmentalhealth@wolverhampton.gov.uk,Wolverhampton,http://www.wolverhampton.gov.uk/,-2.12565300000000,WV1 1JA,2014-06-04,fhrs_5_en-GB,5,,FHRS,0
354808,Windmill Crescent,Wolverhampton,West Midlands,,Castlecroft Primary School,School/college/university,7845,0,,584936,0,,52.57904200000000,2987,436,environmentalhealth@wolverhampton.gov.uk,Wolverhampton,http://www.wolverhampton.gov.uk/,-2.18290200000000,WV3 8HS,2014-06-17,fhrs_5_en-GB,5,,FHRS,5
354809,Catallanis,6 School Street,Wolverhampton,West Midlands,Catellani's,Other catering premises,7841,0,,584944,0,,52.58393700000000,30129,436,environmentalhealth@wolverhampton.gov.uk,Wolverhampton,http://www.wolverhampton.gov.uk/,-2.13165000000000,WV1 4LR,2013-01-10,fhrs_5_en-GB,5,,FHRS,5
354810,Crown Nail Co Ltd Works,Commercial Road,Wolverhampton,West Midlands,Catered Events,Other catering premises,7841,0,,639690,0,,52.58180700000000,32932,436,environmentalhealth@wolverhampton.gov.uk,Wolverhampton,http://www.wolverhampton.gov.uk/,-2.11450900000000,WV1 3QS,2014-02-20,fhrs_5_en-GB,5,,FHRS,5
354811,82 - 84 Green Lane,Wolverhampton,West Midlands,,Caterpillars Nursery,Hospitals/Childcare/Caring Premises,5,0,,584981,0,,52.61084900000000,32852,436,environmentalhealth@wolverhampton.gov.uk,Wolverhampton,http://www.wolverhampton.gov.uk/,-2.15686600000000,WV6 9HJ,2014-07-07,fhrs_5_en-GB,5,,FHRS,0
354812,O Briens Irish Sandwich Bar,Catering Area C,Mander Centre,Wolverhampton,Central Cafe,Other catering premises,7841,0,,585131,0,,52.58449900000000,39322,436,environmentalhealth@wolverhampton.gov.uk,Wolverhampton,http://www.wolverhampton.gov.uk/,-2.12762200000000,WV1 3NJ,2013-06-26,fhrs_5_en-GB,5,,FHRS,0
354813,20 - 22 Central Avenue,Wolverhampton,West Midlands,,Central Stores,Retailers - other,4613,0,,653397,0,,52.57365900000000,31989,436,environmentalhealth@wolverhampton.gov.uk,Wolverhampton,http://www.wolverhampton.gov.uk/,-2.07264100000000,WV14 6LJ,2014-03-27,fhrs_5_en-GB,5,,FHRS,0
354814,120 Upper Villiers Street,Wolverhampton,West Midlands,,Chaad Balti & Tandoori Take Away,Takeaway/sandwich shop,7844,5,,653389,5,,52.57023600000000,29558,436,environmentalhealth@wolverhampton.gov.uk,Wolverhampton,http://www.wolverhampton.gov.uk/,-2.13274500000000,WV2 4NU,2014-03-24,fhrs_4_en-GB,4,,FHRS,10
354815,25 Chapel Ash,Wolverhampton,West Midlands,,Chapel Ash Kebab House,Takeaway/sandwich shop,7844,0,,584860,5,,,2452,436,environmentalhealth@wolverhampton.gov.uk,Wolverhampton,http://www.wolverhampton.gov.uk/,,,2013-05-15,fhrs_5_en-GB,5,,FHRS,5
354816,7 Finchfield Road,Wolverhampton,West Midlands,,Charnwood,Hospitals/Childcare/Caring Premises,5,5,,608808,5,,52.58043200000000,2210,436,environmentalhealth@wolverhampton.gov.uk,Wolverhampton,http://www.wolverhampton.gov.uk/,-2.16018100000000,WV3 9LS,2013-07-15,fhrs_5_en-GB,5,,FHRS,5
354817,36 Pipers Row,Wolverhampton,West Midlands,,Chicago Rock Cafe,Pub/bar/nightclub,7843,0,,584951,0,,52.58552900000000,30596,436,environmentalhealth@wolverhampton.gov.uk,Wolverhampton,http://www.wolverhampton.gov.uk/,-2.12313800000000,WV1 3JY,2013-03-11,fhrs_5_en-GB,5,,FHRS,0
354818,191 Wednesfield Road,Wolverhampton,West Midlands,,Chick King Fish Bar,Takeaway/sandwich shop,7844,5,,622856,5,,52.59169000000000,12482,436,environmentalhealth@wolverhampton.gov.uk,Wolverhampton,http://www.wolverhampton.gov.uk/,-2.11085900000000,WV10 0EN,2013-11-25,fhrs_5_en-GB,5,,FHRS,5
354819,1 Mount Pleasant,Wolverhampton,West Midlands,,Chicken Bar,Takeaway/sandwich shop,7844,5,,623003,5,,52.56741900000000,39767,436,environmentalhealth@wolverhampton.gov.uk,Wolverhampton,http://www.wolverhampton.gov.uk/,-2.07465200000000,WV14 7LJ,2013-11-27,fhrs_5_en-GB,5,,FHRS,5
354820,26 Market Street,Wolverhampton,West Midlands,,Chicken Lickin,Other catering premises,7841,0,,584699,0,,52.58500400000000,13517,436,environmentalhealth@wolverhampton.gov.uk,Wolverhampton,http://www.wolverhampton.gov.uk/,-2.12595600000000,WV1 3AG,2014-06-17,fhrs_5_en-GB,5,,FHRS,0
354821,19 Broad Street,City Centre,Wolverhampton,West Midlands,Chicky Chicken,Takeaway/sandwich shop,7844,0,,622969,0,,52.58761300000000,39083,436,environmentalhealth@wolverhampton.gov.uk,Wolverhampton,http://www.wolverhampton.gov.uk/,-2.12479700000000,WV1 1HZ,2013-12-02,fhrs_5_en-GB,5,,FHRS,0
354822,The Childrens Village,Graiseley Lane,Wolverhampton,West Midlands,Childrens Village,Hospitals/Childcare/Caring Premises,5,0,,622883,0,,52.60009600000000,19064,436,environmentalhealth@wolverhampton.gov.uk,Wolverhampton,http://www.wolverhampton.gov.uk/,-2.08842400000000,WV11 1PE,2013-11-05,fhrs_5_en-GB,5,,FHRS,0
354823,12 Stewart Street,Wolverhampton,West Midlands,,Chilli Jacks,Takeaway/sandwich shop,7844,10,,622987,5,,52.57919200000000,39739,436,environmentalhealth@wolverhampton.gov.uk,Wolverhampton,http://www.wolverhampton.gov.uk/,-2.13018900000000,WV2 4JW,2013-11-19,fhrs_4_en-GB,4,,FHRS,0
354824,275 Dunstall Road,Whitmore Reans,Wolverhampton,,Chilli Mini Market,Retailers - other,4613,5,,622979,0,,52.59770200000000,39452,436,environmentalhealth@wolverhampton.gov.uk,Wolverhampton,http://www.wolverhampton.gov.uk/,-2.13879200000000,WV6 0NY,2013-11-18,fhrs_5_en-GB,5,,FHRS,5
354825,62 Warstones Road,Wolverhampton,West Midlands,,Chip Inn,Takeaway/sandwich shop,7844,5,,633462,10,,52.56602200000000,26314,436,environmentalhealth@wolverhampton.gov.uk,Wolverhampton,http://www.wolverhampton.gov.uk/,-2.16650100000000,WV4 4LP,2014-02-03,fhrs_4_en-GB,4,,FHRS,5
354826,Unit 2,Bentley Bridge Park,Bentleybridge Way,Wolverhampton,Chiquitos,Other catering premises,7841,0,,584833,5,,52.59692200000000,23131,436,environmentalhealth@wolverhampton.gov.uk,Wolverhampton,http://www.wolverhampton.gov.uk/,-2.09029200000000,WV11 1BP,2013-06-14,fhrs_5_en-GB,5,,FHRS,0
354827,557 Parkfield Road,Wolverhampton,West Midlands,,Choice Superstore,Retailers - other,4613,,,696512,,,52.56647700000000,26307,436,environmentalhealth@wolverhampton.gov.uk,Wolverhampton,http://www.wolverhampton.gov.uk/,-2.10707800000000,WV4 6EL,2014-08-20,fhrs_4_en-GB,4,,FHRS,
354828,305 Tettenhall Road,Wolverhampton,West Midlands,,Chopsticks Cantonese Takeaway,Takeaway/sandwich shop,7844,5,,584779,5,,52.59638200000000,17226,436,environmentalhealth@wolverhampton.gov.uk,Wolverhampton,http://www.wolverhampton.gov.uk/,-2.15892500000000,WV6 0LB,2013-04-16,fhrs_5_en-GB,5,,FHRS,0
354829,4 Barn Green,Wolverhampton,West Midlands,,Choy Wah,Takeaway/sandwich shop,7844,0,,584722,0,,52.57493600000000,15030,436,environmentalhealth@wolverhampton.gov.uk,Wolverhampton,http://www.wolverhampton.gov.uk/,-2.14935900000000,WV3 7AY,2013-03-19,fhrs_5_en-GB,5,,FHRS,5
354830,4A Weddell Wynd,Wolverhampton,West Midlands,,Chris's Stores,Retailers - other,4613,,,713160,,,52.54778900000000,32405,436,environmentalhealth@wolverhampton.gov.uk,Wolverhampton,http://www.wolverhampton.gov.uk/,-2.06818900000000,WV14 8UD,2014-07-18,fhrs_exempt_en-GB,Exempt,,FHRS,
354831,Christ Church Church Of England Nur,School Road,Tettenhall Wood,Wolverhampton,Christ Church Infants School,School/college/university,7845,0,,622923,0,,52.59060400000000,2982,436,environmentalhealth@wolverhampton.gov.uk,Wolverhampton,http://www.wolverhampton.gov.uk/,-2.18191700000000,WV6 8EJ,2013-11-20,fhrs_5_en-GB,5,,FHRS,0
354832,Christ Church Church Of England Jun,Woodcote Road,Wolverhampton,West Midlands,Christ Church Junior School,School/college/university,7845,0,,633465,0,,52.59499800000000,2989,436,environmentalhealth@wolverhampton.gov.uk,Wolverhampton,http://www.wolverhampton.gov.uk/,-2.17735800000000,WV6 8LG,2013-11-05,fhrs_5_en-GB,5,,FHRS,0
354833,The Apostolic Church Christian Life,Sedgley Street,Wolverhampton,West Midlands,Christian Life Centre,Other catering premises,7841,0,,585154,0,,52.57411500000000,926,436,environmentalhealth@wolverhampton.gov.uk,Wolverhampton,http://www.wolverhampton.gov.uk/,-2.12788600000000,WV2 3AJ,2012-11-24,fhrs_5_en-GB,5,,FHRS,5
354834,17 Church Road,Bradmore,Wolverhampton,West Midlands,Church Road Stores,Retailers - other,4613,10,,697157,5,,52.57460200000000,33245,436,environmentalhealth@wolverhampton.gov.uk,Wolverhampton,http://www.wolverhampton.gov.uk/,-2.15709000000000,WV3 7ET,2012-09-25,fhrs_3_en-GB,3,,FHRS,10
354835,City Of Wolverhampton College Metro,Old Hall Street,Wolverhampton,West Midlands,City Of Wolverhampton College,School/college/university,7845,0,,622876,0,,52.58364800000000,18340,436,environmentalhealth@wolverhampton.gov.uk,Wolverhampton,http://www.wolverhampton.gov.uk/,-2.12441600000000,WV1 3AH,2013-11-12,fhrs_5_en-GB,5,,FHRS,0
354836,St Peters Square,City Centre,Wolverhampton,,Civic Centre Kitchen & Kiosk,Takeaway/sandwich shop,7844,0,,608795,0,,,1868,436,environmentalhealth@wolverhampton.gov.uk,Wolverhampton,http://www.wolverhampton.gov.uk/,,,2013-07-23,fhrs_5_en-GB,5,,FHRS,0
354837,North Street,Wolverhampton,West Midlands,,Civic Hall,Pub/bar/nightclub,7843,0,,623008,0,,52.58665300000000,474,436,environmentalhealth@wolverhampton.gov.uk,Wolverhampton,http://www.wolverhampton.gov.uk/,-2.13080200000000,WV1 1RQ,2013-11-13,fhrs_5_en-GB,5,,FHRS,0
354838,Chester Avenue,Wolverhampton,West Midlands,,Claregate Primary School,School/college/university,7845,0,,584938,0,,52.60794700000000,2994,436,environmentalhealth@wolverhampton.gov.uk,Wolverhampton,http://www.wolverhampton.gov.uk/,-2.15563000000000,WV6 9JU,2013-01-11,fhrs_5_en-GB,5,,FHRS,0
354839,The Clarendon Hotel,38 Chapel Ash,Wolverhampton,West Midlands,Clarendon Hotel,Pub/bar/nightclub,7843,0,,584806,0,,52.58498300000000,2081,436,environmentalhealth@wolverhampton.gov.uk,Wolverhampton,http://www.wolverhampton.gov.uk/,-2.13729100000000,WV3 0TN,2013-01-08,fhrs_5_en-GB,5,,FHRS,5
354840,126 Vicarage Road,Parkfield,Wolverhampton,West Midlands,Clarkes Fruit & Veg,Retailers - other,4613,5,,696516,5,,52.57872500000000,7570,436,environmentalhealth@wolverhampton.gov.uk,Wolverhampton,http://www.wolverhampton.gov.uk/,-2.12183500000000,WV2 1DS,2014-06-18,fhrs_5_en-GB,5,,FHRS,5
354841,126 Vicarage Road,Parkfield,Wolverhampton,West Midlands,Clarkes Stores,Retailers - other,4613,5,,680853,5,,52.57872500000000,1433,436,environmentalhealth@wolverhampton.gov.uk,Wolverhampton,http://www.wolverhampton.gov.uk/,-2.12183500000000,WV2 1DS,2014-06-18,fhrs_5_en-GB,5,,FHRS,5
354842,274 Deans Road,Wolverhampton,West Midlands,,Classic Fish Bar,Takeaway/sandwich shop,7844,10,,680880,10,,52.59032600000000,36684,436,environmentalhealth@wolverhampton.gov.uk,Wolverhampton,http://www.wolverhampton.gov.uk/,-2.09746700000000,WV1 2AW,2014-06-12,fhrs_4_en-GB,4,,FHRS,0
354843,Cleveland Arms Public House,Stowheath Lane,Wolverhampton,West Midlands,Cleveland Arms,Pub/bar/nightclub,7843,0,,691475,5,,52.58214500000000,24854,436,environmentalhealth@wolverhampton.gov.uk,Wolverhampton,http://www.wolverhampton.gov.uk/,-2.08620300000000,WV1 2QN,2014-08-11,fhrs_5_en-GB,5,,FHRS,5
354844,54 - 56 Coalway Road,Wolverhampton,West Midlands,,Coalway House,Hospitals/Childcare/Caring Premises,5,5,,639689,10,,52.56927700000000,30485,436,environmentalhealth@wolverhampton.gov.uk,Wolverhampton,http://www.wolverhampton.gov.uk/,-2.15263000000000,WV3 7LZ,2014-02-19,fhrs_4_en-GB,4,,FHRS,5
354845,70 Coalway Road,Wolverhampton,West Midlands,,Coalway News & Booze,Retailers - other,4613,10,,680875,10,,52.56927700000000,30671,436,environmentalhealth@wolverhampton.gov.uk,Wolverhampton,http://www.wolverhampton.gov.uk/,-2.15263000000000,WV3 7LZ,2014-06-13,fhrs_3_en-GB,3,,FHRS,10
354846,257 - 259 Bilston Road,Wolverhampton,West Midlands,,Coffee Express,Other catering premises,7841,5,,661531,5,,52.57595400000000,33802,436,environmentalhealth@wolverhampton.gov.uk,Wolverhampton,http://www.wolverhampton.gov.uk/,-2.10527100000000,WV2 2JN,2014-04-30,fhrs_5_en-GB,5,,FHRS,0
354847,104 Church Street,Bilston,Wolverhampton,West Midlands,Coffee Express And Grill,Other catering premises,7841,0,,608769,0,,52.56512400000000,15982,436,environmentalhealth@wolverhampton.gov.uk,Wolverhampton,http://www.wolverhampton.gov.uk/,-2.07807100000000,WV14 0BJ,2013-10-15,fhrs_5_en-GB,5,,FHRS,0
354848,Wulfrun Square,Wolverhampton,West Midlands,,Coffee Moments,Other catering premises,7841,5,,608836,0,,52.58321400000000,24578,436,environmentalhealth@wolverhampton.gov.uk,Wolverhampton,http://www.wolverhampton.gov.uk/,-2.12701300000000,WV1 3HG,2013-08-08,fhrs_5_en-GB,5,,FHRS,5
354849,15 High Street,Bilston,Wolverhampton,West Midlands,Coffee Shop,Other catering premises,7841,5,,584781,5,,52.56432400000000,17249,436,environmentalhealth@wolverhampton.gov.uk,Wolverhampton,http://www.wolverhampton.gov.uk/,-2.07883600000000,WV14 0EH,2013-03-27,fhrs_5_en-GB,5,,FHRS,5
354850,Colton Hills Community School,Jeremy Road,Wolverhampton,West Midlands,Colton Hills School,School/college/university,7845,0,,584926,0,,52.56117900000000,2958,436,environmentalhealth@wolverhampton.gov.uk,Wolverhampton,http://www.wolverhampton.gov.uk/,-2.13649300000000,WV4 5DG,2012-09-26,fhrs_5_en-GB,5,,FHRS,5
354851,90 Chapel Ash,Wolverhampton,West Midlands,,Combermere Arms,Pub/bar/nightclub,7843,5,,584853,5,,52.58577100000000,24154,436,environmentalhealth@wolverhampton.gov.uk,Wolverhampton,http://www.wolverhampton.gov.uk/,-2.14006800000000,WV3 0TY,2012-10-18,fhrs_5_en-GB,5,,FHRS,5
354852,Sainsburys Supermarkets Ltd,Alexandra Street,Wolverhampton,West Midlands,Compass Contract Services,Restaurant/Cafe/Canteen,1,0,,733479,0,,52.58267300000000,40325,436,environmentalhealth@wolverhampton.gov.uk,Wolverhampton,http://www.wolverhampton.gov.uk/,-2.13663400000000,WV3 0TE,2015-01-29,fhrs_5_en-GB,5,,FHRS,0
354853,Wolverhampton Combined Court,Pipers Row,Wolverhampton,West Midlands,"Compass Group, Wolverhampton Combined Court",Other catering premises,7841,0,,608939,0,,52.58437000000000,34673,436,environmentalhealth@wolverhampton.gov.uk,Wolverhampton,http://www.wolverhampton.gov.uk/,-2.12214600000000,WV1 3LQ,2013-08-05,fhrs_5_en-GB,5,,FHRS,0
354854,Compton Hall,Compton Road West,Wolverhampton,West Midlands,Compton Hospice,Hospitals/Childcare/Caring Premises,5,0,,584822,0,,52.58580900000000,2263,436,environmentalhealth@wolverhampton.gov.uk,Wolverhampton,http://www.wolverhampton.gov.uk/,-2.17208100000000,WV3 9DH,2014-06-19,fhrs_5_en-GB,5,,FHRS,0
354855,Compton Hospice,Compton Hall,Compton Road West,Wolverhampton,Compton Hospice Coffee Shop,Other catering premises,7841,0,,584685,0,,52.58580900000000,11983,436,environmentalhealth@wolverhampton.gov.uk,Wolverhampton,http://www.wolverhampton.gov.uk/,-2.17208200000000,WV3 9DH,2014-08-20,fhrs_5_en-GB,5,,FHRS,0
354856,Unit 10,Landport Road Industrial Estate,Landport Road,Wolverhampton,Concept Buffets,Other catering premises,7841,0,,622933,0,,52.57930400000000,31912,436,environmentalhealth@wolverhampton.gov.uk,Wolverhampton,http://www.wolverhampton.gov.uk/,-2.10861400000000,WV2 2QJ,2013-12-03,fhrs_5_en-GB,5,,FHRS,0
354857,54 Chapel Ash,Wolverhampton,West Midlands,,Cool Runnings Caf,Restaurant/Cafe/Canteen,1,0,,709419,0,,52.58536700000000,39856,436,environmentalhealth@wolverhampton.gov.uk,Wolverhampton,http://www.wolverhampton.gov.uk/,-2.13884100000000,WV3 0TT,2014-10-24,fhrs_5_en-GB,5,,FHRS,0
354858,1A Market Way,Wolverhampton,West Midlands,,Cool Trader,Retailers - supermarkets/hypermarkets,7840,5,,622864,0,,52.56480100000000,15088,436,environmentalhealth@wolverhampton.gov.uk,Wolverhampton,http://www.wolverhampton.gov.uk/,-2.07689000000000,WV14 0DR,2013-11-28,fhrs_5_en-GB,5,,FHRS,0
354859,307 Tettenhall Road,Wolverhampton,West Midlands,,Co-Op,Retailers - supermarkets/hypermarkets,7840,5,,584880,5,,52.59638200000000,26599,436,environmentalhealth@wolverhampton.gov.uk,Wolverhampton,http://www.wolverhampton.gov.uk/,-2.15892500000000,WV6 0LB,2013-02-26,fhrs_5_en-GB,5,,FHRS,5
354860,331B Penn Road,Wolverhampton,West Midlands,,Co-Op,Retailers - supermarkets/hypermarkets,7840,0,,697141,0,,52.55993400000000,25328,436,environmentalhealth@wolverhampton.gov.uk,Wolverhampton,http://www.wolverhampton.gov.uk/,-2.15454500000000,WV4 5QF,2011-01-15,fhrs_5_en-GB,5,,FHRS,5
354861,65 - 67 Stubby Lane,Wolverhampton,West Midlands,,Co-Op,Retailers - supermarkets/hypermarkets,7840,10,,680855,0,,52.60381800000000,16670,436,environmentalhealth@wolverhampton.gov.uk,Wolverhampton,http://www.wolverhampton.gov.uk/,-2.05925500000000,WV11 3NL,2014-06-09,fhrs_4_en-GB,4,,FHRS,10
354862,657 Stafford Road,Wolverhampton,West Midlands,,Co-Op,Retailers - supermarkets/hypermarkets,7840,10,,689561,5,,52.62604100000000,26302,436,environmentalhealth@wolverhampton.gov.uk,Wolverhampton,http://www.wolverhampton.gov.uk/,-2.12784700000000,WV10 6QG,2014-07-03,fhrs_4_en-GB,4,,FHRS,5
354863,Bradley Post Office,141 - 143 Highfields Road,Wolverhampton,West Midlands,Co-Op,Retailers - supermarkets/hypermarkets,7840,10,,697147,10,,52.55801800000000,26321,436,environmentalhealth@wolverhampton.gov.uk,Wolverhampton,http://www.wolverhampton.gov.uk/,-2.07142000000000,WV14 0LH,2012-05-16,fhrs_3_en-GB,3,,FHRS,5
354864,Somerfield Store,46 Warstones Road,Wolverhampton,West Midlands,Co-Op,Retailers - supermarkets/hypermarkets,7840,5,,608818,5,,52.56602200000000,2290,436,environmentalhealth@wolverhampton.gov.uk,Wolverhampton,http://www.wolverhampton.gov.uk/,-2.16650100000000,WV4 4LP,2013-10-07,fhrs_5_en-GB,5,,FHRS,5
354865,The Cooperative,10 - 14 Finchfield Road West,Wolverhampton,West Midlands,Co-Op,Retailers - supermarkets/hypermarkets,7840,10,,609059,5,,52.58014600000000,4916,436,environmentalhealth@wolverhampton.gov.uk,Wolverhampton,http://www.wolverhampton.gov.uk/,-2.17160200000000,WV3 8AZ,2013-07-01,fhrs_4_en-GB,4,,FHRS,5
354866,The Co-Operative,Raynor Road,Wolverhampton,West Midlands,"Co-Op ""Fallings Park""",Retailers - supermarkets/hypermarkets,7840,0,,584995,0,,52.60494500000000,33985,436,environmentalhealth@wolverhampton.gov.uk,Wolverhampton,http://www.wolverhampton.gov.uk/,-2.10597600000000,WV10 9QY,2012-09-17,fhrs_5_en-GB,5,,FHRS,0
354867,42 Queen Street,City Centre,Wolverhampton,West Midlands,Co-Operative,Retailers - supermarkets/hypermarkets,7840,0,,608855,0,,52.58582400000000,26676,436,environmentalhealth@wolverhampton.gov.uk,Wolverhampton,http://www.wolverhampton.gov.uk/,-2.12460000000000,WV1 3JW,2013-09-30,fhrs_5_en-GB,5,,FHRS,0
354868,City Of Wolverhampton College Bilst,Wellington Road,Wolverhampton,West Midlands,Co-operative Childcare Nursery,School/college/university,7845,0,,689576,0,,52.57255800000000,40187,436,environmentalhealth@wolverhampton.gov.uk,Wolverhampton,http://www.wolverhampton.gov.uk/,-2.09190900000000,WV14 6BT,2014-07-15,fhrs_5_en-GB,5,,FHRS,0
354869,Corpus Christi Roman Catholic Schoo,Ashmore Avenue,Wolverhampton,West Midlands,Corpus Christi RC Primary School,School/college/university,7845,0,,639669,0,,52.61554200000000,12192,436,environmentalhealth@wolverhampton.gov.uk,Wolverhampton,http://www.wolverhampton.gov.uk/,-2.05717300000000,WV11 2LT,2014-03-11,fhrs_5_en-GB,5,,FHRS,0
354870,56 Ettingshall Road,Lanesfield,Wolverhampton,West Midlands,Coseley Convenience Store,Retailers - other,4613,10,,584726,5,,52.54935100000000,15297,436,environmentalhealth@wolverhampton.gov.uk,Wolverhampton,http://www.wolverhampton.gov.uk/,-2.09677200000000,WV14 9UG,2013-06-12,fhrs_4_en-GB,4,,FHRS,5
354871,Unit B8,Bentley Bridge Retail Park,Bentleybridge Way,Wolverhampton,Cosmo,Other catering premises,7841,0,,584962,0,,52.59790200000000,31247,436,environmentalhealth@wolverhampton.gov.uk,Wolverhampton,http://www.wolverhampton.gov.uk/,-2.08998400000000,WV11 1UJ,2013-11-19,fhrs_5_en-GB,5,,FHRS,0
354872,Unit B7,Bentley Bridge Retail Park,Bentleybridge Way,Wolverhampton,Costa,Restaurant/Cafe/Canteen,1,0,,735918,0,,52.59692100000000,40480,436,environmentalhealth@wolverhampton.gov.uk,Wolverhampton,http://www.wolverhampton.gov.uk/,-2.09029200000000,WV11 1BP,2015-02-04,fhrs_5_en-GB,5,,FHRS,0
354873,4 Victoria Street,Wolverhampton,West Midlands,,Costa Coffee,Other catering premises,7841,0,,584897,0,,52.58474900000000,27470,436,environmentalhealth@wolverhampton.gov.uk,Wolverhampton,http://www.wolverhampton.gov.uk/,-2.12926100000000,WV1 3NP,2013-06-17,fhrs_5_en-GB,5,,FHRS,0
354874,41 Queen Square,Wolverhampton,West Midlands,,Costa Coffee,Other catering premises,7841,0,,689557,0,,52.58621500000000,13888,436,environmentalhealth@wolverhampton.gov.uk,Wolverhampton,http://www.wolverhampton.gov.uk/,-2.12832100000000,WV1 1TX,2014-07-07,fhrs_5_en-GB,5,,FHRS,5
354875,Costa Coffee,1 - 2 Queens Building,Victoria Square,Wolverhampton,Costa Ltd,Other catering premises,7841,0,,609004,0,,52.58623100000000,38938,436,environmentalhealth@wolverhampton.gov.uk,Wolverhampton,http://www.wolverhampton.gov.uk/,-2.12232800000000,WV1 1LD,2013-09-16,fhrs_5_en-GB,5,,FHRS,0
354876,337 Bushbury Lane,Wolverhampton,West Midlands,,Costcutter,Retailers - other,4613,5,,584688,5,,52.61668400000000,12224,436,environmentalhealth@wolverhampton.gov.uk,Wolverhampton,http://www.wolverhampton.gov.uk/,-2.11740600000000,WV10 9UL,2012-06-18,fhrs_5_en-GB,5,,FHRS,5
354877,75 Stubby Lane,Wolverhampton,West Midlands,,Costcutter,Retailers - other,4613,5,,584977,0,,52.60568700000000,32557,436,environmentalhealth@wolverhampton.gov.uk,Wolverhampton,http://www.wolverhampton.gov.uk/,-2.06135400000000,WV11 3NE,2012-07-17,fhrs_5_en-GB,5,,FHRS,0
354878,81 - 83 Harrowby Road,Fordhouses,Wolverhampton,West Midlands,Costcutter,Retailers - other,4613,10,,584721,5,,52.62446100000000,14985,436,environmentalhealth@wolverhampton.gov.uk,Wolverhampton,http://www.wolverhampton.gov.uk/,-2.13360300000000,WV10 6EP,2013-02-27,fhrs_4_en-GB,4,,FHRS,5
354879,Parkfield Road Post Office,335 - 336 Dudley Road,Wolverhampton,West Midlands,Costcutter,Retailers - other,4613,5,,661524,10,,52.56794400000000,26193,436,environmentalhealth@wolverhampton.gov.uk,Wolverhampton,http://www.wolverhampton.gov.uk/,-2.12393000000000,WV2 3JY,2014-04-28,fhrs_3_en-GB,3,,FHRS,10
354880,Costcutter,120 Deans Road,Wolverhampton,West Midlands,Costcutter Supermarket,Retailers - other,4613,5,,696507,5,,52.58804600000000,1359,436,environmentalhealth@wolverhampton.gov.uk,Wolverhampton,http://www.wolverhampton.gov.uk/,-2.09375800000000,WV1 2BA,2011-05-05,fhrs_5_en-GB,5,,FHRS,5
354881,Murco Petrol Filling Station,Codsall Road,Wolverhampton,West Midlands,Costcutter/Murco,Retailers - other,4613,5,,639699,5,,52.60870200000000,39830,436,environmentalhealth@wolverhampton.gov.uk,Wolverhampton,http://www.wolverhampton.gov.uk/,-2.16249900000000,WV6 9QP,2014-03-10,fhrs_5_en-GB,5,,FHRS,0
354882,Stockwell End,Wolverhampton,West Midlands,,Coton Grange,Hospitals/Childcare/Caring Premises,5,5,,622985,5,,52.60344600000000,39736,436,environmentalhealth@wolverhampton.gov.uk,Wolverhampton,http://www.wolverhampton.gov.uk/,-2.16676100000000,WV6 9PH,2013-11-26,fhrs_5_en-GB,5,,FHRS,0
354883,Coton House Residential Care Home,55 Coton Road,Wolverhampton,West Midlands,Coton House,Hospitals/Childcare/Caring Premises,5,5,,626317,0,,52.56559100000000,2197,436,environmentalhealth@wolverhampton.gov.uk,Wolverhampton,http://www.wolverhampton.gov.uk/,-2.13813000000000,WV4 5AT,2014-01-06,fhrs_5_en-GB,5,,FHRS,0
354884,Coven Street,Wolverhampton,West Midlands,,Coven Lodge,Other catering premises,7841,0,,584697,0,,52.59530400000000,13483,436,environmentalhealth@wolverhampton.gov.uk,Wolverhampton,http://www.wolverhampton.gov.uk/,-2.12025700000000,WV10 9AX,2014-06-11,fhrs_5_en-GB,5,,FHRS,0
354885,Cox's Cafe,77 Mount Pleasant,Wolverhampton,West Midlands,Coxs Cafe,Other catering premises,7841,0,,680878,0,,52.56955300000000,34888,436,environmentalhealth@wolverhampton.gov.uk,Wolverhampton,http://www.wolverhampton.gov.uk/,-2.06888700000000,WV14 7NR,2014-05-28,fhrs_5_en-GB,5,,FHRS,0
354886,Dunstall Park Racecourse,Gorsebrook Road,Wolverhampton,West Midlands,Crantock Bakery,Mobile caterer,7846,0,,585109,0,,52.60172400000000,38326,436,environmentalhealth@wolverhampton.gov.uk,Wolverhampton,http://www.wolverhampton.gov.uk/,-2.13551200000000,WV6 0PE,2012-11-23,fhrs_5_en-GB,5,,FHRS,0
354887,5 Raynor Road,Wolverhampton,West Midlands,,Crispy Duck Express,Takeaway/sandwich shop,7844,10,,585012,5,,52.60494500000000,34582,436,environmentalhealth@wolverhampton.gov.uk,Wolverhampton,http://www.wolverhampton.gov.uk/,-2.10597600000000,WV10 9QY,2013-04-23,fhrs_4_en-GB,4,,FHRS,5
354888,Street Record,Crown Street,Wolverhampton,West Midlands,Crown Cafe,Mobile caterer,7846,0,,584667,0,,,10172,436,environmentalhealth@wolverhampton.gov.uk,Wolverhampton,http://www.wolverhampton.gov.uk/,,,2013-06-03,fhrs_5_en-GB,5,,FHRS,0
354889,11 Raynor Road,Wolverhampton,West Midlands,,Crumbles Bakery,Takeaway/sandwich shop,7844,0,,609061,0,,52.60494500000000,506,436,environmentalhealth@wolverhampton.gov.uk,Wolverhampton,http://www.wolverhampton.gov.uk/,-2.10597500000000,WV10 9QY,2013-08-15,fhrs_5_en-GB,5,,FHRS,0
354890,Smestow Valley Station Building,Meadow View Terrace,Wolverhampton,West Midlands,Cupcake Lane,Restaurant/Cafe/Canteen,1,0,,735919,0,,52.59717800000000,40481,436,environmentalhealth@wolverhampton.gov.uk,Wolverhampton,http://www.wolverhampton.gov.uk/,-2.16137800000000,WV6 8NX,2015-02-13,fhrs_5_en-GB,5,,FHRS,0
354891,363 Bushbury Lane,Wolverhampton,West Midlands,,Curry Garden,Takeaway/sandwich shop,7844,0,,608840,0,,52.61765500000000,24787,436,environmentalhealth@wolverhampton.gov.uk,Wolverhampton,http://www.wolverhampton.gov.uk/,-2.11699500000000,WV10 9UW,2013-09-04,fhrs_5_en-GB,5,,FHRS,0
354892,476 - 478 Stafford Road,Wolverhampton,West Midlands,,Curry Lounge,Other catering premises,7841,5,,609002,5,,,38907,436,environmentalhealth@wolverhampton.gov.uk,Wolverhampton,http://www.wolverhampton.gov.uk/,,,2013-10-09,fhrs_5_en-GB,5,,FHRS,5
354893,Asda Stores Limited,Jack Hayward Way,Wolverhampton,West Midlands,Customer Care Asda Supermarket,Other catering premises,7841,0,,608867,0,,52.59266100000000,28370,436,environmentalhealth@wolverhampton.gov.uk,Wolverhampton,http://www.wolverhampton.gov.uk/,-2.12876800000000,WV1 4DE,2013-07-05,fhrs_5_en-GB,5,,FHRS,0
354894,Cute,72B School Road,Tettenhall Wood,Wolverhampton,Cute Coffee Lounge,Other catering premises,7841,0,,609011,5,,52.59394800000000,39277,436,environmentalhealth@wolverhampton.gov.uk,Wolverhampton,http://www.wolverhampton.gov.uk/,-2.18755500000000,WV6 8ET,2013-10-04,fhrs_5_en-GB,5,,FHRS,0
354895,7 Turner Avenue,Wolverhampton,West Midlands,,D & S News & Wines,Retailers - other,4613,,,697182,,,52.54980800000000,4915,436,environmentalhealth@wolverhampton.gov.uk,Wolverhampton,http://www.wolverhampton.gov.uk/,-2.10867400000000,WV14 9BG,2014-04-28,fhrs_exempt_en-GB,Exempt,,FHRS,
354896,7 Marsh Lane Parade,Wolverhampton,West Midlands,,D Chandlers,Manufacturers/packers,7839,5,,626315,0,,52.62062600000000,19073,436,environmentalhealth@wolverhampton.gov.uk,Wolverhampton,http://www.wolverhampton.gov.uk/,-2.13071100000000,WV10 6RT,2013-12-05,fhrs_5_en-GB,5,,FHRS,5
354897,4 Showell Circus,Wolverhampton,West Midlands,,Danny's Butchers,Retailers - other,4613,0,,585133,0,,52.61019800000000,39352,436,environmentalhealth@wolverhampton.gov.uk,Wolverhampton,http://www.wolverhampton.gov.uk/,-2.11275200000000,WV10 9BA,2013-07-02,fhrs_5_en-GB,5,,FHRS,0
354898,Darcies Cafe,Units 7 And 8,Woodhouse Fold,Wolverhampton,Darcie's Diner,Other catering premises,7841,,,585092,,,52.59947300000000,37667,436,environmentalhealth@wolverhampton.gov.uk,Wolverhampton,http://www.wolverhampton.gov.uk/,-2.08076000000000,WV11 1XU,,fhrs_awaitinginspection_en-GB,AwaitingInspection,,FHRS,
354899,56 Brooklands Parade,Wolverhampton,West Midlands,,Dave's Fish Bar,Takeaway/sandwich shop,7844,5,,622981,5,,52.58551800000000,39651,436,environmentalhealth@wolverhampton.gov.uk,Wolverhampton,http://www.wolverhampton.gov.uk/,-2.09640900000000,WV1 2NE,2013-11-19,fhrs_5_en-GB,5,,FHRS,0
354900,Bilston Retail Market,Market Way,Wolverhampton,West Midlands,Dave's Frozen Foods,Retailers - other,4613,0,,735915,0,,52.56430700000000,32726,436,environmentalhealth@wolverhampton.gov.uk,Wolverhampton,http://www.wolverhampton.gov.uk/,-2.07703700000000,WV14 0DN,2014-08-07,fhrs_5_en-GB,5,,FHRS,0
354901,70 Griffiths Drive,Wolverhampton,West Midlands,,David Price Fine Foods,Retailers - other,4613,0,,584751,0,,52.61440700000000,16368,436,environmentalhealth@wolverhampton.gov.uk,Wolverhampton,http://www.wolverhampton.gov.uk/,-2.06163200000000,WV11 2JW,2013-06-19,fhrs_5_en-GB,5,,FHRS,0
354902,3 Cleveland Street,Wolverhampton,West Midlands,,Dawat,Other catering premises,7841,5,,706756,10,,52.58336500000000,39024,436,environmentalhealth@wolverhampton.gov.uk,Wolverhampton,http://www.wolverhampton.gov.uk/,-2.12921300000000,WV1 3HL,2014-09-17,fhrs_4_en-GB,4,,FHRS,5
354903,,,,,Dawns Cakes For All Occasions,Other catering premises,7841,0,,697143,0,,,25881,436,environmentalhealth@wolverhampton.gov.uk,Wolverhampton,http://www.wolverhampton.gov.uk/,,,2011-03-24,fhrs_5_en-GB,5,,FHRS,0
354904,5A Fourth Avenue,Wolverhampton,West Midlands,,De Wright Flava,Takeaway/sandwich shop,7844,5,,622934,10,,52.60543600000000,32073,436,environmentalhealth@wolverhampton.gov.uk,Wolverhampton,http://www.wolverhampton.gov.uk/,-2.11944400000000,WV10 9LY,2013-12-18,fhrs_4_en-GB,4,,FHRS,5
354905,Deans Road,Wolverhampton,West Midlands,,Deansfield Community School,School/college/university,7845,0,,680871,0,,52.58538800000000,2906,436,environmentalhealth@wolverhampton.gov.uk,Wolverhampton,http://www.wolverhampton.gov.uk/,-2.08867400000000,WV1 2BH,2014-06-05,fhrs_5_en-GB,5,,FHRS,0
354906,New Cross Hospital,Wolverhampton Road,Heath Town,Wolverhampton,Deansley Coffee Bar,Takeaway/sandwich shop,7844,0,,653356,0,,52.59773500000000,14556,436,environmentalhealth@wolverhampton.gov.uk,Wolverhampton,http://www.wolverhampton.gov.uk/,-2.09596300000000,WV10 0QP,2014-03-27,fhrs_5_en-GB,5,,FHRS,0
354907,14 Market Way,Wolverhampton,West Midlands,,Deb's Diner,Other catering premises,7841,5,,622953,0,,52.56480100000000,36291,436,environmentalhealth@wolverhampton.gov.uk,Wolverhampton,http://www.wolverhampton.gov.uk/,-2.07689000000000,WV14 0DR,2013-09-17,fhrs_5_en-GB,5,,FHRS,0
354908,419 Dudley Road,Wolverhampton,West Midlands,,Dehal Meats (Raw Meat Only),Retailers - other,4613,0,,697165,0,,52.57317300000000,39706,436,environmentalhealth@wolverhampton.gov.uk,Wolverhampton,http://www.wolverhampton.gov.uk/,-2.12637900000000,WV2 3AH,2013-12-10,fhrs_5_en-GB,5,,FHRS,5
354909,,,,,Delish Cakes (Cup Cakes),Retailers - other,4613,5,,609046,5,,,39692,436,environmentalhealth@wolverhampton.gov.uk,Wolverhampton,http://www.wolverhampton.gov.uk/,,,2013-09-09,fhrs_5_en-GB,5,,FHRS,0
354910,,,,,Delizie Italiane,Retailers - other,4613,5,,653412,0,,,39763,436,environmentalhealth@wolverhampton.gov.uk,Wolverhampton,http://www.wolverhampton.gov.uk/,,,2014-04-10,fhrs_5_en-GB,5,,FHRS,5
354911,Deyncourt Primary School,Mullett Road,Wolverhampton,West Midlands,D'Eyncourt Primary School,School/college/university,7845,0,,584915,0,,52.60986200000000,2917,436,environmentalhealth@wolverhampton.gov.uk,Wolverhampton,http://www.wolverhampton.gov.uk/,-2.09593100000000,WV11 1DD,2013-07-01,fhrs_5_en-GB,5,,FHRS,5
354912,Lifestyle Express,29 Victoria Road,Heath Town,Wolverhampton,Dhillon Wines,Retailers - other,4613,5,,680854,5,,52.60126000000000,16369,436,environmentalhealth@wolverhampton.gov.uk,Wolverhampton,http://www.wolverhampton.gov.uk/,-2.10549400000000,WV10 0NG,2014-05-15,fhrs_5_en-GB,5,,FHRS,5
354913,248A Jeffcock Road,Wolverhampton,West Midlands,,Dhillons Convenience Store,Retailers - other,4613,10,,629705,5,,52.57339300000000,25603,436,environmentalhealth@wolverhampton.gov.uk,Wolverhampton,http://www.wolverhampton.gov.uk/,-2.14646200000000,WV3 7AH,2014-01-22,fhrs_4_en-GB,4,,FHRS,5
354914,Midlands Train Care Centre,Jones Road,Wolverhampton,West Midlands,DHL Supply Chain,Distributors/Transporters,7,0,,680885,0,,52.60317500000000,39840,436,environmentalhealth@wolverhampton.gov.uk,Wolverhampton,http://www.wolverhampton.gov.uk/,-2.13241600000000,WV10 6JQ,2014-06-06,fhrs_5_en-GB,5,,FHRS,0
354915,314 Dudley Road,Wolverhampton,West Midlands,,Diamond Foods,Takeaway/sandwich shop,7844,5,,622882,5,,52.56794400000000,19026,436,environmentalhealth@wolverhampton.gov.uk,Wolverhampton,http://www.wolverhampton.gov.uk/,-2.12393000000000,WV2 3JY,2013-11-12,fhrs_4_en-GB,4,,FHRS,10
354916,3A Long Knowle Lane,Wolverhampton,West Midlands,,Dilraj Balti Cuisine,Takeaway/sandwich shop,7844,5,,622865,5,,52.60946200000000,15695,436,environmentalhealth@wolverhampton.gov.uk,Wolverhampton,http://www.wolverhampton.gov.uk/,-2.09027400000000,WV11 1HZ,2013-10-29,fhrs_5_en-GB,5,,FHRS,5
354917,40 - 43 Berry Street,Wolverhampton,West Midlands,,Dilshad,Other catering premises,7841,5,,626323,5,,52.58610200000000,26949,436,environmentalhealth@wolverhampton.gov.uk,Wolverhampton,http://www.wolverhampton.gov.uk/,-2.12464500000000,WV1 1HA,2014-01-08,fhrs_5_en-GB,5,,FHRS,0
354918,15 Blackhalve Lane,Wolverhampton,West Midlands,,Dilshad Balti House,Other catering premises,7841,0,,608865,0,,52.61437600000000,28361,436,environmentalhealth@wolverhampton.gov.uk,Wolverhampton,http://www.wolverhampton.gov.uk/,-2.09551200000000,WV11 1BQ,2013-07-24,fhrs_5_en-GB,5,,FHRS,5
354919,The Dinky Tram,Pitch 9AF Fronting Asda,Jack Hayward Way,Wolverhampton,Dinky Tram,Mobile caterer,7846,5,,584801,5,,,19487,436,environmentalhealth@wolverhampton.gov.uk,Wolverhampton,http://www.wolverhampton.gov.uk/,,,2013-01-10,fhrs_5_en-GB,5,,FHRS,5
354920,1 Showell Circus,Wolverhampton,West Midlands,,Di's Diner,Other catering premises,7841,5,,584972,0,,52.61019800000000,32383,436,environmentalhealth@wolverhampton.gov.uk,Wolverhampton,http://www.wolverhampton.gov.uk/,-2.11275200000000,WV10 9BA,2012-09-28,fhrs_5_en-GB,5,,FHRS,0
354921,40 The Gallery,Mander Centre,Wolverhampton,West Midlands,Ditsch,Retailers - other,4613,0,,608950,0,,52.58449900000000,35741,436,environmentalhealth@wolverhampton.gov.uk,Wolverhampton,http://www.wolverhampton.gov.uk/,-2.12762200000000,WV1 3NJ,2013-07-08,fhrs_5_en-GB,5,,FHRS,0
354922,27 Cleveland Street,Wolverhampton,West Midlands,,Divine Heritage Food,Retailers - other,4613,0,,730654,0,,52.58283500000000,40358,436,environmentalhealth@wolverhampton.gov.uk,Wolverhampton,http://www.wolverhampton.gov.uk/,-2.12819200000000,WV1 3HT,2015-01-12,fhrs_5_en-GB,5,,FHRS,0
354923,29 Broad Street,City Centre,Wolverhampton,West Midlands,Dixy Fried Chicken,Takeaway/sandwich shop,7844,10,,584829,5,,52.58761300000000,22951,436,environmentalhealth@wolverhampton.gov.uk,Wolverhampton,http://www.wolverhampton.gov.uk/,-2.12479700000000,WV1 1HZ,2014-07-25,fhrs_4_en-GB,4,,FHRS,5
354924,,,,,Dolci Cakes,Retailers - other,4613,,,730655,,,,40413,436,environmentalhealth@wolverhampton.gov.uk,Wolverhampton,http://www.wolverhampton.gov.uk/,,,2014-12-03,fhrs_exempt_en-GB,Exempt,,FHRS,
354925,,,,,Dolly Cakes,Other catering premises,7841,0,,585080,0,,,37344,436,environmentalhealth@wolverhampton.gov.uk,Wolverhampton,http://www.wolverhampton.gov.uk/,,,2013-02-06,fhrs_5_en-GB,5,,FHRS,0
354926,287 Tettenhall Road,Wolverhampton,West Midlands,,Domino's Pizza,Takeaway/sandwich shop,7844,0,,584863,0,,52.59596900000000,24765,436,environmentalhealth@wolverhampton.gov.uk,Wolverhampton,http://www.wolverhampton.gov.uk/,-2.15824400000000,WV6 0LE,2014-11-10,fhrs_5_en-GB,5,,FHRS,0
354927,Dominos Pizza,1 Blackhalve Lane,Wolverhampton,West Midlands,Domino's Pizza,Takeaway/sandwich shop,7844,0,,608938,0,,52.61437600000000,34499,436,environmentalhealth@wolverhampton.gov.uk,Wolverhampton,http://www.wolverhampton.gov.uk/,-2.09551200000000,WV11 1BQ,2013-07-15,fhrs_5_en-GB,5,,FHRS,0
354928,Donnas Snack Bar,Shop 14,Retail Market Hall,Salop Street,Donna's Snack Bar,Other catering premises,7841,0,,584757,0,,52.58342400000000,16574,436,environmentalhealth@wolverhampton.gov.uk,Wolverhampton,http://www.wolverhampton.gov.uk/,-2.13281400000000,WV3 0SG,2013-05-07,fhrs_5_en-GB,5,,FHRS,0
354929,11 High Street,Bilston,Wolverhampton,West Midlands,Donnini Pizza,Takeaway/sandwich shop,7844,5,,608960,5,,52.56432400000000,36031,436,environmentalhealth@wolverhampton.gov.uk,Wolverhampton,http://www.wolverhampton.gov.uk/,-2.07883600000000,WV14 0EH,2013-08-15,fhrs_5_en-GB,5,,FHRS,5
354930,Ryefield,Wolverhampton,West Midlands,,Dovecotes Primary School,School/college/university,7845,0,,584943,0,,52.61842900000000,3009,436,environmentalhealth@wolverhampton.gov.uk,Wolverhampton,http://www.wolverhampton.gov.uk/,-2.15590300000000,WV8 1TX,2013-03-21,fhrs_5_en-GB,5,,FHRS,5
354931,88 Dovedale Road,Wolverhampton,West Midlands,,Dovedale Chippy,Takeaway/sandwich shop,7844,10,,584922,5,,52.55551800000000,29443,436,environmentalhealth@wolverhampton.gov.uk,Wolverhampton,http://www.wolverhampton.gov.uk/,-2.11659400000000,WV4 6RA,2013-03-21,fhrs_4_en-GB,4,,FHRS,5
354932,14 Bargate Drive,Wolverhampton,West Midlands,,Dragon Gate,Takeaway/sandwich shop,7844,0,,584828,0,,52.59424500000000,22949,436,environmentalhealth@wolverhampton.gov.uk,Wolverhampton,http://www.wolverhampton.gov.uk/,-2.14290000000000,WV6 0QW,2014-10-20,fhrs_5_en-GB,5,,FHRS,5
354933,Shop 12,Retail Market Hall,Salop Street,City Centre,Dream Cakes,Manufacturers/packers,7839,0,,626331,0,,52.58342400000000,36671,436,environmentalhealth@wolverhampton.gov.uk,Wolverhampton,http://www.wolverhampton.gov.uk/,-2.13281400000000,WV3 0SG,2014-01-14,fhrs_5_en-GB,5,,FHRS,0
354934,Unit 8,Crossways Shopping Centre,Wolverhampton Road,Heath Town,Drink Buster,Retailers - other,4613,,,608919,,,,32523,436,environmentalhealth@wolverhampton.gov.uk,Wolverhampton,http://www.wolverhampton.gov.uk/,,WV10 0QV,2013-07-04,fhrs_exempt_en-GB,Exempt,,FHRS,
354935,235 Dunstall Road,Wolverhampton,West Midlands,,Drinks Express,Retailers - other,4613,5,,706755,5,,52.59770200000000,33882,436,environmentalhealth@wolverhampton.gov.uk,Wolverhampton,http://www.wolverhampton.gov.uk/,-2.13879200000000,WV6 0NY,2014-09-24,fhrs_5_en-GB,5,,FHRS,0
354936,64 Chapel Ash,Wolverhampton,West Midlands,,Drinks Express,Retailers - other,4613,5,,584928,5,,52.58536800000000,29630,436,environmentalhealth@wolverhampton.gov.uk,Wolverhampton,http://www.wolverhampton.gov.uk/,-2.13884200000000,WV3 0TT,2013-04-17,fhrs_5_en-GB,5,,FHRS,5
354937,739 Cannock Road,Wolverhampton,West Midlands,,Drinks For Less,Retailers - other,4613,,,626308,,,52.61172800000000,10816,436,environmentalhealth@wolverhampton.gov.uk,Wolverhampton,http://www.wolverhampton.gov.uk/,-2.10057200000000,WV10 8PN,2014-01-06,fhrs_exempt_en-GB,Exempt,,FHRS,
354938,21 Duke Street,Wednesfield,Wolverhampton,West Midlands,Duke Street Homes,Hospitals/Childcare/Caring Premises,5,0,,608750,0,,52.60153000000000,13667,436,environmentalhealth@wolverhampton.gov.uk,Wolverhampton,http://www.wolverhampton.gov.uk/,-2.08196000000000,WV11 1TH,2013-10-31,fhrs_5_en-GB,5,,FHRS,0
354939,,,,,Dunns Buns,Other catering premises,7841,5,,639695,0,,,39790,436,environmentalhealth@wolverhampton.gov.uk,Wolverhampton,http://www.wolverhampton.gov.uk/,,,2014-02-10,fhrs_5_en-GB,5,,FHRS,0
354940,Dunstall Hill Junior And Infant Sch,Dunstall Avenue,Wolverhampton,West Midlands,Dunstall Hill Primary School,School/college/university,7845,0,,622926,0,,52.59596500000000,2999,436,environmentalhealth@wolverhampton.gov.uk,Wolverhampton,http://www.wolverhampton.gov.uk/,-2.13207000000000,WV6 0NH,2013-10-22,fhrs_5_en-GB,5,,FHRS,5
354941,1A North Street,Wolverhampton,West Midlands,,Earls Sandwich Bar,Takeaway/sandwich shop,7844,0,,584876,0,,52.58590800000000,26188,436,environmentalhealth@wolverhampton.gov.uk,Wolverhampton,http://www.wolverhampton.gov.uk/,-2.13009100000000,WV1 1RE,2012-12-18,fhrs_5_en-GB,5,,FHRS,5
354942,31 Hollington Road,Wolverhampton,West Midlands,,East Park Chippy,Takeaway/sandwich shop,7844,5,,696514,5,,52.58024300000000,36834,436,environmentalhealth@wolverhampton.gov.uk,Wolverhampton,http://www.wolverhampton.gov.uk/,-2.09393300000000,WV1 2DR,2014-02-25,fhrs_5_en-GB,5,,FHRS,5
354943,Holloway Street,Wolverhampton,West Midlands,,East Park Court,Hospitals/Childcare/Caring Premises,5,0,,622930,0,,,30384,436,environmentalhealth@wolverhampton.gov.uk,Wolverhampton,http://www.wolverhampton.gov.uk/,,WV1 2TP,2013-11-19,fhrs_5_en-GB,5,,FHRS,0
354944,5 Hollington Road,Wolverhampton,West Midlands,,East Park News,Retailers - other,4613,,,653420,,,52.58024300000000,4894,436,environmentalhealth@wolverhampton.gov.uk,Wolverhampton,http://www.wolverhampton.gov.uk/,-2.09393300000000,WV1 2DR,2014-04-16,fhrs_exempt_en-GB,Exempt,,FHRS,
354945,Eastfield Primary School,Colliery Road,Wolverhampton,West Midlands,Eastfield O-3 Nursery,Hospitals/Childcare/Caring Premises,5,0,,585016,0,,52.58482600000000,34826,436,environmentalhealth@wolverhampton.gov.uk,Wolverhampton,http://www.wolverhampton.gov.uk/,-2.10657600000000,WV1 2QY,2013-02-14,fhrs_5_en-GB,5,,FHRS,0
354946,Eastfield Junior And Infants School,Colliery Road,Wolverhampton,West Midlands,Eastfield Primary School,School/college/university,7845,0,,629708,0,,52.58482600000000,2903,436,environmentalhealth@wolverhampton.gov.uk,Wolverhampton,http://www.wolverhampton.gov.uk/,-2.10657600000000,WV1 2QY,2014-01-23,fhrs_5_en-GB,5,,FHRS,0
354947,Edward The Elder Primary School,Moathouse Lane East,Wolverhampton,West Midlands,Edward The Elder,School/college/university,7845,0,,608874,0,,52.60720100000000,2916,436,environmentalhealth@wolverhampton.gov.uk,Wolverhampton,http://www.wolverhampton.gov.uk/,-2.07176700000000,WV11 3DB,2013-10-10,fhrs_5_en-GB,5,,FHRS,0
354948,71 - 72 Dudley Road,Wolverhampton,West Midlands,,Ek Niwas Temple,Other catering premises,7841,5,,626309,0,,52.57650900000000,12495,436,environmentalhealth@wolverhampton.gov.uk,Wolverhampton,http://www.wolverhampton.gov.uk/,-2.12610800000000,WV2 3BY,2014-01-14,fhrs_5_en-GB,5,,FHRS,0
354949,The Elizabeth Arms Public House,Overfield Drive,Wolverhampton,West Midlands,Elisabeth Arms,Pub/bar/nightclub,7843,,,653368,,,52.55563600000000,1887,436,environmentalhealth@wolverhampton.gov.uk,Wolverhampton,http://www.wolverhampton.gov.uk/,-2.09610700000000,WV14 9XW,2014-03-20,fhrs_5_en-GB,5,,FHRS,
354950,Ellerton Walk,Wolverhampton,West Midlands,,Ellerton House,Other catering premises,7841,10,,623012,0,,52.59839300000000,7085,436,environmentalhealth@wolverhampton.gov.uk,Wolverhampton,http://www.wolverhampton.gov.uk/,-2.10480800000000,WV10 0UG,2013-11-01,fhrs_4_en-GB,4,,FHRS,5
354951,Stafford Road,Wolverhampton,West Midlands,,Elston Hall Primary School,School/college/university,7845,0,,608872,0,,52.62307400000000,2899,436,environmentalhealth@wolverhampton.gov.uk,Wolverhampton,http://www.wolverhampton.gov.uk/,-2.12811900000000,WV10 6NN,2013-07-08,fhrs_5_en-GB,5,,FHRS,5
354952,53,Tettenhall Road,Finchfield,Wolverhampton,Ely House Hotel,Hotel/bed & breakfast/guest house,7842,0,,584788,0,,52.58619000000000,18287,436,environmentalhealth@wolverhampton.gov.uk,Wolverhampton,http://www.wolverhampton.gov.uk/,-2.14232800000000,WV3 9NB,2013-06-11,fhrs_5_en-GB,5,,FHRS,0
354953,,,,,Emma Rogers Bakes,Other catering premises,7841,0,,609013,0,,,39314,436,environmentalhealth@wolverhampton.gov.uk,Wolverhampton,http://www.wolverhampton.gov.uk/,,,2013-07-10,fhrs_5_en-GB,5,,FHRS,0
354954,Engelberg,Ash Hill,Wolverhampton,West Midlands,Engelberg O.A.P. Home,Hospitals/Childcare/Caring Premises,5,10,,608810,5,,52.58456000000000,2215,436,environmentalhealth@wolverhampton.gov.uk,Wolverhampton,http://www.wolverhampton.gov.uk/,-2.16519900000000,WV3 9DS,2014-11-11,fhrs_4_en-GB,4,,FHRS,5
354955,W16,Retail Market Hall,Salop Street,City Centre,Eric Quinton Butchers,Retailers - other,4613,5,,608799,0,,52.58342400000000,19011,436,environmentalhealth@wolverhampton.gov.uk,Wolverhampton,http://www.wolverhampton.gov.uk/,-2.13281400000000,WV3 0SG,2013-09-24,fhrs_5_en-GB,5,,FHRS,0
354956,17 New Street,Ettingshall,Wolverhampton,West Midlands,Ettingshall Off-Licence,Retailers - other,4613,,,697124,,,52.56994500000000,1837,436,environmentalhealth@wolverhampton.gov.uk,Wolverhampton,http://www.wolverhampton.gov.uk/,-2.09863200000000,WV2 2LR,2014-04-23,fhrs_exempt_en-GB,Exempt,,FHRS,
354957,100 Dovedale Road,Wolverhampton,West Midlands,,Ettingshall Park Post Office,Retailers - other,4613,0,,697149,0,,52.55162900000000,276,436,environmentalhealth@wolverhampton.gov.uk,Wolverhampton,http://www.wolverhampton.gov.uk/,-2.11299900000000,WV4 6RB,2014-04-09,fhrs_5_en-GB,5,,FHRS,0
354958,43 Newhampton Road West,Wolverhampton,West Midlands,,Euro Shop,Retailers - other,4613,5,,622961,0,,52.59338100000000,37648,436,environmentalhealth@wolverhampton.gov.uk,Wolverhampton,http://www.wolverhampton.gov.uk/,-2.14360600000000,WV6 0RY,2013-12-17,fhrs_5_en-GB,5,,FHRS,5
354959,Unit 3,Collingwood Road,Wolverhampton,West Midlands,Euroshopper,Takeaway/sandwich shop,7844,10,,609045,5,,52.62211500000000,39660,436,environmentalhealth@wolverhampton.gov.uk,Wolverhampton,http://www.wolverhampton.gov.uk/,-2.11588500000000,WV10 8DX,2013-09-02,fhrs_4_en-GB,4,,FHRS,5
354960,Eversleigh Nursing Home,56 - 62 Albert Road,Wolverhampton,West Midlands,Eversleigh Care Centre,Hospitals/Childcare/Caring Premises,5,5,,584971,5,,52.59099400000000,32352,436,environmentalhealth@wolverhampton.gov.uk,Wolverhampton,http://www.wolverhampton.gov.uk/,-2.14718500000000,WV6 0AF,2014-01-29,fhrs_5_en-GB,5,,FHRS,0
354961,49 School Street,Wolverhampton,West Midlands,,Express And Star Newsagents And Off-Licence,Retailers - other,4613,0,,609008,0,,52.58393700000000,39068,436,environmentalhealth@wolverhampton.gov.uk,Wolverhampton,http://www.wolverhampton.gov.uk/,-2.13164900000000,WV1 4LR,2013-09-30,fhrs_5_en-GB,5,,FHRS,0
354962,312 Dudley Road,Wolverhampton,West Midlands,,F Ward W-Ton Butchers,Manufacturers/packers,7839,5,,653422,10,,52.56794400000000,646,436,environmentalhealth@wolverhampton.gov.uk,Wolverhampton,http://www.wolverhampton.gov.uk/,-2.12393000000000,WV2 3JY,2014-03-26,fhrs_4_en-GB,4,,FHRS,5
354963,63 Wakeley Hill,Wolverhampton,West Midlands,,F&N News,Retailers - other,4613,5,,697181,5,,52.55679100000000,4914,436,environmentalhealth@wolverhampton.gov.uk,Wolverhampton,http://www.wolverhampton.gov.uk/,-2.15198200000000,WV4 5RA,2014-04-23,fhrs_5_en-GB,5,,FHRS,5
354964,Fallings Park Methodist Church,Wimborne Road,Wolverhampton,West Midlands,Fallings Park Day Centre & Falling Park Supper Club,Other catering premises,7841,0,,623017,0,,52.60405200000000,8302,436,environmentalhealth@wolverhampton.gov.uk,Wolverhampton,http://www.wolverhampton.gov.uk/,-2.09918100000000,WV10 0NS,2014-01-13,fhrs_5_en-GB,5,,FHRS,0
354965,99A Old Fallings Lane,Wolverhampton,West Midlands,,Fallings Park Lodge,Hospitals/Childcare/Caring Premises,5,0,,622899,0,,52.61029400000000,25634,436,environmentalhealth@wolverhampton.gov.uk,Wolverhampton,http://www.wolverhampton.gov.uk/,-2.10582600000000,WV10 8BJ,2014-12-29,fhrs_5_en-GB,5,,FHRS,5
354966,Old Fallings Infant School,Old Fallings Lane,Wolverhampton,West Midlands,Fallings Park Primary School,School/college/university,7845,0,,622916,0,,52.61179600000000,2894,436,environmentalhealth@wolverhampton.gov.uk,Wolverhampton,http://www.wolverhampton.gov.uk/,-2.10593300000000,WV10 8BN,2013-11-14,fhrs_5_en-GB,5,,FHRS,0
354967,79 Wood End Road,Wolverhampton,West Midlands,,Famous News,Retailers - other,4613,0,,728938,0,,52.60636800000000,15780,436,environmentalhealth@wolverhampton.gov.uk,Wolverhampton,http://www.wolverhampton.gov.uk/,-2.08034500000000,WV11 1NW,2014-12-11,fhrs_5_en-GB,5,,FHRS,0
354968,226 Cannock Road,Wolverhampton,West Midlands,,Faraz Supermarket,Retailers - other,4613,5,,609028,10,,,39486,436,environmentalhealth@wolverhampton.gov.uk,Wolverhampton,http://www.wolverhampton.gov.uk/,,,2013-08-09,fhrs_4_en-GB,4,,FHRS,5
354969,Kiosk,Faulkland Street,Wolverhampton,West Midlands,Faulkland Street Snack Bar,Takeaway/sandwich shop,7844,0,,584708,0,,52.59018400000000,14210,436,environmentalhealth@wolverhampton.gov.uk,Wolverhampton,http://www.wolverhampton.gov.uk/,-2.12470100000000,WV1 1JN,2013-05-14,fhrs_5_en-GB,5,,FHRS,0
354970,Favorite Chicken And Ribs,24 Victoria Street,Wolverhampton,West Midlands,Favorite Chicken & Ribs,Takeaway/sandwich shop,7844,0,,608944,0,,52.58369700000000,35094,436,environmentalhealth@wolverhampton.gov.uk,Wolverhampton,http://www.wolverhampton.gov.uk/,-2.12989300000000,WV1 3PW,2013-07-10,fhrs_5_en-GB,5,,FHRS,0
354971,1A Rookery Street,Wolverhampton,West Midlands,,Fella's Takeaway,Takeaway/sandwich shop,7844,5,,608824,0,,52.59888500000000,23448,436,environmentalhealth@wolverhampton.gov.uk,Wolverhampton,http://www.wolverhampton.gov.uk/,-2.08586700000000,WV11 1UN,2013-07-11,fhrs_5_en-GB,5,,FHRS,5
354972,Lonsdale Road,Bilston,Wolverhampton,West Midlands,Field View School,School/college/university,7845,5,,689563,5,,52.57013100000000,2934,436,environmentalhealth@wolverhampton.gov.uk,Wolverhampton,http://www.wolverhampton.gov.uk/,-2.06463900000000,WV14 7AE,2014-07-11,fhrs_5_en-GB,5,,FHRS,0
