,businessname,ratingvalue,structural,hygiene,confidenceinmanagement,ratingdate,latitude,longitude
93397,2 in 1 Pizza,3,10,10,10,2014-05-30,51.53044,-0.371972
93398,2nx,3,10,10,10,2011-11-01,51.515519,-0.302056
93399,5 Star Superstore,1,15,15,20,2013-08-05,51.518666,-0.354389
93400,56 Bhog,2,15,15,10,2013-08-01,51.511202,-0.376318
93401,7 Day Catering Ltd,4,10,0,5,2011-11-22,51.504097,-0.3717
93402,97p Stores,3,10,10,10,2014-02-19,51.510547,-0.325241
93403,99p Bakery,5,0,0,0,2014-02-21,51.509867,-0.324833
93404,99p Stores,4,10,5,5,2013-11-27,51.510684,-0.322238
93405,99p Stores,4,5,10,5,2012-05-29,,
93406,99p Stores,3,10,5,10,2014-02-14,51.507438,-0.269603
93407,A - Z Premier Food And Wine,3,10,10,10,2011-02-23,51.550024,-0.343667
93408,A 2 Zee's Cafe,3,10,5,10,2014-09-16,51.51377,-0.320467
93409,A B Butchers,1,15,10,20,2013-06-11,51.510239,-0.287078
93410,A B S Catering Ltd,5,5,5,0,2012-03-22,51.54319,-0.359028
93411,A G Wines,Exempt,nan,nan,nan,2010-03-16,51.51617,-0.315349
93412,A J Luckhurst & Sons,5,5,5,5,2010-11-29,51.509767,-0.324779
93413,A Kayfak,4,0,0,10,2014-07-10,51.525752,-0.258457
93414,A Piece of Cake Acton,5,0,0,0,2014-06-03,,
93415,A Star Liquormart,Exempt,nan,nan,nan,2013-10-25,51.501803,-0.382617
93416,Abbey Lodge Hotel,3,10,10,10,2011-03-04,51.508466,-0.29811
93417,Abi Fast Food,1,20,10,10,2014-06-17,51.512635,-0.387609
93418,Abu Afif Sweets Ltd,5,5,5,5,2010-10-07,51.525752,-0.258457
93419,Abu Zaad,2,15,15,10,2014-10-01,51.510684,-0.322238
93420,Accuro Catering,5,5,5,0,2013-12-03,51.495124,-0.29891
93421,Acorn Convenience Store,3,5,10,10,2014-02-20,,
93422,Acton Bereket Ltd,AwaitingInspection,nan,nan,nan,,51.508086,-0.274564
93423,Acton Cafe,4,5,10,5,2013-07-29,51.516384,-0.267102
93424,Acton Care Centre,4,10,5,5,2014-10-13,51.511346,-0.267912
93425,Acton Charcoal Grill,3,10,10,10,2013-02-05,51.5064,-0.264527
93426,Acton Food & Wine,1,15,10,20,2013-08-28,51.506404,-0.256284
93427,Acton Food Centre Melgan Ltd,5,5,0,0,2014-12-10,51.508502,-0.275917
93428,Acton High School,5,5,5,5,2013-09-27,51.505917,-0.280568
93429,Acton Hill Kebab And Grill,5,5,0,5,2014-01-28,51.50816,-0.27593
93430,Acton Homeless Concern,5,5,5,5,2013-07-10,51.506175,-0.269348
93431,Acton Newsbox,Exempt,nan,nan,nan,2013-08-27,51.506951,-0.270745
93432,Acton Oriental Stores,2,15,10,10,2012-10-09,51.50339,-0.2799
93433,Acton Park Cafe,5,5,5,5,2013-07-19,51.506657,-0.259416
93434,Acton Tenpin,5,0,5,5,2012-03-12,51.525334,-0.281336
93435,Acton Town Hotel,5,0,5,5,2014-02-20,51.503942,-0.279533
93436,Acton United Services Club,3,10,10,10,2010-10-20,51.506175,-0.269348
93437,Acton Vale Community Centre,Exempt,nan,nan,nan,2014-05-13,51.50732,-0.254376
93438,Acton Vale Community Centre Creche,5,0,5,0,2011-01-12,51.50732,-0.254376
93439,Acton Vale Sub P/O,Exempt,nan,nan,nan,2011-01-14,51.506443,-0.254035
93440,Acton Village Social Club,3,5,10,10,2010-03-10,51.51783,-0.275536
93441,Acton Yard Canteen,4,5,5,10,2013-05-01,51.516939,-0.266922
93442,Acton Yochien,AwaitingInspection,nan,nan,nan,,51.518094,-0.286812
93443,Addictive,3,10,10,10,2012-01-13,51.526446,-0.267051
93444,Adil Halal Meat & Fresh Fish,5,0,0,0,2014-03-28,51.53044,-0.371972
93445,Adnaan Superstore,2,15,10,10,2013-08-27,51.507474,-0.273881
93446,Aeronaut,2,15,10,10,2014-01-30,51.508502,-0.275917
93447,Afendi,AwaitingInspection,nan,nan,nan,,51.53324,-0.32435
93448,Afters Original,AwaitingInspection,nan,nan,nan,,51.515519,-0.302056
93449,Agape Kidz Club,AwaitingInspection,nan,nan,nan,,51.551072,-0.333864
93450,Age Concern Day Cantre,Exempt,nan,nan,nan,,51.534953,-0.287304
93451,Age Concern Day Centre,Exempt,nan,nan,nan,2014-06-02,51.516505,-0.262528
93452,Age Concern Day Centre,Exempt,nan,nan,nan,2013-10-23,51.509461,-0.324762
93453,Age UK Day Centre,Exempt,nan,nan,nan,2014-06-05,51.535836,-0.348882
93454,Age UK Day Centre,Exempt,nan,nan,nan,2014-06-10,51.54396,-0.371071
93455,Agha Pan & Music Zone,3,10,10,10,2013-11-22,51.511637,-0.38175
93456,Agha Spice,1,5,15,20,2014-08-05,51.511847,-0.382622
93457,AHG Off Licence,1,15,5,20,2014-04-01,51.534617,-0.37622
93458,Ahlam's Cupcake Corner,5,0,0,0,2014-05-29,,
93459,A-Jobs London Ltd,AwaitingInspection,nan,nan,nan,,51.525752,-0.258457
93460,Aktiva Camps @ Grange Primary School,5,5,5,5,2013-06-27,51.503907,-0.305571
93461,Aktiva Camps Ltd @ Little Ealing,5,5,5,5,2013-06-26,51.498067,-0.308395
93462,Aktiva Camps Ltd @ Mount Carmel,5,5,5,5,2013-06-26,51.498067,-0.308395
93463,Al Basrah,0,25,25,30,2014-12-02,51.507126,-0.273476
93464,Al Cafe Shop,1,10,10,20,2014-06-19,51.510227,-0.326146
93465,Al Enam Ltd,1,15,15,20,2014-10-02,51.525752,-0.258457
93466,Al Haad,2,15,15,10,2014-07-08,51.511847,-0.382622
93467,Al Jabal Bakeries,1,10,10,20,2014-03-24,51.525752,-0.258457
93468,Al Jazeera,3,10,10,10,2015-01-07,51.51064,-0.324819
93469,Al Noor,1,15,10,20,2014-11-07,51.507319,-0.270731
93470,Al Panini Cafe Bar,3,10,10,10,2014-02-28,51.510684,-0.322238
93471,Al Saadah,3,10,10,10,2013-06-24,51.516866,-0.290721
93472,Al Shorjah,2,15,15,10,2014-07-23,51.51064,-0.324819
93473,Alahma Ltd,3,5,10,10,2014-02-27,51.534996,-0.346678
93474,Albaraka Supermarket,1,15,10,20,2014-07-03,51.52835,-0.352397
93475,Alchem Pharmacy,Exempt,nan,nan,nan,2010-04-16,51.511637,-0.38175
93476,Alec Reed Academy,5,0,0,0,2014-07-15,51.533524,-0.403408
93477,Alex Matis - Burger Van,4,0,0,10,2014-09-18,,
93478,Alfie's Real Fish & Chips,4,5,5,10,2014-03-13,51.516107,-0.337417
93479,Ali Meat Market & Ahmadzai Food Ltd,3,5,10,10,2014-03-03,51.516853,-0.371404
93480,Ali's Fast Food,1,15,15,20,2014-07-17,51.518943,-0.375553
93481,Ali's Fast Food,1,15,10,20,2014-09-11,51.507502,-0.383165
93482,Alisha Pharmacy,Exempt,nan,nan,nan,2010-09-13,51.50182,-0.265522
93483,Alistair Hugo Catering,3,10,10,10,2014-08-28,51.504801,-0.257339
93484,Al-Istaqamah Learning Centre,4,5,5,10,2013-10-04,51.536209,-0.282195
93485,All 2 One,2,15,10,10,2012-10-10,51.506591,-0.268914
93486,Allenby News,5,0,0,0,2014-03-28,51.524211,-0.36441
93487,Allenby Primary School,5,5,5,5,2011-03-22,51.519992,-0.365599
93488,Allenby Superstore,3,10,10,10,2012-02-25,51.524211,-0.36441
93489,Alliance Pharmacy,Exempt,nan,nan,nan,2014-02-24,51.511254,-0.378074
93490,All-U-Need,Exempt,nan,nan,nan,2011-06-13,51.511637,-0.38175
93491,Alpha Chemist,Exempt,nan,nan,nan,2014-02-22,51.537524,-0.38944
93492,Al-Rafidain Super Market,0,20,20,30,2014-08-13,51.508287,-0.270507
93493,Al-Rehman,0,20,20,20,2014-06-05,51.500537,-0.382748
93494,Alshamiyat Supermarket,1,15,15,20,2013-10-02,51.54327,-0.376403
93495,Amalfi Caffe,3,10,5,10,2014-06-24,51.509611,-0.317003
93496,Aman Grape Food & Wine,3,10,10,10,2011-07-21,51.499151,-0.382063
93497,Aman News,4,0,0,10,2014-05-14,51.519027,-0.265848
93498,Amasi Cafe,4,0,0,10,2014-03-22,51.536396,-0.314905
93499,Amazing Wok,5,5,5,5,2011-03-02,51.519027,-0.265848
93500,Ambala Sweet Centre,5,5,5,5,2014-02-25,51.511425,-0.380734
93501,Ambiha Stores,2,15,10,10,2012-10-05,51.528654,-0.354866
93502,Ambrosia,3,10,10,10,2014-07-03,51.556032,-0.33677
93503,AMC Minimarket,3,5,10,10,2012-07-06,51.509938,-0.327915
93504,American Muffin Co,Exempt,nan,nan,nan,2013-10-02,51.529538,-0.263921
93505,Amigos,1,15,15,20,2014-10-10,51.508086,-0.274564
93506,Amir Halal Foods Ltd,3,10,10,10,2012-08-22,51.535398,-0.394447
93507,Amira,3,10,10,10,2014-11-10,51.50691,-0.2686
93508,Amjad Cuisine,4,0,10,5,2011-06-07,51.512351,-0.383296
93509,Ammoura Ltd,3,10,10,5,2012-05-21,51.526488,-0.268693
93510,Amran Grill & Pizza,4,10,5,5,2014-09-29,51.511253,-0.316093
93511,Amy Christine Taillefer-Temple,AwaitingInspection,nan,nan,nan,,,
93512,Amys Cafe,5,5,5,5,2011-11-09,51.530861,-0.364128
93513,Andrew Jonathan Pedley,5,0,5,0,2012-01-16,51.535817,-0.354564
93514,Andy'S Quality Fish,3,5,10,10,2014-02-21,51.505478,-0.319778
93515,Angel Walk,5,5,5,5,2014-11-20,51.514139,-0.319849
93516,Angela Malik,3,10,10,10,2014-04-28,51.511024,-0.305192
93517,Angela Malik Cookery School,5,5,5,5,2013-08-02,51.508991,-0.263996
93518,Angie's Karib Delightz,5,0,0,0,2014-04-10,51.513595,-0.251239
93519,Anil Food & Wine,3,10,10,10,2013-07-09,51.516384,-0.267102
93520,Ann'S Snacks,3,10,10,10,2014-08-06,51.503966,-0.318378
93521,Anokha,5,5,5,5,2012-07-06,51.508649,-0.264528
93522,APH Nurseries,1,20,5,10,2014-10-16,51.532201,-0.327777
93523,Apna Punjab Superstore,5,0,5,0,2014-01-27,51.502957,-0.388051
93524,Apple Three Project (trailer),4,10,5,0,2012-12-13,,
93525,Apple Tree Ealing,5,5,5,5,2013-01-29,,
93526,Applegreen Greenford Service Station,5,5,0,5,2014-05-07,51.551889,-0.339445
93527,Apples Nursery,5,5,5,5,2012-09-13,51.517325,-0.253532
93528,"Aramark Ltd, Acton Campus",4,10,5,5,2014-01-28,51.507253,-0.275964
93529,"Aramark Ltd, Ealing Campus",4,10,5,5,2014-02-11,51.510304,-0.307063
93530,"Aramark Ltd, Southall Campus",5,5,5,5,2012-05-17,51.507659,-0.380162
93531,Archies Mediterranean Food Products,AwaitingInspection,nan,nan,nan,,51.525752,-0.258457
93532,Archies Mediterranean Food Products,3,10,10,10,2014-10-23,51.525752,-0.258457
93533,Areeg Abbasi,5,5,5,5,2010-03-19,,
93534,Arena Online Ltd,Exempt,nan,nan,nan,2014-09-08,51.523649,-0.277435
93535,Arena Online Ltd,Exempt,nan,nan,nan,2014-09-08,51.523649,-0.277435
93536,Arepa & Co,4,0,5,10,2011-03-29,51.529538,-0.263921
93537,Argos,AwaitingInspection,nan,nan,nan,,51.513341,-0.249894
93538,Arian,0,20,15,20,2014-10-14,51.514326,-0.300357
93539,Ariana Pharmacy,Exempt,nan,nan,nan,2013-04-25,51.528232,-0.35168
93540,Ark Of Noah Bilingual Nursery,4,10,5,5,2010-01-22,51.518076,-0.326017
93541,Ark Of Noah Bilingual Nursery,4,10,5,5,2012-02-06,51.535428,-0.332734
93542,Aromas Catering Ltd,4,5,5,10,2011-02-03,51.526953,-0.272755
93543,Artemis Olive Ltd,AwaitingInspection,nan,nan,nan,,,
93544,Artisan,5,0,0,0,2014-10-07,51.513316,-0.306361
93545,As Nature Intended,5,5,5,5,2011-03-15,51.51211,-0.305094
93546,Asamai Cultural Trust,3,10,10,10,2012-04-12,51.502841,-0.395389
93547,Asda Colleague Catering,4,5,10,5,2012-03-09,51.528433,-0.270104
93548,Asda Stores Ltd,3,10,10,5,2013-12-19,51.528433,-0.270104
93549,Ashbys,1,10,10,20,2014-09-12,51.511253,-0.316093
93550,Ashley Lodge Nursing Home,5,5,0,0,2015-01-08,51.516045,-0.311693
93551,Ashleys Stores,1,10,5,20,2013-08-09,51.532299,-0.292723
93552,Ashma Foods,AwaitingInspection,nan,nan,nan,,51.535844,-0.307774
93553,Asia Kebab House,3,10,10,10,2013-01-15,51.510546,-0.37565
93554,Asian Meat & Poultry Convenience Sto,4,10,5,5,2012-11-26,51.512635,-0.387609
93555,Asrar Limited,3,10,10,10,2014-07-30,51.509607,-0.286309
93556,Aston House School,5,5,5,0,2012-03-22,51.518362,-0.302152
93557,Aston House School,4,10,5,5,2012-03-28,51.522893,-0.30145
93558,At Thai Canteen,5,5,5,5,2014-03-17,51.513316,-0.306361
93559,Atariya Foods,4,5,10,5,2012-02-16,51.51778,-0.280669
93560,Atlantic Fish Bar,4,5,10,5,2015-01-08,51.508649,-0.264528
93561,Atlantis,2,15,15,10,2014-05-12,51.526121,-0.314521
93562,Attic Wine Bar,1,20,10,20,2014-10-22,51.526798,-0.284914
93563,August Moon Chinese Restaurant,4,5,10,5,2013-10-31,51.528943,-0.292042
93564,Aujla Food & Wine,3,10,5,10,2013-08-09,51.535713,-0.393787
93565,Auntie Anne's (Unit 12b),4,5,5,10,2013-03-19,51.5128,-0.303007
93566,Aunty Cherry's,AwaitingInspection,nan,nan,nan,,51.529538,-0.263921
93567,Avar Internet Ltd,3,10,10,10,2012-05-02,51.50835,-0.271124
93568,Avenue House School,5,5,0,0,2011-06-21,51.516628,-0.319123
93569,Avenue Wines,3,10,5,10,2010-05-10,51.516107,-0.337417
93570,Aya Market,3,10,10,10,2013-01-09,51.513589,-0.336788
93571,A-Z Newsagents,Exempt,nan,nan,nan,2014-10-13,51.513676,-0.269453
93572,B & D Newsagents & Grocers,2,10,15,5,2010-11-05,51.532881,-0.385322
93573,B V Liquor Mart,4,10,5,5,2014-06-16,51.501557,-0.265993
93574,Baba Wadbhag Singh Trust,4,0,10,10,2012-01-12,51.518666,-0.354389
93575,Babylon Pizza,2,15,10,10,2014-07-21,51.508086,-0.274564
93576,Bagel & Shake,5,5,5,5,2012-11-13,51.511196,-0.319683
93577,Bagel Bite,5,0,0,5,2012-07-05,51.514709,-0.302576
93578,Baghdad Market,3,10,10,10,2012-03-20,51.506442,-0.255216
93579,Bains Newsagent,3,10,10,10,2014-02-13,51.522497,-0.338439
93580,Bajwa Off Licence,4,10,5,5,2015-01-13,51.50205,-0.271363
93581,Bake & Cake,3,10,10,10,2012-11-26,51.510684,-0.322238
93582,Bally's Express,2,5,15,5,2014-02-19,51.502718,-0.386403
93583,Balti House,5,5,5,5,2012-07-12,51.516384,-0.267102
93584,Balti Naz,3,5,10,10,2014-08-06,51.49743,-0.305379
93585,Banaadir Shopping Centre,3,10,10,10,2012-04-23,51.500091,-0.389564
93586,Banana Moon Day Nursery,4,10,5,5,2014-06-03,51.494232,-0.268691
93587,Banglabazar,1,10,10,20,2014-08-08,51.508238,-0.388297
93588,Banks Chemist,Exempt,nan,nan,nan,2014-02-20,51.51466,-0.249685
93589,Barbar Lebanese Cuisine,3,10,10,10,2012-03-29,51.524653,-0.257144
93590,Barcelos,3,10,10,10,2013-09-04,51.556423,-0.361351
93591,Bargain Bazaar,Exempt,nan,nan,nan,2013-07-11,51.527915,-0.352831
93592,Barracuda Bar,5,0,0,0,2013-12-04,51.514326,-0.300357
93593,Bartek Deli Enterprise,2,10,15,10,2012-08-17,51.556032,-0.33677
93594,Basrah Lounge Ltd,2,15,15,10,2014-03-21,51.524964,-0.28308
93595,Bawarchi,1,15,10,20,2014-10-17,51.508625,-0.336767
93596,BBQ No 1,4,0,0,10,2014-08-04,51.510684,-0.322238
93597,Be Fit Cakes,5,0,0,0,2014-06-19,,
93598,Beacon House Nursing Home,5,0,5,5,2014-07-23,51.508755,-0.389922
93599,Beaconfield Wine Stores,Exempt,nan,nan,nan,2012-05-01,51.511425,-0.380734
93600,Beaconsfield Primary School,5,5,5,5,2011-12-12,51.507734,-0.383027
93601,Beaconsfield Superstore,5,5,5,5,2014-02-17,51.507734,-0.383027
93602,Beech Haven,5,5,5,5,2014-11-07,51.514925,-0.306949
93603,Beirut Deli,3,10,10,10,2014-08-15,51.539667,-0.309781
93604,Bell Trading,1,10,5,20,2013-04-22,51.528514,-0.263397
93605,Belmullet Tavern,2,15,15,10,2014-09-17,51.528701,-0.357574
93606,Belvedere Ristorante,5,5,0,0,2013-03-05,51.531502,-0.292364
93607,Belvue School,5,5,5,0,2015-02-06,51.542762,-0.365057
93608,Benet Club,3,10,10,10,2013-01-29,51.519823,-0.307431
93609,Berry Temptation,5,0,0,0,2014-06-03,,
93610,Berrymead Centre,3,10,5,10,2011-03-08,51.50522,-0.271027
93611,Berrymead Evangelical Church,Exempt,nan,nan,nan,2012-01-31,51.504573,-0.26925
93612,Berrymede Infant School,AwaitingInspection,nan,nan,nan,,51.503809,-0.273544
93613,Best Buy Cash & Carry,3,10,5,10,2013-01-23,51.51466,-0.249685
93614,Best Foods Supermarket,2,15,15,10,2014-06-18,51.53044,-0.371972
93615,Best One,2,15,10,10,2013-12-18,51.500266,-0.387901
93616,Best Price,5,5,0,0,2014-02-17,51.503452,-0.380916
93617,Best Quality Food & Wine,2,15,10,10,2012-10-18,51.500383,-0.386615
93618,Best Quality Meat,5,0,5,5,2013-12-17,51.500481,-0.383298
93619,Bestway,3,10,10,5,2011-07-12,51.500729,-0.402696
93620,Betfred,5,0,0,0,2012-10-02,51.528884,-0.351354
93621,Big Ben Fisheries,1,15,15,20,2013-07-12,51.510284,-0.322541
93622,Big Bites Cafe,5,5,5,5,2011-02-22,51.508604,-0.338483
93623,Big Boss Food & Wine,3,10,5,10,2013-04-19,51.507181,-0.379458
93624,Big Easy Po' Boys,5,0,0,0,2014-02-28,51.509597,-0.264189
93625,Bikaner Family Restaurant (2 Units),3,5,10,10,2012-11-21,51.510671,-0.376265
93626,Bilal Halal Meat,0,20,20,30,2014-07-15,51.516606,-0.362679
93627,Bill's,5,5,5,0,2014-01-30,51.513316,-0.306361
93628,Bilton Food Express,5,0,0,0,2014-12-01,51.539207,-0.306553
93629,Birchwood Price Tools:Travis Perkins,Exempt,nan,nan,nan,,51.498826,-0.302417
93630,Birring Greengrocer,1,10,10,20,2012-10-29,51.542089,-0.346551
93631,Bismillah Vegetable Shop,2,15,10,10,2012-06-19,51.500627,-0.386736
93632,Bistro W3,5,5,5,5,2012-07-06,51.504992,-0.25569
93633,Bite Catering,4,10,5,5,2013-08-12,51.523797,-0.257032
93634,Bite Sandwich Bar,2,15,10,5,2014-11-27,51.54669,-0.36881
93635,Black George Pub & Club,1,10,10,20,2013-01-07,51.510992,-0.318004
93636,Blacks,Exempt,nan,nan,nan,2012-01-24,51.514019,-0.303985
93637,Blair Peach Primary School,5,0,5,0,2014-03-10,51.508482,-0.390335
93638,Blakesley House Nursing Home,3,5,10,10,2013-11-14,51.517946,-0.307573
93639,Blue Berry Company Ltd,5,0,5,0,2014-09-24,,
93640,Blue Giraffe Nursery,5,5,0,0,2014-09-26,51.506309,-0.254097
93641,Blue Ocean Fishmongers,AwaitingInspection,nan,nan,nan,,51.525737,-0.314693
93642,Blue Orchid Restaurant,3,10,10,10,2014-07-09,51.532347,-0.375955
93643,Bobby's Off Licence,1,15,15,20,2013-12-16,51.519847,-0.355255
93644,Bocaface,AwaitingInspection,nan,nan,nan,,51.529538,-0.263921
93645,Bogo Ltd,5,5,5,5,2011-03-31,,
93646,Bombay Chinese Restaurant,4,5,5,10,2014-09-22,51.530621,-0.350167
93647,Boof,3,10,10,5,2014-12-04,51.512593,-0.306777
93648,Boots,Exempt,nan,nan,nan,2012-11-23,51.5128,-0.303007
93649,Boots,5,0,0,0,2013-11-25,51.528278,-0.353683
93650,Boots,Exempt,nan,nan,nan,2013-11-27,51.510547,-0.325241
93651,Boots Stores Ltd,5,0,0,0,2014-02-24,51.541863,-0.340084
93652,Boots UK Ltd,5,0,0,0,2010-12-09,51.514158,-0.302453
93653,Borough Nuts Ltd,5,0,0,0,2014-05-09,,
93654,Boston Express Food & Wine,4,5,5,10,2012-06-14,51.494718,-0.305653
93655,Boston Manor Hotel/Banqueting Suite,1,10,10,20,2014-08-08,51.503829,-0.333369
93656,Boston News,3,10,10,10,2012-04-27,51.503829,-0.333369
93657,Boston Pizza,4,0,0,10,2011-12-12,51.503829,-0.333369
93658,BP Gunnersbury Park SF Connect,5,5,0,0,2012-02-22,51.501692,-0.286822
93659,BP Perivale Simply Food,4,10,5,0,2013-04-12,51.53324,-0.32435
93660,Bramley Pharmacy,Exempt,nan,nan,nan,2010-08-20,51.498285,-0.313516
93661,Brazilian Emporium,3,10,10,10,2013-08-12,51.532996,-0.246747
93662,Bread & Honey,3,10,5,10,2012-02-28,51.525875,-0.263123
93663,Brent Valley Golf Club,AwaitingInspection,nan,nan,nan,,51.513808,-0.338265
93664,Brentham Club & Perry Cafe,3,10,10,10,2014-04-11,51.52891,-0.308334
93665,Brentside Primary School,AwaitingInspection,nan,nan,nan,,51.525263,-0.339448
93666,Bridge Cafe,3,10,10,10,2013-07-17,51.521363,-0.273615
93667,Bright Eyes Montessori Nursery,5,5,5,5,2014-07-25,51.508865,-0.277388
93668,Brilliant Restaurant,4,10,5,5,2012-06-15,51.500584,-0.38815
93669,British Food And Wine Store,5,5,5,5,2012-07-11,51.503829,-0.333369
93670,Britz Peri Peri,4,0,10,10,2014-09-25,51.525395,-0.364901
93671,Broadway Fish Bar,5,0,5,5,2014-07-01,51.508942,-0.335675
93672,Broadway International Food Centre,3,10,5,10,2014-08-14,51.510284,-0.322541
93673,Broken Gate Cafe,2,15,10,10,2014-01-30,51.556032,-0.33677
93674,Bronek's Park Cafe,1,20,15,10,2015-01-06,51.502404,-0.316073
93675,Brothers Cafe,5,5,5,5,2013-07-19,51.508086,-0.274564
93676,Brothers Kebab,3,10,10,10,2015-01-14,51.497141,-0.305894
93677,Brothers Kebab,4,5,5,10,2014-07-09,51.551734,-0.350168
93678,Buddy's News & Off-Licence,5,0,0,0,2014-03-26,51.503398,-0.317074
93679,Budgens Quickstop,3,10,10,10,2013-11-02,51.514867,-0.301691
93680,Buds,AwaitingInspection,nan,nan,nan,,,
93681,Build on Belief (B.O.B),3,10,5,10,2014-02-14,51.511253,-0.316093
93682,Bulgarian Food Shop,5,5,5,5,2012-07-09,51.508247,-0.280639
93683,Bumblebees Day Nursery,3,10,10,10,2014-02-26,51.514405,-0.289746
93684,Bunny Park Nursery,5,0,0,0,2014-11-05,51.513197,-0.342092
93685,Burger Bar (Wickes),5,5,5,5,2012-07-06,51.505739,-0.335518
93686,Burger King,4,10,0,10,2014-04-23,51.509867,-0.324833
93687,Burger King,5,5,0,0,2012-02-11,51.525334,-0.281336
93688,Busy Bees,5,0,0,0,2012-02-14,51.559671,-0.33593
93689,Busy Bees Nursery,5,0,0,0,2013-10-08,51.534659,-0.319843
93690,Butlers,5,5,5,5,2012-07-06,51.507466,-0.305454
93691,Buttercups Day Nursery,5,5,0,0,2012-03-05,51.507839,-0.245782
93692,Buttercups Nursery,5,0,0,5,2014-03-24,51.512466,-0.297961
93693,Butterkissed Cupcakes,1,0,10,20,2012-04-02,,
93694,Buttons Day Nursery School,5,0,0,0,2011-10-04,51.506233,-0.329174
93695,Byron Wines,Exempt,nan,nan,nan,2011-03-10,51.532538,-0.383258
93696,Byte Restaurant,5,0,0,5,2014-08-18,51.52099,-0.262977
93697,Cafe,1,10,10,20,2014-04-02,51.506591,-0.268914
93698,Cafe,AwaitingInspection,nan,nan,nan,,51.509888,-0.32319
93699,Cafe 2 U,5,5,0,0,2011-06-21,,
93700,Cafe 786,2,15,10,10,2014-11-24,51.526121,-0.314521
93701,Cafe Estoril,5,5,0,5,2014-11-25,51.50835,-0.271124
93702,Cafe Express,4,5,10,5,2013-09-23,51.551734,-0.350168
93703,Cafe Grove,5,5,5,5,2011-03-11,51.511131,-0.301398
93704,Cafe LA (L.A Fitness),1,0,0,20,2014-08-22,51.542762,-0.365057
93705,Cafe Leemoo,5,0,5,5,2014-10-16,51.514139,-0.319849
93706,Cafe Magnolia,3,10,10,10,2014-09-19,51.51211,-0.305094
93707,Cafe Mora,1,5,10,20,2012-06-27,51.509725,-0.287011
93708,Cafe Nell,3,10,10,10,2014-07-30,51.504644,-0.319261
93709,Cafe Oak Tree,4,0,5,10,2014-02-18,51.508766,-0.26337
93710,Cafe Ola,5,0,0,0,2014-04-02,51.52697,-0.259939
93711,Cafe Onik,4,0,0,10,2013-07-30,51.514139,-0.319849
93712,Cafe Paulo,5,5,5,5,2013-10-29,51.506945,-0.248525
93713,Cafe Project,5,5,5,5,2014-02-06,51.5076599121,-0.271971851587
93714,Cafe Renault,4,0,5,10,2011-11-25,51.525435,-0.276575
93715,Cafe Rendezvous,5,5,0,5,2014-02-20,51.539942,-0.323902
93716,Cafe Royal,3,10,5,10,2014-01-28,51.529841,-0.269863
93717,Cafe Zee,5,0,0,0,2014-08-04,51.512853,-0.305484
93718,CafeDeco,5,0,0,0,2014-07-22,51.539712,-0.314725
93719,Caffe Giordani,5,5,0,0,2014-09-16,51.530382,-0.260227
93720,Caffe Kix,5,5,5,5,2013-07-09,51.531317,-0.295745
93721,Caffe Metropolis,4,10,5,5,2012-07-25,51.508766,-0.26337
93722,Caffe Nero,5,5,5,0,2014-12-08,51.514158,-0.302453
93723,Caffe Nero,5,0,5,0,2009-08-28,51.512593,-0.306777
93724,"Caffe Pausa, Dunelm Mill",5,5,5,5,2012-07-06,,
93725,Caiger and Co,5,0,0,0,2014-11-05,51.529538,-0.263921
93726,Cake Lovers Ltd,AwaitingInspection,nan,nan,nan,,51.529538,-0.263921
93727,Cakes N Flavours,4,5,5,10,2014-02-22,,
93728,Cakey Charms,5,0,0,5,2014-07-07,,
93729,Calabash Cays Takeaway,AwaitingInspection,nan,nan,nan,,51.511253,-0.316093
93730,Calltime,3,10,10,10,2012-10-10,51.507126,-0.273476
93731,Canary Kebab House,3,10,10,10,2013-07-19,51.507126,-0.273476
93732,Candy Box,Exempt,nan,nan,nan,2012-05-11,51.512635,-0.387609
93733,Candy Cafe Lounge,1,15,10,20,2014-04-16,51.529354,-0.258824
93734,Candy Food & Wine Centre,3,10,5,10,2012-06-27,51.511196,-0.319683
93735,Cape,5,0,0,5,2013-09-12,51.508086,-0.274564
93736,Card Factory,Exempt,nan,nan,nan,2012-08-28,51.510547,-0.325241
93737,Card Factory (Unit 7),Exempt,nan,nan,nan,2012-11-06,51.5128,-0.303007
93738,Cardinal Wiseman Rc High School,5,0,5,5,2012-09-17,51.525233,-0.352034
93739,Care Management Group,5,5,5,5,2012-02-28,51.51394,-0.27332
93740,Care Management Group Ltd,3,10,10,10,2013-06-27,51.511915,-0.261046
93741,Cargills,2,10,15,10,2013-03-27,51.505478,-0.319778
93742,Cargills Two,4,5,5,10,2012-07-05,51.510562,-0.288247
93743,Cargo Homeshop,Exempt,nan,nan,nan,2012-11-15,51.514019,-0.303985
93744,Carluccio's,4,10,5,5,2014-07-15,51.511024,-0.305192
93745,Casa Gino,5,5,5,5,2013-08-23,51.53044,-0.371972
93746,Casa Roberta,2,5,15,10,2012-11-29,51.507466,-0.305454
93747,Casha Maxamed,5,0,0,5,2014-03-31,,
93748,Caspian Hotel,5,5,5,0,2010-03-01,51.515346,-0.305017
93749,Caspian Sandwich Bar,3,10,10,10,2014-03-31,51.511253,-0.316093
93750,Castlebar Special School,5,5,5,0,2013-01-15,51.522793,-0.328885
93751,Catch and Grill,4,10,5,5,2012-03-20,,
93752,Caterlink,4,0,10,5,2013-10-15,51.519538,-0.367244
93753,Caterlink Ltd,5,0,0,0,2014-05-13,51.520988,-0.283013
93754,Catermasters,4,10,5,5,2015-01-07,51.531317,-0.295745
93755,Caterpillar Day Nursery,5,5,5,5,2013-07-22,51.52099,-0.262977
93756,Caterpillar Day Nursery,5,0,0,0,2014-07-24,51.522793,-0.328885
93757,Caterpillar Day Nursery,5,0,5,0,2013-07-11,51.501559,-0.287504
93758,Cathay Chef,5,5,5,5,2009-05-18,51.496913,-0.325712
93759,Cattaway Chemist,Exempt,nan,nan,nan,2010-05-19,51.514934,-0.337172
93760,CCCP,1,10,10,20,2013-07-29,51.499667,-0.306506
93761,CCS,AwaitingInspection,nan,nan,nan,,51.525752,-0.258457
93762,Central Library - Cafe,4,0,10,10,2012-11-23,51.5128,-0.303007
93763,Centre for Armenian Education/Advice,4,5,5,10,2014-02-21,51.505523,-0.277629
93764,Centre House Cafe,4,0,10,5,2013-12-09,51.527207,-0.257119
93765,Certitude,3,10,10,10,2013-05-01,51.509038,-0.269585
93766,Certitude,AwaitingInspection,nan,nan,nan,,51.506606,-0.323814
93767,Certitude Laurel Gardens,4,0,0,10,2013-12-03,51.509154,-0.340495
93768,Certitude Oaklands Road,5,0,5,5,2013-12-03,51.505074,-0.330485
93769,Certitude Shirley Gardens,4,5,5,10,2013-12-03,51.510188,-0.330326
93770,Chaat Junction,2,15,10,10,2013-10-29,51.499765,-0.38351
93771,Chahal Off Licence,2,15,10,10,2014-08-27,51.500481,-0.383298
93772,Chaman Fruit Chaat (Food stall),5,5,5,0,2011-03-22,51.511425,-0.380734
93773,Chaman Fruit Chaat (Greengrocer),3,10,10,10,2010-04-06,51.511425,-0.380734
93774,Chana Chemist,Exempt,nan,nan,nan,2012-04-10,51.524211,-0.36441
93775,Chana Chemist,Exempt,nan,nan,nan,2010-12-08,51.509255,-0.377238
93776,Chana Chemist,Exempt,nan,nan,nan,2012-04-16,51.511251,-0.373953
93777,Chandni Chowk,5,5,0,0,2012-01-16,51.511769,-0.380852
93778,Chantal,3,10,10,10,2014-07-22,51.5128,-0.303007
93779,Chariot Wheel Fish Bar,5,5,5,5,2014-08-29,51.526944,-0.352159
93780,Charisma Fair,AwaitingInspection,nan,nan,nan,,51.501803,-0.382617
93781,Charlie's Fruit Bowl,5,5,0,5,2013-07-12,51.525737,-0.314693
93782,Charlottes Place,4,10,5,5,2013-02-26,51.508647,-0.296302
93783,Charmy's Newsagent,Exempt,nan,nan,nan,2013-09-18,51.506474,-0.265849
93784,Chartwells,5,5,5,5,2012-11-27,51.533822,-0.404162
93785,Chartwells Caterers,5,0,0,0,2014-03-17,51.535972,-0.376014
93786,Chartwells Hounslow,AwaitingInspection,nan,nan,nan,,51.514317,-0.364245
93787,Chartwells Hounslow,AwaitingInspection,nan,nan,nan,,51.508395,-0.378133
93788,Chasing Dragon,3,10,10,5,2013-12-03,51.5064,-0.264527
93789,Chaston House,4,5,5,10,2013-08-05,51.513064,-0.267588
93790,Chata Po Zboju,3,10,10,10,2014-06-24,51.511118,-0.319254
93791,Chaudhry's TKC,3,10,10,10,2014-06-19,51.51204,-0.383552
93792,Cheddar Deli,4,0,5,10,2011-09-22,51.502839,-0.31695
93793,Cheeky Monkey (Virgin Active),4,0,5,10,2014-07-04,51.5128,-0.303007
93794,Cheema Pharmacy,Exempt,nan,nan,nan,2013-10-29,51.500537,-0.382748
93795,Chess Wines,Exempt,nan,nan,nan,2011-03-03,51.545154,-0.372817
93796,Chestnut Lodge Nursing/Care Home,5,0,0,0,2013-05-15,51.524501,-0.30818
93797,Chez l'Ami David,4,5,5,10,2013-07-02,51.526501,-0.312777
93798,Chick N Fish,3,10,10,10,2013-08-29,51.530134,-0.364255
93799,Chicken & Spice Restaurant,4,10,0,5,2014-07-31,51.508942,-0.335675
93800,Chicken Cottage,0,25,25,30,2014-12-23,51.497968,-0.305921
93801,Chicken Cottage,3,10,10,10,2014-01-14,51.527595,-0.35117
93802,Chicken Cottage,1,10,15,20,2015-01-20,51.544699,-0.373785
93803,Chicken Cottage,0,20,20,20,2014-08-15,51.509255,-0.377238
93804,Chicken Cottage (Bassi Ent. Ltd),3,5,10,10,2013-09-06,51.508546,-0.277674
93805,Chicken Ranch,5,0,5,5,2012-02-15,51.510671,-0.376265
93806,Chicken Run,0,20,15,20,2015-01-19,51.510986,-0.320051
93807,Chicken Spot,2,15,5,5,2014-07-15,51.508601,-0.271662
93808,Chico Mexico Restaurant,3,5,10,10,2013-07-29,51.511866,-0.305636
93809,Children Come First Nursery,4,5,5,10,2013-07-04,51.513732,-0.337374
93810,Childrens Corner Nursery,5,5,0,0,2012-01-05,51.513429,-0.316733
93811,Chill & Grill,3,10,10,10,2014-04-03,51.500691,-0.384184
93812,Chilli Chaat Corner,0,20,15,20,2014-11-11,51.511769,-0.380852
93813,Chilli Chaat Corner (Unit 5),5,0,5,5,2011-12-09,51.510671,-0.376265
93814,Chilli Hut,5,5,5,5,2014-02-18,51.551218,-0.350518
93815,Chilli Spice & Wine,4,5,5,10,2014-08-27,51.506509,-0.247043
93816,Chimichanga,5,0,5,5,2012-10-03,51.51211,-0.305094
93817,China Chef,1,10,15,20,2014-04-24,51.508601,-0.271662
93818,China Gourmet,2,10,15,10,2013-10-11,51.53044,-0.371972
93819,China Kitchen,4,10,5,5,2014-08-08,51.522447,-0.340026
93820,Chinese Chef,3,5,10,10,2014-09-22,51.511024,-0.305192
93821,Chinese Medical Centre,AwaitingInspection,nan,nan,nan,,51.502839,-0.31695
93822,Chinese Medical Centre,Exempt,nan,nan,nan,2012-05-08,51.527802,-0.351826
93823,Chinese State Circus,5,5,5,5,2006-10-19,51.509887,-0.287595
93824,Chini Chor Restaurant,2,15,10,10,2014-11-26,51.508855,-0.377554
93825,Chiquito Mexican,4,10,5,5,2014-09-15,51.525334,-0.281336
93826,Chiswick Service Station,AwaitingInspection,nan,nan,nan,,51.496207,-0.262998
93827,Chocolatier Patissier Herzog,5,5,5,5,2012-04-26,51.529538,-0.263921
93828,Choice Halal Meat,5,0,5,5,2014-07-07,51.507938,-0.377587
93829,Chris's Fish Bar,1,15,10,20,2014-07-02,51.514158,-0.302453
93830,Christ Church CE Junior School,2,5,15,10,2012-02-08,51.513316,-0.306361
93831,Christ the Saviour School,2,15,5,5,2014-07-10,51.511021,-0.302526
93832,Chula Fused Foods,4,5,5,10,2012-01-23,51.529538,-0.263921
93833,Chung'S Chinese,3,10,10,10,2014-08-26,51.551316,-0.339033
93834,Church of the Ascension Hall,Exempt,nan,nan,nan,,51.522467,-0.287585
93835,Church Pharmacy,Exempt,nan,nan,nan,2014-02-18,51.508942,-0.335675
93836,Church Road Mini Mart,3,10,10,10,2012-11-07,51.544699,-0.373785
93837,Churchfield Cafe,3,10,10,10,2014-02-05,51.508889,-0.264965
93838,Churchill Catering,5,5,5,5,2011-02-14,51.541423,-0.363851
93839,Churros Bros Ltd,5,5,5,0,2008-07-03,,
93840,Chutney Hut,1,15,15,20,2014-12-19,51.507447,-0.337401
93841,Ciambella,4,0,0,10,2014-04-07,51.508086,-0.274564
93842,Cilantro,AwaitingInspection,nan,nan,nan,,51.525752,-0.258457
93843,Cinnamon,3,5,10,10,2014-09-12,51.526121,-0.314521
93844,Cityfruits.com & Cityhampers.com,5,5,5,5,2011-09-27,51.526698,-0.26586
93845,Cj'S Cafe,4,5,5,10,2013-08-13,51.506509,-0.247043
93846,CJ's Carribean,1,0,15,20,2014-03-26,51.509867,-0.324833
93847,Clarks Stores,1,5,5,20,2014-03-20,51.548958,-0.380037
93848,Cliffords,Exempt,nan,nan,nan,2012-05-29,51.522447,-0.340026
93849,Clifton Lodge Preparatory School,5,0,5,0,2012-02-08,51.511465,-0.30898
93850,Clifton Primary School,AwaitingInspection,nan,nan,nan,,51.498423,-0.382088
93851,Club Karma,5,5,5,5,2014-06-18,51.51211,-0.305094
93852,Coco Mexico,AwaitingInspection,nan,nan,nan,,,
93853,Cocoa Tree Chocolates Ltd,AwaitingInspection,nan,nan,nan,,51.528457,-0.272915
93854,Coconut Thai,3,5,10,10,2013-08-13,51.507724,-0.271321
93855,Coda di Volpe,AwaitingInspection,nan,nan,nan,,51.513333,-0.298217
93856,Coffee Etc,5,5,5,5,2012-07-06,51.506591,-0.268914
93857,Coffee Time,3,5,10,10,2013-08-07,51.542089,-0.346551
93858,Coffeico,Exempt,nan,nan,nan,2012-09-13,51.513101,-0.248895
93859,Colvin'S,3,10,10,10,2011-04-04,,
93860,Compass Group Tesco Greenford DotCom,4,0,10,5,2013-04-24,51.546529,-0.35151
93861,Connect Catering,5,0,0,0,2014-06-26,51.518202,-0.370001
93862,Convenience Barn,3,10,10,10,2014-01-28,51.508086,-0.274564
93863,Cook & Waiter,5,0,0,5,2014-06-18,51.529538,-0.263921
93864,Co-Op,3,10,5,10,2014-02-13,51.516384,-0.267102
93865,Co-Op,3,10,10,5,2014-02-21,51.499389,-0.305926
93866,Co-Op Welcome,5,5,5,5,2012-03-10,51.525737,-0.314693
93867,Co-Op Welcome,2,15,5,0,2014-09-08,51.544699,-0.373785
93868,Co-Operative,2,15,5,5,2010-09-08,51.535398,-0.394447
93869,Co-Operative Group,4,10,5,0,2014-06-24,51.522447,-0.340026
93870,Coral Bookmakers,Exempt,nan,nan,nan,2013-11-22,51.511024,-0.305192
93871,Corner House Day Nursery,5,0,0,0,2012-11-01,51.506251,-0.315312
93872,Costa Coffee,5,5,5,5,2014-09-12,51.509887,-0.287595
93873,Costa Coffee,5,5,0,5,2013-10-26,51.5128,-0.303007
93874,Costa Coffee,4,10,5,5,2012-01-27,51.513417,-0.302177
93875,Costa Coffee,4,10,5,0,2012-12-31,51.510547,-0.325241
93876,Costa Coffee,5,0,0,0,2011-12-09,51.510671,-0.376265
93877,Costa Coffee,5,5,5,5,2011-03-14,51.506998,-0.346351
93878,Costa Coffee,5,5,5,5,2011-09-08,51.541863,-0.340084
93879,Costa Coffee (stall & lockup),4,10,5,5,2012-09-05,51.514867,-0.301691
93880,Costa Coffee (Unit 3B),5,5,0,5,2014-01-27,51.525334,-0.281336
93881,Costa Coffee @ Tesco,5,5,5,5,2012-10-10,51.533609,-0.318743
93882,Costas Fish Bar,3,10,5,10,2014-02-21,51.539667,-0.309781
93883,Costcutter,5,5,5,5,2013-11-25,51.529159,-0.378202
93884,Costcutter,4,5,5,10,2012-07-12,51.514715,-0.268563
93885,Costcutter,3,5,10,10,2012-06-27,51.551734,-0.350168
93886,Costcutter,5,5,5,5,2014-02-24,51.507091,-0.337688
93887,Costcutter,3,10,10,10,2012-11-14,51.513333,-0.298217
93888,Costcutter,3,10,10,5,2010-11-15,51.516107,-0.337417
93889,Costcutter Express,4,5,5,10,2012-07-09,51.50823,-0.338064
93890,Costica Cafe,4,10,0,5,2011-10-13,51.510227,-0.326146
93891,Costless,1,0,20,5,2014-02-22,51.527595,-0.35117
93892,Costons Primary School,5,5,0,0,2010-02-11,51.533884,-0.350784
93893,Cote Brasserie,5,0,0,0,2011-01-24,51.511024,-0.305192
93894,Cowgate Community Unit,5,5,5,0,2013-04-12,51.533652,-0.345775
93895,Coyaba,5,0,0,5,2012-07-30,51.528487,-0.273115
93896,Cranleigh Hotel,3,10,5,10,2014-02-20,51.513365,-0.291803
93897,Cravings,4,10,5,5,2014-09-18,51.512514,-0.386648
93898,Crawfords Butchers,4,0,10,5,2011-04-07,51.551734,-0.350168
93899,Crazy Spice,AwaitingInspection,nan,nan,nan,,51.498313,-0.383202
93900,Creams,5,5,0,5,2012-06-30,51.512233,-0.38255
93901,Cream's,5,0,5,0,2014-07-22,51.512593,-0.306777
93902,Create Art Studio Ltd,AwaitingInspection,nan,nan,nan,,51.508197,-0.307501
93903,Creperie Cila,5,5,5,5,2012-02-18,51.503398,-0.317074
93904,Creperie Poets Corner,4,5,5,10,2013-10-04,51.508518,-0.268452
93905,CRI Structured Day Program,3,10,10,10,2014-02-25,51.509888,-0.32319
93906,Crispins Wine Bar,4,10,5,5,2011-03-16,51.511024,-0.305192
93907,Cross Chemist,Exempt,nan,nan,nan,2013-11-14,51.529509,-0.293217
93908,Crossbell Pharmacy,Exempt,nan,nan,nan,2014-02-20,51.506443,-0.254035
93909,Crown Northolt,5,0,0,0,2014-03-20,51.544991,-0.369535
93910,Crowne Plaza Ealing,5,5,5,5,2012-07-02,51.529629,-0.29402
93911,Crumbs Bakery,3,10,10,5,2011-09-27,51.535398,-0.394447
93912,Crystal Ice Ltd,5,5,5,5,2011-10-26,51.497897,-0.379759
93913,Crystal Kebab,3,10,10,10,2014-12-18,51.50339,-0.2799
93914,Crystal News,1,10,5,20,2013-08-22,51.50182,-0.265522
93915,Crystal Trading London UK,3,10,10,10,2012-07-25,,
93916,Cudi Food Centre,1,15,10,20,2014-02-19,51.510684,-0.322238
93917,Cup a Corn,3,10,10,5,2011-06-13,51.511637,-0.38175
93918,Cupcake Avenue,4,5,5,10,2013-10-04,51.508416,-0.267029
93919,Cupcake Cuisine,3,5,10,10,2010-01-06,,
93920,Cybertots,4,0,0,10,2013-12-12,51.520709,-0.330951
93921,Cybertots Day Nursery,5,0,0,5,2014-10-30,51.538869,-0.39245
93922,Cybertots Ltd,1,5,5,20,2014-07-02,51.504674,-0.276105
93923,Cybertots On The Green,5,0,5,0,2014-09-24,51.516151,-0.325986
93924,Cygnet Hospital,5,0,5,0,2015-02-02,51.521176,-0.297147
93925,D & R Produce Ltd,4,5,10,5,2014-02-26,51.502841,-0.395389
93926,D Dees Newsagents,3,10,10,10,2012-09-14,51.533193,-0.34892
93927,D&K Superstore,5,0,0,0,2014-12-11,51.500075,-0.315482
93928,Dairy Meadow Primary School,3,5,10,10,2013-07-04,51.501907,-0.373234
93929,Daisy Brydon Creations,AwaitingInspection,nan,nan,nan,,51.529538,-0.263921
93930,Dallas Liquor Mart Limited,Exempt,nan,nan,nan,2014-02-22,51.509427,-0.327429
93931,Damien Green,AwaitingInspection,nan,nan,nan,,51.496263,-0.271625
93932,Danial Care Homes Ltd,5,5,5,5,2014-08-14,51.515026,-0.312077
93933,Dankin,5,0,5,5,2011-09-13,51.54319,-0.359028
93934,Dan'S Cafe,4,10,5,5,2010-07-28,51.519847,-0.355255
93935,Dan's Convenience Store,4,5,5,10,2014-09-16,51.528669,-0.332375
93936,Dante,4,0,5,10,2014-07-16,51.510239,-0.287078
93937,Darcau On The Green,4,5,5,10,2013-04-10,51.496393,-0.256104
93938,Darjeeling Inn,2,15,10,10,2012-11-16,51.529466,-0.372425
93939,Darton Court,5,0,0,5,2012-03-02,51.50899,-0.267526
93940,Daru Pharma,Exempt,nan,nan,nan,2010-11-01,51.497141,-0.305894
93941,Dassani Off Licence,Exempt,nan,nan,nan,2012-06-14,51.50698,-0.246031
93942,David Lloyd Sport And Leisure,5,5,5,5,2013-08-23,51.55692,-0.338526
93943,Daxi's Chicken,1,0,10,20,2014-09-15,51.528102,-0.355217
93944,Daytona Raceway,AwaitingInspection,nan,nan,nan,,51.529766,-0.251441
93945,Dee'Licious Cupcakes,5,0,0,0,2014-06-06,,
93946,Dehkadh,3,10,5,10,2014-03-24,51.528943,-0.292042
93947,Delhi Wala,1,15,10,20,2015-01-15,51.50209,-0.381901
93948,Delicza,5,0,0,0,2014-02-21,51.528433,-0.270104
93949,Delight Dessert Parlour,5,5,5,5,2014-02-19,51.510628,-0.373168
93950,Delight European Foodstore Wedlinka,3,5,10,10,2011-12-21,51.528102,-0.355217
93951,Delight Food,3,10,10,10,2013-12-05,51.514725,-0.319308
93952,Delphi Automative,4,5,5,10,2013-03-19,51.523465,-0.276549
93953,Delta Foods,4,5,5,10,2012-05-22,,
93954,Deluxe,4,5,5,10,2013-08-30,51.523169,-0.277828
93955,Dena Market,4,5,5,10,2014-03-24,51.528943,-0.292042
93956,Deniece's Delights,5,0,0,0,2014-07-18,,
93957,Derwentwater Primary School,5,0,0,0,2014-09-12,51.510016,-0.268828
93958,Desi Dragon,1,15,10,20,2014-06-24,51.510546,-0.37565
93959,Dev Food Wine,3,10,10,10,2013-08-06,51.496683,-0.384354
93960,Dial A Pizza,5,5,5,5,2011-03-02,51.517852,-0.266037
93961,Diamond Cash & Carry,Exempt,nan,nan,nan,2011-12-20,51.502506,-0.39785
93962,Diamond Grill,4,10,5,5,2014-11-14,51.504456,-0.333836
93963,Diamond Hotel,2,15,10,10,2014-12-17,51.509938,-0.327915
93964,Dilip Take Away (Home Style Food),3,10,10,5,2012-12-07,51.500481,-0.383298
93965,Dilip Takeaway Dosa Place,AwaitingInspection,nan,nan,nan,,51.498313,-0.383202
93966,Dillons Chemist,Exempt,nan,nan,nan,2012-07-25,51.506765,-0.270925
93967,Dinner Jackets (Opposite Barrats),5,5,5,5,2010-10-18,51.51211,-0.305094
93968,Dinni's Delights,AwaitingInspection,nan,nan,nan,,,
93969,Discount Food & Wine,1,10,10,20,2012-05-30,51.545154,-0.372817
93970,Discounts Galore,2,15,10,10,2012-10-11,51.516639,-0.369553
93971,Disotto Foods Ltd,5,0,5,0,2012-02-28,51.526446,-0.267051
93972,Divine Catering,3,10,10,10,2011-10-10,,
93973,Dixie Chicken,1,20,10,20,2014-09-18,51.501803,-0.382617
93974,Dixie Chicken,2,15,10,10,2014-07-31,51.516107,-0.337417
93975,Dixits Stores,3,10,10,10,2012-06-27,51.557656,-0.347919
93976,DKSR Supermarket,4,5,5,10,2012-07-02,51.508513,-0.388028
93977,Dokal & Sons,3,10,5,10,2012-06-30,51.511637,-0.38175
93978,Dominion Centre & Library,Exempt,nan,nan,nan,2010-04-30,51.502476,-0.381916
93979,Domino Pizza,5,0,0,0,2014-02-27,51.551316,-0.339033
93980,Dominos Pizza,5,5,5,5,2012-02-14,51.508247,-0.280639
93981,Dominos Pizza,5,0,5,0,2014-02-20,51.528337,-0.37271
93982,Domino'S Pizza,2,15,10,5,2013-07-04,51.509121,-0.338133
93983,Domino's Pizza,5,0,0,0,2014-07-30,51.52278,-0.260545
93984,Donarancini (Leone Italian Coffee),1,15,0,20,2014-06-09,51.503081,-0.280315
93985,Door To Door Pizza,4,5,10,5,2015-01-19,51.534485,-0.33346
93986,Dormers Wells Childrens Centre,5,0,0,5,2013-10-03,51.514317,-0.364245
93987,Dormers Wells Infant & Junior School,4,10,5,5,2014-06-26,51.514317,-0.364245
93988,Dot Catering,AwaitingInspection,nan,nan,nan,,51.529538,-0.263921
93989,Double Tree by Hilton London Ealing,5,5,5,5,2012-02-03,51.511569,-0.290703
93990,Down Way News,Exempt,nan,nan,nan,2011-03-17,51.535246,-0.40567
93991,Downhurst,5,5,0,0,2015-01-07,51.517792,-0.30938
93992,Dr & Herbs,Exempt,nan,nan,nan,2012-12-05,51.5128,-0.303007
93993,Dr Hu,Exempt,nan,nan,nan,2011-11-23,51.510546,-0.37565
93994,Dragon Inn,5,5,5,5,2012-06-14,51.49743,-0.305379
93995,Dragon King Oriental Buffet,4,10,5,5,2014-10-15,51.525334,-0.281336
93996,Drayton Court Hotel,1,10,20,20,2014-09-16,51.514725,-0.319308
93997,Drayton Green Primary School,4,0,10,10,2014-12-16,51.515107,-0.323416
93998,Drayton Manor High School,5,0,0,0,2009-06-23,51.515921,-0.335752
93999,Dream Cafe,5,0,5,5,2014-07-15,51.537524,-0.38944
94000,Dream Cafe Partnership,2,10,15,10,2013-02-05,51.503452,-0.380916
94001,Ds Catering,5,0,0,0,2009-12-08,51.508395,-0.378133
94002,DSI Foods Ltd,4,5,10,5,2014-11-07,51.521301,-0.257272
94003,Dubai Mall Cafe,1,15,15,20,2014-07-30,51.510956,-0.37477
94004,Duke Of Kent,4,10,0,0,2014-09-12,51.52472,-0.320252
94005,Duke of Sussex,4,10,5,5,2014-06-07,51.496408,-0.264431
94006,Duke Of York,3,10,10,10,2014-04-08,51.509384,-0.272339
94007,Dunnhumby,3,10,10,5,2014-02-03,51.512017,-0.310473
94008,Durdans Park Primary School,5,5,5,5,2013-10-11,51.523402,-0.376129
94009,Duri Food Shop,1,10,10,20,2014-08-26,51.510239,-0.287078
94010,Duvaraka Cash & Carry,5,5,5,5,2011-01-13,51.512298,-0.385344
94011,E M Peterkin,2,15,10,10,2013-06-10,51.529538,-0.263921
94012,Ealing Abbey,1,5,5,20,2010-12-01,51.519116,-0.309489
94013,Ealing Balti House,1,20,10,20,2015-01-06,51.509938,-0.327915
94014,Ealing Christian Centre,3,10,5,10,2013-11-14,51.498111,-0.313926
94015,Ealing College,3,10,5,10,2011-02-28,51.516846,-0.31985
94016,Ealing Common Post Office,Exempt,nan,nan,nan,2012-04-16,51.509607,-0.286309
94017,Ealing Consortium,5,5,5,5,2014-02-28,51.506606,-0.323814
94018,Ealing Cricket & Social Club Ltd,3,5,10,10,2014-02-20,51.519753,-0.297603
94019,Ealing Early Years,Exempt,nan,nan,nan,2011-04-12,51.509154,-0.340495
94020,Ealing Ex Servicemens Club,4,5,5,10,2009-10-28,51.512677,-0.313201
94021,Ealing Express,4,10,5,5,2012-06-20,51.510239,-0.287078
94022,Ealing Foodbank,5,5,0,0,2014-07-28,51.528701,-0.357574
94023,Ealing Foodbank,5,0,0,0,2014-11-06,51.503932,-0.381173
94024,Ealing Foodbank,5,0,0,0,2014-07-30,51.509636,-0.335145
94025,Ealing Fried Chicken & Kebab,1,20,10,10,2014-06-18,51.516866,-0.290721
94026,Ealing Fruit & Vegetables,3,10,10,10,2014-04-24,51.510986,-0.320051
94027,Ealing General Store,Exempt,nan,nan,nan,2011-03-17,51.511118,-0.319254
94028,Ealing Golf Club,5,5,5,5,2014-07-23,51.532676,-0.320738
94029,Ealing Guest House,5,5,5,5,2010-05-04,51.502709,-0.306639
94030,Ealing Homes,3,10,10,10,2010-05-11,51.523165,-0.332302
94031,Ealing Homes,Exempt,nan,nan,nan,2012-01-25,51.527172,-0.332646
94032,Ealing Hospital Childrens Centre,5,0,0,0,2014-07-04,51.506998,-0.346351
94033,Ealing Lawn Tennis Club,5,0,0,0,2013-12-04,51.512614,-0.287147
94034,Ealing Mangal,3,10,10,10,2014-04-29,51.510992,-0.318004
94035,Ealing Mencap,4,5,10,5,2011-08-24,51.532045,-0.333867
94036,Ealing Park Tavern,AwaitingInspection,nan,nan,nan,,51.49583,-0.306058
94037,Ealing Pharmacy,Exempt,nan,nan,nan,2013-11-14,,
94038,Ealing Primary Centre,AwaitingInspection,nan,nan,nan,,51.538188,-0.345437
94039,Ealing Quaker Meeting House,Exempt,nan,nan,nan,2013-11-20,51.517576,-0.30185
94040,Ealing Riding School,Exempt,nan,nan,nan,2014-02-24,51.501877,-0.285907
94041,Ealing Show Market,1,15,15,20,2013-05-29,51.509867,-0.324833
94042,Ealing Squash & Fitness Centre,3,10,10,10,2011-01-06,51.515519,-0.302056
94043,Ealing Town Hall,Exempt,nan,nan,nan,2010-03-31,51.513338,-0.307282
94044,Ealing Village Freehold Ltd,4,0,0,10,2014-04-11,51.516188,-0.292966
94045,Early Years Day Nursery,5,0,5,5,2013-10-08,51.541318,-0.348684
94046,Eassy Superstore,AwaitingInspection,nan,nan,nan,,51.498111,-0.313926
94047,East Acton Post Office,4,5,5,10,2014-02-20,51.51466,-0.249685
94048,East Acton Primary School,5,0,5,5,2013-07-10,51.51144,-0.256279
94049,East European Food & Wine,5,5,5,5,2014-05-16,51.550249,-0.330966
94050,Eat Cookie Sleep Cookie,5,0,0,0,2014-05-22,,
94051,Eats,5,5,0,0,2010-09-06,51.532003,-0.308334
94052,Eats n Bites,Exempt,nan,nan,nan,2013-02-05,51.530066,-0.293153
94053,Eddie'S Convenience Store,5,5,5,5,2014-03-25,51.508978,-0.345819
94054,Eden Fitness Ltd,4,10,5,5,2012-05-02,51.512553,-0.312701
94055,Edward Betham Ce Primary School,4,10,5,0,2014-02-25,51.534686,-0.349573
94056,Edwards Language School,5,5,5,5,2012-01-11,51.513333,-0.298217
94057,Eggfree Cake Box,3,10,10,10,2013-06-04,51.509867,-0.324833
94058,El Omara,0,15,20,30,2014-12-08,51.525752,-0.258457
94059,Eliemma Catering Ltd,3,10,10,10,2012-11-28,,
94060,Elise's Cakes and Treats,5,5,5,5,2012-04-26,,
94061,Elite Catering,5,0,5,0,2014-02-21,51.519753,-0.297603
94062,Ellen Wilkinson High School,5,0,0,0,2014-09-15,51.517074,-0.286504
94063,Elthorne Park High School,Exempt,nan,nan,nan,2010-02-22,51.499981,-0.329633
94064,Empire Grocers,4,5,5,10,2013-08-30,51.510239,-0.287078
94065,Eng Mini Market,4,5,5,10,2014-02-11,51.513224,-0.248688
94066,English Language School,5,0,0,0,2011-01-21,51.509867,-0.324833
94067,Esquires Coffee House,4,0,5,10,2013-07-04,51.523021,-0.261055
94068,Essex Inn Hotel,3,10,10,10,2013-10-15,51.511543,-0.378165
94069,Esso Mead Service Station,5,0,5,5,2011-03-12,51.532378,-0.371038
94070,Est.81LDN,3,10,10,10,2012-08-15,,
94071,Eternity Cakes Ltd,5,5,5,0,2010-04-29,,
94072,Euphorium Bakery,AwaitingInspection,nan,nan,nan,,51.5128,-0.303007
94073,Euphorium Bakery,AwaitingInspection,nan,nan,nan,,51.52835,-0.352397
94074,Euphorium Bakery,AwaitingInspection,nan,nan,nan,,51.533609,-0.318743
94075,Eurest,AwaitingInspection,nan,nan,nan,,51.528433,-0.270104
94076,Eurest,5,5,5,5,2013-07-09,51.531891,-0.298088
94077,Eurest (@ Delice de France),5,5,0,0,2011-10-19,51.502051,-0.400705
94078,Eurest River Island Staff Restaurant,5,5,0,0,2014-02-24,51.532639,-0.299473
94079,Euro Food & Wine,2,15,10,10,2012-06-28,51.525395,-0.364901
94080,Euro Food & Wine,4,5,10,5,2011-03-24,51.505395,-0.304594
94081,Euro Food Centre,3,5,10,10,2014-07-04,51.509938,-0.327915
94082,Eurodeli (UK),5,0,0,0,2014-05-09,51.511465,-0.30898
94083,Euros,3,10,5,10,2012-05-09,51.496913,-0.325712
94084,Euro'S,1,10,5,20,2012-07-06,51.500501,-0.315077
94085,Euro's,3,10,10,10,2013-11-18,51.499667,-0.306506
94086,Eurozone Grocery,2,15,5,10,2014-07-07,51.541086,-0.347495
94087,Event Oracle & Picnic2U Ltd,5,5,0,0,2014-07-16,51.527405,-0.263223
94088,Everest Restaurant,3,10,10,10,2011-11-09,51.527602,-0.353577
94089,Everfresh Corner,2,15,10,10,2013-01-15,51.497564,-0.384986
94090,Evergreen,1,15,5,20,2013-07-01,51.556032,-0.33677
94091,Evershed Sports & Social Club,AwaitingInspection,nan,nan,nan,,,
94092,Everyone Active,4,10,0,5,2014-08-22,51.54909,-0.369402
94093,Exotic Superstore Ltd,3,10,10,10,2011-12-15,51.516853,-0.371404
94094,Exotica Pizza & Bites(Gourmet Bites),3,10,10,10,2013-08-23,51.542089,-0.346551
94095,Expresso Kebab,3,10,10,10,2012-12-12,51.508625,-0.336767
94096,F & S Foods,3,10,10,10,2012-09-14,,
94097,F&B Food and Wine,3,5,10,10,2014-03-03,51.50182,-0.265522
94098,Faanoos Restaurant,3,10,10,10,2014-06-13,51.512426,-0.305788
94099,Facilities Department,5,5,5,5,2011-03-31,51.499337,-0.375544
94100,Fair Food & Wine,2,10,15,10,2013-04-30,51.513959,-0.321066
94101,Fairytale Day Nursery,5,5,5,5,2014-10-17,51.55053,-0.348293
94102,Fait Maison,3,5,10,10,2013-07-22,51.522388,-0.257807
94103,Famous Pizza,3,10,10,10,2014-02-05,51.506473,-0.265792
94104,Fardous Navid Supermarket,2,5,15,5,2011-07-15,51.513589,-0.336788
94105,Farm W5,4,10,5,5,2014-07-10,51.511024,-0.305192
94106,Farran Cafe Ltd (F15),3,10,10,10,2012-08-16,51.525752,-0.258457
94107,Fat Benny London Limited,5,0,5,0,2014-01-28,51.506473,-0.265792
94108,Fat Boy'S Thai Restaurant,3,10,10,10,2013-03-27,51.515519,-0.302056
94109,Favour C&E,5,5,5,0,2012-05-08,51.529538,-0.263921
94110,Favour Fast Food,AwaitingInspection,nan,nan,nan,,51.528457,-0.272915
94111,Fawanees Restaurant,1,20,10,20,2014-10-21,51.533656,-0.295787
94112,Feast Restaurant,5,0,0,0,2013-03-12,51.506619,-0.303424
94113,Featherstone High School,4,0,5,10,2013-02-27,51.499327,-0.387012
94114,Fields Coffee Shop,4,5,10,5,2014-12-11,51.497365,-0.312743
94115,Fields Food & Wine,2,15,10,10,2012-05-28,51.551218,-0.350518
94116,Field's London LTD,3,10,10,10,2013-06-27,51.508287,-0.270507
94117,Firezza,4,5,10,5,2013-05-24,51.512426,-0.305788
94118,First Choice Mini Mart,3,10,10,10,2014-02-24,51.549954,-0.339371
94119,First Floor Kitchen,Exempt,nan,nan,nan,2010-08-23,51.506415,-0.267927
94120,First Stop Cafe,3,5,10,10,2014-07-25,51.54319,-0.359028
94121,Fish & Chips at Steph's,3,10,10,10,2015-01-20,51.518666,-0.354389
94122,Fish 4 You West,AwaitingInspection,nan,nan,nan,,51.528654,-0.354866
94123,Fitness First,5,5,5,5,2012-03-13,51.507438,-0.269603
94124,Flame Piri Piri,2,10,15,10,2013-07-05,51.510986,-0.320051
94125,Flava's Lounge Bar And Grill,3,10,5,10,2014-02-11,51.511465,-0.30898
94126,Flavours of Portugal,3,10,5,10,2012-05-10,51.525752,-0.258457
94127,Flavourtown Bakery,5,0,0,0,2014-10-22,51.529538,-0.263921
94128,Flourbowlcakes,5,5,5,0,2014-02-21,51.549591,-0.334048
94129,Flutterby Bakehouse,5,0,5,5,2012-05-28,51.499715,-0.269103
94130,Flynns Bar & Diner,3,10,10,10,2014-08-14,51.510424,-0.325447
94131,Foley's,3,10,5,10,2012-10-10,51.506951,-0.270745
94132,Food & Wine,5,5,5,5,2014-01-28,51.506853,-0.267132
94133,Food Lovers Delight -Jackie Mcdonald,5,0,0,0,2012-09-26,51.532003,-0.308334
94134,Food Palace,3,10,10,10,2013-05-08,51.508601,-0.271662
94135,Foodcycle Community Meal,5,0,0,0,2014-03-15,51.50816,-0.27593
94136,Foodstore,1,10,10,20,2012-07-17,51.502246,-0.276081
94137,Football Club Pavilion,AwaitingInspection,nan,nan,nan,,51.550177,-0.379734
94138,Forest Restaurant,4,5,10,0,2013-08-20,51.506404,-0.256284
94139,Forester Inn,4,10,0,5,2014-06-10,51.505983,-0.321114
94140,Fortuna House,5,0,5,5,2014-09-11,51.556032,-0.33677
94141,Four Seasons Health Care,4,0,5,10,2014-07-03,51.493079,-0.368895
94142,Foxtons,Exempt,nan,nan,nan,2012-10-04,51.513872,-0.300056
94143,Frank's Cafe,3,10,10,10,2013-07-15,51.508287,-0.270507
94144,Frederick James Cooper,3,10,5,10,2012-05-10,51.5181999207,-0.370000809431
94145,Fresh And Delicious,2,15,10,10,2013-08-28,51.519027,-0.265848
94146,Fresh Line,3,10,10,10,2011-05-10,51.501314,-0.382361
94147,Freshway,3,10,5,10,2014-02-06,51.506442,-0.255216
94148,"Fressh Juice & Sandwich Bar, Unit 20",2,15,10,10,2013-06-11,51.5128,-0.303007
94149,Fruit and Veg  (Outside stall),3,10,10,10,2011-04-11,51.512635,-0.387609
94150,Fruit and Veg Stall (Outside),3,10,10,10,2011-04-05,51.501314,-0.382361
94151,Fushi Wellbeing,5,0,0,5,2014-02-26,51.496429,-0.266432
94152,G H Baxter Ltd,4,5,10,5,2014-07-03,51.522691,-0.340709
94153,G/Ford Residents Ass Hall,Exempt,nan,nan,nan,2011-03-14,51.52031,-0.356204
94154,Gabar's Store Ltd,1,15,15,20,2014-12-17,51.512514,-0.386648
94155,Gafun Restaurant,1,10,15,20,2014-11-17,51.503452,-0.380916
94156,Gala Clubs,5,5,5,5,2012-02-29,51.506767,-0.264412
94157,Galaxy Burgers & Kebabs,3,10,10,10,2014-03-20,51.545154,-0.372817
94158,Galaxy Grill,4,5,5,10,2014-02-11,51.511866,-0.305636
94159,Galicja Polish Shop,4,0,5,10,2011-04-26,51.496562,-0.255997
94160,Gary Mawson,5,5,5,5,2014-04-09,51.5133514404,-0.30122178793
94161,Gary's Food & Wine,3,10,10,10,2012-02-04,51.53555,-0.361163
94162,Garys Pizza & Chicken,5,5,0,5,2011-10-18,51.500383,-0.386615
94163,George & Dragon,4,5,5,10,2013-07-15,51.507244,-0.271728
94164,Georgian House Nursing Home,5,5,5,5,2015-01-21,51.506759,-0.313794
94165,Gerry Macs,4,5,10,5,2011-09-06,51.556032,-0.33677
94166,Ghanapathy Food & Wine t/a Londis,5,5,5,5,2012-07-06,51.508991,-0.263996
94167,Gifford Preschool & Afterschool Club,5,5,5,0,2010-01-28,51.535972,-0.376014
94168,Gifto's Lahore Karahi,2,15,5,10,2014-07-10,51.512351,-0.383296
94169,Gifty's Kitchen,4,10,5,5,2014-02-25,51.507724,-0.354481
94170,Gill Chemist,Exempt,nan,nan,nan,2010-12-03,51.49935,-0.38086
94171,Gill Chemists,Exempt,nan,nan,nan,2010-04-29,51.501314,-0.382361
94172,Gill Convenience,3,10,10,5,2012-11-21,51.511543,-0.378165
94173,Gill Newsagents,1,20,10,10,2013-08-22,51.49833,-0.264214
94174,Gills Food and Wine,1,0,10,20,2014-02-20,51.49989,-0.265105
94175,Glad Traders,3,10,10,10,2012-04-11,51.503452,-0.380916
94176,Global 4 Seasons,3,5,10,10,2014-02-11,51.507724,-0.271321
94177,Gms Food And Wine,1,15,10,20,2013-08-22,51.502249,-0.258042
94178,God Gift Ltd,AwaitingInspection,nan,nan,nan,,,
94179,Goizha Restaurant,1,15,15,20,2014-10-15,51.511253,-0.316093
94180,Golden Crust,3,10,10,10,2012-02-04,51.551734,-0.350168
94181,Golden Dragon,3,10,10,5,2013-08-17,51.526121,-0.314521
94182,Golden Palace,3,10,5,10,2014-09-02,51.532576,-0.368464
94183,Golden Pizza,3,5,10,10,2012-01-13,51.504097,-0.3717
94184,Golis,1,15,15,20,2014-11-17,51.502231,-0.384331
94185,Golly's Cafe,3,10,10,10,2014-03-22,51.506765,-0.270925
94186,Goodies,3,10,10,10,2013-04-09,51.51466,-0.249685
94187,Gordon Lodge Nursing Home,3,10,10,10,2013-04-30,51.515186,-0.317634
94188,Gourmandise,4,5,10,5,2014-07-24,51.529509,-0.293217
94189,Gourmet Burger Kitchen,5,5,5,5,2012-09-05,51.515519,-0.302056
94190,Gourmet Sweets and Bakers,4,0,5,10,2014-08-05,51.512233,-0.38255
94191,Grand Junction Arms,1,5,10,20,2014-12-09,51.497995,-0.399363
94192,Grange Lodge Hotel,4,0,10,10,2014-07-08,51.509399,-0.302255
94193,Grange Primary School,5,0,0,0,2013-03-26,51.503907,-0.305571
94194,Grapevines,Exempt,nan,nan,nan,2012-10-23,51.508524,-0.265829
94195,Grazyna Kurpisz,AwaitingInspection,nan,nan,nan,,,
94196,Greatway Superstore,1,10,15,20,2012-05-28,51.500481,-0.383298
94197,Greek Embassy Primary School of Lond,3,10,10,10,2014-06-02,51.511907,-0.273886
94198,Green Grill,4,5,10,5,2013-12-04,51.500266,-0.387901
94199,Green Man Lane Community Centre,Exempt,nan,nan,nan,2010-04-29,51.511558,-0.323618
94200,Greenfields Nursery School,5,0,0,5,2012-11-16,51.497784,-0.387254
94201,Greenford Avenue Post Office,Exempt,nan,nan,nan,2014-03-13,51.522691,-0.340709
94202,Greenford Butchers,3,10,10,10,2012-08-07,51.52835,-0.352397
94203,Greenford Community Centre,Exempt,nan,nan,nan,2012-05-22,51.535836,-0.348882
94204,Greenford Conservative Club,5,5,5,5,2014-03-07,51.538133,-0.347905
94205,Greenford Express,3,10,5,10,2014-10-31,51.541086,-0.347495
94206,Greenford Fish Chips,5,0,5,5,2014-10-08,51.528102,-0.355217
94207,Greenford Food Centre,1,15,15,20,2014-02-12,51.530134,-0.364255
94208,Greenford Gospel Church,5,5,5,5,2014-02-20,51.548839,-0.34446
94209,Greenford Grocers Ltd,1,15,10,20,2012-01-26,51.52835,-0.352397
94210,Greenford Halal Meat,1,15,10,20,2012-04-25,51.528654,-0.354866
94211,Greenford Hall,Exempt,nan,nan,nan,2010-11-17,51.528701,-0.357574
94212,Greenford High School,5,0,0,0,2011-03-29,51.530751,-0.369784
94213,Greenford Kebab,1,10,20,20,2014-12-16,51.528102,-0.355217
94214,Greenford News and Booze,4,0,5,10,2014-02-27,51.527915,-0.352831
94215,Greenford Park Service Station,5,5,5,0,2012-02-04,51.522094,-0.354482
94216,Greenford Superstore,3,10,10,10,2010-05-18,51.551316,-0.339033
94217,Greenford Tandoori,4,10,5,5,2014-08-12,51.527151,-0.351546
94218,Greenford Tennis Club,3,10,10,5,2014-03-05,51.531981,-0.358076
94219,Greenford Wine Mart,Exempt,nan,nan,nan,2013-08-08,51.527602,-0.353577
94220,Greenford Wines & Groceries,1,15,10,20,2013-08-07,51.533193,-0.34892
94221,Greenleaf Catering/Event Management,5,0,0,0,2014-02-22,51.50652,-0.364856
94222,Greensleeves Homes Trust,5,0,5,5,2011-06-15,51.51333,-0.275231
94223,Greenwich Leisure Ltd,Exempt,nan,nan,nan,2013-11-07,51.514317,-0.364245
94224,Greenwich Leisure Ltd,Exempt,nan,nan,nan,2012-02-01,51.528669,-0.332375
94225,Greenwood Primary School,5,5,5,5,2013-09-23,51.553843,-0.350466
94226,Greggs,5,5,5,5,2012-10-04,,
94227,Greggs,5,5,0,0,2012-12-05,51.507319,-0.270731
94228,Greggs,5,5,0,0,2013-11-25,51.527915,-0.352831
94229,Greggs,5,5,5,5,2011-10-24,51.511254,-0.378074
94230,Greggs,5,5,5,5,2012-03-20,51.51466,-0.249685
94231,Greggs,4,10,5,5,2012-03-24,51.509867,-0.324833
94232,Griffin Bake House,1,20,0,0,2014-04-17,51.508445,-0.269593
94233,Grill & Coffee,3,10,10,10,2013-12-06,51.508942,-0.335675
94234,Grill My Cheese,AwaitingInspection,nan,nan,nan,,51.529538,-0.263921
94235,Grosvenor House Social Club,5,5,5,5,2012-05-23,51.504827,-0.306373
94236,Grosvenor Public House,5,0,0,0,2014-07-22,51.506233,-0.329174
94237,Grove House Childrens Centre,5,0,0,0,2014-06-11,51.513049,-0.372001
94238,Grover Local,3,10,10,10,2014-08-27,51.496487,-0.374089
94239,GRYF,2,15,10,10,2014-12-08,51.512859,-0.300887
94240,G's Coffee Bar,3,10,10,10,2012-07-11,51.508253,-0.340974
94241,Guddu Sweetcorn (stall o/s),3,10,10,10,2014-08-05,51.512298,-0.385344
94242,Gudrat Bakery,3,10,5,10,2014-04-16,51.529538,-0.263921
94243,Guest House,5,5,5,5,2009-10-28,51.515026,-0.312077
94244,Gurdwara Miripiri Sahib,2,15,10,10,2014-03-22,51.512753,-0.388354
94245,Gurdwara Nanak Darbar London,2,15,15,10,2014-05-21,51.500537,-0.382748
94246,Gurkhas Spice World,4,5,5,10,2013-07-16,51.528255,-0.357143
94247,Guru Granth Gurdwara,2,15,5,10,2011-11-04,51.508181,-0.375042
94248,Guryasamo,3,10,10,5,2012-11-28,51.510227,-0.326146
94249,GVD Food Made With Love,5,5,5,5,2012-01-05,,
94250,H J Dixon Pharmacy,Exempt,nan,nan,nan,2012-05-31,51.518943,-0.375553
94251,Hadrian's,5,0,0,0,2014-03-13,51.508541,-0.265742
94252,Haji Baba,5,5,0,5,2012-10-22,51.528433,-0.270104
94253,Hakikat Food Centre,3,10,5,10,2013-02-06,51.50691,-0.2686
94254,Halal Meat Centre,4,10,5,5,2014-08-12,51.528278,-0.353683
94255,Halwo Mubaarak,2,15,10,10,2012-09-10,51.506765,-0.270925
94256,Hambrough Tavern,5,0,0,5,2014-08-08,51.512894,-0.389459
94257,Hanger Lane Food & Wine,3,10,10,10,2014-10-15,51.529509,-0.293217
94258,Hanger Lane Post Office,5,0,0,0,2015-02-06,51.528899,-0.292072
94259,Hanif Halal Meat,3,10,10,10,2012-08-05,51.512235,-0.384683
94260,Hanwell Bunnies Pre-School,5,5,5,5,2014-06-06,51.510057,-0.334352
94261,Hanwell Conservative Club,5,5,5,5,2014-04-11,51.508982,-0.331509
94262,Hanwell Fishmongers,2,5,15,5,2014-02-25,51.508942,-0.335675
94263,Hanwell Grocers LTD,5,5,5,5,2011-07-15,51.522691,-0.340709
94264,Hanwell Halal Meat,4,5,5,10,2014-10-16,51.508942,-0.335675
94265,Hanwell Health & Fitness Centre,Exempt,nan,nan,nan,2011-10-03,51.510316,-0.334285
94266,Hanwell House Residential Care Home,5,0,5,0,2011-04-11,51.503483,-0.331825
94267,Hanwell Kebab,3,10,10,10,2012-12-11,51.50823,-0.338064
94268,Hanwell Methodist Church Hall,Exempt,nan,nan,nan,2012-08-03,51.510057,-0.334352
94269,Hanwell News,3,10,5,10,2014-06-17,51.508625,-0.336767
94270,Hanwell Pizza,4,10,5,5,2014-08-28,51.508253,-0.340974
94271,Hanwell Post Office,Exempt,nan,nan,nan,2010-07-12,51.509001,-0.337272
94272,Hanwell Town FC,3,10,5,10,2013-10-18,51.532201,-0.327777
94273,Hanza,AwaitingInspection,nan,nan,nan,,51.511769,-0.380852
94274,Happiness Gardens,3,10,10,10,2014-08-09,51.496913,-0.325712
94275,Happy Child Day Nursery,3,10,5,10,2013-03-06,51.496892,-0.312948
94276,Happy Child Day Nursery,5,5,0,5,2014-03-21,51.510523,-0.303496
94277,Happy Child Day Nursery,5,0,0,0,2014-04-15,51.510523,-0.303496
94278,Happy Child Day Nursery,5,5,0,0,2012-02-13,51.5121,-0.322518
94279,Happy Child Nursery,5,5,5,0,2012-04-16,51.508866,-0.286668
94280,Happy Garden,4,5,5,10,2014-06-10,51.505478,-0.319778
94281,Happy Todds,3,10,10,10,2012-03-29,51.530679,-0.388038
94282,Haran News,4,10,5,5,2013-09-27,51.552816,-0.3561
94283,Harbour Food & Wine,3,10,10,10,2014-12-15,51.542089,-0.346551
94284,Hardy'S Newsagent,4,5,5,10,2014-09-18,51.516853,-0.371404
94285,Hare & Tortoise,3,5,10,10,2014-06-12,51.515519,-0.302056
94286,Harkin Catering Ltd,1,20,15,10,2014-11-04,51.547781,-0.312451
94287,Harkin Catering Ltd,5,5,5,5,2012-07-12,51.512929,-0.354409
94288,Harris & Hoole,5,0,0,0,2014-02-04,51.513822,-0.303416
94289,Harris Stores,3,10,5,10,2012-07-12,51.513904,-0.258131
94290,Harrison Catering Services,1,20,5,10,2014-10-13,51.502506,-0.273608
94291,Harrison Catering Services Ltd,5,5,0,0,2014-02-26,51.501447,-0.320834
94292,Harrison Catering Services Ltd,5,0,0,0,2009-11-04,51.519247,-0.329318
94293,Harrisons,AwaitingInspection,nan,nan,nan,,51.525701,-0.316583
94294,Harry's Cafe,5,5,5,5,2013-07-29,51.517863,-0.26252
94295,Harry's Canteen Balfour Beatty Site,5,5,5,5,2011-06-28,51.51783,-0.368544
94296,Harry's Fish Bar,5,5,0,5,2014-03-18,51.529376,-0.373106
94297,Harsh Off Licence,3,10,5,10,2014-07-17,51.528337,-0.37271
94298,Harveen Food & Wine,3,10,5,10,2014-02-25,51.504456,-0.333836
94299,Harvester Royal,5,5,5,5,2014-06-12,51.498336,-0.326495
94300,Harvington School Educational Trust,4,5,5,10,2012-05-31,51.516727,-0.307185
94301,Hasu,4,5,0,10,2014-11-25,51.508445,-0.269593
94302,Hathaway Primary School,4,10,5,5,2013-07-19,51.522793,-0.328885
94303,Havelock Newsagents,Exempt,nan,nan,nan,2014-02-20,51.501975,-0.372324
94304,Havelock Primary School,5,5,5,0,2012-11-09,51.500932,-0.374897
94305,Haven News,3,10,10,10,2012-01-10,51.517009,-0.299997
94306,Haven News,Exempt,nan,nan,nan,2009-10-19,51.515519,-0.302056
94307,Haweli Indian Cuisine,2,10,15,10,2012-11-20,51.511253,-0.316093
94308,Haydock Fish Bar,AwaitingInspection,nan,nan,nan,,51.551676,-0.369123
94309,Healthy Bitez,AwaitingInspection,nan,nan,nan,,51.528487,-0.273115
94310,Heart and Soul,3,10,10,10,2014-08-07,51.528487,-0.273115
94311,Heerali News,3,10,10,10,2012-04-26,51.556032,-0.33677
94312,Helen Lloyd Cakes,5,5,5,5,2012-04-25,51.516147,-0.263853
94313,Heller House,3,10,10,10,2010-07-15,51.497091,-0.377453
94314,Hello Pizza,3,10,10,10,2014-11-07,51.506853,-0.267132
94315,Hemmali's News,Exempt,nan,nan,nan,2014-03-25,51.551571,-0.319681
94316,Hennessy's,3,10,10,10,2012-10-10,51.527602,-0.353577
94317,Hennessy'S,4,5,5,10,2014-02-24,51.509855,-0.327802
94318,Herb & Acupuncture,Exempt,nan,nan,nan,2011-12-16,51.5128,-0.303007
94319,Herb Health Clinic,Exempt,nan,nan,nan,2011-03-31,51.50992,-0.37658
94320,Herbs & Acupuncture,Exempt,nan,nan,nan,2012-11-20,51.51211,-0.305094
94321,Hestia Housing & Support,4,10,5,0,2013-02-20,,
94322,Hestia Housing & Support,5,0,5,5,2011-01-26,,
94323,Hestia Housing And Support,5,0,0,0,2014-02-17,,
94324,Hestia Housing And Support,5,5,5,5,2012-05-04,,
94325,HG Street Food,AwaitingInspection,nan,nan,nan,,,
94326,Hiban Soft Ice Cream,5,0,0,5,2014-08-11,,
94327,Highview Supermarket,AwaitingInspection,nan,nan,nan,,51.532538,-0.383258
94328,Himani's,3,10,5,10,2013-07-03,51.501314,-0.382361
94329,Hobbayne Primary School,4,5,5,10,2014-06-06,51.516107,-0.337417
94330,Holiday Inn Express,5,0,5,5,2012-07-27,51.511346,-0.267912
94331,Holland & Barrett,5,5,5,5,2009-11-04,51.514867,-0.301691
94332,Holland & Barrett,3,10,10,5,2012-02-13,51.509867,-0.324833
94333,Holly Lodge Montessori Nursery Ltd,2,0,15,10,2011-10-04,51.496198,-0.372054
94334,Hollywood Ltd,0,20,15,20,2014-10-30,51.506442,-0.255216
94335,Holroyd Howe Independent,5,0,0,0,2013-02-05,51.523833,-0.294928
94336,Holy Cross Under 5s,5,5,5,5,2014-06-05,51.535836,-0.348882
94337,Home Bargains,5,5,5,5,2012-04-05,51.505428,-0.360068
94338,Home From Home Day Nursery,5,5,5,5,2013-01-08,51.515107,-0.323416
94339,Honey and Pepper,AwaitingInspection,nan,nan,nan,,,
94340,Hong Kong Chef (Unit A56),AwaitingInspection,nan,nan,nan,,,
94341,Hong Kong Garden,0,15,20,20,2014-11-14,51.508625,-0.336767
94342,Hoo Hing Limited,5,5,0,0,2012-02-12,51.537196,-0.285129
94343,Hook & Cleaver,4,5,10,5,2011-10-20,51.525737,-0.314693
94344,Hopewell,2,15,10,10,2014-03-24,51.517524,-0.289644
94345,Horn Lane Best Kebab,4,10,5,5,2013-11-13,51.516173,-0.268003
94346,Horn Lane Post Office,3,10,10,10,2014-02-14,51.516384,-0.267102
94347,Horse Shoe Cafe,5,0,5,0,2014-03-24,51.505724,-0.337046
94348,Horsenden Farm Visitor Centre,1,0,10,20,2014-09-19,51.54355,-0.323424
94349,Horsenden Primary School,5,5,5,5,2012-06-27,51.550451,-0.33504
94350,Hot Food To Go (Compass Services),5,0,5,0,2011-03-15,51.512872,-0.303696
94351,Hotel 55,2,15,10,10,2012-09-11,51.518262,-0.290885
94352,Hotel Xanadu,5,0,0,5,2014-03-21,51.512288,-0.306183
94353,Hum Tum,3,10,10,10,2014-04-11,51.50868,-0.340022
94354,Hungry Caterpillar,1,0,5,20,2014-07-01,51.542762,-0.365057
94355,Hungry Caterpillars,4,10,5,5,2014-06-03,51.519148,-0.254601
94356,Hungry Caterpillars Day Nursery,5,0,0,0,2014-03-20,51.534165,-0.282604
94357,Hungry Yeti,3,10,10,10,2014-07-22,51.512416,-0.308224
94358,Hurricane Rooms,3,10,5,10,2011-01-19,51.515447,-0.250015
94359,Hursh News,4,10,0,5,2015-01-13,51.50205,-0.271363
94360,Hussain Meats,Exempt,nan,nan,nan,2011-09-14,51.509283,-0.350851
94361,I & A (Nida) Ltd,3,10,10,10,2012-03-03,51.542089,-0.346551
94362,Ice Cream Van,5,0,0,0,2014-06-30,,
94363,Iceland,5,5,5,5,2010-10-11,51.556032,-0.33677
94364,Iceland,4,10,0,5,2014-11-03,51.507938,-0.377587
94365,Iceland,5,5,0,0,2014-02-14,51.507438,-0.269603
94366,Iceland Foods Ltd,5,0,0,0,2011-03-16,,
94367,Iceland Foods Ltd,3,10,10,5,2011-01-14,51.510684,-0.322238
94368,Idri Sweets Limited,5,0,0,0,2014-03-31,,
94369,Iftin Cafe & Restaurant,AwaitingInspection,nan,nan,nan,,51.502231,-0.384331
94370,Impact Community Arts Centre,5,0,0,5,2014-06-18,,
94371,Impact Theatre Co & Outreach Network,4,5,5,10,2013-09-06,51.499311,-0.275861
94372,Imperial Extra,1,0,5,20,2014-11-06,51.499334,-0.391406
94373,Imperial Wines & Food Stores,2,15,5,5,2014-11-26,51.499334,-0.391406
94374,Impuls Restaurant,3,10,10,10,2014-07-03,51.528884,-0.351354
94375,In & Out Minimarket,1,10,10,20,2014-09-16,51.529509,-0.293217
94376,India India Restaurant Ltd,2,10,15,10,2013-08-23,51.500075,-0.315482
94377,Indian Food Fair,3,10,10,5,2011-03-03,51.511769,-0.380852
94378,Inesa Dargyte,4,0,0,10,2008-10-15,51.532639,-0.299473
94379,Iqra Books,4,5,10,5,2012-10-10,51.507938,-0.377587
94380,Ishbilia Wholesale Ltd,1,5,5,20,2014-12-09,51.523332,-0.279696
94381,Iso Mia,4,5,5,10,2013-01-02,51.513417,-0.302177
94382,ISS Meadow House Hospice,5,5,0,5,2012-04-16,51.506998,-0.346351
94383,Ital Pizza,2,15,10,10,2014-06-24,51.500075,-0.315482
94384,J B Traders,1,15,15,20,2013-02-05,51.512711,-0.325003
94385,J J Food & Wine,4,10,5,5,2013-11-11,51.53044,-0.371972
94386,J K Convenience Store,Exempt,nan,nan,nan,2012-06-20,51.532576,-0.368464
94387,J K Convenience Store,3,10,10,10,2012-11-13,51.537524,-0.38944
94388,J Kosufe International Boutique,AwaitingInspection,nan,nan,nan,,51.502403,-0.316072
94389,J Sainsbury PLC,5,5,0,0,2012-03-24,51.509466,-0.325079
94390,J.J Duffy'S,3,10,5,10,2011-12-07,51.498111,-0.313926
94391,Jaami Restaurant,3,10,10,10,2014-10-30,51.511429,-0.314631
94392,Jacks News,Exempt,nan,nan,nan,2012-10-09,51.534508,-0.374855
94393,Jackson's Wine Bar,5,5,5,5,2013-11-27,51.503966,-0.318378
94394,Jalaramfood.com,1,10,15,20,2012-08-21,51.528487,-0.273115
94395,Jalebi Junction,5,0,5,5,2014-06-17,51.511425,-0.380734
94396,Jallas Chemist,Exempt,nan,nan,nan,2010-08-26,51.519027,-0.265848
94397,Jamaican Soul,AwaitingInspection,nan,nan,nan,,,
94398,Jambo Business Centre cafe,3,10,10,10,2013-10-23,51.498606,-0.384286
94399,Jambo Business Centre shop,3,10,10,10,2013-10-23,51.498606,-0.384286
94400,Jameel Homemade Ice Cream,AwaitingInspection,nan,nan,nan,,,
94401,James Convenience Store,3,10,10,10,2013-12-04,51.508546,-0.277674
94402,Jane Percy-Robb,4,5,0,10,2011-03-01,51.529538,-0.263921
94403,Jas Food & Wine,1,10,20,5,2014-01-31,51.500537,-0.382748
94404,Jasmine Cafe,4,0,5,10,2014-07-08,51.503398,-0.317074
94405,Jay's Superstore,2,15,10,10,2014-11-20,51.503127,-0.323856
94406,Jay'z Grill,5,0,5,5,2014-02-17,51.516639,-0.369553
94407,JD Food & Wine,3,10,10,10,2012-11-16,51.505395,-0.304594
94408,Jealous Health Club,Exempt,nan,nan,nan,2006-11-07,51.506942,-0.353227
94409,Jen'S Cakery,5,5,0,0,2014-02-24,51.505264,-0.33372
94410,Jeshaan,3,10,10,10,2014-08-19,,
94411,Jethwa Wines,3,10,10,10,2014-02-20,51.551676,-0.369123
94412,Jewson White City,AwaitingInspection,nan,nan,nan,,51.521062,-0.251443
94413,Jil Fresh Cuisine,AwaitingInspection,nan,nan,nan,,51.529538,-0.263921
94414,Jimmy's Coffee,2,15,15,10,2014-06-05,51.50691,-0.2686
94415,Jim'S Foodstore,4,10,5,5,2011-03-02,51.551676,-0.369123
94416,JJ Food & Wine,1,5,5,20,2012-07-06,51.508889,-0.264965
94417,JK Food & Wine,3,10,10,10,2010-08-25,51.496913,-0.325712
94418,Jk Off Licence,Exempt,nan,nan,nan,2012-07-23,51.522447,-0.340026
94419,JKB Liquor Store,3,10,10,10,2014-02-20,51.502231,-0.384331
94420,Jo Trading (Unit 3B),0,20,15,20,2014-02-28,51.50157,-0.389916
94421,Joe & Sephs Popcorn,5,5,0,0,2011-03-24,51.526953,-0.272755
94422,Joe's,3,10,5,10,2014-06-17,51.508942,-0.335675
94423,Johal Wine Store,Exempt,nan,nan,nan,2014-02-20,51.512753,-0.388354
94424,John Lewis Partnership,5,5,5,5,2011-01-25,51.520597,-0.278372
94425,John Megson Pharmacy,Exempt,nan,nan,nan,2014-02-25,51.516866,-0.290721
94426,John Perryn Primary School,5,0,5,5,2014-09-12,51.519148,-0.254601
94427,John Richardson Family Butchers,4,10,5,5,2011-10-04,51.503966,-0.318378
94428,Jolly Tots Nursery,1,15,15,20,2014-10-20,51.521767,-0.334516
94429,Jono's Bar,5,0,0,0,2014-03-24,51.510239,-0.287078
94430,JSJ Wines,Exempt,nan,nan,nan,2014-02-20,51.501654,-0.307052
94431,Jubraj Indian Restaurant,3,10,10,5,2014-10-29,51.501444,-0.285203
94432,Juice Cube,1,15,15,20,2014-12-09,51.510992,-0.318004
94433,Julia's Inventions,4,0,0,10,2014-07-02,51.529538,-0.263921
94434,Jumpers Creche,5,5,0,0,2014-03-28,51.507133,-0.304126
94435,Jungles Cafe,2,5,15,10,2014-06-05,51.50339,-0.2799
94436,Junior Bees,4,0,0,10,2014-07-08,51.501047,-0.323053
94437,Just Food,5,0,5,5,2011-03-15,,
94438,Just Spice,0,20,15,20,2014-08-11,51.551676,-0.369123
94439,K & P Greenford Supermarket,3,10,10,10,2014-12-10,51.549901,-0.339402
94440,K B A G Greengrocers,3,10,10,10,2011-11-11,51.52835,-0.352397
94441,K K V Supershop,4,5,5,10,2010-09-15,51.539917,-0.312151
94442,"K.S Food & Wine,",2,15,10,10,2012-04-03,51.516853,-0.371404
94443,Kabul Bakery & Sardinia Pizza,2,15,10,10,2013-04-04,51.52835,-0.352397
94444,Kabul Foods t/a Al Hayat Market,1,10,10,20,2012-06-30,51.509725,-0.376097
94445,Kabul Restuarant & Banqueting,1,15,5,20,2014-12-15,51.511254,-0.378074
94446,Kadiris Events,5,5,0,5,2014-08-21,51.529538,-0.263921
94447,Kafun Cafe,1,15,15,20,2012-04-27,51.503452,-0.380916
94448,Kahina Cafe,3,5,10,10,2013-10-08,51.508287,-0.270507
94449,Kamil Bakery Ltd,4,5,5,10,2013-10-22,51.529538,-0.263921
94450,Kandalls News,3,10,10,10,2010-08-31,51.528232,-0.35168
94451,Karaam Lebanese Cuisine,4,10,5,5,2014-06-13,51.512416,-0.308224
94452,Karma,2,15,5,5,2010-06-10,51.51211,-0.305094
94453,Kasias Cafe,3,10,10,10,2012-07-06,51.507438,-0.269603
94454,Kasia's Cafe,3,10,10,10,2014-04-23,51.506474,-0.265849
94455,Kathmandu Corner Shop,3,10,5,10,2014-02-27,51.527204,-0.354053
94456,Kathmandu Nepalese Cuisine,4,10,5,5,2014-04-03,51.503966,-0.318378
94457,Kavah Cafe,3,10,10,10,2015-01-08,51.512416,-0.308224
94458,Keats Cafe,4,5,10,5,2014-08-28,51.508942,-0.335675
94459,Keats House,4,5,5,10,2014-06-24,51.523491,-0.363081
94460,Kebab Center,4,0,10,10,2014-09-05,51.531442,-0.350368
94461,Kebab Centre,5,0,0,5,2014-02-27,51.506473,-0.265792
94462,Kebab Delight,4,5,5,10,2013-02-18,51.506127,-0.305474
94463,Kebabish,1,15,15,20,2014-09-11,51.511543,-0.378165
94464,Kebabish  Original,1,20,15,10,2014-02-18,51.512351,-0.383296
94465,Kei Loong Chinese Restaurant,2,15,10,10,2015-01-20,51.515274,-0.319951
94466,Ken Acock Y & C Centre,Exempt,nan,nan,nan,2011-09-20,51.546904,-0.358361
94467,Kenilworth Nursing Home,5,0,0,0,2014-03-31,51.508238,-0.299733
94468,Kenny's Nigerian Meals,AwaitingInspection,nan,nan,nan,,51.528457,-0.272915
94469,Kent Lodge,4,10,5,5,2012-05-28,51.525737,-0.314693
94470,Kentucky Fried Chicken,5,0,5,5,2013-03-13,51.527602,-0.353577
94471,Kentucky Fried Chicken,5,5,0,0,2015-01-22,51.514326,-0.300357
94472,Kentucky Fried Chicken (Unit 3A),5,0,0,0,2012-09-27,51.525334,-0.281336
94473,Kenya Halal Butchers,3,10,10,10,2014-03-05,51.52835,-0.352397
94474,Kerbisher & Malt,5,5,5,5,2012-09-11,51.512593,-0.306777
94475,Kesar Events & Catering,AwaitingInspection,nan,nan,nan,,51.507809,-0.369594
94476,Kfc,5,5,0,0,2013-04-15,51.545154,-0.372817
94477,KFC,4,10,5,5,2013-06-11,51.507438,-0.269603
94478,Kfc Express,2,15,5,5,2013-09-03,51.509427,-0.327429
94479,Kfc Express,4,10,0,0,2014-10-24,51.510546,-0.37565
94480,Khalsa  Pry Sch (Harrison Catering),5,0,5,5,2011-03-09,51.495034,-0.370439
94481,Khaneja Food & Wine,1,10,10,20,2012-02-20,51.526798,-0.284914
94482,Khaneja Food Express,4,5,5,10,2012-07-06,51.508086,-0.274564
94483,Khurana Supermarket Ltd,3,10,5,10,2011-05-20,51.501975,-0.372324
94484,Khushi Nepalese Restaurant,1,5,10,20,2012-03-31,51.496913,-0.325712
94485,Kiddiecare Nurseries,5,0,0,0,2015-01-09,51.535514,-0.403598
94486,Kiddiecare Nurseries Ltd,5,5,0,0,2014-11-11,51.544104,-0.375609
94487,King Cod,5,5,0,0,2010-09-07,51.506404,-0.256284
94488,King Food & Wine,3,5,10,10,2011-02-17,51.506945,-0.248525
94489,King Kebab,5,0,5,5,2014-08-20,51.515447,-0.250015
94490,King Solomon Catering Services,5,5,5,5,2012-03-02,51.525752,-0.258457
94491,King Solomon Catering Services,4,10,5,5,2012-03-02,51.525752,-0.258457
94492,King Street Cafe Shop (Unit 4),AwaitingInspection,nan,nan,nan,,51.499765,-0.38351
94493,King Street Cash & Carry,2,15,5,10,2014-10-03,51.499765,-0.38351
94494,Kings,3,10,10,10,2013-02-19,51.503398,-0.317074
94495,Kings Arms,3,10,10,5,2014-09-19,51.511021,-0.302526
94496,King's Flavour Chicken & Pizza,AwaitingInspection,nan,nan,nan,,51.529159,-0.378202
94497,King's Kitchen,5,0,0,5,2014-03-18,51.526953,-0.272755
94498,Kings Pharmacy,Exempt,nan,nan,nan,2010-11-18,51.518666,-0.354389
94499,Kingsley House Residential Care Home,5,0,0,5,2015-01-14,51.520095,-0.326375
94500,Kiraku,1,15,10,20,2014-12-02,51.510239,-0.287078
94501,Kiran's Cake Pantry,AwaitingInspection,nan,nan,nan,,,
94502,Kismat Vegetarian Food,4,0,5,10,2013-01-17,51.507661,-0.271972
94503,Kitty's Cafe,4,10,5,0,2014-09-16,51.525752,-0.258457
94504,Kobe Sushi,AwaitingInspection,nan,nan,nan,,51.513857,-0.301527
94505,Kogutek (Unit 1),3,10,10,10,2012-09-18,51.511118,-0.319254
94506,Kolbe House,5,5,5,5,2014-10-08,51.513365,-0.291803
94507,Konti News / Newsflash,5,5,0,5,2014-06-05,51.50691,-0.2686
94508,Kopernik Polish Supermarket,AwaitingInspection,nan,nan,nan,,51.531442,-0.350368
94509,Kowalskiej,5,0,5,5,2013-08-09,51.508518,-0.268452
94510,Krakow Food & Wine,1,15,10,20,2012-05-11,51.534494,-0.332826
94511,Kredens,3,10,10,10,2013-07-03,51.527595,-0.35117
94512,KT Colombo Takeaway,2,10,15,10,2013-08-28,51.539207,-0.306553
94513,Kunal Fruit and Veg,1,15,5,20,2011-11-24,51.502231,-0.384331
94514,Kuznia Smaku Restaurant,5,0,0,0,2014-09-04,51.498468,-0.305643
94515,L' Orient Cuisine,5,5,5,5,2012-07-12,51.526798,-0.284914
94516,La Baguette,5,5,5,5,2014-12-11,51.515519,-0.302056
94517,La Cabana,5,5,0,5,2014-08-13,51.531335,-0.251698
94518,La Cantina,3,10,10,10,2013-07-12,51.511866,-0.305636
94519,LA Confidential,5,5,5,5,2014-06-18,51.51211,-0.305094
94520,La Rueda Grill Bar,3,10,10,10,2014-06-13,51.512288,-0.306183
94521,La Viande,4,10,5,5,2012-07-06,51.508541,-0.265742
94522,Lady Margaret Fish Bar,1,15,10,20,2015-01-20,51.518943,-0.375553
94523,Lady Margaret Primary School,5,5,5,5,2013-10-18,51.524049,-0.374117
94524,Lady Margaret Superstore,4,5,10,5,2011-01-10,51.529466,-0.372425
94525,Laguna Banquet Hall,4,10,0,0,2013-08-30,51.530544,-0.259629
94526,Laguna Super Restaurant Ltd,4,10,5,5,2014-08-05,51.500404,-0.273745
94527,Laguna Tandoori Restaurant,3,10,10,10,2013-01-28,51.511429,-0.314631
94528,Lahore Spice,3,10,10,10,2014-07-17,51.528337,-0.37271
94529,Lahori Bites,3,10,10,10,2014-11-20,51.551316,-0.339033
94530,Lahvina Cafe,2,10,15,10,2011-10-19,51.526684,-0.265529
94531,L'Amandine Cafe,2,15,10,10,2014-10-30,51.501654,-0.307052
94532,Lamar Cafe,2,10,15,10,2013-01-29,51.536396,-0.314905
94533,Larkspur Rovers Football Club,3,10,5,10,2014-07-10,51.550177,-0.379734
94534,Laroash,4,5,10,5,2014-12-01,51.515519,-0.302056
94535,Laveli Bakery,5,5,5,5,2012-07-07,51.508766,-0.26337
94536,Laveli Bakery,4,10,5,5,2012-09-12,51.496207,-0.262998
94537,Lavender Cakes and Crafts,5,0,0,0,2014-05-07,,
94538,Lavins Irish Bar,4,10,5,5,2014-11-14,51.508953,-0.336409
94539,Laziz,3,10,10,10,2013-06-13,51.506442,-0.255216
94540,Le Nid Childcare,4,10,0,10,2014-06-26,51.507906,-0.372055
94541,Le Vacherin,3,10,10,5,2013-06-20,51.496408,-0.264431
94542,Leal Cuisine,5,0,0,0,2014-05-15,51.529538,-0.263921
94543,Leander Cake Company,5,0,0,0,2014-10-10,,
94544,Lebanese Centre,1,15,10,20,2015-01-06,51.526446,-0.267051
94545,Lebanese Village,1,15,15,20,2014-12-15,51.526446,-0.267051
94546,Lele's Cupcakes,4,5,5,10,2012-08-02,,
94547,Leon Cafe,5,0,5,5,2014-07-10,51.499667,-0.306506
94548,Leonards News,Exempt,nan,nan,nan,2013-11-27,51.504644,-0.319261
94549,Leonidas,5,5,5,5,2011-03-16,51.513417,-0.302177
94550,Lewis Pharmacy,Exempt,nan,nan,nan,2010-11-19,51.515519,-0.302056
94551,LF Delta UK,4,0,0,10,2014-03-11,51.513224,-0.248688
94552,Lidl,5,0,0,0,2010-11-16,51.527151,-0.351546
94553,Lidl  Uk Gmbh,5,0,5,0,2009-02-12,51.510628,-0.373168
94554,Lidl Supermarket,5,5,0,0,2011-03-08,51.508625,-0.336767
94555,Lidl UK GmbH,5,5,5,5,2011-08-01,51.509867,-0.324833
94556,Lillies Chinese,4,0,0,10,2014-06-13,51.499151,-0.382063
94557,Lily Fast Foods Cafe Express,3,10,10,10,2014-07-22,51.514867,-0.301691
94558,Limeyard,5,5,5,5,2014-10-09,51.51211,-0.305094
94559,Limpopo Butchers Ltd,4,10,5,5,2014-11-12,51.508601,-0.271662
94560,Links Creche,5,5,5,5,2007-11-26,51.517675,-0.357466
94561,Liplicious Cakes,5,5,0,5,2014-02-20,51.534717,-0.393966
94562,Lisa'S Restaurant,4,5,10,5,2014-09-12,51.525701,-0.316583
94563,Little Acorns Day Nursery,5,5,0,0,2014-09-26,51.512212,-0.309039
94564,Little Angels Day Nursery,5,0,0,5,2013-09-17,51.505238,-0.316775
94565,Little Ealing Convenience Store,3,10,5,10,2014-07-02,51.498431,-0.306221
94566,Little Ealing Primary School,5,5,5,5,2013-06-26,51.498067,-0.308395
94567,Little Eve's Nursery,5,5,5,5,2013-07-02,51.508717,-0.249178
94568,Little Foot Steps Day Nursery Ltd,5,5,5,5,2014-08-07,51.507859,-0.275653
94569,Little Green Thai Kitchen,5,5,5,0,2014-08-05,51.507088,-0.339374
94570,Lloyds Pharmacy,Exempt,nan,nan,nan,2012-07-25,51.508247,-0.280639
94571,Lloyds Pharmacy (Branch 6845),Exempt,nan,nan,nan,2010-10-26,51.507474,-0.273881
94572,Local Express,3,10,5,10,2011-03-17,51.526798,-0.284914
94573,Local's Welcome,4,5,5,10,2014-07-09,51.542488,-0.379704
94574,Lolo Kitchen,5,0,0,0,2014-08-06,51.53372,-0.406588
94575,Londis,2,15,10,10,2012-11-29,51.503517,-0.307199
94576,Londis,1,15,15,20,2014-10-08,51.512593,-0.306777
94577,Londis,4,10,5,5,2010-11-11,51.551734,-0.350168
94578,Londis,3,10,10,10,2012-05-28,51.539795,-0.311131
94579,Londis,5,5,5,5,2011-12-14,51.513589,-0.336788
94580,Londis Local (Triangle Garage),4,5,10,5,2014-01-31,51.504997,-0.377576
94581,London Convenience Store,2,15,10,10,2012-09-13,51.51466,-0.249685
94582,London Cyrenians Housing Ltd,5,0,5,0,2014-02-20,51.510112,-0.261921
94583,London Tigers,AwaitingInspection,nan,nan,nan,,51.538533,-0.353933
94584,London Wasps FC,2,15,0,0,2012-10-15,51.510006,-0.280976
94585,Long Drive Foods,5,5,0,0,2014-08-21,51.542531,-0.356903
94586,Loraine's Kitchen,2,15,15,10,2012-08-24,,
94587,L'Oriental,3,10,10,10,2014-02-06,51.508518,-0.268452
94588,L'Oro di Napoli,5,0,0,0,2015-01-14,51.498431,-0.306221
94589,Lotus House Fish & Chips,3,5,10,10,2014-07-28,51.498468,-0.305643
94590,Loubnan,1,10,15,20,2013-06-14,51.529538,-0.263921
94591,Loubnan Natural Foods Ltd,1,5,10,20,2013-06-14,51.528514,-0.263397
94592,Love It,3,10,10,10,2011-01-31,,
94593,Loving Chocolate,3,5,10,10,2012-09-18,,
94594,Lucky Mart,5,0,5,0,2014-11-21,51.508942,-0.335675
94595,Lucky Pizza,1,20,10,20,2014-12-15,51.498633,-0.392742
94596,Lunch Box,4,5,5,10,2014-09-18,51.539572,-0.308184
94597,Lunch Club,AwaitingInspection,nan,nan,nan,,51.535836,-0.348882
94598,Lunchbreak,AwaitingInspection,nan,nan,nan,,,
94599,Lunchtime Office Catering,2,5,15,10,2012-04-16,51.525752,-0.258457
94600,Luxmy Cash And Carry,3,10,10,10,2014-07-17,51.518943,-0.375553
94601,Ly Hong Ltd,AwaitingInspection,nan,nan,nan,,51.502506,-0.39785
94602,Lynne Harries,4,5,0,10,2011-03-01,51.529538,-0.263921
94603,M & M Polish Delicatessen,3,10,5,10,2011-04-12,51.514357,-0.337063
94604,M & S Simply Food,5,0,0,0,2010-03-16,51.501692,-0.286822
94605,M B Caterers,4,5,5,10,2013-02-18,,
94606,M Fakhouri Patisserie (X04 and F10),3,10,10,10,2010-10-21,51.525752,-0.258457
94607,M Lipowicz & Son,3,10,10,10,2011-04-12,51.529509,-0.293217
94608,Ma Petite Cuisine,5,0,0,0,2014-05-27,,
94609,Maanki News,1,10,5,20,2012-03-20,51.508601,-0.271662
94610,Mackintosh'S Catering,5,5,0,0,2011-11-22,51.525752,-0.258457
94611,Mad4Cakes,5,5,5,5,2011-10-06,51.513988,-0.319969
94612,Mada Becks Ltd,4,5,5,10,2013-06-25,51.526798,-0.284914
94613,Made in Poland,1,15,5,20,2014-08-12,51.526833,-0.261587
94614,Madena Halal Meat,1,15,15,20,2013-03-19,51.52835,-0.352397
94615,Madhura Caterer,4,5,5,10,2012-01-23,51.529538,-0.263921
94616,Madhu's Ltd,5,5,0,5,2013-01-30,51.509725,-0.376097
94617,Magaza Balkan Fine Food,4,5,5,10,2014-06-16,51.50698,-0.246031
94618,Maggies,3,10,10,10,2013-08-23,51.541989,-0.345891
94619,Maggie's,3,5,10,10,2014-02-05,51.512593,-0.306777
94620,Maggies Liquor Mart,2,10,15,5,2014-02-27,51.518943,-0.375553
94621,Magic Corn,2,15,10,10,2012-08-06,51.511254,-0.378074
94622,Magic Corn (stall o/s),3,5,10,10,2012-05-01,51.511257,-0.379616
94623,Maher's Irish Bar,AwaitingInspection,nan,nan,nan,,51.549901,-0.339402
94624,Mahi Store,4,10,5,5,2013-11-11,51.512752,-0.380442
94625,Mai Trading Company Ltd,4,5,5,10,2014-10-23,51.521301,-0.257272
94626,Main & Ward Kitchens And Restaurant,4,10,0,5,2015-01-08,51.506998,-0.346351
94627,Maja Polish Shop,2,0,15,10,2014-11-24,51.541989,-0.345891
94628,Maja Polskie Delikatesy,3,10,10,10,2014-04-07,51.551218,-0.350518
94629,Majestic Wine Warehouse Ltd,Exempt,nan,nan,nan,2010-11-01,51.513429,-0.316733
94630,Makhir Cash & Carry,4,5,5,10,2014-02-21,51.509152,-0.337814
94631,Malik Bashir (stall in front of shop,3,10,10,10,2010-12-10,51.511847,-0.382622
94632,Mama's Nepalese Kitchen,3,10,10,10,2014-08-26,51.504644,-0.319261
94633,Mamma Mia (Unit 52F),3,10,10,10,2014-09-18,51.5128,-0.303007
94634,Manao Off Licence,Exempt,nan,nan,nan,2011-08-25,51.510956,-0.37477
94635,Mandeep News Euro Food & Wine,1,15,15,20,2012-10-24,51.516639,-0.369553
94636,Mandeep News Food & Wine,1,15,15,20,2012-12-06,51.516639,-0.369553
94637,Mandeville Connect,5,0,0,0,2014-02-20,51.546096,-0.371384
94638,Mandeville School,5,0,5,0,2014-02-25,51.55078,-0.336067
94639,Maneet Food & Wine,AwaitingInspection,nan,nan,nan,,51.495146,-0.387635
94640,Manor Cafe,3,5,10,10,2013-08-13,51.496913,-0.325712
94641,Manor Court Nursing Home,5,5,0,0,2015-01-15,51.517903,-0.371208
94642,Maple Moose,3,10,10,10,2014-06-13,51.5128,-0.303007
94643,Maples Children's Centre,5,0,0,0,2014-09-26,51.509301,-0.261822
94644,Marasu's Petits Fours,5,5,0,0,2012-03-09,51.530625,-0.257204
94645,Marc Bakery Ltd,3,10,10,10,2014-09-15,51.538216,-0.322048
94646,Maria Montessori Nursery School,5,0,0,0,2014-11-04,51.522467,-0.287585
94647,Marie-Clare Cooks,AwaitingInspection,nan,nan,nan,,,
94648,Marie'S Store,1,5,5,20,2013-08-22,51.497191,-0.268723
94649,Market Mazury,3,10,10,10,2013-05-02,51.539795,-0.311131
94650,Market Place Health Foods,4,5,5,10,2010-08-18,51.507724,-0.271321
94651,market trader,AwaitingInspection,nan,nan,nan,,,
94652,Marks & Spencer,5,0,0,0,2011-03-23,51.512872,-0.303696
94653,Marron Brule (Unit A56),AwaitingInspection,nan,nan,nan,,51.529538,-0.263921
94654,Martin McColl Ltd,5,5,0,5,2010-11-01,51.514725,-0.319308
94655,Masa Cafe,3,10,10,10,2014-06-23,51.499151,-0.382063
94656,Masala Creations,5,0,5,0,2014-11-11,51.503072,-0.383999
94657,Mashalaha Lahori Cafe,3,10,5,10,2014-08-05,51.511543,-0.378165
94658,Mashallah Lahori Dohi Bhalley,1,0,0,20,2014-08-07,51.511254,-0.378074
94659,Master Chef,4,0,5,10,2013-07-30,51.509938,-0.327915
94660,Mattock Lane Pharmacy,Exempt,nan,nan,nan,2012-11-02,51.509611,-0.317003
94661,Max Catering at Milan Palace,5,5,5,5,2011-10-18,51.503452,-0.380916
94662,Maxim Restaurant,5,5,5,5,2011-03-28,51.502404,-0.316073
94663,Mayar Fish Monger,1,15,10,20,2014-03-18,51.508287,-0.270507
94664,Mayfield Primary School,AwaitingInspection,nan,nan,nan,,51.52069,-0.348032
94665,McAulay Cakes,4,5,5,10,2012-11-28,,
94666,McColl's,Exempt,nan,nan,nan,2014-10-24,51.528278,-0.353683
94667,Mcdonalds,5,5,0,0,2014-03-11,51.506951,-0.270745
94668,Mcdonalds,4,10,0,5,2012-09-10,51.533167,-0.296786
94669,Mcdonalds,5,0,5,5,2014-11-27,51.542523,-0.379645
94670,Mcdonalds,5,0,0,0,2013-03-20,51.512382,-0.383583
94671,Mcdonalds,5,5,0,0,2015-01-19,51.509842,-0.354837
94672,Mcdonalds,5,5,5,5,2012-11-28,51.514019,-0.303985
94673,McDonalds,5,0,5,5,2014-12-09,51.541863,-0.340084
94674,Me Rockley,AwaitingInspection,nan,nan,nan,,51.529475,-0.297082
94675,Meatheads,5,0,0,0,2014-11-27,51.529538,-0.263921
94676,Med Foods,5,0,5,5,2013-08-19,51.542121,-0.361677
94677,Medcliffe Community Day Nursery,5,5,0,0,2014-03-31,51.533103,-0.393648
94678,Medipharmacy,Exempt,nan,nan,nan,2011-11-08,51.518943,-0.375553
94679,Mediterranean Food Products,1,15,15,20,2014-10-14,51.53324,-0.32435
94680,Mediterranean Greek House,2,15,10,10,2014-06-17,51.50868,-0.340022
94681,Medway Fish and Chips,0,20,20,20,2014-12-01,51.534485,-0.33346
94682,Medway Londis,5,5,5,5,2015-01-14,51.534494,-0.332826
94683,Medway News,3,10,10,10,2015-01-14,51.534494,-0.332826
94684,Medway Pharmacy,Exempt,nan,nan,nan,2014-03-10,51.534494,-0.332826
94685,Medway Supermarket,3,10,10,10,2014-07-22,51.534494,-0.332826
94686,Meera Fruit and Veg,4,5,5,10,2012-06-19,51.500691,-0.384184
94687,Meet Food & Wine,3,10,10,10,2012-12-19,51.529942,-0.36334
94688,Meghna Tandoori,0,25,25,30,2014-12-11,51.531502,-0.292364
94689,Mehfil,3,10,10,10,2013-10-29,51.503484,-0.379978
94690,Melrose Daycare Nursery,5,5,0,0,2011-06-23,51.519752,-0.267406
94691,Melroza Cafe,5,5,0,0,2014-08-14,51.508287,-0.270507
94692,MeMo Sandwich Bar & Delicatessen,4,0,10,10,2012-10-30,51.518666,-0.354389
94693,Mental Health Res Unit,5,0,0,0,2012-02-04,51.539504,-0.350768
94694,Meow Meow Cookie,5,0,0,0,2014-06-02,,
94695,Mercato Foods,5,5,0,5,2014-07-08,,
94696,"Merlin Magic Making, Merlin Studios",5,5,5,5,2013-07-29,51.50646,-0.249754
94697,Meryscakes,4,0,0,10,2014-06-04,,
94698,Metro Food & Wine,1,15,15,20,2012-05-03,51.527802,-0.351826
94699,Metro Local Supermarket,3,10,5,10,2013-07-19,51.506474,-0.265849
94700,Mettle Bakery,4,5,10,5,2014-07-11,,
94701,Meza LB,3,5,10,10,2013-10-04,,
94702,Mezopotamya Food Centre,4,10,5,5,2014-02-21,51.528232,-0.35168
94703,Michael Flanders Day Centre,2,15,5,0,2014-11-03,51.506582,-0.271364
94704,Middle East Food Market,1,5,10,20,2012-02-28,51.50844,-0.28275
94705,Midha Wine Stores,Exempt,nan,nan,nan,2012-05-22,51.513049,-0.372001
94706,Midhurst Pharmacy,4,10,5,5,2012-05-09,51.503324,-0.32758
94707,Mieszko Food City,4,0,10,10,2014-07-21,51.556032,-0.33677
94708,Mieszko Food City Limited,4,5,5,10,2014-05-19,51.539795,-0.311131
94709,Milan Palace (Bar),4,5,5,10,2014-09-02,51.503452,-0.380916
94710,Mill Hill Hotel,5,5,5,0,2012-02-12,51.506273,-0.277875
94711,Millennium Food Services Ltd,5,5,5,5,2012-03-19,51.523332,-0.279696
94712,Millennium Health Foods,4,5,5,10,2009-10-09,51.5128,-0.303007
94713,Minals Post Office,4,5,5,10,2012-07-06,51.498111,-0.313926
94714,Mineiro Cafe,3,5,10,10,2012-10-03,51.529538,-0.263921
94715,Ming's Take Away,5,0,0,0,2014-06-05,51.507392,-0.27263
94716,Mini Biedronka,1,10,15,20,2013-08-28,51.508601,-0.271662
94717,Mini Miners Nursery School,AwaitingInspection,nan,nan,nan,,51.502121,-0.268262
94718,Mini Mix,2,15,5,5,2014-06-16,51.510239,-0.287078
94719,Mini Mix (Monolith UK Ltd),4,10,5,5,2014-11-04,51.514168,-0.251087
94720,Mini Punjab,5,5,0,0,2014-02-17,51.499281,-0.379076
94721,Mini Sam,3,10,10,10,2013-08-12,51.51466,-0.249685
94722,Mirch Masala,2,15,10,10,2013-09-06,51.512235,-0.384683
94723,Miroslav Brhel,4,0,5,10,2012-02-28,,
94724,Mithaiwala & Raunka Punjab Diyan,5,5,5,5,2014-07-17,51.529466,-0.372425
94725,Miyo Bento,3,10,10,10,2014-02-21,,
94726,Mleczko Delikatesy,3,10,10,5,2014-03-26,51.501654,-0.307052
94727,Mleczko Delikatesy (Ground Floor),5,5,0,5,2012-11-13,51.508604,-0.338483
94728,Mleczko Delikatesy Ltd,5,0,0,0,2014-04-17,51.507392,-0.27263
94729,Mleczko Polskie Delikatesy,3,5,10,10,2014-02-24,51.530605,-0.363215
94730,Modern Food,3,10,10,10,2014-04-16,51.514867,-0.301691
94731,Mogana Mini Market,3,10,10,10,2012-09-24,51.551734,-0.350168
94732,Mohan Food Store,3,5,10,10,2014-02-24,51.539667,-0.309781
94733,Molana,0,25,20,30,2014-09-08,51.51175,-0.315051
94734,Momento,2,15,5,10,2014-11-20,51.503966,-0.318378
94735,Momo Shop,AwaitingInspection,nan,nan,nan,,,
94736,Momo's,5,5,0,0,2014-07-24,51.518262,-0.290885
94737,Monsoon Banqueting Suite (Bar),3,10,10,10,2012-05-04,51.503452,-0.380916
94738,Monto Superstore,4,5,5,10,2012-06-14,51.497141,-0.305894
94739,Montpelier Primary School,2,15,5,5,2014-02-25,51.523345,-0.301001
94740,Monty's,4,10,0,10,2014-04-25,51.514326,-0.300357
94741,Montys Restaurant,3,10,10,10,2014-08-26,51.503966,-0.318378
94742,Monty's Restaurant,5,5,5,5,2012-06-14,51.494718,-0.305653
94743,Monty's Usha,2,15,15,10,2014-08-08,51.503829,-0.333369
94744,More Munchies,1,15,10,20,2014-12-03,51.506443,-0.254035
94745,Morning Glory Cafe,4,5,5,10,2013-07-03,51.514357,-0.337063
94746,Morrisons,5,0,0,0,2014-03-26,51.509867,-0.324833
94747,Morrisons,5,0,0,0,2012-02-12,51.507927,-0.272913
94748,Morrisons,5,5,5,5,2013-03-27,51.511763,-0.316578
94749,Morrisons,AwaitingInspection,nan,nan,nan,,51.514019,-0.303985
94750,Mo's Fisheries,3,10,10,5,2014-02-24,51.510562,-0.288247
94751,"Mo's Supermarket,",5,5,5,5,2011-12-07,51.525395,-0.364901
94752,Moti Mahal,0,20,20,20,2014-10-07,51.511769,-0.380852
94753,Mount Carmel Rc Primary School,5,5,5,5,2013-06-26,51.498067,-0.308395
94754,Mount Park Montessori,5,0,0,0,2014-06-10,51.526501,-0.312777
94755,Mr Amarit Dhaliwal,3,10,10,10,2012-03-31,51.518202,-0.370001
94756,Mr Anthony Puddle,AwaitingInspection,nan,nan,nan,,51.50966115,-0.32336019
94757,Mr Bap's Catering,3,10,10,10,2012-01-17,,
94758,Mr Harbans Singh Gura,1,15,15,20,2008-08-04,,
94759,Mr Rajmit Khurana,4,5,5,10,2004-04-21,51.512593,-0.306777
94760,Mr Sean Sunderland,AwaitingInspection,nan,nan,nan,,,
94761,Mr Simms The Old Sweet Shopee,4,5,5,10,2010-11-12,51.513417,-0.302177
94762,Mr Singh's Express Curry,3,10,10,10,2013-08-10,,
94763,Mr Stanton (1 Of 3),3,10,10,10,2012-03-31,51.518202,-0.370001
94764,Mr Stanton (2 Of 3),3,10,10,10,2012-03-31,51.518202,-0.370001
94765,Mr Stanton (3 Of 3),3,10,10,10,2012-03-31,51.518202,-0.370001
94766,MRH Southall t/a Malthurst Petroleum,5,5,5,5,2012-04-16,51.509322,-0.351109
94767,Mugi Coffee Bar,5,5,5,5,2012-07-05,51.510239,-0.287078
94768,Muhamed Junaideen Munawar  (stall),4,5,5,10,2013-11-07,51.525395,-0.364901
94769,Muhammad Noman,4,10,5,5,2012-03-31,51.518202,-0.370001
94770,Multi'S,1,20,10,20,2013-07-31,51.501444,-0.285203
94771,Mumbai 2 Go,4,10,5,5,2014-02-01,51.497141,-0.305894
94772,Mums-Exotic-Sauces,4,5,10,5,2011-09-16,51.557965,-0.352019
94773,Mumze Bak-A-Yard Food,4,5,5,10,2011-03-09,,
94774,Munson's,3,10,10,10,2014-07-28,51.505395,-0.304594
94775,Mustang's Nepalese Cuisine,4,10,0,10,2014-10-07,51.498111,-0.313926
94776,My Fair Lady Cakes,4,5,5,10,2012-11-12,,
94777,My Fair Lady Cakes,3,10,10,5,2011-09-07,,
94778,My Old China,5,5,0,5,2012-06-14,51.494718,-0.305653
94779,My Thai,2,15,5,10,2014-12-18,51.526121,-0.314521
94780,Mytime Active,5,5,5,5,2011-06-30,51.532045,-0.333867
94781,Mytime Active,3,10,10,10,2011-11-01,51.549115,-0.323349
94782,N B R Supermarket,5,0,5,0,2011-02-15,51.49695,-0.375038
94783,N P Grocers,2,15,10,10,2013-08-06,51.501627,-0.388156
94784,Nagina,3,5,10,10,2014-01-22,51.510628,-0.373168
94785,Naginas Delicious Chicken,4,10,5,5,2013-05-18,51.510956,-0.37477
94786,Naginas Peri Peri Chicken,2,15,10,10,2013-12-04,51.510628,-0.373168
94787,Najm,4,5,5,10,2012-05-25,51.508942,-0.335675
94788,Nando's,4,10,5,0,2014-10-22,51.510312,-0.288372
94789,Nando's,5,5,5,5,2014-01-27,51.525334,-0.281336
94790,Nando's Restaurant,5,5,0,5,2013-08-27,51.512426,-0.305788
94791,Nargis Tikka Centre,4,0,0,10,2014-09-25,51.504101,-0.379712
94792,Nasib Fish Bar,4,10,0,10,2014-09-11,51.551316,-0.339033
94793,National Autistic Society,3,10,10,5,2012-07-20,51.507,-0.274706
94794,Natural Natural,2,10,15,10,2013-06-24,51.510239,-0.287078
94795,Navarro's Wines,5,5,5,5,2012-01-16,51.526501,-0.312777
94796,Navasartian Centre,Exempt,nan,nan,nan,2011-06-07,51.500501,-0.315077
94797,Neem Tree Care Centre,5,0,0,0,2014-10-28,51.53286,-0.350864
94798,Nells Tuck,4,0,10,10,2014-09-25,,
94799,NEM Petroleum Company Limited,5,5,5,5,2010-02-08,51.514715,-0.268563
94800,Nevins,1,10,10,20,2014-07-28,51.498468,-0.305643
94801,New Ashbourne,AwaitingInspection,nan,nan,nan,,51.528943,-0.292042
94802,New Chocolate Box,2,15,5,5,2014-03-31,51.557656,-0.347919
94803,new convenience store,AwaitingInspection,nan,nan,nan,,51.53044,-0.371972
94804,New Hung Hing,3,10,5,10,2014-09-02,51.542089,-0.346551
94805,New Inn,5,5,5,5,2014-07-11,51.504827,-0.306373
94806,New Leaf Restaurant,4,10,5,0,2012-02-18,51.511866,-0.305636
94807,New Light,Exempt,nan,nan,nan,2012-01-10,51.499667,-0.306506
94808,New Red Sea Restaurant,AwaitingInspection,nan,nan,nan,,51.503452,-0.380916
94809,New Silver Spoon,1,15,15,20,2014-10-07,51.522447,-0.340026
94810,New Source Systems Ltd,3,5,10,10,2013-02-08,,
94811,New Western Meat Market,2,15,10,10,2012-04-18,51.500584,-0.38815
94812,New World College,5,5,5,5,2012-01-31,51.497095,-0.310823
94813,New World Montessori School,3,10,10,10,2012-03-01,51.527028,-0.308173
94814,Newgold Solutions Ltd,5,5,5,0,2013-02-22,51.504997,-0.377576
94815,News & Booze,4,5,5,10,2013-10-25,51.500383,-0.386615
94816,News 100,Exempt,nan,nan,nan,2014-02-20,51.502839,-0.31695
94817,News Box,Exempt,nan,nan,nan,2014-03-02,51.509725,-0.376097
94818,News Centre,Exempt,nan,nan,nan,2013-11-11,51.513049,-0.372001
94819,News Express,Exempt,nan,nan,nan,2014-02-20,51.503966,-0.318378
94820,News Plus,5,0,0,0,2014-02-21,51.542089,-0.346551
94821,Newsfare Off Licence,5,5,5,0,2014-02-25,51.498148,-0.394157
94822,Newslink,Exempt,nan,nan,nan,,51.550249,-0.330966
94823,Nicky's Fruit & Vegetables,4,10,5,5,2013-11-18,51.499667,-0.306506
94824,Nikki Newsagents,Exempt,nan,nan,nan,2013-10-30,51.513224,-0.248688
94825,Nikky's Newsagents & Post Office,Exempt,nan,nan,nan,2011-04-04,51.518943,-0.375553
94826,Nile Lodge,5,5,5,5,2011-03-16,51.522462,-0.310793
94827,Nirala Sweets,1,15,0,20,2014-09-10,51.511847,-0.382622
94828,Nisa Local,4,5,5,10,2014-10-22,51.525737,-0.314693
94829,Nisa Local,4,10,5,5,2015-01-16,51.50868,-0.340022
94830,Nisa Local,5,0,0,0,2014-10-21,51.496519,-0.314532
94831,Nisha Inthiraraj,3,10,5,10,2010-11-29,51.504113,-0.336932
94832,Nishka Newsagents and Post Office,Exempt,nan,nan,nan,2011-03-02,51.539795,-0.311131
94833,No 9 Newsagent,Exempt,nan,nan,nan,2012-11-06,51.513822,-0.303416
94834,Nochia Ltd,2,15,10,10,2012-12-20,51.525752,-0.258457
94835,Noel Road Post Office,Exempt,nan,nan,nan,2014-02-14,51.51778,-0.280669
94836,Nonya Sauces Ltd,1,10,10,20,2014-09-15,51.528457,-0.272915
94837,Noor Mahal,3,10,10,10,2014-09-29,51.511228,-0.384647
94838,North Acton Service Station,3,10,5,10,2012-10-30,51.522932,-0.258723
94839,North China Restaurant,3,10,10,10,2013-08-20,51.508199,-0.277946
94840,North Ealing Primary School,5,0,5,5,2011-11-15,51.526102,-0.317577
94841,North Ealing Supermarket,3,10,5,10,2013-08-09,51.516866,-0.290721
94842,North Greenford United Football Club,5,5,5,5,2014-03-07,51.548473,-0.338906
94843,North Primary School,5,0,5,5,2011-03-08,51.513241,-0.37417
94844,North West London Independent School,5,0,5,0,2012-12-04,51.51466,-0.249685
94845,Northfield Peri Peri & Pizza Villa,AwaitingInspection,nan,nan,nan,,51.500075,-0.315482
94846,Northfield Pharmacy,Exempt,nan,nan,nan,2010-08-20,51.504644,-0.319261
94847,Northfield Station Kiosk,Exempt,nan,nan,nan,2010-11-03,51.500771,-0.315067
94848,Northfield Superstore,1,15,15,20,2014-07-30,51.503398,-0.317074
94849,Northfields Community Centre,Exempt,nan,nan,nan,2014-02-25,51.501324,-0.319182
94850,Northfields Pre School,3,10,10,10,2014-06-30,51.501324,-0.319182
94851,Northolt Express,1,15,10,20,2014-03-06,51.535398,-0.394447
94852,Northolt Golf Club,1,20,0,5,2011-05-19,51.538363,-0.379894
94853,Northolt High School Kitchen,5,0,5,0,2014-02-25,51.55242,-0.376106
94854,Northolt Park SF Connect,5,0,0,5,2014-02-23,51.556423,-0.361351
94855,Northolt Pharmacy,Exempt,nan,nan,nan,2012-02-08,51.544699,-0.373785
94856,Northolt Rugby Football Club,3,10,10,10,2010-03-18,51.535599,-0.338481
94857,Northolt Young Women's Project,Exempt,nan,nan,nan,2010-03-22,51.54347,-0.382438
94858,Norwood Cafe,0,20,15,20,2014-06-13,51.495599,-0.365838
94859,Nosh Cafe,5,0,0,5,2014-07-24,51.526698,-0.26586
94860,Notting Hill & Ealing School,5,0,0,0,2013-09-19,51.521522,-0.316074
94861,Nour,1,10,5,20,2014-04-30,51.506474,-0.265849
94862,NS Caribbean Cuisine,3,10,10,10,2013-08-10,51.507661,-0.271972
94863,Number Works 'N' Words,5,5,5,5,2012-02-28,51.512725,-0.320319
94864,Oaklands Primary School,5,5,5,5,2015-01-20,51.504577,-0.332261
94865,Oaktree Cafe & Kebab,4,5,10,5,2014-11-13,51.535398,-0.394447
94866,Oaktree Community Centre Family Wing,4,10,5,5,2011-02-17,51.502506,-0.273608
94867,Oaktree Community Centre Main Wing,Exempt,nan,nan,nan,2011-02-17,51.502506,-0.273608
94868,O'Briens,4,5,5,10,2014-06-24,51.511253,-0.316093
94869,Occasions,5,5,0,5,2010-09-29,,
94870,Ocean Fresh,4,5,5,10,2014-08-14,51.509938,-0.327915
94871,Ocean Halal Pizza,5,5,0,5,2014-06-20,51.498606,-0.384286
94872,OCS Group UK Ltd,AwaitingInspection,nan,nan,nan,,51.534369,-0.370001
94873,OCS Group UK Ltd,5,0,5,5,2013-08-06,51.555202,-0.338459
94874,OCS Group UK Ltd,AwaitingInspection,nan,nan,nan,,51.50675,-0.272972
94875,OCS Group UK Ltd,5,5,5,5,2013-10-18,51.543494,-0.346096
94876,OCS Group UK Ltd,AwaitingInspection,nan,nan,nan,,51.504997,-0.377576
94877,OCS Group UK Ltd (Tony Hillis Wing),AwaitingInspection,nan,nan,nan,,51.506723,-0.351087
94878,Octopus Food,3,5,10,10,2014-03-03,51.529538,-0.263921
94879,Okawari,1,20,10,10,2014-06-13,51.512426,-0.305788
94880,Old Actonians Sports Club,4,5,5,10,2013-06-27,51.501559,-0.287504
94881,Old Oak Cafe,2,15,15,10,2014-09-08,51.528187,-0.250493
94882,Oldfield Free Church (Baptist),3,10,10,10,2010-11-24,51.551954,-0.341476
94883,Oldfield Lane Newsagent,3,10,10,10,2012-09-21,51.531324,-0.353515
94884,Oldfield Primary School,5,5,5,5,2012-09-25,51.537582,-0.348343
94885,Oldfield Production Kitchen,AwaitingInspection,nan,nan,nan,,51.538188,-0.345437
94886,Oldfield Wines,3,10,10,10,2014-02-18,51.551218,-0.350518
94887,Olivia Pizza & Beijing Noodles,1,15,10,20,2014-03-03,51.529942,-0.36334
94888,Olka Delicatessen,1,10,20,20,2012-05-19,51.507724,-0.271321
94889,Olympia Star,3,10,10,10,2014-03-05,51.505478,-0.319778
94890,Omi's Restaurant,1,15,10,20,2014-09-02,51.507181,-0.379458
94891,One Stop,5,0,0,5,2011-12-09,51.506273,-0.277875
94892,One World Prep School,4,0,5,10,2011-03-11,51.504699,-0.256508
94893,Orange Trailer,5,0,5,0,2009-10-06,,
94894,Orchard House,5,5,5,0,2014-12-02,51.496593,-0.257436
94895,Organic Pizza House,5,0,0,5,2014-10-22,51.526121,-0.314521
94896,Organo Pizza Ltd,5,5,5,5,2012-10-12,51.510284,-0.322541
94897,Oriental Chef,3,10,10,10,2014-08-12,51.54669,-0.36881
94898,Oriental Tree,4,5,10,5,2014-10-21,51.502404,-0.316073
94899,Original Lahori Karahi,3,10,10,10,2014-11-11,51.502231,-0.384331
94900,Orzei Delicatessen,3,10,5,10,2012-10-10,51.507724,-0.271321
94901,Oscars,1,15,10,20,2014-07-11,51.506127,-0.305474
94902,Oscar's Cafe,3,10,10,10,2014-07-22,51.525737,-0.314693
94903,Oscars Peri Peri,4,10,5,5,2014-11-10,51.506853,-0.267132
94904,Osteria Del Portico,3,5,10,10,2014-07-15,51.511024,-0.305192
94905,Osterley Cricket Club,5,5,5,5,2011-03-16,51.5007,-0.361448
94906,Our Lady of the Visitation Primary S,5,0,0,0,2014-03-05,51.525952,-0.352584
94907,Our Lady'S Visitation Hme,1,5,10,20,2010-12-01,51.521505,-0.304918
94908,Oxfam,Exempt,nan,nan,nan,2012-01-16,51.513316,-0.306361
94909,Oxfam Music & Audio,Exempt,nan,nan,nan,2009-10-15,51.511024,-0.305192
94910,Oyster Shell Fish And Chips,5,5,0,5,2011-09-16,51.522691,-0.340709
94911,P J News,Exempt,nan,nan,nan,2010-05-17,51.514934,-0.337172
94912,P K News,2,10,15,10,2012-02-09,51.50698,-0.246031
94913,P M Food & Wine,1,20,5,10,2014-10-24,51.508445,-0.269593
94914,P M Food & Wine,3,10,5,10,2013-08-27,51.508649,-0.264528
94915,Pabulum Catering,5,0,0,0,2014-02-24,51.499981,-0.329633
94916,Pak Kashmir Halal Meat & Groceries,1,15,15,20,2012-05-02,51.499334,-0.391406
94917,Palace of Acton,1,10,10,20,2014-08-18,51.51466,-0.249685
94918,Palm Lounge,1,0,10,20,2014-01-30,51.506402,-0.264642
94919,Pamir Bakery,1,15,15,20,2012-07-03,51.528654,-0.354866
94920,Pan Pizza & China Garden,0,25,25,30,2014-09-08,51.510992,-0.318004
94921,Panini,5,5,5,5,2012-01-26,51.499667,-0.306506
94922,Panji Sweets & Savouries,4,5,5,10,2014-12-17,51.511202,-0.376318
94923,Pan's Bake Shop,3,10,10,10,2014-03-13,51.514357,-0.337063
94924,Paolos Restaurant,3,10,10,10,2014-03-24,51.526798,-0.284914
94925,Papa Chef,5,0,0,0,2014-08-14,,
94926,Papa John's Pizza,4,10,5,5,2014-07-23,51.509938,-0.327915
94927,Papa John'S Pizza,5,5,0,0,2014-09-19,51.545154,-0.372817
94928,Papaya,3,5,10,10,2013-11-15,51.502404,-0.316073
94929,Papaz Grills & Pizzas,1,15,15,20,2014-04-08,51.504101,-0.379712
94930,Paper Shop Uk,1,10,15,20,2012-04-11,51.507938,-0.377587
94931,Paperback,3,10,10,10,2014-04-03,51.498468,-0.305643
94932,Papillon,1,15,10,20,2014-07-30,51.502404,-0.316073
94933,Parade Delicatessen,5,0,0,0,2011-03-23,51.514709,-0.302576
94934,Parade Fruiterers,4,10,5,5,2014-02-20,51.509611,-0.317003
94935,Parade Pharmacy,5,5,5,0,2013-11-25,51.541989,-0.345891
94936,Parishioners Coffee/Mother & Toddler,Exempt,nan,nan,nan,2012-03-29,51.519752,-0.267406
94937,Park & Bridge,5,5,5,5,2013-09-18,51.508416,-0.267029
