,addressline1,addressline2,addressline3,addressline4,businessname,businesstype,businesstypeid,confidenceinmanagement,extractdate,fhrsid,hygiene,itemcount,latitude,localauthoritybusinessid,localauthoritycode,localauthorityemailaddress,localauthorityname,localauthoritywebsite,longitude,postcode,ratingdate,ratingkey,ratingvalue,returncode,schemetype,structural
93397,504 Lady Margaret Road,Southall,,,2 in 1 Pizza,Takeaway/sandwich shop,7844,10,,393214,10,,51.53044000000000,PI/000162115,509,foodsafety@ealing.gov.uk,Ealing,http://www.ealing.gov.uk/info/200798/food_hygiene_and_safety,-0.37197200000000,UB1 2NP,2014-05-30,fhrs_3_en-GB,3,,FHRS,10
93398,34 Haven Green,Ealing,,,2nx,Restaurant/Cafe/Canteen,1,10,,392019,10,,51.51551900000000,PI/000078831,509,foodsafety@ealing.gov.uk,Ealing,http://www.ealing.gov.uk/info/200798/food_hygiene_and_safety,-0.30205600000000,W5 2NX,2011-11-01,fhrs_3_en-GB,3,,FHRS,10
93399,4 Greenford Road,Greenford,,,5 Star Superstore,Retailers - other,4613,20,,590655,15,,51.51866600000000,PI/000173183,509,foodsafety@ealing.gov.uk,Ealing,http://www.ealing.gov.uk/info/200798/food_hygiene_and_safety,-0.35438900000000,UB6 9AT,2013-08-05,fhrs_1_en-GB,1,,FHRS,15
93400,1 The Broadway,Southall,,,56 Bhog,Takeaway/sandwich shop,7844,10,,579291,15,,51.51120200000000,PI/000173123,509,foodsafety@ealing.gov.uk,Ealing,http://www.ealing.gov.uk/info/200798/food_hygiene_and_safety,-0.37631800000000,UB1 1JR,2013-08-01,fhrs_2_en-GB,2,,FHRS,15
93401,H M Foods,Bridge Road,Southall,,7 Day Catering Ltd,Restaurant/Cafe/Canteen,1,5,,393723,0,,51.50409700000000,PI/000169111,509,foodsafety@ealing.gov.uk,Ealing,http://www.ealing.gov.uk/info/200798/food_hygiene_and_safety,-0.37170000000000,UB2 4AB,2011-11-22,fhrs_4_en-GB,4,,FHRS,10
93402,66 Broadway,West Ealing,,,97p Stores,Retailers - other,4613,10,,610257,10,,51.51054700000000,PI/000173335,509,foodsafety@ealing.gov.uk,Ealing,http://www.ealing.gov.uk/info/200798/food_hygiene_and_safety,-0.32524100000000,W13 0SY,2014-02-19,fhrs_3_en-GB,3,,FHRS,10
93403,47 Broadway,West Ealing,,,99p Bakery,Manufacturers/packers,7839,0,,392002,0,,51.50986700000000,PI/000077998,509,foodsafety@ealing.gov.uk,Ealing,http://www.ealing.gov.uk/info/200798/food_hygiene_and_safety,-0.32483300000000,W13 9BP,2014-02-21,fhrs_5_en-GB,5,,FHRS,0
93404,64 Broadway,West Ealing,,,99p Stores,Retailers - other,4613,5,,392175,5,,51.51068400000000,PI/000093379,509,foodsafety@ealing.gov.uk,Ealing,http://www.ealing.gov.uk/info/200798/food_hygiene_and_safety,-0.32223800000000,W13 0SU,2013-11-27,fhrs_4_en-GB,4,,FHRS,10
93405,67 The Broadway,Southall,,,99p Stores,Retailers - other,4613,5,,393219,10,,,PI/000162126,509,foodsafety@ealing.gov.uk,Ealing,http://www.ealing.gov.uk/info/200798/food_hygiene_and_safety,,UB1 1LB,2012-05-29,fhrs_4_en-GB,4,,FHRS,5
93406,Units 3-6,The Oaks Shopping Centre,High Street,Acton,99p Stores,Retailers - other,4613,10,,391673,5,,51.50743800000000,PI/000044019,509,foodsafety@ealing.gov.uk,Ealing,http://www.ealing.gov.uk/info/200798/food_hygiene_and_safety,-0.26960300000000,W3 6RE,2014-02-14,fhrs_3_en-GB,3,,FHRS,10
93407,461 Oldfield Lane North,Greenford,,,A - Z Premier Food And Wine,Retailers - other,4613,10,,391740,10,,51.55002400000000,PI/000054112,509,foodsafety@ealing.gov.uk,Ealing,http://www.ealing.gov.uk/info/200798/food_hygiene_and_safety,-0.34366700000000,UB6 0ES,2011-02-23,fhrs_3_en-GB,3,,FHRS,10
93408,55 Manor Road,West Ealing,,,A 2 Zee's Cafe,Restaurant/Cafe/Canteen,1,10,,393584,5,,51.51377000000000,PI/000168095,509,foodsafety@ealing.gov.uk,Ealing,http://www.ealing.gov.uk/info/200798/food_hygiene_and_safety,-0.32046700000000,W13 0LJ,2014-09-16,fhrs_3_en-GB,3,,FHRS,10
93409,16 Station Parade,Uxbridge Road,Ealing,,A B Butchers,Retailers - other,4613,20,,639863,10,,51.51023900000000,PI/000002749,509,foodsafety@ealing.gov.uk,Ealing,http://www.ealing.gov.uk/info/200798/food_hygiene_and_safety,-0.28707800000000,W5 3LD,2013-06-11,fhrs_1_en-GB,1,,FHRS,15
93410,"Unit E4, Aladdin Workspace",426 Long Drive,Greenford,,A B S Catering Ltd,Other catering premises,7841,0,,393149,5,,51.54319000000000,PI/000157326,509,foodsafety@ealing.gov.uk,Ealing,http://www.ealing.gov.uk/info/200798/food_hygiene_and_safety,-0.35902800000000,UB6 8UH,2012-03-22,fhrs_5_en-GB,5,,FHRS,5
93411,9 Denbigh Road,West Ealing,,,A G Wines,Retailers - other,4613,,,610244,,,51.51617000000000,PI/000055476,509,foodsafety@ealing.gov.uk,Ealing,http://www.ealing.gov.uk/info/200798/food_hygiene_and_safety,-0.31534900000000,W13 8QA,2010-03-16,fhrs_exempt_en-GB,Exempt,,FHRS,
93412,1A-3A Melbourne Avenue,West Ealing,,,A J Luckhurst & Sons,Retailers - other,4613,5,,392419,5,,51.50976700000000,PI/000113290,509,foodsafety@ealing.gov.uk,Ealing,http://www.ealing.gov.uk/info/200798/food_hygiene_and_safety,-0.32477900000000,W13 9BS,2010-11-29,fhrs_5_en-GB,5,,FHRS,5
93413,Unit F03,Acton Business Centre,School Road,Park Royal,A Kayfak,Takeaway/sandwich shop,7844,10,,665323,0,,51.52575200000000,PI/000175696,509,foodsafety@ealing.gov.uk,Ealing,http://www.ealing.gov.uk/info/200798/food_hygiene_and_safety,-0.25845700000000,NW10 6TD,2014-07-10,fhrs_4_en-GB,4,,FHRS,0
93414,,,,,A Piece of Cake Acton,Other catering premises,7841,0,,559838,0,,,PI/000172994,509,foodsafety@ealing.gov.uk,Ealing,http://www.ealing.gov.uk/info/200798/food_hygiene_and_safety,,,2014-06-03,fhrs_5_en-GB,5,,FHRS,0
93415,8 King Street,Southall,,,A Star Liquormart,Retailers - other,4613,,,391521,,,51.50180300000000,PI/000026454,509,foodsafety@ealing.gov.uk,Ealing,http://www.ealing.gov.uk/info/200798/food_hygiene_and_safety,-0.38261700000000,UB2 4DA,2013-10-25,fhrs_exempt_en-GB,Exempt,,FHRS,
93416,51 Grange Park,Ealing,,,Abbey Lodge Hotel,Hotel/bed & breakfast/guest house,7842,10,,392250,10,,51.50846600000000,PI/000099518,509,foodsafety@ealing.gov.uk,Ealing,http://www.ealing.gov.uk/info/200798/food_hygiene_and_safety,-0.29811000000000,W5 3PR,2011-03-04,fhrs_3_en-GB,3,,FHRS,10
93417,233 The Broadway,Southall,,,Abi Fast Food,Takeaway/sandwich shop,7844,10,,393577,10,,51.51263500000000,PI/000168078,509,foodsafety@ealing.gov.uk,Ealing,http://www.ealing.gov.uk/info/200798/food_hygiene_and_safety,-0.38760900000000,UB1 1ND,2014-06-17,fhrs_1_en-GB,1,,FHRS,20
93418,Unit F34,Acton Business Centre,School Road,Park Royal,Abu Afif Sweets Ltd,Manufacturers/packers,7839,5,,393336,5,,51.52575200000000,PI/000162645,509,foodsafety@ealing.gov.uk,Ealing,http://www.ealing.gov.uk/info/200798/food_hygiene_and_safety,-0.25845700000000,NW10 6TD,2010-10-07,fhrs_5_en-GB,5,,FHRS,5
93419,20-22 Broadway,West Ealing,,,Abu Zaad,Restaurant/Cafe/Canteen,1,10,,701486,15,,51.51068400000000,PI/000175824,509,foodsafety@ealing.gov.uk,Ealing,http://www.ealing.gov.uk/info/200798/food_hygiene_and_safety,-0.32223800000000,W13 0SU,2014-10-01,fhrs_2_en-GB,2,,FHRS,15
93420,Clayponds Hospital,Sterling Place,Ealing,,Accuro Catering,Hospitals/Childcare/Caring Premises,5,0,,392575,5,,51.49512400000000,PI/000123822,509,foodsafety@ealing.gov.uk,Ealing,http://www.ealing.gov.uk/info/200798/food_hygiene_and_safety,-0.29891000000000,W5 4RN,2013-12-03,fhrs_5_en-GB,5,,FHRS,5
93421,Kiosk,Express By Holiday Inn,Victoria Road,Acton,Acorn Convenience Store,Retailers - other,4613,10,,392920,10,,,PI/000141086,509,foodsafety@ealing.gov.uk,Ealing,http://www.ealing.gov.uk/info/200798/food_hygiene_and_safety,,W3 6XU,2014-02-20,fhrs_3_en-GB,3,,FHRS,5
93422,241-243 High Street,Acton,,,Acton Bereket Ltd,Retailers - other,4613,,,734450,,,51.50808600000000,PI/000177951,509,foodsafety@ealing.gov.uk,Ealing,http://www.ealing.gov.uk/info/200798/food_hygiene_and_safety,-0.27456400000000,W3 9BY,,fhrs_awaitinginspection_en-GB,AwaitingInspection,,FHRS,
93423,216 Horn Lane,Acton,,,Acton Cafe,Restaurant/Cafe/Canteen,1,5,,579307,10,,51.51638400000000,PI/000173142,509,foodsafety@ealing.gov.uk,Ealing,http://www.ealing.gov.uk/info/200798/food_hygiene_and_safety,-0.26710200000000,W3 6PL,2013-07-29,fhrs_4_en-GB,4,,FHRS,5
93424,Acton Care Centre,48 Gunnersbury Lane,Acton,,Acton Care Centre,Hospitals/Childcare/Caring Premises,5,5,,392447,5,,51.51134600000000,PI/000115024,509,foodsafety@ealing.gov.uk,Ealing,http://www.ealing.gov.uk/info/200798/food_hygiene_and_safety,-0.26791200000000,W3 8EG,2014-10-13,fhrs_4_en-GB,4,,FHRS,10
93425,13 High Street,Acton,,,Acton Charcoal Grill,Takeaway/sandwich shop,7844,10,,392527,10,,51.50640000000000,PI/000119665,509,foodsafety@ealing.gov.uk,Ealing,http://www.ealing.gov.uk/info/200798/food_hygiene_and_safety,-0.26452700000000,W3 6NG,2013-02-05,fhrs_3_en-GB,3,,FHRS,10
93426,177 The Vale,Acton,,,Acton Food & Wine,Retailers - other,4613,20,,610272,10,,51.50640400000000,PI/000173367,509,foodsafety@ealing.gov.uk,Ealing,http://www.ealing.gov.uk/info/200798/food_hygiene_and_safety,-0.25628400000000,W3 7RD,2013-08-28,fhrs_1_en-GB,1,,FHRS,15
93427,270-274 High Street,Acton,,,Acton Food Centre Melgan Ltd,Retailers - other,4613,0,,394027,0,,51.50850200000000,PI/000171238,509,foodsafety@ealing.gov.uk,Ealing,http://www.ealing.gov.uk/info/200798/food_hygiene_and_safety,-0.27591700000000,W3 9BH,2014-12-10,fhrs_5_en-GB,5,,FHRS,5
93428,Gunnersbury Lane,Acton,,,Acton High School,School/college/university,7845,5,,392383,5,,51.50591700000000,PI/000111473,509,foodsafety@ealing.gov.uk,Ealing,http://www.ealing.gov.uk/info/200798/food_hygiene_and_safety,-0.28056800000000,W3 8EY,2013-09-27,fhrs_5_en-GB,5,,FHRS,5
93429,269 High Street,Acton,,,Acton Hill Kebab And Grill,Restaurant/Cafe/Canteen,1,5,,392161,0,,51.50816000000000,PI/000092444,509,foodsafety@ealing.gov.uk,Ealing,http://www.ealing.gov.uk/info/200798/food_hygiene_and_safety,-0.27593000000000,W3 9BT,2014-01-28,fhrs_5_en-GB,5,,FHRS,5
93430,1 Berrymead Gardens,Acton,,,Acton Homeless Concern,Hospitals/Childcare/Caring Premises,5,5,,392286,5,,51.50617500000000,PI/000104794,509,foodsafety@ealing.gov.uk,Ealing,http://www.ealing.gov.uk/info/200798/food_hygiene_and_safety,-0.26934800000000,W3 8AA,2013-07-10,fhrs_5_en-GB,5,,FHRS,5
93431,165 High Street,Acton,,,Acton Newsbox,Retailers - other,4613,,,393512,,,51.50695100000000,PI/000163936,509,foodsafety@ealing.gov.uk,Ealing,http://www.ealing.gov.uk/info/200798/food_hygiene_and_safety,-0.27074500000000,W3 6LP,2013-08-27,fhrs_exempt_en-GB,Exempt,,FHRS,
93432,1-2 Central Parade,Gunnersbury Lane,Acton,,Acton Oriental Stores,Retailers - other,4613,10,,391567,10,,51.50339000000000,PI/000030028,509,foodsafety@ealing.gov.uk,Ealing,http://www.ealing.gov.uk/info/200798/food_hygiene_and_safety,-0.27990000000000,W3 8HL,2012-10-09,fhrs_2_en-GB,2,,FHRS,15
93433,Acton Park Refreshment Pavilion,Acton Park,The Vale,Acton,Acton Park Cafe,Restaurant/Cafe/Canteen,1,5,,579275,5,,51.50665700000000,PI/000173086,509,foodsafety@ealing.gov.uk,Ealing,http://www.ealing.gov.uk/info/200798/food_hygiene_and_safety,-0.25941600000000,W3 7JT,2013-07-19,fhrs_5_en-GB,5,,FHRS,5
93434,Megabowl,Royale Leisure Park,Kendal Avenue,Acton,Acton Tenpin,Restaurant/Cafe/Canteen,1,5,,616671,5,,51.52533400000000,PI/000168287,509,foodsafety@ealing.gov.uk,Ealing,http://www.ealing.gov.uk/info/200798/food_hygiene_and_safety,-0.28133600000000,W3 0PA,2012-03-12,fhrs_5_en-GB,5,,FHRS,0
93435,Acton Town Hotel,109-113 Gunnersbury Lane,Acton,,Acton Town Hotel,Hotel/bed & breakfast/guest house,7842,5,,392496,5,,51.50394200000000,PI/000117409,509,foodsafety@ealing.gov.uk,Ealing,http://www.ealing.gov.uk/info/200798/food_hygiene_and_safety,-0.27953300000000,W3 8HQ,2014-02-20,fhrs_5_en-GB,5,,FHRS,0
93436,2 Berrymead Gardens,Acton,,,Acton United Services Club,Pub/bar/nightclub,7843,10,,392724,10,,51.50617500000000,PI/000132371,509,foodsafety@ealing.gov.uk,Ealing,http://www.ealing.gov.uk/info/200798/food_hygiene_and_safety,-0.26934800000000,W3 8AA,2010-10-20,fhrs_3_en-GB,3,,FHRS,10
93437,Beech Avenue,Acton,,,Acton Vale Community Centre,Other catering premises,7841,,,639868,,,51.50732000000000,PI/000130901,509,foodsafety@ealing.gov.uk,Ealing,http://www.ealing.gov.uk/info/200798/food_hygiene_and_safety,-0.25437600000000,W3 7JZ,2014-05-13,fhrs_exempt_en-GB,Exempt,,FHRS,
93438,Acton Vale Community Centre,Beech Avenue,Acton,,Acton Vale Community Centre Creche,Hospitals/Childcare/Caring Premises,5,0,,392684,5,,51.50732000000000,PI/000130902,509,foodsafety@ealing.gov.uk,Ealing,http://www.ealing.gov.uk/info/200798/food_hygiene_and_safety,-0.25437600000000,W3 7JZ,2011-01-12,fhrs_5_en-GB,5,,FHRS,0
93439,Post Office,125-127 The Vale,Acton,,Acton Vale Sub P/O,Retailers - other,4613,,,392561,,,51.50644300000000,PI/000123158,509,foodsafety@ealing.gov.uk,Ealing,http://www.ealing.gov.uk/info/200798/food_hygiene_and_safety,-0.25403500000000,W3 7RQ,2011-01-14,fhrs_exempt_en-GB,Exempt,,FHRS,
93440,The Pavilion,Alwyn Gardens,Acton,,Acton Village Social Club,Pub/bar/nightclub,7843,10,,391301,10,,51.51783000000000,PI/000002425,509,foodsafety@ealing.gov.uk,Ealing,http://www.ealing.gov.uk/info/200798/food_hygiene_and_safety,-0.27553600000000,W3 0JH,2010-03-10,fhrs_3_en-GB,3,,FHRS,5
93441,Acton Railway Station,Horn Lane,Acton,,Acton Yard Canteen,Restaurant/Cafe/Canteen,1,10,,534063,5,,51.51693900000000,PI/000172565,509,foodsafety@ealing.gov.uk,Ealing,http://www.ealing.gov.uk/info/200798/food_hygiene_and_safety,-0.26692200000000,W3 9EH,2013-05-01,fhrs_4_en-GB,4,,FHRS,5
93442,Maeda Gakuen Japanese School,Sports Ground,Queens Drive,Acton,Acton Yochien,Hospitals/Childcare/Caring Premises,5,,,410699,,,51.51809400000000,PI/000135462,509,foodsafety@ealing.gov.uk,Ealing,http://www.ealing.gov.uk/info/200798/food_hygiene_and_safety,-0.28681200000000,W3 0HT,,fhrs_awaitinginspection_en-GB,AwaitingInspection,,FHRS,
93443,28 Park Royal Road,Park Royal,,,Addictive,Pub/bar/nightclub,7843,10,,392433,10,,51.52644600000000,PI/000114401,509,foodsafety@ealing.gov.uk,Ealing,http://www.ealing.gov.uk/info/200798/food_hygiene_and_safety,-0.26705100000000,NW10 7JW,2012-01-13,fhrs_3_en-GB,3,,FHRS,10
93444,490 Lady Margaret Road,Southall,,,Adil Halal Meat & Fresh Fish,Retailers - other,4613,0,,639878,0,,51.53044000000000,PI/000175234,509,foodsafety@ealing.gov.uk,Ealing,http://www.ealing.gov.uk/info/200798/food_hygiene_and_safety,-0.37197200000000,UB1 2NP,2014-03-28,fhrs_5_en-GB,5,,FHRS,0
93445,20 Crown Street,Acton,,,Adnaan Superstore,Retailers - other,4613,10,,393043,10,,51.50747400000000,PI/000147614,509,foodsafety@ealing.gov.uk,Ealing,http://www.ealing.gov.uk/info/200798/food_hygiene_and_safety,-0.27388100000000,W3 8SA,2013-08-27,fhrs_2_en-GB,2,,FHRS,15
93446,The Aeronaut,264 High Street,Acton,,Aeronaut,Pub/bar/nightclub,7843,10,,569990,10,,51.50850200000000,PI/000173065,509,foodsafety@ealing.gov.uk,Ealing,http://www.ealing.gov.uk/info/200798/food_hygiene_and_safety,-0.27591700000000,W3 9BH,2014-01-30,fhrs_2_en-GB,2,,FHRS,15
93447,5 Central Parade,1-4 Western Avenue,Perivale,,Afendi,Restaurant/Cafe/Canteen,1,,,515877,,,51.53324000000000,PI/000172542,509,foodsafety@ealing.gov.uk,Ealing,http://www.ealing.gov.uk/info/200798/food_hygiene_and_safety,-0.32435000000000,UB6 8TF,,fhrs_awaitinginspection_en-GB,AwaitingInspection,,FHRS,
93448,46 Haven Green,Ealing,,,Afters Original,Other catering premises,7841,,,722715,,,51.51551900000000,PI/000177879,509,foodsafety@ealing.gov.uk,Ealing,http://www.ealing.gov.uk/info/200798/food_hygiene_and_safety,-0.30205600000000,W5 2NX,,fhrs_awaitinginspection_en-GB,AwaitingInspection,,FHRS,
93449,All Hallows Church,Horsenden Lane North,Greenford,,Agape Kidz Club,Hospitals/Childcare/Caring Premises,5,,,616652,,,51.55107200000000,PI/000114155,509,foodsafety@ealing.gov.uk,Ealing,http://www.ealing.gov.uk/info/200798/food_hygiene_and_safety,-0.33386400000000,UB6 0PD,,fhrs_awaitinginspection_en-GB,AwaitingInspection,,FHRS,
93450,St Marys Church Hall,Brentmead Gardens,Park Royal,,Age Concern Day Cantre,Hospitals/Childcare/Caring Premises,5,,,579279,,,51.53495300000000,PI/000173091,509,foodsafety@ealing.gov.uk,Ealing,http://www.ealing.gov.uk/info/200798/food_hygiene_and_safety,-0.28730400000000,NW10 7ED,,fhrs_exempt_en-GB,Exempt,,FHRS,
93451,Antilles House,1 Friary Road,Acton,,Age Concern Day Centre,Hospitals/Childcare/Caring Premises,5,,,579276,,,51.51650500000000,PI/000173088,509,foodsafety@ealing.gov.uk,Ealing,http://www.ealing.gov.uk/info/200798/food_hygiene_and_safety,-0.26252800000000,W3 6AE,2014-06-02,fhrs_exempt_en-GB,Exempt,,FHRS,
93452,O'grady Court,Melbourne Avenue,West Ealing,,Age Concern Day Centre,Hospitals/Childcare/Caring Premises,5,,,393322,,,51.50946100000000,PI/000162593,509,foodsafety@ealing.gov.uk,Ealing,http://www.ealing.gov.uk/info/200798/food_hygiene_and_safety,-0.32476200000000,W13 9BY,2013-10-23,fhrs_exempt_en-GB,Exempt,,FHRS,
93453,Greenford Community Centre,170 Oldfield Lane South,Greenford,,Age UK Day Centre,Hospitals/Childcare/Caring Premises,5,,,579278,,,51.53583600000000,PI/000173090,509,foodsafety@ealing.gov.uk,Ealing,http://www.ealing.gov.uk/info/200798/food_hygiene_and_safety,-0.34888200000000,UB6 9JS,2014-06-05,fhrs_exempt_en-GB,Exempt,,FHRS,
93454,Northolt Village Community Centre,Ealing Road,Northolt,,Age UK Day Centre,Hospitals/Childcare/Caring Premises,5,,,579277,,,51.54396000000000,PI/000173089,509,foodsafety@ealing.gov.uk,Ealing,http://www.ealing.gov.uk/info/200798/food_hygiene_and_safety,-0.37107100000000,UB5 6AD,2014-06-10,fhrs_exempt_en-GB,Exempt,,FHRS,
93455,Unit 1,115-119 The Broadway,Southall,,Agha Pan & Music Zone,Retailers - other,4613,10,,393085,10,,51.51163700000000,PI/000150607,509,foodsafety@ealing.gov.uk,Ealing,http://www.ealing.gov.uk/info/200798/food_hygiene_and_safety,-0.38175000000000,UB1 1LW,2013-11-22,fhrs_3_en-GB,3,,FHRS,10
93456,157 The Broadway,Southall,,,Agha Spice,Restaurant/Cafe/Canteen,1,20,,653566,15,,51.51184700000000,PI/000175576,509,foodsafety@ealing.gov.uk,Ealing,http://www.ealing.gov.uk/info/200798/food_hygiene_and_safety,-0.38262200000000,UB1 1LP,2014-08-05,fhrs_1_en-GB,1,,FHRS,5
93457,61 Shadwell Drive,Northolt,,,AHG Off Licence,Retailers - other,4613,20,,569969,5,,51.53461700000000,PI/000172963,509,foodsafety@ealing.gov.uk,Ealing,http://www.ealing.gov.uk/info/200798/food_hygiene_and_safety,-0.37622000000000,UB5 6DD,2014-04-01,fhrs_1_en-GB,1,,FHRS,15
93458,,,,,Ahlam's Cupcake Corner,Manufacturers/packers,7839,0,,616704,0,,,PI/000174597,509,foodsafety@ealing.gov.uk,Ealing,http://www.ealing.gov.uk/info/200798/food_hygiene_and_safety,,,2014-05-29,fhrs_5_en-GB,5,,FHRS,0
93459,Unit Y09,Acton Business Centre,School Road,Park Royal,A-Jobs London Ltd,Manufacturers/packers,7839,,,590649,,,51.52575200000000,PI/000173174,509,foodsafety@ealing.gov.uk,Ealing,http://www.ealing.gov.uk/info/200798/food_hygiene_and_safety,-0.25845700000000,NW10 6TD,,fhrs_awaitinginspection_en-GB,AwaitingInspection,,FHRS,
93460,Grange Primary School And Children's Centre,Church Gardens,Ealing,,Aktiva Camps @ Grange Primary School,Hospitals/Childcare/Caring Premises,5,5,,410723,5,,51.50390700000000,PI/000171417,509,foodsafety@ealing.gov.uk,Ealing,http://www.ealing.gov.uk/info/200798/food_hygiene_and_safety,-0.30557100000000,W5 4HN,2013-06-27,fhrs_5_en-GB,5,,FHRS,5
93461,Little Ealing Primary School,Weymouth Avenue,Ealing,,Aktiva Camps Ltd @ Little Ealing,Hospitals/Childcare/Caring Premises,5,5,,410725,5,,51.49806700000000,PI/000171419,509,foodsafety@ealing.gov.uk,Ealing,http://www.ealing.gov.uk/info/200798/food_hygiene_and_safety,-0.30839500000000,W5 4EA,2013-06-26,fhrs_5_en-GB,5,,FHRS,5
93462,Mount Carmel Rc Primary School,Little Ealing Lane,Ealing,,Aktiva Camps Ltd @ Mount Carmel,Hospitals/Childcare/Caring Premises,5,5,,410724,5,,51.49806700000000,PI/000171418,509,foodsafety@ealing.gov.uk,Ealing,http://www.ealing.gov.uk/info/200798/food_hygiene_and_safety,-0.30839500000000,W5 4EA,2013-06-26,fhrs_5_en-GB,5,,FHRS,5
93463,30-32 Crown Street,Acton,,,Al Basrah,Restaurant/Cafe/Canteen,1,30,,711740,25,,51.50712600000000,PI/000177814,509,foodsafety@ealing.gov.uk,Ealing,http://www.ealing.gov.uk/info/200798/food_hygiene_and_safety,-0.27347600000000,W3 8SB,2014-12-02,fhrs_0_en-GB,0,,FHRS,25
93464,4-6 Chignell Place,West Ealing,,,Al Cafe Shop,Restaurant/Cafe/Canteen,1,20,,665301,10,,51.51022700000000,PI/000175663,509,foodsafety@ealing.gov.uk,Ealing,http://www.ealing.gov.uk/info/200798/food_hygiene_and_safety,-0.32614600000000,W13 0TJ,2014-06-19,fhrs_1_en-GB,1,,FHRS,10
93465,Unit F32,Acton Business Centre,School Road,Park Royal,Al Enam Ltd,Manufacturers/packers,7839,20,,393233,15,,51.52575200000000,PI/000162177,509,foodsafety@ealing.gov.uk,Ealing,http://www.ealing.gov.uk/info/200798/food_hygiene_and_safety,-0.25845700000000,NW10 6TD,2014-10-02,fhrs_1_en-GB,1,,FHRS,15
93466,147 The Broadway,Southall,,,Al Haad,Restaurant/Cafe/Canteen,1,10,,391506,15,,51.51184700000000,PI/000025375,509,foodsafety@ealing.gov.uk,Ealing,http://www.ealing.gov.uk/info/200798/food_hygiene_and_safety,-0.38262200000000,UB1 1LP,2014-07-08,fhrs_2_en-GB,2,,FHRS,15
93467,Unit F01,Acton Business Centre,School Road,Park Royal,Al Jabal Bakeries,Manufacturers/packers,7839,20,,392954,10,,51.52575200000000,PI/000142702,509,foodsafety@ealing.gov.uk,Ealing,http://www.ealing.gov.uk/info/200798/food_hygiene_and_safety,-0.25845700000000,NW10 6TD,2014-03-24,fhrs_1_en-GB,1,,FHRS,10
93468,Ground Floor Shop,88 Broadway,West Ealing,,Al Jazeera,Takeaway/sandwich shop,7844,10,,610292,10,,51.51064000000000,PI/000174537,509,foodsafety@ealing.gov.uk,Ealing,http://www.ealing.gov.uk/info/200798/food_hygiene_and_safety,-0.32481900000000,W13 0SG,2015-01-07,fhrs_3_en-GB,3,,FHRS,10
93469,166 High Street,Acton,,,Al Noor,Retailers - other,4613,20,,392673,10,,51.50731900000000,PI/000130390,509,foodsafety@ealing.gov.uk,Ealing,http://www.ealing.gov.uk/info/200798/food_hygiene_and_safety,-0.27073100000000,W3 6QZ,2014-11-07,fhrs_1_en-GB,1,,FHRS,15
93470,58 Broadway,West Ealing,,,Al Panini Cafe Bar,Restaurant/Cafe/Canteen,1,10,,392246,10,,51.51068400000000,PI/000098980,509,foodsafety@ealing.gov.uk,Ealing,http://www.ealing.gov.uk/info/200798/food_hygiene_and_safety,-0.32223800000000,W13 0SU,2014-02-28,fhrs_3_en-GB,3,,FHRS,10
93471,12 Queens Parade,Hanger Lane,Ealing,,Al Saadah,Retailers - other,4613,10,,391562,10,,51.51686600000000,PI/000029723,509,foodsafety@ealing.gov.uk,Ealing,http://www.ealing.gov.uk/info/200798/food_hygiene_and_safety,-0.29072100000000,W5 3HU,2013-06-24,fhrs_3_en-GB,3,,FHRS,10
93472,Ground Floor Shop,88 Broadway,West Ealing,,Al Shorjah,Retailers - other,4613,10,,393365,15,,51.51064000000000,PI/000162775,509,foodsafety@ealing.gov.uk,Ealing,http://www.ealing.gov.uk/info/200798/food_hygiene_and_safety,-0.32481900000000,W13 0SG,2014-07-23,fhrs_2_en-GB,2,,FHRS,15
93473,Greenford Roundabout Garage,Western Avenue,Greenford,,Alahma Ltd,Retailers - other,4613,10,,393046,10,,51.53499600000000,PI/000147804,509,foodsafety@ealing.gov.uk,Ealing,http://www.ealing.gov.uk/info/200798/food_hygiene_and_safety,-0.34667800000000,UB6 8ST,2014-02-27,fhrs_3_en-GB,3,,FHRS,5
93474,185 Greenford Road,Greenford,,,Albaraka Supermarket,Retailers - other,4613,20,,665279,10,,51.52835000000000,PI/000175644,509,foodsafety@ealing.gov.uk,Ealing,http://www.ealing.gov.uk/info/200798/food_hygiene_and_safety,-0.35239700000000,UB6 8QY,2014-07-03,fhrs_1_en-GB,1,,FHRS,15
93475,123 The Broadway,Southall,,,Alchem Pharmacy,Retailers - other,4613,,,391508,,,51.51163700000000,PI/000025384,509,foodsafety@ealing.gov.uk,Ealing,http://www.ealing.gov.uk/info/200798/food_hygiene_and_safety,-0.38175000000000,UB1 1LW,2010-04-16,fhrs_exempt_en-GB,Exempt,,FHRS,
93476,Bengarth Road,Northolt,,,Alec Reed Academy,School/college/university,7845,0,,392729,0,,51.53352400000000,PI/000132654,509,foodsafety@ealing.gov.uk,Ealing,http://www.ealing.gov.uk/info/200798/food_hygiene_and_safety,-0.40340800000000,UB5 6LQ,2014-07-15,fhrs_5_en-GB,5,,FHRS,0
93477,3B Walmgate Road,Perivale,,,Alex Matis - Burger Van,Mobile caterer,7846,10,,393086,0,,,PI/000150751,509,foodsafety@ealing.gov.uk,Ealing,http://www.ealing.gov.uk/info/200798/food_hygiene_and_safety,,UB6 7NB,2014-09-18,fhrs_4_en-GB,4,,FHRS,0
93478,91 Greenford Avenue,Hanwell,,,Alfie's Real Fish & Chips,Takeaway/sandwich shop,7844,10,,504261,5,,51.51610700000000,PI/000172370,509,foodsafety@ealing.gov.uk,Ealing,http://www.ealing.gov.uk/info/200798/food_hygiene_and_safety,-0.33741700000000,W7 1HA,2014-03-13,fhrs_4_en-GB,4,,FHRS,5
93479,16 North Parade,North Road,Southall,,Ali Meat Market & Ahmadzai Food Ltd,Retailers - other,4613,10,,392350,10,,51.51685300000000,PI/000110730,509,foodsafety@ealing.gov.uk,Ealing,http://www.ealing.gov.uk/info/200798/food_hygiene_and_safety,-0.37140400000000,UB1 2LF,2014-03-03,fhrs_3_en-GB,3,,FHRS,5
93480,197 Lady Margaret Road,Southall,,,Ali's Fast Food,Restaurant/Cafe/Canteen,1,20,,721955,15,,51.51894300000000,PI/000177852,509,foodsafety@ealing.gov.uk,Ealing,http://www.ealing.gov.uk/info/200798/food_hygiene_and_safety,-0.37555300000000,UB1 2PT,2014-07-17,fhrs_1_en-GB,1,,FHRS,15
93481,79 Beaconsfield Road,Southall,,,Ali's Fast Food,Takeaway/sandwich shop,7844,20,,639879,10,,51.50750200000000,PI/000175236,509,foodsafety@ealing.gov.uk,Ealing,http://www.ealing.gov.uk/info/200798/food_hygiene_and_safety,-0.38316500000000,UB1 1BU,2014-09-11,fhrs_1_en-GB,1,,FHRS,15
93482,257 Acton Lane,Chiswick,,,Alisha Pharmacy,Retailers - other,4613,,,392418,,,51.50182000000000,PI/000113170,509,foodsafety@ealing.gov.uk,Ealing,http://www.ealing.gov.uk/info/200798/food_hygiene_and_safety,-0.26552200000000,W4 5DG,2010-09-13,fhrs_exempt_en-GB,Exempt,,FHRS,
93483,20 Acton Park Estate,The Vale,Acton,,Alistair Hugo Catering,Other catering premises,7841,10,,393295,10,,51.50480100000000,PI/000162432,509,foodsafety@ealing.gov.uk,Ealing,http://www.ealing.gov.uk/info/200798/food_hygiene_and_safety,-0.25733900000000,W3 7QE,2014-08-28,fhrs_3_en-GB,3,,FHRS,10
93484,307 Elveden Road,Park Royal,,,Al-Istaqamah Learning Centre,School/college/university,7845,10,,559855,5,,51.53620900000000,PI/000173029,509,foodsafety@ealing.gov.uk,Ealing,http://www.ealing.gov.uk/info/200798/food_hygiene_and_safety,-0.28219500000000,NW10 7ST,2013-10-04,fhrs_4_en-GB,4,,FHRS,5
93485,127-129 High Street,Acton,,,All 2 One,Retailers - other,4613,10,,392990,10,,51.50659100000000,PI/000143916,509,foodsafety@ealing.gov.uk,Ealing,http://www.ealing.gov.uk/info/200798/food_hygiene_and_safety,-0.26891400000000,W3 6LY,2012-10-10,fhrs_2_en-GB,2,,FHRS,15
93486,Shop And Premises,247-249 Allenby Road,Southall,,Allenby News,Retailers - other,4613,0,,639944,0,,51.52421100000000,PI/000175507,509,foodsafety@ealing.gov.uk,Ealing,http://www.ealing.gov.uk/info/200798/food_hygiene_and_safety,-0.36441000000000,UB1 2HB,2014-03-28,fhrs_5_en-GB,5,,FHRS,0
93487,Allenby Road,Southall,,,Allenby Primary School,School/college/university,7845,5,,392707,5,,51.51999200000000,PI/000132295,509,foodsafety@ealing.gov.uk,Ealing,http://www.ealing.gov.uk/info/200798/food_hygiene_and_safety,-0.36559900000000,UB1 2HX,2011-03-22,fhrs_5_en-GB,5,,FHRS,5
93488,235 Allenby Road,Southall,,,Allenby Superstore,Retailers - other,4613,10,,393901,10,,51.52421100000000,PI/000170957,509,foodsafety@ealing.gov.uk,Ealing,http://www.ealing.gov.uk/info/200798/food_hygiene_and_safety,-0.36441000000000,UB1 2HB,2012-02-25,fhrs_3_en-GB,3,,FHRS,10
93489,61 The Broadway,Southall,,,Alliance Pharmacy,Retailers - other,4613,,,392752,,,51.51125400000000,PI/000133881,509,foodsafety@ealing.gov.uk,Ealing,http://www.ealing.gov.uk/info/200798/food_hygiene_and_safety,-0.37807400000000,UB1 1JY,2014-02-24,fhrs_exempt_en-GB,Exempt,,FHRS,
93490,117-119 The Broadway,Southall,,,All-U-Need,Retailers - other,4613,,,393720,,,51.51163700000000,PI/000169104,509,foodsafety@ealing.gov.uk,Ealing,http://www.ealing.gov.uk/info/200798/food_hygiene_and_safety,-0.38175000000000,UB1 1LW,2011-06-13,fhrs_exempt_en-GB,Exempt,,FHRS,
93491,480 Church Road,Northolt,,,Alpha Chemist,Retailers - other,4613,,,391662,,,51.53752400000000,PI/000043470,509,foodsafety@ealing.gov.uk,Ealing,http://www.ealing.gov.uk/info/200798/food_hygiene_and_safety,-0.38944000000000,UB5 5AU,2014-02-22,fhrs_exempt_en-GB,Exempt,,FHRS,
93492,140 Churchfield Road,Acton,,,Al-Rafidain Super Market,Retailers - other,4613,30,,721949,20,,51.50828700000000,PI/000177842,509,foodsafety@ealing.gov.uk,Ealing,http://www.ealing.gov.uk/info/200798/food_hygiene_and_safety,-0.27050700000000,W3 6BS,2014-08-13,fhrs_0_en-GB,0,,FHRS,20
93493,63 King Street,Southall,,,Al-Rehman,Retailers - other,4613,20,,534085,20,,51.50053700000000,PI/000172590,509,foodsafety@ealing.gov.uk,Ealing,http://www.ealing.gov.uk/info/200798/food_hygiene_and_safety,-0.38274800000000,UB2 4DQ,2014-06-05,fhrs_0_en-GB,0,,FHRS,20
93494,163 Church Road,Northolt,,,Alshamiyat Supermarket,Retailers - supermarkets/hypermarkets,7840,20,,579299,15,,51.54327000000000,PI/000173133,509,foodsafety@ealing.gov.uk,Ealing,http://www.ealing.gov.uk/info/200798/food_hygiene_and_safety,-0.37640300000000,UB5 5AG,2013-10-02,fhrs_1_en-GB,1,,FHRS,15
93495,3 St Johns Parade,Mattock Lane,West Ealing,,Amalfi Caffe,Restaurant/Cafe/Canteen,1,10,,639906,5,,51.50961100000000,PI/000175450,509,foodsafety@ealing.gov.uk,Ealing,http://www.ealing.gov.uk/info/200798/food_hygiene_and_safety,-0.31700300000000,W13 9LL,2014-06-24,fhrs_3_en-GB,3,,FHRS,10
93496,24 Norwood Road,Southall,,,Aman Grape Food & Wine,Retailers - other,4613,10,,391375,10,,51.49915100000000,PI/000009025,509,foodsafety@ealing.gov.uk,Ealing,http://www.ealing.gov.uk/info/200798/food_hygiene_and_safety,-0.38206300000000,UB2 4DL,2011-07-21,fhrs_3_en-GB,3,,FHRS,10
93497,327 Horn Lane,Acton,,,Aman News,Retailers - other,4613,10,,392489,0,,51.51902700000000,PI/000117082,509,foodsafety@ealing.gov.uk,Ealing,http://www.ealing.gov.uk/info/200798/food_hygiene_and_safety,-0.26584800000000,W3 0BU,2014-05-14,fhrs_4_en-GB,4,,FHRS,0
93498,12 Wadsworth Road,Perivale,,,Amasi Cafe,Restaurant/Cafe/Canteen,1,10,,393664,0,,51.53639600000000,PI/000168264,509,foodsafety@ealing.gov.uk,Ealing,http://www.ealing.gov.uk/info/200798/food_hygiene_and_safety,-0.31490500000000,UB6 7JD,2014-03-22,fhrs_4_en-GB,4,,FHRS,0
93499,315 Horn Lane,Acton,,,Amazing Wok,Restaurant/Cafe/Canteen,1,5,,393376,5,,51.51902700000000,PI/000162800,509,foodsafety@ealing.gov.uk,Ealing,http://www.ealing.gov.uk/info/200798/food_hygiene_and_safety,-0.26584800000000,W3 0BU,2011-03-02,fhrs_5_en-GB,5,,FHRS,5
93500,107 The Broadway,Southall,,,Ambala Sweet Centre,Manufacturers/packers,7839,5,,391512,5,,51.51142500000000,PI/000025590,509,foodsafety@ealing.gov.uk,Ealing,http://www.ealing.gov.uk/info/200798/food_hygiene_and_safety,-0.38073400000000,UB1 1LN,2014-02-25,fhrs_5_en-GB,5,,FHRS,5
93501,56-58 The Broadway,Greenford,,,Ambiha Stores,Retailers - other,4613,10,,392613,10,,51.52865400000000,PI/000127718,509,foodsafety@ealing.gov.uk,Ealing,http://www.ealing.gov.uk/info/200798/food_hygiene_and_safety,-0.35486600000000,UB6 9QA,2012-10-05,fhrs_2_en-GB,2,,FHRS,15
93502,Part Ground And First Floor,1261-1265 Greenford Road,Greenford,,Ambrosia,Pub/bar/nightclub,7843,10,,493584,10,,51.55603200000000,PI/000172358,509,foodsafety@ealing.gov.uk,Ealing,http://www.ealing.gov.uk/info/200798/food_hygiene_and_safety,-0.33677000000000,UB6 0HY,2014-07-03,fhrs_3_en-GB,3,,FHRS,10
93503,168 Broadway,West Ealing,,,AMC Minimarket,Retailers - other,4613,10,,391992,10,,51.50993800000000,PI/000077635,509,foodsafety@ealing.gov.uk,Ealing,http://www.ealing.gov.uk/info/200798/food_hygiene_and_safety,-0.32791500000000,W13 0TL,2012-07-06,fhrs_3_en-GB,3,,FHRS,5
93504,39 Minerva Road,Park Royal,,,American Muffin Co,Manufacturers/packers,7839,,,392757,,,51.52953800000000,PI/000134521,509,foodsafety@ealing.gov.uk,Ealing,http://www.ealing.gov.uk/info/200798/food_hygiene_and_safety,-0.26392100000000,NW10 6HJ,2013-10-02,fhrs_exempt_en-GB,Exempt,,FHRS,
93505,253 High Street,Acton,,,Amigos,Restaurant/Cafe/Canteen,1,20,,393596,15,,51.50808600000000,PI/000168128,509,foodsafety@ealing.gov.uk,Ealing,http://www.ealing.gov.uk/info/200798/food_hygiene_and_safety,-0.27456400000000,W3 9BY,2014-10-10,fhrs_1_en-GB,1,,FHRS,15
93506,501 Yeading Lane,Northolt,,,Amir Halal Foods Ltd,Retailers - other,4613,10,,393257,10,,51.53539800000000,PI/000162288,509,foodsafety@ealing.gov.uk,Ealing,http://www.ealing.gov.uk/info/200798/food_hygiene_and_safety,-0.39444700000000,UB5 6LN,2012-08-22,fhrs_3_en-GB,3,,FHRS,10
93507,80C High Street,Acton,,,Amira,Restaurant/Cafe/Canteen,1,10,,711722,10,,51.50691000000000,PI/000177772,509,foodsafety@ealing.gov.uk,Ealing,http://www.ealing.gov.uk/info/200798/food_hygiene_and_safety,-0.26860000000000,W3 6QX,2014-11-10,fhrs_3_en-GB,3,,FHRS,10
93508,156 The Broadway,Southall,,,Amjad Cuisine,Restaurant/Cafe/Canteen,1,5,,391493,10,,51.51235100000000,PI/000024132,509,foodsafety@ealing.gov.uk,Ealing,http://www.ealing.gov.uk/info/200798/food_hygiene_and_safety,-0.38329600000000,UB1 1NN,2011-06-07,fhrs_4_en-GB,4,,FHRS,0
93509,15 Trading Estate Road,Park Royal,,,Ammoura Ltd,Manufacturers/packers,7839,5,,393507,10,,51.52648800000000,PI/000163915,509,foodsafety@ealing.gov.uk,Ealing,http://www.ealing.gov.uk/info/200798/food_hygiene_and_safety,-0.26869300000000,NW10 7LU,2012-05-21,fhrs_3_en-GB,3,,FHRS,10
93510,125 Uxbridge Road,West Ealing,,,Amran Grill & Pizza,Restaurant/Cafe/Canteen,1,5,,493581,5,,51.51125300000000,PI/000172346,509,foodsafety@ealing.gov.uk,Ealing,http://www.ealing.gov.uk/info/200798/food_hygiene_and_safety,-0.31609300000000,W13 9AU,2014-09-29,fhrs_4_en-GB,4,,FHRS,10
93511,,,,,Amy Christine Taillefer-Temple,Manufacturers/packers,7839,,,460239,,,,PI/000172117,509,foodsafety@ealing.gov.uk,Ealing,http://www.ealing.gov.uk/info/200798/food_hygiene_and_safety,,,,fhrs_awaitinginspection_en-GB,AwaitingInspection,,FHRS,
93512,122 Ruislip Road,Greenford,,,Amys Cafe,Restaurant/Cafe/Canteen,1,5,,391593,5,,51.53086100000000,PI/000033105,509,foodsafety@ealing.gov.uk,Ealing,http://www.ealing.gov.uk/info/200798/food_hygiene_and_safety,-0.36412800000000,UB6 9RU,2011-11-09,fhrs_5_en-GB,5,,FHRS,5
93513,36 Ferrymead Gardens,Greenford,,,Andrew Jonathan Pedley,Farmers/growers,7838,0,,393597,5,,51.53581700000000,PI/000168131,509,foodsafety@ealing.gov.uk,Ealing,http://www.ealing.gov.uk/info/200798/food_hygiene_and_safety,-0.35456400000000,UB6 9NF,2012-01-16,fhrs_5_en-GB,5,,FHRS,0
93514,2 Northfield Avenue,West Ealing,,,Andy'S Quality Fish,Takeaway/sandwich shop,7844,10,,392243,10,,51.50547800000000,PI/000098643,509,foodsafety@ealing.gov.uk,Ealing,http://www.ealing.gov.uk/info/200798/food_hygiene_and_safety,-0.31977800000000,W13 9RJ,2014-02-21,fhrs_3_en-GB,3,,FHRS,5
93515,7 Castle Hill Parade,The Avenue,West Ealing,,Angel Walk,Retailers - other,4613,5,,393855,5,,51.51413900000000,PI/000169557,509,foodsafety@ealing.gov.uk,Ealing,http://www.ealing.gov.uk/info/200798/food_hygiene_and_safety,-0.31984900000000,W13 8JP,2014-11-20,fhrs_5_en-GB,5,,FHRS,5
93516,25-26 The Green,Ealing,,,Angela Malik,Restaurant/Cafe/Canteen,1,10,,665272,10,,51.51102400000000,PI/000175617,509,foodsafety@ealing.gov.uk,Ealing,http://www.ealing.gov.uk/info/200798/food_hygiene_and_safety,-0.30519200000000,W5 5DA,2014-04-28,fhrs_3_en-GB,3,,FHRS,10
93517,Ground Floor Shop,6 Churchfield Road,Acton,,Angela Malik Cookery School,Other catering premises,7841,5,,393127,5,,51.50899100000000,PI/000153890,509,foodsafety@ealing.gov.uk,Ealing,http://www.ealing.gov.uk/info/200798/food_hygiene_and_safety,-0.26399600000000,W3 6EG,2013-08-02,fhrs_5_en-GB,5,,FHRS,5
93518,33 Glendun Court,Western Avenue,Acton,,Angie's Karib Delightz,Other catering premises,7841,0,,590705,0,,51.51359500000000,PI/000173289,509,foodsafety@ealing.gov.uk,Ealing,http://www.ealing.gov.uk/info/200798/food_hygiene_and_safety,-0.25123900000000,W3 7EF,2014-04-10,fhrs_5_en-GB,5,,FHRS,0
93519,218 Horn Lane,Acton,,,Anil Food & Wine,Retailers - other,4613,10,,392963,10,,51.51638400000000,PI/000143058,509,foodsafety@ealing.gov.uk,Ealing,http://www.ealing.gov.uk/info/200798/food_hygiene_and_safety,-0.26710200000000,W3 6PL,2013-07-09,fhrs_3_en-GB,3,,FHRS,10
93520,58 Northfield Avenue,West Ealing,,,Ann'S Snacks,Restaurant/Cafe/Canteen,1,10,,391964,10,,51.50396600000000,PI/000075204,509,foodsafety@ealing.gov.uk,Ealing,http://www.ealing.gov.uk/info/200798/food_hygiene_and_safety,-0.31837800000000,W13 9RR,2014-08-06,fhrs_3_en-GB,3,,FHRS,10
93521,15 Churchfield Road,Acton,,,Anokha,Restaurant/Cafe/Canteen,1,5,,393678,5,,51.50864900000000,PI/000168279,509,foodsafety@ealing.gov.uk,Ealing,http://www.ealing.gov.uk/info/200798/food_hygiene_and_safety,-0.26452800000000,W3 6BD,2012-07-06,fhrs_5_en-GB,5,,FHRS,5
93522,Day Nursery,Hanwell Town Football Club,Perivale Lane,Perivale,APH Nurseries,Hospitals/Childcare/Caring Premises,5,10,,610259,5,,51.53220100000000,PI/000173340,509,foodsafety@ealing.gov.uk,Ealing,http://www.ealing.gov.uk/info/200798/food_hygiene_and_safety,-0.32777700000000,UB6 8UT,2014-10-16,fhrs_1_en-GB,1,,FHRS,20
93523,13-15 Dudley Road,Southall,,,Apna Punjab Superstore,Retailers - other,4613,0,,610255,5,,51.50295700000000,PI/000173330,509,foodsafety@ealing.gov.uk,Ealing,http://www.ealing.gov.uk/info/200798/food_hygiene_and_safety,-0.38805100000000,UB2 5AS,2014-01-27,fhrs_5_en-GB,5,,FHRS,0
93524,,,,,Apple Three Project (trailer),Mobile caterer,7846,0,,449683,5,,,PI/000172056,509,foodsafety@ealing.gov.uk,Ealing,http://www.ealing.gov.uk/info/200798/food_hygiene_and_safety,,,2012-12-13,fhrs_4_en-GB,4,,FHRS,10
93525,,,,,Apple Tree Ealing,Other catering premises,7841,5,,391816,5,,,PI/000062016,509,foodsafety@ealing.gov.uk,Ealing,http://www.ealing.gov.uk/info/200798/food_hygiene_and_safety,,,2013-01-29,fhrs_5_en-GB,5,,FHRS,5
93526,1091 Greenford Road,Greenford,,,Applegreen Greenford Service Station,Retailers - other,4613,5,,616684,0,,51.55188900000000,PI/000173046,509,foodsafety@ealing.gov.uk,Ealing,http://www.ealing.gov.uk/info/200798/food_hygiene_and_safety,-0.33944500000000,UB6 0EJ,2014-05-07,fhrs_5_en-GB,5,,FHRS,5
93527,Old Oak Methodist Church,The Fairway,Acton,,Apples Nursery,Hospitals/Childcare/Caring Premises,5,5,,485341,5,,51.51732500000000,PI/000171205,509,foodsafety@ealing.gov.uk,Ealing,http://www.ealing.gov.uk/info/200798/food_hygiene_and_safety,-0.25353200000000,W3 7PW,2012-09-13,fhrs_5_en-GB,5,,FHRS,5
93528,Acton & West London College,Mill Hill Road,Acton,,"Aramark Ltd, Acton Campus",School/college/university,7845,5,,393954,5,,51.50725300000000,PI/000171114,509,foodsafety@ealing.gov.uk,Ealing,http://www.ealing.gov.uk/info/200798/food_hygiene_and_safety,-0.27596400000000,W3 8UX,2014-01-28,fhrs_4_en-GB,4,,FHRS,10
93529,Ealing Hammersmith And West London College,Ealing Green,Ealing,,"Aramark Ltd, Ealing Campus",School/college/university,7845,5,,393955,5,,51.51030400000000,PI/000171115,509,foodsafety@ealing.gov.uk,Ealing,http://www.ealing.gov.uk/info/200798/food_hygiene_and_safety,-0.30706300000000,W5 5EW,2014-02-11,fhrs_4_en-GB,4,,FHRS,10
93530,Ealing Tertiary College,Beaconsfield Road,Southall,,"Aramark Ltd, Southall Campus",School/college/university,7845,5,,393159,5,,51.50765900000000,PI/000158181,509,foodsafety@ealing.gov.uk,Ealing,http://www.ealing.gov.uk/info/200798/food_hygiene_and_safety,-0.38016200000000,UB1 1DP,2012-05-17,fhrs_5_en-GB,5,,FHRS,5
93531,Unit F24,Acton Business Centre,School Road,Park Royal,Archies Mediterranean Food Products,Manufacturers/packers,7839,,,729437,,,51.52575200000000,PI/000177805,509,foodsafety@ealing.gov.uk,Ealing,http://www.ealing.gov.uk/info/200798/food_hygiene_and_safety,-0.25845700000000,NW10 6TD,,fhrs_awaitinginspection_en-GB,AwaitingInspection,,FHRS,
93532,Unit X06,Acton Business Centre,School Road,Park Royal,Archies Mediterranean Food Products,Manufacturers/packers,7839,10,,392946,10,,51.52575200000000,PI/000142481,509,foodsafety@ealing.gov.uk,Ealing,http://www.ealing.gov.uk/info/200798/food_hygiene_and_safety,-0.25845700000000,NW10 6TD,2014-10-23,fhrs_3_en-GB,3,,FHRS,10
93533,,,,,Areeg Abbasi,Manufacturers/packers,7839,5,,393337,5,,,PI/000162673,509,foodsafety@ealing.gov.uk,Ealing,http://www.ealing.gov.uk/info/200798/food_hygiene_and_safety,,,2010-03-19,fhrs_5_en-GB,5,,FHRS,5
93534,Unit 3,Concorde Business Centre,Concord Road,Acton,Arena Online Ltd,Retailers - other,4613,,,616678,,,51.52364900000000,PI/000172925,509,foodsafety@ealing.gov.uk,Ealing,http://www.ealing.gov.uk/info/200798/food_hygiene_and_safety,-0.27743500000000,W3 0TJ,2014-09-08,fhrs_exempt_en-GB,Exempt,,FHRS,
93535,Warehouse Ground Floor Left,1 Concorde Business Centre,Concord Road,Acton,Arena Online Ltd,Retailers - other,4613,,,616707,,,51.52364900000000,PI/000174608,509,foodsafety@ealing.gov.uk,Ealing,http://www.ealing.gov.uk/info/200798/food_hygiene_and_safety,-0.27743500000000,W3 0TJ,2014-09-08,fhrs_exempt_en-GB,Exempt,,FHRS,
93536,"Unit A 16, Alpha Beta Business Centre",7-11 Minerva Road,Park Royal,,Arepa & Co,Other catering premises,7841,10,,393530,5,,51.52953800000000,PI/000163985,509,foodsafety@ealing.gov.uk,Ealing,http://www.ealing.gov.uk/info/200798/food_hygiene_and_safety,-0.26392100000000,NW10 6HJ,2011-03-29,fhrs_4_en-GB,4,,FHRS,0
93537,Homebase Superstore,Western Avenue,Acton,,Argos,Retailers - other,4613,,,665325,,,51.51334100000000,PI/000175700,509,foodsafety@ealing.gov.uk,Ealing,http://www.ealing.gov.uk/info/200798/food_hygiene_and_safety,-0.24989400000000,W3 7XX,,fhrs_awaitinginspection_en-GB,AwaitingInspection,,FHRS,
93538,2 The Mall,Ealing,,,Arian,Restaurant/Cafe/Canteen,1,20,,711726,15,,51.51432600000000,PI/000177779,509,foodsafety@ealing.gov.uk,Ealing,http://www.ealing.gov.uk/info/200798/food_hygiene_and_safety,-0.30035700000000,W5 2PJ,2014-10-14,fhrs_0_en-GB,0,,FHRS,20
93539,472 Greenford Road,Greenford,,,Ariana Pharmacy,Retailers - other,4613,,,543087,,,51.52823200000000,PI/000172899,509,foodsafety@ealing.gov.uk,Ealing,http://www.ealing.gov.uk/info/200798/food_hygiene_and_safety,-0.35168000000000,UB6 8SQ,2013-04-25,fhrs_exempt_en-GB,Exempt,,FHRS,
93540,Ealing Liberal Synagogue,2 Lynton Avenue,West Ealing,,Ark Of Noah Bilingual Nursery,Hospitals/Childcare/Caring Premises,5,5,,392199,5,,51.51807600000000,PI/000094549,509,foodsafety@ealing.gov.uk,Ealing,http://www.ealing.gov.uk/info/200798/food_hygiene_and_safety,-0.32601700000000,W13 0EB,2010-01-22,fhrs_4_en-GB,4,,FHRS,10
93541,Holy Trinity Church Hall,Medway Drive,Perivale,,Ark Of Noah Bilingual Nursery,Hospitals/Childcare/Caring Premises,5,5,,393023,5,,51.53542800000000,PI/000146328,509,foodsafety@ealing.gov.uk,Ealing,http://www.ealing.gov.uk/info/200798/food_hygiene_and_safety,-0.33273400000000,UB6 8LN,2012-02-06,fhrs_4_en-GB,4,,FHRS,10
93542,The Olive Grows,19 Sovereign Park,Park Royal,,Aromas Catering Ltd,Other catering premises,7841,10,,393458,5,,51.52695300000000,PI/000163043,509,foodsafety@ealing.gov.uk,Ealing,http://www.ealing.gov.uk/info/200798/food_hygiene_and_safety,-0.27275500000000,NW10 7QP,2011-02-03,fhrs_4_en-GB,4,,FHRS,5
93543,,,,,Artemis Olive Ltd,Mobile caterer,7846,,,711727,,,,PI/000177782,509,foodsafety@ealing.gov.uk,Ealing,http://www.ealing.gov.uk/info/200798/food_hygiene_and_safety,,,,fhrs_awaitinginspection_en-GB,AwaitingInspection,,FHRS,
93544,32 New Broadway,Ealing,,,Artisan,Restaurant/Cafe/Canteen,1,0,,696088,0,,51.51331600000000,PI/000175842,509,foodsafety@ealing.gov.uk,Ealing,http://www.ealing.gov.uk/info/200798/food_hygiene_and_safety,-0.30636100000000,W5 2XA,2014-10-07,fhrs_5_en-GB,5,,FHRS,0
93545,17 High Street,Ealing,,,As Nature Intended,Retailers - other,4613,5,,392435,5,,51.51211000000000,PI/000114439,509,foodsafety@ealing.gov.uk,Ealing,http://www.ealing.gov.uk/info/200798/food_hygiene_and_safety,-0.30509400000000,W5 5DB,2011-03-15,fhrs_5_en-GB,5,,FHRS,5
93546,142 Johnson Street,Southall,,,Asamai Cultural Trust,Other catering premises,7841,10,,393436,10,,51.50284100000000,PI/000163000,509,foodsafety@ealing.gov.uk,Ealing,http://www.ealing.gov.uk/info/200798/food_hygiene_and_safety,-0.39538900000000,UB2 5FD,2012-04-12,fhrs_3_en-GB,3,,FHRS,10
93547,Asda,2-20 Western Road,Park Royal,,Asda Colleague Catering,Pub/bar/nightclub,7843,5,,393725,10,,51.52843300000000,PI/000169115,509,foodsafety@ealing.gov.uk,Ealing,http://www.ealing.gov.uk/info/200798/food_hygiene_and_safety,-0.27010400000000,NW10 7LW,2012-03-09,fhrs_4_en-GB,4,,FHRS,5
93548,Asda,2-20 Western Road,Park Royal,,Asda Stores Ltd,Retailers - supermarkets/hypermarkets,7840,5,,393256,10,,51.52843300000000,PI/000162281,509,foodsafety@ealing.gov.uk,Ealing,http://www.ealing.gov.uk/info/200798/food_hygiene_and_safety,-0.27010400000000,NW10 7LW,2013-12-19,fhrs_3_en-GB,3,,FHRS,10
93549,Ashbys,123 Uxbridge Road,West Ealing,,Ashbys,Restaurant/Cafe/Canteen,1,20,,701496,10,,51.51125300000000,PI/000177691,509,foodsafety@ealing.gov.uk,Ealing,http://www.ealing.gov.uk/info/200798/food_hygiene_and_safety,-0.31609300000000,W13 9AU,2014-09-12,fhrs_1_en-GB,1,,FHRS,10
93550,12-13 Carlton Road,Ealing,,,Ashley Lodge Nursing Home,Hospitals/Childcare/Caring Premises,5,0,,392655,0,,51.51604500000000,PI/000129607,509,foodsafety@ealing.gov.uk,Ealing,http://www.ealing.gov.uk/info/200798/food_hygiene_and_safety,-0.31169300000000,W5 2AW,2015-01-08,fhrs_5_en-GB,5,,FHRS,5
93551,10 Norbreck Parade,Park Royal,,,Ashleys Stores,Retailers - other,4613,20,,393618,5,,51.53229900000000,PI/000168168,509,foodsafety@ealing.gov.uk,Ealing,http://www.ealing.gov.uk/info/200798/food_hygiene_and_safety,-0.29272300000000,NW10 7HR,2013-08-09,fhrs_1_en-GB,1,,FHRS,10
93552,40 Pleasant Way,Wembley,,,Ashma Foods,Other catering premises,7841,,,705998,,,51.53584400000000,PI/000177752,509,foodsafety@ealing.gov.uk,Ealing,http://www.ealing.gov.uk/info/200798/food_hygiene_and_safety,-0.30777400000000,HA0 1DF,,fhrs_awaitinginspection_en-GB,AwaitingInspection,,FHRS,
93553,5A South Road,Southall,,,Asia Kebab House,Restaurant/Cafe/Canteen,1,10,,392751,10,,51.51054600000000,PI/000133873,509,foodsafety@ealing.gov.uk,Ealing,http://www.ealing.gov.uk/info/200798/food_hygiene_and_safety,-0.37565000000000,UB1 1SU,2013-01-15,fhrs_3_en-GB,3,,FHRS,10
93554,231 The Broadway,Southall,,,Asian Meat & Poultry Convenience Sto,Retailers - other,4613,5,,485343,5,,51.51263500000000,PI/000172185,509,foodsafety@ealing.gov.uk,Ealing,http://www.ealing.gov.uk/info/200798/food_hygiene_and_safety,-0.38760900000000,UB1 1ND,2012-11-26,fhrs_4_en-GB,4,,FHRS,10
93555,5 Grosvenor Parade,Uxbridge Road,Ealing,,Asrar Limited,Restaurant/Cafe/Canteen,1,10,,639895,10,,51.50960700000000,PI/000175301,509,foodsafety@ealing.gov.uk,Ealing,http://www.ealing.gov.uk/info/200798/food_hygiene_and_safety,-0.28630900000000,W5 3NN,2014-07-30,fhrs_3_en-GB,3,,FHRS,10
93556,1 Aston Road,Ealing,,,Aston House School,School/college/university,7845,0,,392242,5,,51.51836200000000,PI/000098105,509,foodsafety@ealing.gov.uk,Ealing,http://www.ealing.gov.uk/info/200798/food_hygiene_and_safety,-0.30215200000000,W5 2RL,2012-03-22,fhrs_5_en-GB,5,,FHRS,5
93557,Aston House School,10 Montpelier Road,Ealing,,Aston House School,School/college/university,7845,5,,392535,5,,51.52289300000000,PI/000119973,509,foodsafety@ealing.gov.uk,Ealing,http://www.ealing.gov.uk/info/200798/food_hygiene_and_safety,-0.30145000000000,W5 2QP,2012-03-28,fhrs_4_en-GB,4,,FHRS,10
93558,24 New Broadway,Ealing,,,At Thai Canteen,Restaurant/Cafe/Canteen,1,5,,393518,5,,51.51331600000000,PI/000163948,509,foodsafety@ealing.gov.uk,Ealing,http://www.ealing.gov.uk/info/200798/food_hygiene_and_safety,-0.30636100000000,W5 2XA,2014-03-17,fhrs_5_en-GB,5,,FHRS,5
93559,7 Station Parade,Noel Road,Acton,,Atariya Foods,Manufacturers/packers,7839,5,,391692,10,,51.51778000000000,PI/000045849,509,foodsafety@ealing.gov.uk,Ealing,http://www.ealing.gov.uk/info/200798/food_hygiene_and_safety,-0.28066900000000,W3 0DS,2012-02-16,fhrs_4_en-GB,4,,FHRS,5
93560,21 Churchfield Road,Acton,,,Atlantic Fish Bar,Takeaway/sandwich shop,7844,5,,392511,10,,51.50864900000000,PI/000118175,509,foodsafety@ealing.gov.uk,Ealing,http://www.ealing.gov.uk/info/200798/food_hygiene_and_safety,-0.26452800000000,W3 6BD,2015-01-08,fhrs_4_en-GB,4,,FHRS,5
93561,86 Pitshanger Lane,Ealing,,,Atlantis,Restaurant/Cafe/Canteen,1,10,,391782,15,,51.52612100000000,PI/000059655,509,foodsafety@ealing.gov.uk,Ealing,http://www.ealing.gov.uk/info/200798/food_hygiene_and_safety,-0.31452100000000,W5 1QX,2014-05-12,fhrs_2_en-GB,2,,FHRS,15
93562,8 Hanger Green,Ealing,,,Attic Wine Bar,Pub/bar/nightclub,7843,20,,590690,10,,51.52679800000000,PI/000173246,509,foodsafety@ealing.gov.uk,Ealing,http://www.ealing.gov.uk/info/200798/food_hygiene_and_safety,-0.28491400000000,W5 3EL,2014-10-22,fhrs_1_en-GB,1,,FHRS,20
93563,7B Ashbourne Parade,Ealing,,,August Moon Chinese Restaurant,Restaurant/Cafe/Canteen,1,5,,392597,10,,51.52894300000000,PI/000126087,509,foodsafety@ealing.gov.uk,Ealing,http://www.ealing.gov.uk/info/200798/food_hygiene_and_safety,-0.29204200000000,W5 3QS,2013-10-31,fhrs_4_en-GB,4,,FHRS,5
93564,521D Yeading Lane,Northolt,,,Aujla Food & Wine,Retailers - other,4613,10,,393387,5,,51.53571300000000,PI/000162849,509,foodsafety@ealing.gov.uk,Ealing,http://www.ealing.gov.uk/info/200798/food_hygiene_and_safety,-0.39378700000000,UB5 6LX,2013-08-09,fhrs_3_en-GB,3,,FHRS,10
93565,52,Ealing Broadway Centre,The Broadway,Ealing,Auntie Anne's (Unit 12b),Takeaway/sandwich shop,7844,10,,534067,5,,51.51280000000000,PI/000172569,509,foodsafety@ealing.gov.uk,Ealing,http://www.ealing.gov.uk/info/200798/food_hygiene_and_safety,-0.30300700000000,W5 5JY,2013-03-19,fhrs_4_en-GB,4,,FHRS,5
93566,"Unit A20, Alpha Beta Business Centre",7-11 Minerva Road,Park Royal,,Aunty Cherry's,Other catering premises,7841,,,569987,,,51.52953800000000,PI/000173056,509,foodsafety@ealing.gov.uk,Ealing,http://www.ealing.gov.uk/info/200798/food_hygiene_and_safety,-0.26392100000000,NW10 6HJ,,fhrs_awaitinginspection_en-GB,AwaitingInspection,,FHRS,
93567,Ground Floor Shop,6 Horn Lane,Acton,,Avar Internet Ltd,Restaurant/Cafe/Canteen,1,10,,393135,10,,51.50835000000000,PI/000154698,509,foodsafety@ealing.gov.uk,Ealing,http://www.ealing.gov.uk/info/200798/food_hygiene_and_safety,-0.27112400000000,W3 6QT,2012-05-02,fhrs_3_en-GB,3,,FHRS,10
93568,Avenue House School,70 The Avenue,West Ealing,,Avenue House School,School/college/university,7845,0,,392029,0,,51.51662800000000,PI/000080966,509,foodsafety@ealing.gov.uk,Ealing,http://www.ealing.gov.uk/info/200798/food_hygiene_and_safety,-0.31912300000000,W13 8LS,2011-06-21,fhrs_5_en-GB,5,,FHRS,5
93569,103 Greenford Avenue,Hanwell,,,Avenue Wines,Retailers - other,4613,10,,392756,5,,51.51610700000000,PI/000134514,509,foodsafety@ealing.gov.uk,Ealing,http://www.ealing.gov.uk/info/200798/food_hygiene_and_safety,-0.33741700000000,W7 1HA,2010-05-10,fhrs_3_en-GB,3,,FHRS,10
93570,37-39 Greenford Avenue,Hanwell,,,Aya Market,Retailers - other,4613,10,,460214,10,,51.51358900000000,PI/000069421,509,foodsafety@ealing.gov.uk,Ealing,http://www.ealing.gov.uk/info/200798/food_hygiene_and_safety,-0.33678800000000,W7 1LP,2013-01-09,fhrs_3_en-GB,3,,FHRS,10
93571,136 Horn Lane,Acton,,,A-Z Newsagents,Retailers - other,4613,,,392310,,,51.51367600000000,PI/000107604,509,foodsafety@ealing.gov.uk,Ealing,http://www.ealing.gov.uk/info/200798/food_hygiene_and_safety,-0.26945300000000,W3 6PA,2014-10-13,fhrs_exempt_en-GB,Exempt,,FHRS,
93572,19 Arrowscout Walk,Northolt,,,B & D Newsagents & Grocers,Retailers - other,4613,5,,391631,15,,51.53288100000000,PI/000039130,509,foodsafety@ealing.gov.uk,Ealing,http://www.ealing.gov.uk/info/200798/food_hygiene_and_safety,-0.38532200000000,UB5 6EE,2010-11-05,fhrs_2_en-GB,2,,FHRS,10
93573,246 Acton Lane,Chiswick,,,B V Liquor Mart,Retailers - other,4613,5,,392152,5,,51.50155700000000,PI/000091451,509,foodsafety@ealing.gov.uk,Ealing,http://www.ealing.gov.uk/info/200798/food_hygiene_and_safety,-0.26599300000000,W4 5DJ,2014-06-16,fhrs_4_en-GB,4,,FHRS,10
93574,6-12 Greenford Road,Greenford,,,Baba Wadbhag Singh Trust,Other catering premises,7841,10,,392600,10,,51.51866600000000,PI/000126299,509,foodsafety@ealing.gov.uk,Ealing,http://www.ealing.gov.uk/info/200798/food_hygiene_and_safety,-0.35438900000000,UB6 9AT,2012-01-12,fhrs_4_en-GB,4,,FHRS,0
93575,263 High Street,Acton,,,Babylon Pizza,Takeaway/sandwich shop,7844,10,,392105,10,,51.50808600000000,PI/000087247,509,foodsafety@ealing.gov.uk,Ealing,http://www.ealing.gov.uk/info/200798/food_hygiene_and_safety,-0.27456400000000,W3 9BY,2014-07-21,fhrs_2_en-GB,2,,FHRS,15
93576,5 Drayton Green Road,West Ealing,,,Bagel & Shake,Restaurant/Cafe/Canteen,1,5,,391961,5,,51.51119600000000,PI/000074991,509,foodsafety@ealing.gov.uk,Ealing,http://www.ealing.gov.uk/info/200798/food_hygiene_and_safety,-0.31968300000000,W13 0NG,2012-11-13,fhrs_5_en-GB,5,,FHRS,5
93577,6 Central Buildings,The Broadway,Ealing,,Bagel Bite,Takeaway/sandwich shop,7844,5,,393594,0,,51.51470900000000,PI/000168124,509,foodsafety@ealing.gov.uk,Ealing,http://www.ealing.gov.uk/info/200798/food_hygiene_and_safety,-0.30257600000000,W5 2NT,2012-07-05,fhrs_5_en-GB,5,,FHRS,0
93578,149 The Vale,Acton,,,Baghdad Market,Retailers - other,4613,10,,393818,10,,51.50644200000000,PI/000169498,509,foodsafety@ealing.gov.uk,Ealing,http://www.ealing.gov.uk/info/200798/food_hygiene_and_safety,-0.25521600000000,W3 7RH,2012-03-20,fhrs_3_en-GB,3,,FHRS,10
93579,Ground Floor Shop,3 Bordars Road,Hanwell,,Bains Newsagent,Retailers - other,4613,10,,639901,10,,51.52249700000000,PI/000175431,509,foodsafety@ealing.gov.uk,Ealing,http://www.ealing.gov.uk/info/200798/food_hygiene_and_safety,-0.33843900000000,W7 1AG,2014-02-13,fhrs_3_en-GB,3,,FHRS,10
93580,98 Bollo Bridge Road,Acton,,,Bajwa Off Licence,Retailers - other,4613,5,,392280,5,,51.50205000000000,PI/000104105,509,foodsafety@ealing.gov.uk,Ealing,http://www.ealing.gov.uk/info/200798/food_hygiene_and_safety,-0.27136300000000,W3 8DD,2015-01-13,fhrs_4_en-GB,4,,FHRS,10
93581,20-22 Broadway,West Ealing,,,Bake & Cake,Restaurant/Cafe/Canteen,1,10,,438433,10,,51.51068400000000,PI/000171535,509,foodsafety@ealing.gov.uk,Ealing,http://www.ealing.gov.uk/info/200798/food_hygiene_and_safety,-0.32223800000000,W13 0SU,2012-11-26,fhrs_3_en-GB,3,,FHRS,10
93582,Ground Floor Shop,10 Dudley Road,Southall,,Bally's Express,Retailers - other,4613,5,,393130,15,,51.50271800000000,PI/000154134,509,foodsafety@ealing.gov.uk,Ealing,http://www.ealing.gov.uk/info/200798/food_hygiene_and_safety,-0.38640300000000,UB2 5AR,2014-02-19,fhrs_2_en-GB,2,,FHRS,5
93583,212 Horn Lane,Acton,,,Balti House,Takeaway/sandwich shop,7844,5,,392503,5,,51.51638400000000,PI/000117902,509,foodsafety@ealing.gov.uk,Ealing,http://www.ealing.gov.uk/info/200798/food_hygiene_and_safety,-0.26710200000000,W3 6PL,2012-07-12,fhrs_5_en-GB,5,,FHRS,5
93584,185 South Ealing Road,Ealing,,,Balti Naz,Restaurant/Cafe/Canteen,1,10,,393148,10,,51.49743000000000,PI/000157200,509,foodsafety@ealing.gov.uk,Ealing,http://www.ealing.gov.uk/info/200798/food_hygiene_and_safety,-0.30537900000000,W5 4RH,2014-08-06,fhrs_3_en-GB,3,,FHRS,5
93585,Unit 7-8,Rear Of 97,Western Road,Southall,Banaadir Shopping Centre,Retailers - other,4613,10,,392911,10,,51.50009100000000,PI/000140713,509,foodsafety@ealing.gov.uk,Ealing,http://www.ealing.gov.uk/info/200798/food_hygiene_and_safety,-0.38956400000000,UB2 5HN,2012-04-23,fhrs_3_en-GB,3,,FHRS,10
93586,2A Bollo Lane,Chiswick,,,Banana Moon Day Nursery,Hospitals/Childcare/Caring Premises,5,5,,590683,5,,51.49423200000000,PI/000173224,509,foodsafety@ealing.gov.uk,Ealing,http://www.ealing.gov.uk/info/200798/food_hygiene_and_safety,-0.26869100000000,W4 5LE,2014-06-03,fhrs_4_en-GB,4,,FHRS,10
93587,Ground Floor Shop,227C Beaconsfield Road,Southall,,Banglabazar,Retailers - other,4613,20,,393003,10,,51.50823800000000,PI/000144826,509,foodsafety@ealing.gov.uk,Ealing,http://www.ealing.gov.uk/info/200798/food_hygiene_and_safety,-0.38829700000000,UB1 1DB,2014-08-08,fhrs_1_en-GB,1,,FHRS,10
93588,59 Old Oak Common Lane,Acton,,,Banks Chemist,Retailers - other,4613,,,392542,,,51.51466000000000,PI/000121339,509,foodsafety@ealing.gov.uk,Ealing,http://www.ealing.gov.uk/info/200798/food_hygiene_and_safety,-0.24968500000000,W3 7DD,2014-02-20,fhrs_exempt_en-GB,Exempt,,FHRS,
93589,The Cafe,Europa Buildings,Victoria Road,Park Royal,Barbar Lebanese Cuisine,Restaurant/Cafe/Canteen,1,10,,392930,10,,51.52465300000000,PI/000142091,509,foodsafety@ealing.gov.uk,Ealing,http://www.ealing.gov.uk/info/200798/food_hygiene_and_safety,-0.25714400000000,NW10 6ND,2012-03-29,fhrs_3_en-GB,3,,FHRS,10
93590,216 Petts Hill,Northolt,,,Barcelos,Restaurant/Cafe/Canteen,1,10,,393026,10,,51.55642300000000,PI/000146429,509,foodsafety@ealing.gov.uk,Ealing,http://www.ealing.gov.uk/info/200798/food_hygiene_and_safety,-0.36135100000000,UB5 4NP,2013-09-04,fhrs_3_en-GB,3,,FHRS,10
93591,12 The Broadway,Greenford,,,Bargain Bazaar,Retailers - other,4613,,,616685,,,51.52791500000000,PI/000173050,509,foodsafety@ealing.gov.uk,Ealing,http://www.ealing.gov.uk/info/200798/food_hygiene_and_safety,-0.35283100000000,UB6 9PR,2013-07-11,fhrs_exempt_en-GB,Exempt,,FHRS,
93592,8 The Mall,Ealing,,,Barracuda Bar,Pub/bar/nightclub,7843,0,,391814,0,,51.51432600000000,PI/000061956,509,foodsafety@ealing.gov.uk,Ealing,http://www.ealing.gov.uk/info/200798/food_hygiene_and_safety,-0.30035700000000,W5 2PJ,2013-12-04,fhrs_5_en-GB,5,,FHRS,0
93593,1283 Greenford Road,Greenford,,,Bartek Deli Enterprise,Retailers - other,4613,10,,393486,15,,51.55603200000000,PI/000163237,509,foodsafety@ealing.gov.uk,Ealing,http://www.ealing.gov.uk/info/200798/food_hygiene_and_safety,-0.33677000000000,UB6 0HY,2012-08-17,fhrs_2_en-GB,2,,FHRS,10
93594,Magnus House,163-165 Dukes Road,Acton,,Basrah Lounge Ltd,Pub/bar/nightclub,7843,10,,393211,15,,51.52496400000000,PI/000162109,509,foodsafety@ealing.gov.uk,Ealing,http://www.ealing.gov.uk/info/200798/food_hygiene_and_safety,-0.28308000000000,W3 0SL,2014-03-21,fhrs_2_en-GB,2,,FHRS,15
93595,102 Uxbridge Road,Hanwell,,,Bawarchi,Restaurant/Cafe/Canteen,1,20,,391852,10,,51.50862500000000,PI/000065959,509,foodsafety@ealing.gov.uk,Ealing,http://www.ealing.gov.uk/info/200798/food_hygiene_and_safety,-0.33676700000000,W7 3SU,2014-10-17,fhrs_1_en-GB,1,,FHRS,15
93596,24 Broadway,West Ealing,,,BBQ No 1,Restaurant/Cafe/Canteen,1,10,,665316,0,,51.51068400000000,PI/000175686,509,foodsafety@ealing.gov.uk,Ealing,http://www.ealing.gov.uk/info/200798/food_hygiene_and_safety,-0.32223800000000,W13 0SU,2014-08-04,fhrs_4_en-GB,4,,FHRS,0
93597,,,,,Be Fit Cakes,Manufacturers/packers,7839,0,,559839,0,,,PI/000172995,509,foodsafety@ealing.gov.uk,Ealing,http://www.ealing.gov.uk/info/200798/food_hygiene_and_safety,,,2014-06-19,fhrs_5_en-GB,5,,FHRS,0
93598,184-186 Beaconsfield Road,Southall,,,Beacon House Nursing Home,Hospitals/Childcare/Caring Premises,5,5,,391351,5,,51.50875500000000,PI/000008093,509,foodsafety@ealing.gov.uk,Ealing,http://www.ealing.gov.uk/info/200798/food_hygiene_and_safety,-0.38992200000000,UB1 1EA,2014-07-23,fhrs_5_en-GB,5,,FHRS,0
93599,Rear Pt,97 The Broadway,Southall,,Beaconfield Wine Stores,Retailers - other,4613,,,391497,,,51.51142500000000,PI/000024173,509,foodsafety@ealing.gov.uk,Ealing,http://www.ealing.gov.uk/info/200798/food_hygiene_and_safety,-0.38073400000000,UB1 1LN,2012-05-01,fhrs_exempt_en-GB,Exempt,,FHRS,
93600,Beaconsfield Road,Southall,,,Beaconsfield Primary School,School/college/university,7845,5,,392361,5,,51.50773400000000,PI/000111393,509,foodsafety@ealing.gov.uk,Ealing,http://www.ealing.gov.uk/info/200798/food_hygiene_and_safety,-0.38302700000000,UB1 1DR,2011-12-12,fhrs_5_en-GB,5,,FHRS,5
93601,Ground Floor Shop,106-108 Beaconsfield Road,Southall,,Beaconsfield Superstore,Retailers - other,4613,5,,610267,5,,51.50773400000000,PI/000173359,509,foodsafety@ealing.gov.uk,Ealing,http://www.ealing.gov.uk/info/200798/food_hygiene_and_safety,-0.38302700000000,UB1 1DR,2014-02-17,fhrs_5_en-GB,5,,FHRS,5
93602,Beech Haven,15-19 Gordon Road,Ealing,,Beech Haven,Hospitals/Childcare/Caring Premises,5,5,,392384,5,,51.51492500000000,PI/000111484,509,foodsafety@ealing.gov.uk,Ealing,http://www.ealing.gov.uk/info/200798/food_hygiene_and_safety,-0.30694900000000,W5 2AD,2014-11-07,fhrs_5_en-GB,5,,FHRS,5
93603,50 Bilton Road,Perivale,,,Beirut Deli,Restaurant/Cafe/Canteen,1,10,,639872,10,,51.53966700000000,PI/000175225,509,foodsafety@ealing.gov.uk,Ealing,http://www.ealing.gov.uk/info/200798/food_hygiene_and_safety,-0.30978100000000,UB6 7DH,2014-08-15,fhrs_3_en-GB,3,,FHRS,10
93604,36-38 Standard Road,Park Royal,,,Bell Trading,Importers/Exporters,14,20,,392803,5,,51.52851400000000,PI/000136728,509,foodsafety@ealing.gov.uk,Ealing,http://www.ealing.gov.uk/info/200798/food_hygiene_and_safety,-0.26339700000000,NW10 6EU,2013-04-22,fhrs_1_en-GB,1,,FHRS,10
93605,2 Ruislip Road,Greenford,,,Belmullet Tavern,Pub/bar/nightclub,7843,10,,493572,15,,51.52870100000000,PI/000172270,509,foodsafety@ealing.gov.uk,Ealing,http://www.ealing.gov.uk/info/200798/food_hygiene_and_safety,-0.35757400000000,UB6 9QN,2014-09-17,fhrs_2_en-GB,2,,FHRS,15
93606,10-12 Abbey Parade,Ealing,,,Belvedere Ristorante,Restaurant/Cafe/Canteen,1,0,,392147,0,,51.53150200000000,PI/000090157,509,foodsafety@ealing.gov.uk,Ealing,http://www.ealing.gov.uk/info/200798/food_hygiene_and_safety,-0.29236400000000,W5 1EE,2013-03-05,fhrs_5_en-GB,5,,FHRS,5
93607,Rowdell Road,Northolt,,,Belvue School,School/college/university,7845,0,,392968,5,,51.54276200000000,PI/000143117,509,foodsafety@ealing.gov.uk,Ealing,http://www.ealing.gov.uk/info/200798/food_hygiene_and_safety,-0.36505700000000,UB5 6AG,2015-02-06,fhrs_5_en-GB,5,,FHRS,5
93608,St Benedicts Parish Office,2 Marchwood Crescent,Ealing,,Benet Club,Pub/bar/nightclub,7843,10,,392991,10,,51.51982300000000,PI/000143919,509,foodsafety@ealing.gov.uk,Ealing,http://www.ealing.gov.uk/info/200798/food_hygiene_and_safety,-0.30743100000000,W5 2DZ,2013-01-29,fhrs_3_en-GB,3,,FHRS,10
93609,,,,,Berry Temptation,Manufacturers/packers,7839,0,,624546,0,,,PI/000174731,509,foodsafety@ealing.gov.uk,Ealing,http://www.ealing.gov.uk/info/200798/food_hygiene_and_safety,,,2014-06-03,fhrs_5_en-GB,5,,FHRS,0
93610,2 Ragley Close,Acton,,,Berrymead Centre,Hospitals/Childcare/Caring Premises,5,10,,392255,5,,51.50522000000000,PI/000100040,509,foodsafety@ealing.gov.uk,Ealing,http://www.ealing.gov.uk/info/200798/food_hygiene_and_safety,-0.27102700000000,W3 8QP,2011-03-08,fhrs_3_en-GB,3,,FHRS,10
93611,Berrymead Hall,Avenue Road,Acton,,Berrymead Evangelical Church,Other catering premises,7841,,,391397,,,51.50457300000000,PI/000010378,509,foodsafety@ealing.gov.uk,Ealing,http://www.ealing.gov.uk/info/200798/food_hygiene_and_safety,-0.26925000000000,W3 8NL,2012-01-31,fhrs_exempt_en-GB,Exempt,,FHRS,
93612,Castle Close,Acton,,,Berrymede Infant School,School/college/university,7845,,,711706,,,51.50380900000000,PI/000111394,509,foodsafety@ealing.gov.uk,Ealing,http://www.ealing.gov.uk/info/200798/food_hygiene_and_safety,-0.27354400000000,W3 8RX,,fhrs_awaitinginspection_en-GB,AwaitingInspection,,FHRS,
93613,73 Old Oak Common Lane,Acton,,,Best Buy Cash & Carry,Retailers - other,4613,10,,485396,5,,51.51466000000000,PI/000172266,509,foodsafety@ealing.gov.uk,Ealing,http://www.ealing.gov.uk/info/200798/food_hygiene_and_safety,-0.24968500000000,W3 7DD,2013-01-23,fhrs_3_en-GB,3,,FHRS,10
93614,512-516 Lady Margaret Road,Southall,,,Best Foods Supermarket,Retailers - other,4613,10,,391442,15,,51.53044000000000,PI/000016366,509,foodsafety@ealing.gov.uk,Ealing,http://www.ealing.gov.uk/info/200798/food_hygiene_and_safety,-0.37197200000000,UB1 2NP,2014-06-18,fhrs_2_en-GB,2,,FHRS,15
93615,77 Western Road,Southall,,,Best One,Retailers - other,4613,10,,393762,10,,51.50026600000000,PI/000169197,509,foodsafety@ealing.gov.uk,Ealing,http://www.ealing.gov.uk/info/200798/food_hygiene_and_safety,-0.38790100000000,UB2 5HQ,2013-12-18,fhrs_2_en-GB,2,,FHRS,15
93616,86 The Green,Southall,,,Best Price,Retailers - other,4613,0,,616716,0,,51.50345200000000,PI/000174707,509,foodsafety@ealing.gov.uk,Ealing,http://www.ealing.gov.uk/info/200798/food_hygiene_and_safety,-0.38091600000000,UB2 4BG,2014-02-17,fhrs_5_en-GB,5,,FHRS,5
93617,59 Western Road,Southall,,,Best Quality Food & Wine,Retailers - other,4613,10,,391540,10,,51.50038300000000,PI/000028263,509,foodsafety@ealing.gov.uk,Ealing,http://www.ealing.gov.uk/info/200798/food_hygiene_and_safety,-0.38661500000000,UB2 5HE,2012-10-18,fhrs_2_en-GB,2,,FHRS,15
93618,64 King Street,Southall,,,Best Quality Meat,Retailers - other,4613,5,,393258,5,,51.50048100000000,PI/000162294,509,foodsafety@ealing.gov.uk,Ealing,http://www.ealing.gov.uk/info/200798/food_hygiene_and_safety,-0.38329800000000,UB2 4DB,2013-12-17,fhrs_5_en-GB,5,,FHRS,0
93619,1-2 International Trading Estate,Trident Way,Southall,,Bestway,Distributors/Transporters,7,5,,391475,10,,51.50072900000000,PI/000022405,509,foodsafety@ealing.gov.uk,Ealing,http://www.ealing.gov.uk/info/200798/food_hygiene_and_safety,-0.40269600000000,UB2 5LF,2011-07-12,fhrs_3_en-GB,3,,FHRS,10
93620,496-498 Greenford Road,Greenford,,,Betfred,Other catering premises,7841,0,,392123,0,,51.52888400000000,PI/000088251,509,foodsafety@ealing.gov.uk,Ealing,http://www.ealing.gov.uk/info/200798/food_hygiene_and_safety,-0.35135400000000,UB6 8SH,2012-10-02,fhrs_5_en-GB,5,,FHRS,0
93621,15-17 Broadway,West Ealing,,,Big Ben Fisheries,Retailers - other,4613,20,,393472,15,,51.51028400000000,PI/000163072,509,foodsafety@ealing.gov.uk,Ealing,http://www.ealing.gov.uk/info/200798/food_hygiene_and_safety,-0.32254100000000,W13 9DA,2013-07-12,fhrs_1_en-GB,1,,FHRS,15
93622,122 Uxbridge Road,Hanwell,,,Big Bites Cafe,Restaurant/Cafe/Canteen,1,5,,391848,5,,51.50860400000000,PI/000065929,509,foodsafety@ealing.gov.uk,Ealing,http://www.ealing.gov.uk/info/200798/food_hygiene_and_safety,-0.33848300000000,W7 3SL,2011-02-22,fhrs_5_en-GB,5,,FHRS,5
93623,5 Beaconsfield Road,Southall,,,Big Boss Food & Wine,Retailers - other,4613,10,,616683,5,,51.50718100000000,PI/000172976,509,foodsafety@ealing.gov.uk,Ealing,http://www.ealing.gov.uk/info/200798/food_hygiene_and_safety,-0.37945800000000,UB1 1BA,2013-04-19,fhrs_3_en-GB,3,,FHRS,10
93624,32 Milton Road,Acton,,,Big Easy Po' Boys,Other catering premises,7841,0,,559848,0,,51.50959700000000,PI/000173010,509,foodsafety@ealing.gov.uk,Ealing,http://www.ealing.gov.uk/info/200798/food_hygiene_and_safety,-0.26418900000000,W3 6QA,2014-02-28,fhrs_5_en-GB,5,,FHRS,0
93625,Cinema,14 South Road,Southall,,Bikaner Family Restaurant (2 Units),Restaurant/Cafe/Canteen,1,10,,485359,10,,51.51067100000000,PI/000172208,509,foodsafety@ealing.gov.uk,Ealing,http://www.ealing.gov.uk/info/200798/food_hygiene_and_safety,-0.37626500000000,UB1 1RT,2012-11-21,fhrs_3_en-GB,3,,FHRS,5
93626,5 Winford Parade,Southall,,,Bilal Halal Meat,Retailers - other,4613,30,,393684,20,,51.51660600000000,PI/000168288,509,foodsafety@ealing.gov.uk,Ealing,http://www.ealing.gov.uk/info/200798/food_hygiene_and_safety,-0.36267900000000,UB1 3JW,2014-07-15,fhrs_0_en-GB,0,,FHRS,20
93627,28-30 New Broadway,Ealing,,,Bill's,Restaurant/Cafe/Canteen,1,0,,616710,5,,51.51331600000000,PI/000174611,509,foodsafety@ealing.gov.uk,Ealing,http://www.ealing.gov.uk/info/200798/food_hygiene_and_safety,-0.30636100000000,W5 2XA,2014-01-30,fhrs_5_en-GB,5,,FHRS,5
93628,1 Bilton Road,Perivale,,,Bilton Food Express,Retailers - other,4613,0,,590674,0,,51.53920700000000,PI/000173214,509,foodsafety@ealing.gov.uk,Ealing,http://www.ealing.gov.uk/info/200798/food_hygiene_and_safety,-0.30655300000000,UB6 7AY,2014-12-01,fhrs_5_en-GB,5,,FHRS,0
93629,The Paddocks,Popes Lane,Ealing,,Birchwood Price Tools:Travis Perkins,Retailers - other,4613,,,721930,,,51.49882600000000,PI/000135009,509,foodsafety@ealing.gov.uk,Ealing,http://www.ealing.gov.uk/info/200798/food_hygiene_and_safety,-0.30241700000000,W5 4PA,,fhrs_exempt_en-GB,Exempt,,FHRS,
93630,263 Oldfield Lane North,Greenford,,,Birring Greengrocer,Retailers - other,4613,20,,485345,10,,51.54208900000000,PI/000172187,509,foodsafety@ealing.gov.uk,Ealing,http://www.ealing.gov.uk/info/200798/food_hygiene_and_safety,-0.34655100000000,UB6 8PX,2012-10-29,fhrs_1_en-GB,1,,FHRS,10
93631,68 Western Road,Southall,,,Bismillah Vegetable Shop,Retailers - other,4613,10,,410714,10,,51.50062700000000,PI/000171403,509,foodsafety@ealing.gov.uk,Ealing,http://www.ealing.gov.uk/info/200798/food_hygiene_and_safety,-0.38673600000000,UB2 5DX,2012-06-19,fhrs_2_en-GB,2,,FHRS,15
93632,Overstone House,Warple Way,Acton,,Bistro W3,Restaurant/Cafe/Canteen,1,5,,393321,5,,51.50499200000000,PI/000162552,509,foodsafety@ealing.gov.uk,Ealing,http://www.ealing.gov.uk/info/200798/food_hygiene_and_safety,-0.25569000000000,W3 0RX,2012-07-06,fhrs_5_en-GB,5,,FHRS,5
93633,Boden House,114-120 Victoria Road,Park Royal,,Bite Catering,Restaurant/Cafe/Canteen,1,5,,393236,5,,51.52379700000000,PI/000162192,509,foodsafety@ealing.gov.uk,Ealing,http://www.ealing.gov.uk/info/200798/food_hygiene_and_safety,-0.25703200000000,NW10 6NY,2013-08-12,fhrs_4_en-GB,4,,FHRS,10
93634,1 Station Parade,Northolt,,,Bite Sandwich Bar,Restaurant/Cafe/Canteen,1,5,,393932,10,,51.54669000000000,PI/000171074,509,foodsafety@ealing.gov.uk,Ealing,http://www.ealing.gov.uk/info/200798/food_hygiene_and_safety,-0.36881000000000,UB5 5HR,2014-11-27,fhrs_2_en-GB,2,,FHRS,15
93635,Black George,181 Uxbridge Road,West Ealing,,Black George Pub & Club,Pub/bar/nightclub,7843,20,,460250,10,,51.51099200000000,PI/000172133,509,foodsafety@ealing.gov.uk,Ealing,http://www.ealing.gov.uk/info/200798/food_hygiene_and_safety,-0.31800400000000,W13 9AA,2013-01-07,fhrs_1_en-GB,1,,FHRS,10
93636,8 The Arcadia Centre,The Broadway,Ealing,,Blacks,Retailers - other,4613,,,393831,,,51.51401900000000,PI/000169520,509,foodsafety@ealing.gov.uk,Ealing,http://www.ealing.gov.uk/info/200798/food_hygiene_and_safety,-0.30398500000000,W5 2ND,2012-01-24,fhrs_exempt_en-GB,Exempt,,FHRS,
93637,Beaconsfield Road,Southall,,,Blair Peach Primary School,School/college/university,7845,0,,392396,5,,51.50848200000000,PI/000111822,509,foodsafety@ealing.gov.uk,Ealing,http://www.ealing.gov.uk/info/200798/food_hygiene_and_safety,-0.39033500000000,UB1 1DD,2014-03-10,fhrs_5_en-GB,5,,FHRS,0
93638,Blakesley House Nursing Home,7 Blakesley Avenue,Ealing,,Blakesley House Nursing Home,Hospitals/Childcare/Caring Premises,5,10,,392007,10,,51.51794600000000,PI/000078415,509,foodsafety@ealing.gov.uk,Ealing,http://www.ealing.gov.uk/info/200798/food_hygiene_and_safety,-0.30757300000000,W5 2DN,2013-11-14,fhrs_3_en-GB,3,,FHRS,5
93639,,,,,Blue Berry Company Ltd,Mobile caterer,7846,0,,515854,5,,,PI/000172517,509,foodsafety@ealing.gov.uk,Ealing,http://www.ealing.gov.uk/info/200798/food_hygiene_and_safety,,,2014-09-24,fhrs_5_en-GB,5,,FHRS,0
93640,Larden Hall,Essex Park Mews,Acton,,Blue Giraffe Nursery,Hospitals/Childcare/Caring Premises,5,0,,392863,0,,51.50630900000000,PI/000139175,509,foodsafety@ealing.gov.uk,Ealing,http://www.ealing.gov.uk/info/200798/food_hygiene_and_safety,-0.25409700000000,W3 7RJ,2014-09-26,fhrs_5_en-GB,5,,FHRS,5
93641,139 Pitshanger Lane,Ealing,,,Blue Ocean Fishmongers,Retailers - other,4613,,,639903,,,51.52573700000000,PI/000175435,509,foodsafety@ealing.gov.uk,Ealing,http://www.ealing.gov.uk/info/200798/food_hygiene_and_safety,-0.31469300000000,W5 1RH,,fhrs_awaitinginspection_en-GB,AwaitingInspection,,FHRS,
93642,The Civil Engineer,500 Ruislip Road,Northolt,,Blue Orchid Restaurant,Restaurant/Cafe/Canteen,1,10,,639953,10,,51.53234700000000,PI/000175542,509,foodsafety@ealing.gov.uk,Ealing,http://www.ealing.gov.uk/info/200798/food_hygiene_and_safety,-0.37595500000000,UB5 6AT,2014-07-09,fhrs_3_en-GB,3,,FHRS,10
93643,39 Greenford Road,Greenford,,,Bobby's Off Licence,Retailers - other,4613,20,,391785,15,,51.51984700000000,PI/000059819,509,foodsafety@ealing.gov.uk,Ealing,http://www.ealing.gov.uk/info/200798/food_hygiene_and_safety,-0.35525500000000,UB6 9AY,2013-12-16,fhrs_1_en-GB,1,,FHRS,15
93644,"Unit K 2, Alpha Beta Business Centre",7-11 Minerva Road,Park Royal,,Bocaface,Other catering premises,7841,,,681980,,,51.52953800000000,PI/000175749,509,foodsafety@ealing.gov.uk,Ealing,http://www.ealing.gov.uk/info/200798/food_hygiene_and_safety,-0.26392100000000,NW10 6HJ,,fhrs_awaitinginspection_en-GB,AwaitingInspection,,FHRS,
93645,,,,,Bogo Ltd,Other catering premises,7841,5,,393537,5,,,PI/000164005,509,foodsafety@ealing.gov.uk,Ealing,http://www.ealing.gov.uk/info/200798/food_hygiene_and_safety,,,2011-03-31,fhrs_5_en-GB,5,,FHRS,5
93646,584 Greenford Road,Greenford,,,Bombay Chinese Restaurant,Restaurant/Cafe/Canteen,1,10,,392520,5,,51.53062100000000,PI/000119240,509,foodsafety@ealing.gov.uk,Ealing,http://www.ealing.gov.uk/info/200798/food_hygiene_and_safety,-0.35016700000000,UB6 8QU,2014-09-22,fhrs_4_en-GB,4,,FHRS,5
93647,57 New Broadway,Ealing,,,Boof,Restaurant/Cafe/Canteen,1,5,,681966,10,,51.51259300000000,PI/000175715,509,foodsafety@ealing.gov.uk,Ealing,http://www.ealing.gov.uk/info/200798/food_hygiene_and_safety,-0.30677700000000,W5 5AH,2014-12-04,fhrs_3_en-GB,3,,FHRS,10
93648,35 Ealing Broadway Centre,The Broadway,Ealing,,Boots,Retailers - other,4613,,,392839,,,51.51280000000000,PI/000138189,509,foodsafety@ealing.gov.uk,Ealing,http://www.ealing.gov.uk/info/200798/food_hygiene_and_safety,-0.30300700000000,W5 5JY,2012-11-23,fhrs_exempt_en-GB,Exempt,,FHRS,
93649,40-42 The Broadway,Greenford,,,Boots,Retailers - other,4613,0,,392603,0,,51.52827800000000,PI/000126359,509,foodsafety@ealing.gov.uk,Ealing,http://www.ealing.gov.uk/info/200798/food_hygiene_and_safety,-0.35368300000000,UB6 9PT,2013-11-25,fhrs_5_en-GB,5,,FHRS,0
93650,68-68A Broadway,West Ealing,,,Boots,Retailers - other,4613,,,392173,,,51.51054700000000,PI/000093372,509,foodsafety@ealing.gov.uk,Ealing,http://www.ealing.gov.uk/info/200798/food_hygiene_and_safety,-0.32524100000000,W13 0SY,2013-11-27,fhrs_exempt_en-GB,Exempt,,FHRS,
93651,"Unit 11, Westway Cross Retail Park",1000 Greenford Road,Greenford,,Boots Stores Ltd,Retailers - other,4613,0,,392742,0,,51.54186300000000,PI/000133059,509,foodsafety@ealing.gov.uk,Ealing,http://www.ealing.gov.uk/info/200798/food_hygiene_and_safety,-0.34008400000000,UB6 0UW,2014-02-24,fhrs_5_en-GB,5,,FHRS,0
93652,24 The Broadway,Ealing,,,Boots UK Ltd,Retailers - other,4613,0,,393475,0,,51.51415800000000,PI/000163077,509,foodsafety@ealing.gov.uk,Ealing,http://www.ealing.gov.uk/info/200798/food_hygiene_and_safety,-0.30245300000000,W5 2NP,2010-12-09,fhrs_5_en-GB,5,,FHRS,0
93653,,,,,Borough Nuts Ltd,Other catering premises,7841,0,,639911,0,,,PI/000175461,509,foodsafety@ealing.gov.uk,Ealing,http://www.ealing.gov.uk/info/200798/food_hygiene_and_safety,,,2014-05-09,fhrs_5_en-GB,5,,FHRS,0
93654,234 South Ealing Road,Ealing,,,Boston Express Food & Wine,Retailers - other,4613,10,,392026,5,,51.49471800000000,PI/000080234,509,foodsafety@ealing.gov.uk,Ealing,http://www.ealing.gov.uk/info/200798/food_hygiene_and_safety,-0.30565300000000,W5 4RP,2012-06-14,fhrs_4_en-GB,4,,FHRS,5
93655,Boston Manor Hotel,146-152 Boston Road,Hanwell,,Boston Manor Hotel/Banqueting Suite,Restaurant/Cafe/Canteen,1,20,,392343,10,,51.50382900000000,PI/000109835,509,foodsafety@ealing.gov.uk,Ealing,http://www.ealing.gov.uk/info/200798/food_hygiene_and_safety,-0.33336900000000,W7 2HJ,2014-08-08,fhrs_1_en-GB,1,,FHRS,10
93656,158 Boston Road,Hanwell,,,Boston News,Retailers - other,4613,10,,392159,10,,51.50382900000000,PI/000091957,509,foodsafety@ealing.gov.uk,Ealing,http://www.ealing.gov.uk/info/200798/food_hygiene_and_safety,-0.33336900000000,W7 2HJ,2012-04-27,fhrs_3_en-GB,3,,FHRS,10
93657,156 Boston Road,Hanwell,,,Boston Pizza,Takeaway/sandwich shop,7844,10,,393784,0,,51.50382900000000,PI/000169254,509,foodsafety@ealing.gov.uk,Ealing,http://www.ealing.gov.uk/info/200798/food_hygiene_and_safety,-0.33336900000000,W7 2HJ,2011-12-12,fhrs_4_en-GB,4,,FHRS,0
93658,119 Gunnersbury Avenue,Ealing,,,BP Gunnersbury Park SF Connect,Retailers - other,4613,0,,392652,0,,51.50169200000000,PI/000129592,509,foodsafety@ealing.gov.uk,Ealing,http://www.ealing.gov.uk/info/200798/food_hygiene_and_safety,-0.28682200000000,W5 4LR,2012-02-22,fhrs_5_en-GB,5,,FHRS,5
93659,Site Of Bp Service Station,Western Avenue,Perivale,,BP Perivale Simply Food,Retailers - other,4613,0,,392992,5,,51.53324000000000,PI/000143929,509,foodsafety@ealing.gov.uk,Ealing,http://www.ealing.gov.uk/info/200798/food_hygiene_and_safety,-0.32435000000000,UB6 8TF,2013-04-12,fhrs_4_en-GB,4,,FHRS,10
93660,261 Northfield Avenue,Ealing,,,Bramley Pharmacy,Retailers - other,4613,,,392187,,,51.49828500000000,PI/000093977,509,foodsafety@ealing.gov.uk,Ealing,http://www.ealing.gov.uk/info/200798/food_hygiene_and_safety,-0.31351600000000,W5 4UA,2010-08-20,fhrs_exempt_en-GB,Exempt,,FHRS,
93661,2-3 Station Offices,Station Road,Park Royal,,Brazilian Emporium,Retailers - other,4613,10,,590666,10,,51.53299600000000,PI/000173196,509,foodsafety@ealing.gov.uk,Ealing,http://www.ealing.gov.uk/info/200798/food_hygiene_and_safety,-0.24674700000000,NW10 4XA,2013-08-12,fhrs_3_en-GB,3,,FHRS,10
93662,Unit 3,13-15 Sunbeam Road,Park Royal,,Bread & Honey,Other catering premises,7841,10,,392602,5,,51.52587500000000,PI/000126340,509,foodsafety@ealing.gov.uk,Ealing,http://www.ealing.gov.uk/info/200798/food_hygiene_and_safety,-0.26312300000000,NW10 6JP,2012-02-28,fhrs_3_en-GB,3,,FHRS,10
93663,"Golf Club, Brent Valley Municipal Golf Course",138 Church Road,Hanwell,,Brent Valley Golf Club,Pub/bar/nightclub,7843,,,711710,,,51.51380800000000,PI/000175860,509,foodsafety@ealing.gov.uk,Ealing,http://www.ealing.gov.uk/info/200798/food_hygiene_and_safety,-0.33826500000000,W7 3BE,,fhrs_awaitinginspection_en-GB,AwaitingInspection,,FHRS,
93664,Brentham Club,38A Meadvale Road,Ealing,,Brentham Club & Perry Cafe,Pub/bar/nightclub,7843,10,,392035,10,,51.52891000000000,PI/000081809,509,foodsafety@ealing.gov.uk,Ealing,http://www.ealing.gov.uk/info/200798/food_hygiene_and_safety,-0.30833400000000,W5 1NP,2014-04-11,fhrs_3_en-GB,3,,FHRS,10
93665,Kennedy Road,Hanwell,,,Brentside Primary School,School/college/university,7845,,,722702,,,51.52526300000000,PI/000132296,509,foodsafety@ealing.gov.uk,Ealing,http://www.ealing.gov.uk/info/200798/food_hygiene_and_safety,-0.33944800000000,W7 1JL,,fhrs_awaitinginspection_en-GB,AwaitingInspection,,FHRS,
93666,Shop Adjacent Railway Bridge,Westfields Road,Acton,,Bridge Cafe,Restaurant/Cafe/Canteen,1,10,,393953,10,,51.52136300000000,PI/000171112,509,foodsafety@ealing.gov.uk,Ealing,http://www.ealing.gov.uk/info/200798/food_hygiene_and_safety,-0.27361500000000,W3 0AP,2013-07-17,fhrs_3_en-GB,3,,FHRS,10
93667,"Unit 1, Acton Hill Studios",13 Acton Hill Mews,Acton,,Bright Eyes Montessori Nursery,Hospitals/Childcare/Caring Premises,5,5,,393526,5,,51.50886500000000,PI/000163971,509,foodsafety@ealing.gov.uk,Ealing,http://www.ealing.gov.uk/info/200798/food_hygiene_and_safety,-0.27738800000000,W3 9QN,2014-07-25,fhrs_5_en-GB,5,,FHRS,5
93668,72-76 Western Road,Southall,,,Brilliant Restaurant,Restaurant/Cafe/Canteen,1,5,,392545,5,,51.50058400000000,PI/000121398,509,foodsafety@ealing.gov.uk,Ealing,http://www.ealing.gov.uk/info/200798/food_hygiene_and_safety,-0.38815000000000,UB2 5DZ,2012-06-15,fhrs_4_en-GB,4,,FHRS,10
93669,148 Boston Road,Hanwell,,,British Food And Wine Store,Retailers - other,4613,5,,393078,5,,51.50382900000000,PI/000150408,509,foodsafety@ealing.gov.uk,Ealing,http://www.ealing.gov.uk/info/200798/food_hygiene_and_safety,-0.33336900000000,W7 2HJ,2012-07-11,fhrs_5_en-GB,5,,FHRS,5
93670,291 Allenby Road,Southall,,,Britz Peri Peri,Takeaway/sandwich shop,7844,10,,690733,10,,51.52539500000000,PI/000175817,509,foodsafety@ealing.gov.uk,Ealing,http://www.ealing.gov.uk/info/200798/food_hygiene_and_safety,-0.36490100000000,UB1 2HD,2014-09-25,fhrs_4_en-GB,4,,FHRS,0
93671,135 Uxbridge Road,Hanwell,,,Broadway Fish Bar,Takeaway/sandwich shop,7844,5,,391766,5,,51.50894200000000,PI/000057353,509,foodsafety@ealing.gov.uk,Ealing,http://www.ealing.gov.uk/info/200798/food_hygiene_and_safety,-0.33567500000000,W7 3ST,2014-07-01,fhrs_5_en-GB,5,,FHRS,0
93672,7 Broadway,West Ealing,,,Broadway International Food Centre,Retailers - other,4613,10,,696099,5,,51.51028400000000,PI/000175867,509,foodsafety@ealing.gov.uk,Ealing,http://www.ealing.gov.uk/info/200798/food_hygiene_and_safety,-0.32254100000000,W13 9DA,2014-08-14,fhrs_3_en-GB,3,,FHRS,10
93673,1229 Greenford Road,Greenford,,,Broken Gate Cafe,Restaurant/Cafe/Canteen,1,10,,392171,10,,51.55603200000000,PI/000093304,509,foodsafety@ealing.gov.uk,Ealing,http://www.ealing.gov.uk/info/200798/food_hygiene_and_safety,-0.33677000000000,UB6 0HY,2014-01-30,fhrs_2_en-GB,2,,FHRS,15
93674,149 Northfield Avenue,West Ealing,,,Bronek's Park Cafe,Restaurant/Cafe/Canteen,1,10,,391932,15,,51.50240400000000,PI/000070936,509,foodsafety@ealing.gov.uk,Ealing,http://www.ealing.gov.uk/info/200798/food_hygiene_and_safety,-0.31607300000000,W13 9QT,2015-01-06,fhrs_1_en-GB,1,,FHRS,20
93675,223 High Street,Acton,,,Brothers Cafe,Restaurant/Cafe/Canteen,1,5,,392592,5,,51.50808600000000,PI/000125106,509,foodsafety@ealing.gov.uk,Ealing,http://www.ealing.gov.uk/info/200798/food_hygiene_and_safety,-0.27456400000000,W3 9BY,2013-07-19,fhrs_5_en-GB,5,,FHRS,5
93676,178 South Ealing Road,Ealing,,,Brothers Kebab,Takeaway/sandwich shop,7844,10,,392200,10,,51.49714100000000,PI/000095046,509,foodsafety@ealing.gov.uk,Ealing,http://www.ealing.gov.uk/info/200798/food_hygiene_and_safety,-0.30589400000000,W5 4RJ,2015-01-14,fhrs_3_en-GB,3,,FHRS,10
93677,41 Oldfields Circus,Northolt,,,Brothers Kebab,Takeaway/sandwich shop,7844,10,,653573,5,,51.55173400000000,PI/000175599,509,foodsafety@ealing.gov.uk,Ealing,http://www.ealing.gov.uk/info/200798/food_hygiene_and_safety,-0.35016800000000,UB5 4RR,2014-07-09,fhrs_4_en-GB,4,,FHRS,5
93678,123 Northfield Avenue,West Ealing,,,Buddy's News & Off-Licence,Retailers - other,4613,0,,639916,0,,51.50339800000000,PI/000175471,509,foodsafety@ealing.gov.uk,Ealing,http://www.ealing.gov.uk/info/200798/food_hygiene_and_safety,-0.31707400000000,W13 9QR,2014-03-26,fhrs_5_en-GB,5,,FHRS,0
93679,7 New Ealing Broadway,Ealing,,,Budgens Quickstop,Retailers - other,4613,10,,392858,10,,51.51486700000000,PI/000139077,509,foodsafety@ealing.gov.uk,Ealing,http://www.ealing.gov.uk/info/200798/food_hygiene_and_safety,-0.30169100000000,W5 2NU,2013-11-02,fhrs_3_en-GB,3,,FHRS,10
93680,,,,,Buds,Manufacturers/packers,7839,,,393610,,,,PI/000168156,509,foodsafety@ealing.gov.uk,Ealing,http://www.ealing.gov.uk/info/200798/food_hygiene_and_safety,,,,fhrs_awaitinginspection_en-GB,AwaitingInspection,,FHRS,
93681,131 Uxbridge Road,West Ealing,,,Build on Belief (B.O.B),Other catering premises,7841,10,,543088,5,,51.51125300000000,PI/000172900,509,foodsafety@ealing.gov.uk,Ealing,http://www.ealing.gov.uk/info/200798/food_hygiene_and_safety,-0.31609300000000,W13 9AU,2014-02-14,fhrs_3_en-GB,3,,FHRS,10
93682,369 Uxbridge Road,Acton,,,Bulgarian Food Shop,Retailers - other,4613,5,,393604,5,,51.50824700000000,PI/000168140,509,foodsafety@ealing.gov.uk,Ealing,http://www.ealing.gov.uk/info/200798/food_hygiene_and_safety,-0.28063900000000,W3 9RH,2012-07-09,fhrs_5_en-GB,5,,FHRS,5
93683,21 Inglis Road,Ealing,,,Bumblebees Day Nursery,Hospitals/Childcare/Caring Premises,5,10,,393973,10,,51.51440500000000,PI/000171163,509,foodsafety@ealing.gov.uk,Ealing,http://www.ealing.gov.uk/info/200798/food_hygiene_and_safety,-0.28974600000000,W5 3RJ,2014-02-26,fhrs_3_en-GB,3,,FHRS,10
93684,37 Manor Court Road,Hanwell,,,Bunny Park Nursery,Hospitals/Childcare/Caring Premises,5,0,,391767,0,,51.51319700000000,PI/000057369,509,foodsafety@ealing.gov.uk,Ealing,http://www.ealing.gov.uk/info/200798/food_hygiene_and_safety,-0.34209200000000,W7 3EJ,2014-11-05,fhrs_5_en-GB,5,,FHRS,0
93685,83-101 Boston Road,Hanwell,,,Burger Bar (Wickes),Mobile caterer,7846,5,,393653,5,,51.50573900000000,PI/000168249,509,foodsafety@ealing.gov.uk,Ealing,http://www.ealing.gov.uk/info/200798/food_hygiene_and_safety,-0.33551800000000,W7 3SA,2012-07-06,fhrs_5_en-GB,5,,FHRS,5
93686,85 Broadway,West Ealing,,,Burger King,Restaurant/Cafe/Canteen,1,10,,392415,0,,51.50986700000000,PI/000112979,509,foodsafety@ealing.gov.uk,Ealing,http://www.ealing.gov.uk/info/200798/food_hygiene_and_safety,-0.32483300000000,W13 9BP,2014-04-23,fhrs_4_en-GB,4,,FHRS,10
93687,Burger King,Royale Leisure Park,Kendal Avenue,Acton,Burger King,Restaurant/Cafe/Canteen,1,0,,392879,0,,51.52533400000000,PI/000139899,509,foodsafety@ealing.gov.uk,Ealing,http://www.ealing.gov.uk/info/200798/food_hygiene_and_safety,-0.28133600000000,W3 0PA,2012-02-11,fhrs_5_en-GB,5,,FHRS,5
93688,Leapfrog Day Nursery,Greenford Road,Greenford,,Busy Bees,Hospitals/Childcare/Caring Premises,5,0,,392631,0,,51.55967100000000,PI/000128851,509,foodsafety@ealing.gov.uk,Ealing,http://www.ealing.gov.uk/info/200798/food_hygiene_and_safety,-0.33593000000000,UB6 0HU,2012-02-14,fhrs_5_en-GB,5,,FHRS,0
93689,34-38 Bideford Avenue,Perivale,,,Busy Bees Nursery,Hospitals/Childcare/Caring Premises,5,0,,392334,0,,51.53465900000000,PI/000109426,509,foodsafety@ealing.gov.uk,Ealing,http://www.ealing.gov.uk/info/200798/food_hygiene_and_safety,-0.31984300000000,UB6 8DF,2013-10-08,fhrs_5_en-GB,5,,FHRS,0
93690,14 St Marys Road,Ealing,,,Butlers,Restaurant/Cafe/Canteen,1,5,,392041,5,,51.50746600000000,PI/000082573,509,foodsafety@ealing.gov.uk,Ealing,http://www.ealing.gov.uk/info/200798/food_hygiene_and_safety,-0.30545400000000,W5 5ES,2012-07-06,fhrs_5_en-GB,5,,FHRS,5
93691,27 Old Oak Road,Acton,,,Buttercups Day Nursery,Hospitals/Childcare/Caring Premises,5,0,,392629,0,,51.50783900000000,PI/000128809,509,foodsafety@ealing.gov.uk,Ealing,http://www.ealing.gov.uk/info/200798/food_hygiene_and_safety,-0.24578200000000,W3 7HN,2012-03-05,fhrs_5_en-GB,5,,FHRS,5
93692,Day Nursery,9 Florence Road,Ealing,,Buttercups Nursery,Hospitals/Childcare/Caring Premises,5,5,,393131,0,,51.51246600000000,PI/000154148,509,foodsafety@ealing.gov.uk,Ealing,http://www.ealing.gov.uk/info/200798/food_hygiene_and_safety,-0.29796100000000,W5 3TU,2014-03-24,fhrs_5_en-GB,5,,FHRS,0
93693,,,,,Butterkissed Cupcakes,Manufacturers/packers,7839,20,,393675,10,,,PI/000168276,509,foodsafety@ealing.gov.uk,Ealing,http://www.ealing.gov.uk/info/200798/food_hygiene_and_safety,,,2012-04-02,fhrs_1_en-GB,1,,FHRS,0
93694,99 Oaklands Road,Hanwell,,,Buttons Day Nursery School,Hospitals/Childcare/Caring Premises,5,0,,392875,0,,51.50623300000000,PI/000139672,509,foodsafety@ealing.gov.uk,Ealing,http://www.ealing.gov.uk/info/200798/food_hygiene_and_safety,-0.32917400000000,W7 2DT,2011-10-04,fhrs_5_en-GB,5,,FHRS,0
93695,169 Byron Way,Northolt,,,Byron Wines,Retailers - other,4613,,,391628,,,51.53253800000000,PI/000039122,509,foodsafety@ealing.gov.uk,Ealing,http://www.ealing.gov.uk/info/200798/food_hygiene_and_safety,-0.38325800000000,UB5 6BW,2011-03-10,fhrs_exempt_en-GB,Exempt,,FHRS,
93696,Carphone Warehouse,1 Portal Way,Acton,,Byte Restaurant,Restaurant/Cafe/Canteen,1,5,,449677,0,,51.52099000000000,PI/000172046,509,foodsafety@ealing.gov.uk,Ealing,http://www.ealing.gov.uk/info/200798/food_hygiene_and_safety,-0.26297700000000,W3 6RT,2014-08-18,fhrs_5_en-GB,5,,FHRS,0
93697,123 High Street,Acton,,,Cafe,Restaurant/Cafe/Canteen,1,20,,653564,10,,51.50659100000000,PI/000175574,509,foodsafety@ealing.gov.uk,Ealing,http://www.ealing.gov.uk/info/200798/food_hygiene_and_safety,-0.26891400000000,W3 6LY,2014-04-02,fhrs_1_en-GB,1,,FHRS,10
93698,Salvation Army Hall,Leeland Road,West Ealing,,Cafe,Restaurant/Cafe/Canteen,1,,,705973,,,51.50988800000000,PI/000126638,509,foodsafety@ealing.gov.uk,Ealing,http://www.ealing.gov.uk/info/200798/food_hygiene_and_safety,-0.32319000000000,W13 9HH,,fhrs_awaitinginspection_en-GB,AwaitingInspection,,FHRS,
93699,,,,,Cafe 2 U,Mobile caterer,7846,0,,392409,0,,,PI/000112352,509,foodsafety@ealing.gov.uk,Ealing,http://www.ealing.gov.uk/info/200798/food_hygiene_and_safety,,,2011-06-21,fhrs_5_en-GB,5,,FHRS,5
93700,68 Pitshanger Lane,Ealing,,,Cafe 786,Restaurant/Cafe/Canteen,1,10,,391988,10,,51.52612100000000,PI/000077409,509,foodsafety@ealing.gov.uk,Ealing,http://www.ealing.gov.uk/info/200798/food_hygiene_and_safety,-0.31452100000000,W5 1QX,2014-11-24,fhrs_2_en-GB,2,,FHRS,15
93701,Ground Floor Shop,2-4 Horn Lane,Acton,,Cafe Estoril,Restaurant/Cafe/Canteen,1,5,,706000,0,,51.50835000000000,PI/000177756,509,foodsafety@ealing.gov.uk,Ealing,http://www.ealing.gov.uk/info/200798/food_hygiene_and_safety,-0.27112400000000,W3 6QT,2014-11-25,fhrs_5_en-GB,5,,FHRS,5
93702,19 Oldfields Circus,Northolt,,,Cafe Express,Restaurant/Cafe/Canteen,1,5,,392143,10,,51.55173400000000,PI/000089736,509,foodsafety@ealing.gov.uk,Ealing,http://www.ealing.gov.uk/info/200798/food_hygiene_and_safety,-0.35016800000000,UB5 4RR,2013-09-23,fhrs_4_en-GB,4,,FHRS,5
93703,65 The Grove,Ealing,,,Cafe Grove,Restaurant/Cafe/Canteen,1,5,,392099,5,,51.51113100000000,PI/000086369,509,foodsafety@ealing.gov.uk,Ealing,http://www.ealing.gov.uk/info/200798/food_hygiene_and_safety,-0.30139800000000,W5 5LL,2011-03-11,fhrs_5_en-GB,5,,FHRS,5
93704,Health And Leisure Club,11 Rowdell Road,Northolt,,Cafe LA (L.A Fitness),Restaurant/Cafe/Canteen,1,20,,393006,0,,51.54276200000000,PI/000145121,509,foodsafety@ealing.gov.uk,Ealing,http://www.ealing.gov.uk/info/200798/food_hygiene_and_safety,-0.36505700000000,UB5 6AG,2014-08-22,fhrs_1_en-GB,1,,FHRS,0
93705,9 Castle Hill Parade,The Avenue,West Ealing,,Cafe Leemoo,Other catering premises,7841,5,,705985,5,,51.51413900000000,PI/000175864,509,foodsafety@ealing.gov.uk,Ealing,http://www.ealing.gov.uk/info/200798/food_hygiene_and_safety,-0.31984900000000,W13 8JP,2014-10-16,fhrs_5_en-GB,5,,FHRS,0
93706,33 High Street,Ealing,,,Cafe Magnolia,Restaurant/Cafe/Canteen,1,10,,393226,10,,51.51211000000000,PI/000162148,509,foodsafety@ealing.gov.uk,Ealing,http://www.ealing.gov.uk/info/200798/food_hygiene_and_safety,-0.30509400000000,W5 5DB,2014-09-19,fhrs_3_en-GB,3,,FHRS,10
93707,Shop 2c,429 Uxbridge Road,Ealing,,Cafe Mora,Restaurant/Cafe/Canteen,1,20,,393491,10,,51.50972500000000,PI/000163285,509,foodsafety@ealing.gov.uk,Ealing,http://www.ealing.gov.uk/info/200798/food_hygiene_and_safety,-0.28701100000000,W5 3NW,2012-06-27,fhrs_1_en-GB,1,,FHRS,5
93708,34 Northfield Avenue,West Ealing,,,Cafe Nell,Restaurant/Cafe/Canteen,1,10,,391934,10,,51.50464400000000,PI/000070971,509,foodsafety@ealing.gov.uk,Ealing,http://www.ealing.gov.uk/info/200798/food_hygiene_and_safety,-0.31926100000000,W13 9RL,2014-07-30,fhrs_3_en-GB,3,,FHRS,10
93709,Restaurant,Acton Central Railway Station,Churchfield Road,Acton,Cafe Oak Tree,Restaurant/Cafe/Canteen,1,10,,624568,5,,51.50876600000000,PI/000174901,509,foodsafety@ealing.gov.uk,Ealing,http://www.ealing.gov.uk/info/200798/food_hygiene_and_safety,-0.26337000000000,W3 6BH,2014-02-18,fhrs_4_en-GB,4,,FHRS,0
93710,34 Chase Road,Park Royal,,,Cafe Ola,Restaurant/Cafe/Canteen,1,0,,392549,0,,51.52697000000000,PI/000122005,509,foodsafety@ealing.gov.uk,Ealing,http://www.ealing.gov.uk/info/200798/food_hygiene_and_safety,-0.25993900000000,NW10 6QN,2014-04-02,fhrs_5_en-GB,5,,FHRS,0
93711,1 The Avenue,West Ealing,,,Cafe Onik,Restaurant/Cafe/Canteen,1,10,,392237,0,,51.51413900000000,PI/000097872,509,foodsafety@ealing.gov.uk,Ealing,http://www.ealing.gov.uk/info/200798/food_hygiene_and_safety,-0.31984900000000,W13 8JP,2013-07-30,fhrs_4_en-GB,4,,FHRS,0
93712,Shop,1 East Vale,The Vale,Acton,Cafe Paulo,Restaurant/Cafe/Canteen,1,5,,393132,5,,51.50694500000000,PI/000154221,509,foodsafety@ealing.gov.uk,Ealing,http://www.ealing.gov.uk/info/200798/food_hygiene_and_safety,-0.24852500000000,W3 7RU,2013-10-29,fhrs_5_en-GB,5,,FHRS,5
93713,St Marys Church,The Mount,Acton,,Cafe Project,Other catering premises,7841,5,,393959,5,,51.50765991210940,PI/000171126,509,foodsafety@ealing.gov.uk,Ealing,http://www.ealing.gov.uk/info/200798/food_hygiene_and_safety,-0.27197185158730,W3 9NW,2014-02-06,fhrs_5_en-GB,5,,FHRS,5
93714,Site Of Renault Retail Group Ltd,Western Avenue,Acton,,Cafe Renault,Restaurant/Cafe/Canteen,1,10,,393411,5,,51.52543500000000,PI/000162908,509,foodsafety@ealing.gov.uk,Ealing,http://www.ealing.gov.uk/info/200798/food_hygiene_and_safety,-0.27657500000000,W3 0RZ,2011-11-25,fhrs_4_en-GB,4,,FHRS,0
93715,184 Horsenden Lane South,Perivale,,,Cafe Rendezvous,Restaurant/Cafe/Canteen,1,5,,393275,0,,51.53994200000000,PI/000162352,509,foodsafety@ealing.gov.uk,Ealing,http://www.ealing.gov.uk/info/200798/food_hygiene_and_safety,-0.32390200000000,UB6 7NT,2014-02-20,fhrs_5_en-GB,5,,FHRS,5
93716,Cafe Royal,20 Abbey Road,Park Royal,,Cafe Royal,Restaurant/Cafe/Canteen,1,10,,392840,5,,51.52984100000000,PI/000138239,509,foodsafety@ealing.gov.uk,Ealing,http://www.ealing.gov.uk/info/200798/food_hygiene_and_safety,-0.26986300000000,NW10 7RE,2014-01-28,fhrs_3_en-GB,3,,FHRS,10
93717,9 New Broadway,Ealing,,,Cafe Zee,Restaurant/Cafe/Canteen,1,0,,690722,0,,51.51285300000000,PI/000175790,509,foodsafety@ealing.gov.uk,Ealing,http://www.ealing.gov.uk/info/200798/food_hygiene_and_safety,-0.30548400000000,W5 5AW,2014-08-04,fhrs_5_en-GB,5,,FHRS,0
93718,Research House,Fraser Road,Perivale,,CafeDeco,Restaurant/Cafe/Canteen,1,0,,690718,0,,51.53971200000000,PI/000175729,509,foodsafety@ealing.gov.uk,Ealing,http://www.ealing.gov.uk/info/200798/food_hygiene_and_safety,-0.31472500000000,UB6 7AQ,2014-07-22,fhrs_5_en-GB,5,,FHRS,0
93719,112-114 North Acton Road,Park Royal,,,Caffe Giordani,Restaurant/Cafe/Canteen,1,0,,392649,0,,51.53038200000000,PI/000129549,509,foodsafety@ealing.gov.uk,Ealing,http://www.ealing.gov.uk/info/200798/food_hygiene_and_safety,-0.26022700000000,NW10 6QH,2014-09-16,fhrs_5_en-GB,5,,FHRS,5
93720,Westgate House,West Gate,Ealing,,Caffe Kix,Restaurant/Cafe/Canteen,1,5,,391362,5,,51.53131700000000,PI/000008797,509,foodsafety@ealing.gov.uk,Ealing,http://www.ealing.gov.uk/info/200798/food_hygiene_and_safety,-0.29574500000000,W5 1YY,2013-07-09,fhrs_5_en-GB,5,,FHRS,5
93721,Restaurant,Acton Central Railway Station,Churchfield Road,Acton,Caffe Metropolis,Restaurant/Cafe/Canteen,1,5,,392977,5,,51.50876600000000,PI/000143375,509,foodsafety@ealing.gov.uk,Ealing,http://www.ealing.gov.uk/info/200798/food_hygiene_and_safety,-0.26337000000000,W3 6BH,2012-07-25,fhrs_4_en-GB,4,,FHRS,10
93722,34 The Broadway,Ealing,,,Caffe Nero,Restaurant/Cafe/Canteen,1,0,,460261,5,,51.51415800000000,PI/000172146,509,foodsafety@ealing.gov.uk,Ealing,http://www.ealing.gov.uk/info/200798/food_hygiene_and_safety,-0.30245300000000,W5 2NP,2014-12-08,fhrs_5_en-GB,5,,FHRS,5
93723,51 New Broadway,Ealing,,,Caffe Nero,Restaurant/Cafe/Canteen,1,0,,392818,5,,51.51259300000000,PI/000137284,509,foodsafety@ealing.gov.uk,Ealing,http://www.ealing.gov.uk/info/200798/food_hygiene_and_safety,-0.30677700000000,W5 5AH,2009-08-28,fhrs_5_en-GB,5,,FHRS,0
93724,Dunelm,Western Avenue,Greenford,,"Caffe Pausa, Dunelm Mill",Restaurant/Cafe/Canteen,1,5,,393928,5,,,PI/000170997,509,foodsafety@ealing.gov.uk,Ealing,http://www.ealing.gov.uk/info/200798/food_hygiene_and_safety,,UB6 8UY,2012-07-06,fhrs_5_en-GB,5,,FHRS,5
93725,"Unit B9, Alpha Beta Business Centre",7-11 Minerva Road,Park Royal,,Caiger and Co,Other catering premises,7841,0,,711711,0,,51.52953800000000,PI/000177743,509,foodsafety@ealing.gov.uk,Ealing,http://www.ealing.gov.uk/info/200798/food_hygiene_and_safety,-0.26392100000000,NW10 6HJ,2014-11-05,fhrs_5_en-GB,5,,FHRS,0
93726,"Unit B27, Alpha Beta Business Centre",7-11 Minerva Road,Park Royal,,Cake Lovers Ltd,Manufacturers/packers,7839,,,701509,,,51.52953800000000,PI/000177713,509,foodsafety@ealing.gov.uk,Ealing,http://www.ealing.gov.uk/info/200798/food_hygiene_and_safety,-0.26392100000000,NW10 6HJ,,fhrs_awaitinginspection_en-GB,AwaitingInspection,,FHRS,
93727,,,,,Cakes N Flavours,Manufacturers/packers,7839,10,,391717,5,,,PI/000051634,509,foodsafety@ealing.gov.uk,Ealing,http://www.ealing.gov.uk/info/200798/food_hygiene_and_safety,,,2014-02-22,fhrs_4_en-GB,4,,FHRS,5
93728,,,,,Cakey Charms,Manufacturers/packers,7839,5,,569982,0,,,PI/000173042,509,foodsafety@ealing.gov.uk,Ealing,http://www.ealing.gov.uk/info/200798/food_hygiene_and_safety,,,2014-07-07,fhrs_5_en-GB,5,,FHRS,0
93729,133 Uxbridge Road,West Ealing,,,Calabash Cays Takeaway,Takeaway/sandwich shop,7844,,,726922,,,51.51125300000000,PI/000177886,509,foodsafety@ealing.gov.uk,Ealing,http://www.ealing.gov.uk/info/200798/food_hygiene_and_safety,-0.31609300000000,W13 9AU,,fhrs_awaitinginspection_en-GB,AwaitingInspection,,FHRS,
93730,38 Crown Street,Acton,,,Calltime,Retailers - other,4613,10,,393267,10,,51.50712600000000,PI/000162318,509,foodsafety@ealing.gov.uk,Ealing,http://www.ealing.gov.uk/info/200798/food_hygiene_and_safety,-0.27347600000000,W3 8SB,2012-10-10,fhrs_3_en-GB,3,,FHRS,10
93731,4 Crown Street,Acton,,,Canary Kebab House,Restaurant/Cafe/Canteen,1,10,,579274,10,,51.50712600000000,PI/000173085,509,foodsafety@ealing.gov.uk,Ealing,http://www.ealing.gov.uk/info/200798/food_hygiene_and_safety,-0.27347600000000,W3 8SB,2013-07-19,fhrs_3_en-GB,3,,FHRS,10
93732,229 The Broadway,Southall,,,Candy Box,Retailers - other,4613,,,391355,,,51.51263500000000,PI/000008490,509,foodsafety@ealing.gov.uk,Ealing,http://www.ealing.gov.uk/info/200798/food_hygiene_and_safety,-0.38760900000000,UB1 1ND,2012-05-11,fhrs_exempt_en-GB,Exempt,,FHRS,
93733,"Unit 1b, Bago House",11-15 Chase Road,Park Royal,,Candy Cafe Lounge,Restaurant/Cafe/Canteen,1,20,,591741,10,,51.52935400000000,PI/000173312,509,foodsafety@ealing.gov.uk,Ealing,http://www.ealing.gov.uk/info/200798/food_hygiene_and_safety,-0.25882400000000,NW10 6PT,2014-04-16,fhrs_1_en-GB,1,,FHRS,15
93734,1-3 Drayton Green Road,West Ealing,,,Candy Food & Wine Centre,Retailers - other,4613,10,,391960,5,,51.51119600000000,PI/000074988,509,foodsafety@ealing.gov.uk,Ealing,http://www.ealing.gov.uk/info/200798/food_hygiene_and_safety,-0.31968300000000,W13 0NG,2012-06-27,fhrs_3_en-GB,3,,FHRS,10
93735,239 High Street,Acton,,,Cape,Restaurant/Cafe/Canteen,1,5,,590697,0,,51.50808600000000,PI/000173278,509,foodsafety@ealing.gov.uk,Ealing,http://www.ealing.gov.uk/info/200798/food_hygiene_and_safety,-0.27456400000000,W3 9BY,2013-09-12,fhrs_5_en-GB,5,,FHRS,0
93736,74A Broadway,West Ealing,,,Card Factory,Retailers - other,4613,,,438427,,,51.51054700000000,PI/000171528,509,foodsafety@ealing.gov.uk,Ealing,http://www.ealing.gov.uk/info/200798/food_hygiene_and_safety,-0.32524100000000,W13 0SY,2012-08-28,fhrs_exempt_en-GB,Exempt,,FHRS,
93737,53 Ealing Broadway Centre,The Broadway,Ealing,,Card Factory (Unit 7),Retailers - other,4613,,,393922,,,51.51280000000000,PI/000170991,509,foodsafety@ealing.gov.uk,Ealing,http://www.ealing.gov.uk/info/200798/food_hygiene_and_safety,-0.30300700000000,W5 5JY,2012-11-06,fhrs_exempt_en-GB,Exempt,,FHRS,
93738,Greenford Road,Greenford,,,Cardinal Wiseman Rc High School,School/college/university,7845,5,,438418,5,,51.52523300000000,PI/000171514,509,foodsafety@ealing.gov.uk,Ealing,http://www.ealing.gov.uk/info/200798/food_hygiene_and_safety,-0.35203400000000,UB6 9AW,2012-09-17,fhrs_5_en-GB,5,,FHRS,0
93739,23 Pierrepoint Road,Acton,,,Care Management Group,Hospitals/Childcare/Caring Premises,5,5,,391771,5,,51.51394000000000,PI/000058610,509,foodsafety@ealing.gov.uk,Ealing,http://www.ealing.gov.uk/info/200798/food_hygiene_and_safety,-0.27332000000000,W3 9JJ,2012-02-28,fhrs_5_en-GB,5,,FHRS,5
93740,23 Perryn Road,Acton,,,Care Management Group Ltd,Hospitals/Childcare/Caring Premises,5,10,,392448,10,,51.51191500000000,PI/000115089,509,foodsafety@ealing.gov.uk,Ealing,http://www.ealing.gov.uk/info/200798/food_hygiene_and_safety,-0.26104600000000,W3 7LS,2013-06-27,fhrs_3_en-GB,3,,FHRS,10
93741,4 Northfield Avenue,West Ealing,,,Cargills,Retailers - other,4613,10,,393893,15,,51.50547800000000,PI/000170945,509,foodsafety@ealing.gov.uk,Ealing,http://www.ealing.gov.uk/info/200798/food_hygiene_and_safety,-0.31977800000000,W13 9RJ,2013-03-27,fhrs_2_en-GB,2,,FHRS,10
93742,3-4 The Bridge,Uxbridge Road,Ealing,,Cargills Two,Retailers - other,4613,10,,391681,5,,51.51056200000000,PI/000044929,509,foodsafety@ealing.gov.uk,Ealing,http://www.ealing.gov.uk/info/200798/food_hygiene_and_safety,-0.28824700000000,W5 3LB,2012-07-05,fhrs_4_en-GB,4,,FHRS,5
93743,13-15 The Arcadia Centre,The Broadway,Ealing,,Cargo Homeshop,Retailers - other,4613,,,485338,,,51.51401900000000,PI/000016406,509,foodsafety@ealing.gov.uk,Ealing,http://www.ealing.gov.uk/info/200798/food_hygiene_and_safety,-0.30398500000000,W5 2ND,2012-11-15,fhrs_exempt_en-GB,Exempt,,FHRS,
93744,5-6 The Green,Ealing,,,Carluccio's,Restaurant/Cafe/Canteen,1,5,,392766,5,,51.51102400000000,PI/000135022,509,foodsafety@ealing.gov.uk,Ealing,http://www.ealing.gov.uk/info/200798/food_hygiene_and_safety,-0.30519200000000,W5 5DA,2014-07-15,fhrs_4_en-GB,4,,FHRS,10
93745,484 Lady Margaret Road,Southall,,,Casa Gino,Restaurant/Cafe/Canteen,1,5,,391421,5,,51.53044000000000,PI/000014856,509,foodsafety@ealing.gov.uk,Ealing,http://www.ealing.gov.uk/info/200798/food_hygiene_and_safety,-0.37197200000000,UB1 2NP,2013-08-23,fhrs_5_en-GB,5,,FHRS,5
