,businessname,ratingvalue,structural,hygiene,confidenceinmanagement,ratingdate,latitude,longitude
123932,1st Stop,5,0,0,0,2010-01-21,51.465906,-0.298139
123933,2 Peas in a Pod,5,5,5,5,2012-07-17,51.474352,-0.244028
123934,2nd Whitton Scout Group,Exempt,nan,nan,nan,2013-05-30,51.451589,-0.366373
123935,40 Sheen Lane,4,5,5,10,2014-06-03,51.46696,-0.266988
123936,8WR Cafe,5,5,5,5,2014-03-04,51.423633,-0.33036
123937,A Cena,5,5,5,5,2013-02-21,51.456125,-0.308895
123938,A G Miller Teddington Ltd,4,10,0,5,2014-05-30,51.432181,-0.338034
123939,A Tea Affair,5,5,5,0,2010-11-18,,
123940,A&M Sugarcraft Ltd,5,5,5,5,2009-05-21,51.465298,-0.259781
123941,A4s Retail Limited,1,15,10,20,2013-11-29,51.444255,-0.346734
123942,Abacus Cafe,4,0,5,10,2012-10-04,51.455222,-0.310555
123943,ABC,4,5,5,10,2009-08-10,,
123944,Abhayam Food & Wine Ltd,4,5,5,10,2011-01-04,51.48377,-0.28614
123945,Adesso,3,10,10,10,2014-09-12,51.457983,-0.304955
123946,Age UK,4,5,0,10,2014-10-27,51.447318,-0.325569
123947,Age UK Richmond,4,0,10,10,2014-08-12,51.464479,-0.26642
123948,Al Boccon Di Vino,5,5,0,0,2013-06-27,51.459507,-0.304596
123949,Alanna's Kitchen,5,0,0,5,2010-07-13,,
123950,Alianti,5,5,5,0,2013-10-21,51.459963,-0.306954
123951,All Bar One,5,0,0,5,2011-06-29,51.458793,-0.306206
123952,All Hallows Church Hall,Exempt,nan,nan,nan,2009-03-31,51.453872,-0.334972
123953,All Noodle Bar,4,5,5,10,2012-08-25,51.464446,-0.273965
123954,All Seasons Restaurant,AwaitingInspection,nan,nan,nan,,51.405598,-0.343642
123955,Altons,1,0,0,20,2013-09-02,51.453554,-0.346801
123956,Amadora,4,5,10,5,2013-02-19,51.460312,-0.306769
123957,Amena's Chutney,4,0,10,10,2010-09-14,,
123958,Amin's,1,15,10,20,2014-12-16,51.445458,-0.334516
123959,AMT Enterprises,5,5,5,5,2007-02-28,51.448339,-0.322742
123960,Anatolia,3,10,5,10,2014-11-13,51.466622,-0.292354
123961,Angelica's Fine Foods,5,0,0,5,2011-02-23,51.485259,-0.233772
123962,Angel's News,4,0,0,10,2013-04-19,51.444255,-0.346734
123963,Anjula Devi Authentic Indian Cooking,1,5,5,20,2014-04-10,,
123964,Annapurna,5,0,5,5,2013-03-21,51.449314,-0.378644
123965,Annapurna Nepalese Restaurant,5,5,5,5,2014-03-27,51.464934,-0.261349
123966,Annie's,5,5,5,0,2012-11-14,51.468714,-0.254899
123967,Anothai Thai Cuisine,4,10,5,5,2013-11-27,51.425647,-0.356769
123968,Apple Tree Cafe,5,0,0,0,2013-09-03,51.451441,-0.342387
123969,Apples and Bees,5,5,5,5,2015-01-29,51.465678,-0.266647
123970,Aquarius Sailing Club,5,5,5,5,2008-03-19,,
123971,Archdeacon Cambridge's Primary,5,0,0,0,2013-06-17,51.443845,-0.340633
123972,Armstrongs of Richmond,5,0,0,5,2010-11-25,51.466223,-0.29401
123973,ArteChef,2,15,5,5,2013-08-13,51.474833,-0.240727
123974,Arthurs Bistro,4,10,5,5,2013-04-20,51.444699,-0.341264
123975,ASK Pizza & Pasta,5,5,5,0,2012-10-18,51.485432,-0.289131
123976,ASK Pizza & Pasta,5,5,0,0,2011-08-19,51.4447,-0.341321
123977,Asquith Day Nursery,5,5,0,0,2013-06-20,51.474198,-0.276664
123978,Asquith Nursery,4,10,0,10,2014-10-24,51.412736,-0.313876
123979,Asquith Nursery St Mary's,5,0,0,0,2014-03-11,,
123980,Aston Pierpoint Nursery,4,5,10,5,2014-06-16,,
123981,Astrora Coffee ( Roasters),4,0,0,10,2009-06-17,51.42618,-0.338439
123982,Athelstan House School,5,0,0,0,2013-02-06,51.417109,-0.373211
123983,Atithi Indian Cuisine,4,10,5,5,2014-07-25,51.447393,-0.327725
123984,Awesome Thai Restaurant,5,0,5,5,2012-06-11,51.474833,-0.240727
123985,Azbuka Russian Nursery,5,0,0,5,2012-12-11,51.463629,-0.301722
123986,Bacco Restaurant,4,5,0,10,2013-03-04,51.464097,-0.301748
123987,Backhaus Delicatessen,3,10,5,10,2014-12-09,51.436402,-0.320602
123988,Backhaus German Bakers Ltd,1,5,5,20,2013-01-22,51.436402,-0.320602
123989,Bad Brownie,5,5,5,0,2013-07-10,51.45381,-0.356708
123990,Bagels Already,4,10,5,5,2013-11-21,51.464135,-0.300667
123991,Bake Away,4,0,10,0,2014-04-30,,
123992,Bamboo Noodle,5,0,5,5,2013-03-19,51.462413,-0.294771
123993,Bar Estilo,5,5,0,0,2013-07-03,51.425889,-0.336925
123994,Bargain House Whitton,5,5,5,5,2008-03-14,51.450739,-0.357667
123995,Barn Elms Sports Centre,5,5,0,0,2014-03-24,51.475478,-0.237548
123996,Barnes Buffet,5,0,0,5,2013-10-18,,
123997,Barnes Day Centre,4,10,0,10,2014-06-20,51.465272,-0.237611
123998,Barnes Express,5,5,5,5,2008-03-14,51.475386,-0.239842
123999,Barnes Green Centre,5,0,5,0,2012-09-17,51.473766,-0.246931
124000,Barnes Home Guard Association,3,10,10,10,2012-08-29,51.461839,-0.266707
124001,Barnes Nature Kindergarten,5,0,5,5,2014-06-03,51.484869,-0.232995
124002,Barnes Primary School,5,5,0,0,2013-06-26,51.468654,-0.25087
124003,Barnes Station News,5,0,0,0,2012-09-03,51.467137,-0.242045
124004,Barty's Creative Caterers,5,0,0,0,2013-09-06,,
124005,Basilico,5,5,5,0,2013-01-24,51.465272,-0.262287
124006,Baxter Storey @ The Stag Brewery,5,5,5,0,2012-07-17,51.469761,-0.266032
124007,BBQ Kebab House,3,5,10,10,2014-07-16,51.449866,-0.358246
124008,Be At One,5,5,5,5,2010-03-26,51.457068,-0.304499
124009,Beirut Street Kitchen,5,nan,nan,nan,2014-05-12,51.460969,-0.303131
124010,Bellinis,5,0,0,0,2012-07-31,51.464764,-0.264393
124011,Bengal Brasserie,5,0,5,5,2012-08-25,51.430897,-0.345159
124012,Bengal Village,3,5,10,10,2012-11-29,51.46199,-0.29663
124013,Best Grill & Fish Bar,1,15,5,20,2014-05-02,51.438397,-0.313651
124014,Best Kebab Hampton Hill LTD,4,0,5,10,2012-08-25,51.429102,-0.353711
124015,Best One,4,0,0,10,2013-07-09,51.457983,-0.304955
124016,Best Wine & Foods,5,0,0,5,2009-06-23,51.464833,-0.32356
124017,Bianca Mailsan,5,0,0,0,2014-06-06,,
124018,Bilas Tandoori,4,10,5,0,2013-07-31,51.425936,-0.338966
124019,Bill's Restaurants,5,0,0,0,2012-10-11,,
124020,Bishop Perrin Primary School,5,0,0,5,2010-12-07,51.448573,-0.366121
124021,Bizzie Lizzie Cakes,4,5,5,10,2011-01-11,,
124022,Blackbird Bread,4,0,0,10,2012-12-04,,
124023,Blah blah blah,4,0,0,10,2013-01-23,51.445085,-0.337393
124024,Bliss Brownies,4,5,5,10,2014-05-14,,
124025,Bloated Mallard TW12,4,10,0,0,2013-12-12,51.426266,-0.356704
124026,Blue's Smokehouse,4,0,5,10,2009-07-29,51.44712,-0.328699
124027,Bombay Spice,3,10,10,10,2012-08-21,51.426121,-0.334946
124028,Bonjourno,2,10,15,10,2014-08-04,51.428358,-0.35519
124029,Boots The Chemists Ltd,Exempt,nan,nan,nan,2009-03-05,51.450621,-0.358204
124030,Boots The Chemists Ltd,5,5,5,5,2009-03-24,51.42618,-0.338439
124031,Booze & News,1,0,0,20,2013-04-17,51.485259,-0.233772
124032,Brackenburys,5,5,5,0,2014-10-16,51.475478,-0.237548
124033,Breadren Ltd,5,0,0,5,2014-02-12,,
124034,Bright Beginnings,5,5,5,0,2015-01-12,51.448146,-0.330648
124035,Bright Beginnings Day Nursery,5,5,5,5,2015-01-12,,
124036,Brinsworth House,5,5,0,0,2013-03-20,51.443794,-0.348491
124037,Broad Street Extra,5,5,5,0,2008-03-28,51.425936,-0.338966
124038,Brocca Antica,4,10,0,0,2013-12-09,51.455904,-0.321038
124039,Brook House Nursery,5,5,0,0,2013-08-29,,
124040,Broomfield House School,5,0,0,5,2014-03-05,51.478738,-0.288229
124041,Brouge Bistros Ltd,5,5,5,5,2012-09-12,51.436639,-0.350001
124042,Bruce's,3,10,10,5,2013-06-20,51.439574,-0.361104
124043,Brula,4,10,0,0,2014-05-30,51.453233,-0.31853
124044,Bubble Royal Tea,5,5,5,5,2013-11-20,,
124045,Bubbles,4,0,0,10,2012-10-03,51.444962,-0.332548
124046,Buchanan's,5,5,5,5,2008-03-17,51.445458,-0.334516
124047,Buckingham Primary School,5,0,0,0,2015-01-20,51.427949,-0.377429
124048,Budgens,5,0,0,0,2013-04-18,51.427338,-0.332629
124049,Buenos Aires Restaurant Ltd,5,5,5,5,2013-08-05,51.461578,-0.30295
124050,Buffers Catering Limited,5,5,0,0,2012-11-22,51.465617,-0.301764
124051,Building Blocks Childcare,5,0,5,0,2013-02-07,51.43241,-0.350412
124052,Burger King,5,0,0,0,2013-01-10,51.448209,-0.329451
124053,Buttons Day Nursery School Ltd,4,5,5,10,2014-09-09,51.416588,-0.359107
124054,Buttons Day Nursery Teddington LLP,5,0,0,0,2013-07-25,,
124055,Byrne Group,5,0,0,0,2013-11-18,51.427689,-0.345979
124056,C C Pizza,4,10,0,5,2013-02-21,51.438086,-0.313893
124057,C J Cakes,5,5,5,5,2007-10-12,,
124058,C Y N Mangal,4,5,10,5,2013-10-16,51.450468,-0.378905
124059,Cafe Alambra,3,10,10,10,2012-07-06,51.460525,-0.304141
124060,Cafe Bar,1,5,10,20,2014-06-12,51.444962,-0.332548
124061,Cafe Bar Mortlake,1,0,0,20,2013-01-24,51.46813,-0.267073
124062,Cafe Bellisimmo,3,10,10,5,2013-05-09,51.437026,-0.350606
124063,Cafe Deli Plenty,4,10,5,5,2014-09-30,51.415655,-0.371494
124064,Cafe du Panache,2,15,10,10,2013-10-07,51.42882,-0.354124
124065,Cafe Francais The Vinery,2,15,10,10,2013-02-19,51.427033,-0.332625
124066,Cafe La Cigale,4,10,5,5,2013-10-14,51.444962,-0.332548
124067,Cafe La Parisiene,5,5,5,5,2013-02-04,51.450621,-0.358204
124068,Cafe Leo,4,10,5,5,2013-09-11,51.46696,-0.266988
124069,Cafe Masala,2,15,10,10,2013-12-13,51.466015,-0.29887
124070,Cafe Nano,4,5,0,10,2012-07-31,51.46199,-0.29663
124071,Cafe Pagoda,3,10,10,10,2012-07-11,51.476563,-0.284653
124072,Cafe SiSi (Pools on the Park),5,0,5,5,2013-06-18,51.466969,-0.307012
124073,Cafe Sunshine,5,0,0,5,2014-05-28,51.445262,-0.328321
124074,Cafe Terra,5,0,5,0,2010-01-22,51.451228,-0.296771
124075,Cafe Torelli,5,0,5,0,2010-02-12,51.478016,-0.286211
124076,Cafe Venice,1,5,10,20,2014-11-26,51.451999,-0.357737
124077,Cafe Zizou,5,5,0,0,2013-01-23,51.445778,-0.329827
124078,Caffe Al Fresco,5,0,5,5,2013-02-18,51.463965,-0.271233
124079,Caffe Bellissimo,5,0,0,5,2013-01-23,51.446975,-0.328661
124080,Caffe Caffe,3,10,10,5,2013-03-28,51.425889,-0.336925
124081,Caffe Del Mare Dal Corsaro,4,5,5,10,2013-09-04,51.448099,-0.326145
124082,Caffe la Fiamma,5,5,5,5,2012-08-08,51.406942,-0.338892
124083,Caffe Mimmo,3,10,10,5,2014-03-31,51.42618,-0.338439
124084,Caffe Nero,4,10,5,5,2009-03-31,51.473514,-0.249302
124085,Caffe Nero,5,5,5,5,2008-03-14,51.464961,-0.2662
124086,Caffe Nero,5,0,0,0,2012-08-06,51.461358,-0.302656
124087,Caffe Nero,5,0,0,0,2012-09-24,51.44712,-0.328699
124088,Caffe Paola,5,0,0,5,2012-08-02,51.457909,-0.305404
124089,Cake About Town,AwaitingInspection,nan,nan,nan,,,
124090,Cake Angel,4,0,0,10,2013-04-30,,
124091,Cake Crazy,4,5,0,10,2007-06-06,,
124092,Cakes By Trudi,5,5,5,0,2013-05-29,,
124093,CakesLover,5,0,0,5,2011-10-26,,
124094,Cambridge Cottage,5,5,0,5,2009-03-05,51.4836616516,-0.289758861065
124095,Cambridge Gardens,4,5,5,10,2009-06-24,51.455691,-0.306234
124096,Cambridge Gardens Cafe,3,10,5,10,2013-02-07,51.455691,-0.306234
124097,Cambridge Park Bowling Club,4,5,0,10,2014-06-19,51.453669,-0.311304
124098,Cambridge Park Convenience Store,1,0,0,20,2013-11-18,51.454912,-0.311459
124099,Cannons,5,5,5,5,2008-03-14,51.465971,-0.303291
124100,Canoe Club (Freehold) Ltd,1,10,5,20,2014-11-26,51.42479,-0.309161
124101,Caren Cakes,4,0,0,10,2010-02-12,,
124102,Carlisle Infant School,4,10,0,0,2013-06-10,51.423109,-0.363692
124103,Carluccio's,5,5,0,0,2012-02-20,51.464097,-0.301748
124104,Carluccio's,5,0,0,0,2012-07-24,51.427026,-0.332784
124105,Carol's Place,5,5,5,5,2013-08-13,51.465298,-0.259781
124106,Carol's Sandwich Bar,4,5,5,10,2013-08-29,51.451274,-0.332505
124107,Carp and Trout,5,5,0,5,2014-10-30,51.424875,-0.35812
124108,Casa Mia,4,10,0,10,2013-03-10,51.451274,-0.332505
124109,Cassel Hospital,AwaitingInspection,nan,nan,nan,,51.436423,-0.305839
124110,Castelnau Community Centre,4,5,5,10,2013-04-03,51.483452,-0.239776
124111,Centre News and Cards,5,5,5,5,2008-03-14,51.450739,-0.357667
124112,Ceramics Cafe Kew,4,5,5,10,2007-10-17,51.482668,-0.286455
124113,Charm Thai Dining,3,10,5,10,2013-07-24,51.427143,-0.329629
124114,Chase Bridge Primary School,5,0,0,0,2013-09-09,51.453958,-0.345505
124115,Chef For You,4,5,5,10,2012-11-29,51.436402,-0.320602
124116,Ches' Cafe,1,0,5,20,2013-08-20,51.453529,-0.319095
124117,Chestnuts Pre School Baby Pod,5,0,0,0,2013-03-05,51.445291,-0.343689
124118,Chestnuts Pre-School,5,5,0,5,2014-11-06,51.445246,-0.343071
124119,Chez Lindsay,3,5,10,10,2014-09-12,51.457909,-0.305404
124120,Chez Swan,4,5,10,0,2006-06-26,,
124121,Chicago Rib Shack,5,5,5,0,2013-01-04,51.447393,-0.327725
124122,Chicken Cottage,2,15,0,5,2014-05-28,51.455625,-0.309778
124123,China Express,3,10,10,10,2013-02-18,51.485392,-0.23309
124124,China Garden,3,10,10,10,2012-08-21,51.427143,-0.329629
124125,China Pearl,2,10,15,10,2013-09-05,51.472636,-0.286672
124126,Chinos Cafe,5,5,5,5,2012-06-28,51.4151,-0.366538
124127,Chopra's Superstore,4,5,10,5,2007-01-10,51.453242,-0.357218
124128,Chow Chow Oriental Restaurant,5,0,5,5,2012-08-25,51.428814,-0.353678
124129,Christian Fellowship in Richmo,Exempt,nan,nan,nan,2009-03-31,51.459314,-0.302473
124130,Christs School,5,0,5,5,2013-09-10,51.458757,-0.288272
124131,Chuba Rasa,1,0,5,20,2012-11-08,51.445458,-0.334516
124132,Chung's Take Away,4,0,10,5,2013-01-16,51.453927,-0.369586
124133,Clarendon School,4,10,0,0,2012-09-07,51.424863,-0.364363
124134,Classic Food & Wine,4,5,5,10,2010-03-23,51.467474,-0.266465
124135,Claude Harry Catering,Exempt,nan,nan,nan,2014-07-02,,
124136,Coffee Ways,4,10,0,10,2014-07-16,51.450739,-0.357667
124137,Coin De Richmond,3,10,5,10,2013-03-25,51.45965,-0.305785
124138,Collis Primary School,5,0,5,0,2011-09-07,51.422172,-0.326013
124139,Connect Catering Limited,5,0,0,0,2012-10-02,51.429235,-0.338285
124140,Connor's Chocolate,5,5,0,0,2013-11-25,,
124141,Cook,5,0,0,0,2012-11-28,51.448209,-0.329451
124142,Cook,5,0,0,0,2013-01-03,51.464329,-0.267822
124143,Cook,5,0,5,0,2012-02-28,51.427328,-0.327494
124144,Cook & Garcia LLP,5,0,0,0,2012-07-11,51.462656,-0.302881
124145,Cooking For Fun Skills For Life,4,5,10,0,2006-09-12,,
124146,Coopers,4,10,5,5,2008-03-04,51.446439,-0.328925
124147,Corona Theatre School,5,5,0,5,2012-09-06,51.415841,-0.379037
124148,Corto Italian Delicatessen,1,15,15,20,2014-03-11,51.446665,-0.327104
124149,Costa Coffee,5,0,0,0,2013-06-17,51.451351,-0.358336
124150,Costa Coffee,5,5,0,0,2011-07-01,51.462444,-0.302501
124151,Costa Coffee,5,0,0,0,2012-07-26,51.479459,-0.281635
124152,Costa Coffee,5,0,5,5,2007-05-29,51.42618,-0.338439
124153,Costa Coffee,5,0,0,0,2012-04-27,51.42632,-0.356673
124154,Costcutter,5,5,5,5,2013-04-02,51.453204,-0.368014
124155,Costcutters,3,10,10,5,2010-12-14,51.421712,-0.375105
124156,Cote,5,0,0,0,2014-05-29,51.458658,-0.305578
124157,Cote Restaurant,AwaitingInspection,nan,nan,nan,2014-08-08,51.427442,-0.326626
124158,Crofters Club at The Barn,5,0,0,0,2013-07-30,51.448018,-0.368832
124159,Crowes Mobile Catering,4,10,5,5,2012-11-10,,
124160,Crown Newsagents,4,5,10,0,2006-11-06,51.451774,-0.31772
124161,Cup Cakes Club,5,5,5,5,2012-09-14,51.453016,-0.320366
124162,Curry Garden Tandoori Rest,3,10,5,10,2012-07-26,51.474314,-0.286408
124163,Cutters,4,5,5,10,2009-06-23,51.45447,-0.319536
124164,CXY Trading Ltd,4,10,5,5,2015-01-06,51.465272,-0.262287
124165,Daisy Chain,1,10,10,20,2014-09-01,51.428358,-0.35519
124166,Dalemead Residential Care Home,5,5,5,0,2014-08-13,51.457732,-0.312492
124167,Danieli on The Green,5,0,0,0,2012-08-01,51.46086,-0.305539
124168,Darell Primary School,4,10,0,5,2013-09-11,51.468558,-0.283945
124169,David Lloyd,5,0,5,0,2011-08-18,51.438052,-0.369345
124170,Day One Express,3,10,10,10,2014-03-20,51.430996,-0.345831
124171,Deelicious Nazish's Kitchen,5,5,5,0,2011-01-17,,
124172,Deep Blue,1,10,10,20,2014-05-19,51.412956,-0.311064
124173,Delhi Durbar Tandoori Restaurant,3,10,10,10,2015-01-13,51.446917,-0.327095
124174,Delhi Orchid,4,5,5,10,2012-08-22,51.457068,-0.304499
124175,Delhi Wala,5,5,0,0,2012-12-07,51.451351,-0.358336
124176,Delicious Moments,5,5,0,0,2013-05-20,,
124177,Dempsey's Cafe & Takeaway,5,0,0,5,2013-11-18,51.415079,-0.375972
124178,Denmead  School,5,0,0,0,2011-09-08,51.418672,-0.368554
124179,Derby Cigar Stores,5,5,5,5,2008-03-14,51.464052,-0.277708
124180,Diners Delight,4,10,5,5,2014-03-03,51.427029,-0.337444
124181,DKS Food and Wine,3,10,10,5,2013-02-25,51.466223,-0.29401
124182,Dolce Crema,3,10,5,10,2013-06-25,51.470337,-0.255759
124183,Dominos Pizza,5,0,5,0,2010-11-12,51.445458,-0.334516
124184,Domino's Pizza,4,10,10,0,2009-01-12,51.43263,-0.345643
124185,Domino's Pizza,5,0,0,0,2012-09-27,51.465129,-0.26353
124186,Don Fernandos Restaurant,5,5,5,5,2012-09-14,51.462444,-0.302501
124187,Dowsetts,5,0,0,0,2012-10-02,51.427033,-0.332625
124188,Dragon Inn Restaurant,5,0,0,0,2013-02-19,51.462413,-0.294771
124189,Duke Street Church,5,0,5,5,2014-03-27,51.462023,-0.303236
124190,E Wok Ltd,3,10,10,10,2013-03-26,51.45447,-0.319536
124191,Earl & Greenly Cakes,5,5,5,0,2014-06-12,,
124192,East Sheen Primary School,5,5,0,0,2013-10-25,51.464921,-0.254367
124193,Elliotts News,4,0,0,10,2013-06-10,51.482668,-0.286455
124194,Ellis Fine Foods,5,5,0,0,2013-07-30,51.450739,-0.357667
124195,Encore Lounge,5,0,0,0,2013-07-09,51.457983,-0.304955
124196,Essentially Wine Ltd,5,5,5,5,2009-06-10,51.466015,-0.29887
124197,Euro Cafe,2,15,5,10,2013-12-16,51.467474,-0.266465
124198,Everydays,5,5,5,5,2009-08-03,51.417564,-0.371009
124199,Everydays,5,5,5,5,2008-02-16,51.418639,-0.379801
124200,Everydays,1,5,10,20,2013-06-17,51.438951,-0.33986
124201,Express Coffee,5,0,0,5,2010-08-09,51.456452,-0.32168
124202,Faanoo's,0,15,20,20,2014-03-17,51.464032,-0.272728
124203,Falcon Preparatory School,5,0,0,0,2011-10-14,51.465617,-0.301764
124204,Famous Wines (UK) Ltd,4,5,5,10,2007-02-28,51.427407,-0.331159
124205,Fat Boys,4,10,10,0,2014-11-13,51.45614,-0.309974
124206,Fat Boys Thai Restaurant,5,5,5,5,2013-10-22,51.464934,-0.261349
124207,Fatti Mama,3,5,10,10,2014-10-23,51.415655,-0.371494
124208,Fine and Candy,1,0,0,20,2014-05-01,51.457773,-0.263579
124209,Flavour for Baby,5,5,5,5,2014-04-04,,
124210,Flavours of Sicily,AwaitingInspection,nan,nan,nan,,51.444962,-0.332548
124211,Flying Cloud Cafe,5,5,0,5,2011-04-15,51.429388,-0.323371
124212,Food At The Misty Moon,5,0,0,5,2010-10-25,51.448209,-0.329451
124213,Food in Fabula,1,20,10,20,2014-12-02,51.469482,-0.265424
124214,Food on the Hill,4,0,5,10,2013-09-10,51.455656,-0.296995
124215,Foodland,5,0,0,5,2013-10-21,51.451274,-0.332505
124216,For Goodness Cake Ltd,5,5,5,5,2006-05-18,,
124217,For Heaven's Cakes,5,0,0,5,2013-10-02,,
124218,Foresnacks,5,5,5,5,2012-07-18,,
124219,Four Regions Restaurant,3,10,10,10,2012-12-11,51.465906,-0.298139
124220,Frankie and Flo's Play Cafe,5,0,0,5,2014-03-13,51.426049,-0.324218
124221,Fresh Cafe,4,5,5,10,2013-06-12,51.473317,-0.248201
124222,Freshfare Fish and Chip Restau,4,5,10,5,2014-12-02,51.425936,-0.338966
124223,Friends of Kew Hospital,5,0,0,0,2014-01-13,51.49155,-0.296563
124224,Frizz Kidz Ltd,3,10,5,10,2014-07-01,51.454841,-0.366804
124225,Frost and Fondant,4,0,5,10,2013-07-04,,
124226,Fulwell Food and Wine,1,0,5,20,2010-08-16,51.432342,-0.352012
124227,Fulwell Park Post Office,3,10,5,10,2014-03-11,51.439574,-0.361104
124228,Fung's Kitchen,3,5,10,10,2014-02-19,51.45441,-0.358428
124229,Fusion Seven,3,10,5,10,2014-03-19,51.465867,-0.267274
124230,Gaia  Wholefoods,4,0,0,10,2012-09-25,51.454997,-0.319905
124231,Gaucho Grill,5,5,0,0,2013-10-20,51.4571342468,-0.305950582027
124232,Gayatri Traders,5,5,5,5,2008-03-14,51.483812,-0.243449
124233,Gelateria Danieli,5,0,0,5,2012-08-01,51.460883,-0.30525
124234,Genji,4,10,5,5,2013-11-26,,
124235,Get Fresh Hampton Hill,4,10,5,5,2008-05-15,51.428358,-0.35519
124236,Ginger Q,5,0,0,5,2013-04-09,,
124237,Giraffe,5,5,0,0,2010-10-12,51.458658,-0.305578
124238,Girasole Foods Ltd,1,5,5,20,2013-07-24,51.427328,-0.327494
124239,Glasshouse,4,10,10,0,2013-02-18,51.476967,-0.285848
124240,Golden Carp,5,0,5,5,2013-08-19,51.450468,-0.378905
124241,Golden Grill,2,15,15,5,2014-08-05,51.451999,-0.357737
124242,Golden Palace Chinese Takeaway,3,10,5,10,2014-12-05,51.464044,-0.301808
124243,Gourmet Burger Kitchen,5,0,0,0,2012-06-11,51.457909,-0.305404
124244,Grassroots Nursery School,4,5,10,5,2015-01-20,,
124245,Green Acres Day Nursery,5,0,0,5,2014-08-04,51.418598,-0.378192
124246,Green Acres Nursery School,5,0,0,5,2014-06-02,51.424875,-0.35812
124247,Greenacres Day Nursery School,5,5,0,0,2014-06-02,51.426266,-0.356704
124248,Greenacres Kids Cafe,5,0,5,0,2010-08-16,51.425647,-0.356769
124249,Greenwood Community Centre,Exempt,nan,nan,nan,2010-08-16,51.425858,-0.3603
124250,Greggs,5,5,5,5,2012-10-08,51.430736,-0.306826
124251,Greggs,5,0,5,0,2011-03-03,51.446439,-0.328925
124252,Greggs,5,0,0,0,2013-10-21,51.462373,-0.302546
124253,Grena Road Day Nursery,4,10,0,0,2014-11-11,51.463266,-0.289154
124254,Grey Court School,5,0,5,0,2010-09-09,51.439274,-0.313331
124255,Grimditch,1,15,10,20,2014-12-04,51.418641,-0.371503
124256,Gusto & Relish,4,0,10,5,2012-09-17,51.468714,-0.254899
124257,Ham & Petersham Youth Club,Exempt,nan,nan,nan,2009-03-31,51.438168,-0.315213
124258,Ham Christian Centre,Exempt,nan,nan,nan,2009-03-31,51.436965,-0.319761
124259,Ham Cross Service Station,5,5,5,5,2008-03-14,51.43079,-0.3074
124260,Ham Fruiterers,5,0,0,0,2007-02-28,51.43079,-0.3074
124261,Ham House Cafe,5,5,5,5,2014-09-09,51.443689,-0.316478
124262,Ham Polo Club,3,5,10,10,2012-06-01,51.445268,-0.304965
124263,Hampton Academy,5,5,5,5,2012-09-07,51.429369,-0.374114
124264,Hampton and Richmond Football Club,5,0,0,0,2013-04-04,51.41396,-0.363429
124265,Hampton Care,5,5,5,5,2014-11-26,51.414169,-0.373934
124266,Hampton Court House School,4,5,5,10,2013-03-11,51.407537,-0.340854
124267,Hampton Court Palace Golf Club,5,5,5,0,2013-11-18,,
124268,Hampton Garden Chinese Restaurant,1,20,15,10,2014-09-04,51.428358,-0.35519
124269,Hampton Hill Cricket Club,4,0,10,10,2014-04-10,51.425647,-0.356769
124270,Hampton Hill Junior School,5,0,0,0,2013-04-18,51.42778,-0.360749
124271,Hampton Infant School,5,0,5,5,2014-10-06,51.41944,-0.375315
124272,Hampton Junior School,4,10,0,5,2013-02-06,51.417109,-0.373211
124273,Hampton Methodist Church Hall,1,0,5,20,2014-09-03,51.417722,-0.37398
124274,Hampton Munchies,5,5,5,0,2013-06-12,51.417109,-0.373211
124275,Hampton Sailing Club,5,5,5,0,2009-03-31,51.413119,-0.363704
124276,Hampton School,5,0,0,0,2012-09-07,51.428743,-0.371144
124277,Hampton Spice,2,15,10,10,2013-10-29,51.416684,-0.370494
124278,Hampton Supermarket,4,5,10,5,2012-09-06,51.414677,-0.372952
124279,Hampton Tandoori Restaurant,2,10,15,10,2014-08-05,51.415079,-0.375972
124280,Hampton Wick Infants School,4,10,0,10,2015-01-16,,
124281,Hampton Wick Tandoori,2,10,15,0,2014-10-14,51.412956,-0.311064
124282,Hand & Flower,4,5,5,10,2013-08-12,51.432836,-0.30649
124283,Hank Marvin,5,0,0,5,2013-07-11,,
124284,Hansel & Pretzel,5,0,0,5,2013-10-15,51.438397,-0.313651
124285,Hanworth Superstore,2,15,10,10,2013-01-21,51.450468,-0.378905
124286,Happy Hut Playgroup,5,5,0,0,2013-10-16,51.448925,-0.352091
124287,Hare and Hound,5,5,0,0,2011-01-18,51.46511,-0.264697
124288,Hari Supermarket,4,0,0,10,2013-01-03,51.465129,-0.26353
124289,Harlequins FC,5,5,5,0,2013-10-08,51.450761,-0.343232
124290,Harris and Hoole,5,0,0,0,2012-12-10,51.446439,-0.328925
124291,Harrison News UK,3,10,5,10,2010-02-12,51.459507,-0.304596
124292,Harry's Newsagent & Grocers,5,5,5,5,2008-03-14,51.45381,-0.356708
124293,Haweli,1,10,15,20,2014-12-08,51.470337,-0.255759
124294,Haweli of St Margarets,2,10,15,10,2013-08-15,51.455272,-0.319665
124295,Haweli Of Teddington,3,10,10,10,2014-09-30,51.424336,-0.321404
124296,Heathfield Infants School,4,10,0,5,2014-03-13,51.447404,-0.368681
124297,Heath's Sandwich Bar,4,0,10,5,2013-08-19,51.445085,-0.337393
124298,Heathside Food Store,4,0,0,10,2013-04-03,51.450468,-0.378905
124299,Heavenly Dish,4,5,5,10,2014-03-20,,
124300,Helix Restaurant (LGC LTD),5,5,0,0,2013-08-06,51.425048,-0.340393
124301,Henry's Fish Bar,4,0,0,10,2014-08-11,51.464934,-0.261349
124302,High Road Auctions,1,5,10,20,2014-06-12,51.444962,-0.332548
124303,Hill Cafe,3,5,10,10,2014-02-20,,
124304,Hillpark Nursery,5,0,5,5,2014-02-04,51.428751,-0.363937
124305,Hilltribe,5,5,0,5,2014-05-12,51.459507,-0.304596
124306,Historic Royal Palaces Enterprises,4,0,0,10,2007-09-06,51.403823,-0.337682
124307,HMP Latchmere House,5,0,0,0,2011-03-16,51.428697,-0.295825
124308,HND Self Service,4,10,10,0,2013-10-03,51.456125,-0.308895
124309,Holland & Barrett Ltd,4,5,10,0,2007-02-28,51.461087,-0.304451
124310,Holly Grove Nursery School,5,0,5,5,2012-09-25,51.422985,-0.383287
124311,Hollyhock Cafe,5,5,0,0,2013-02-20,51.452597,-0.30183
124312,Holy Trinity Church Centre,Exempt,nan,nan,nan,2008-03-14,51.463523,-0.294442
124313,Holy Trinity Primary School,5,0,0,0,2014-12-01,51.463424,-0.285822
124314,Homelink,5,5,0,0,2013-11-20,51.443195,-0.364802
124315,Homemead,5,0,0,0,2013-07-23,51.423062,-0.33546
124316,Honey Food & Wine Ltd,5,0,0,0,2007-02-28,51.454912,-0.311459
124317,Hons Takeaway,2,15,10,10,2013-12-18,51.428358,-0.35519
124318,Hot Knives Catering,1,0,0,20,2014-10-21,,
124319,Hot Skillet,5,5,0,5,2013-09-09,,
124320,Hounslow Meat Store,4,0,5,10,2014-05-28,51.449215,-0.377367
124321,Hug in a Cup,5,5,5,5,2013-11-20,,
124322,Hussar's Espresso House,1,0,0,20,2014-09-01,51.412111,-0.311081
124323,Iceland,5,5,5,0,2011-03-04,51.44586,-0.328644
124324,Iceland Frozen Foods Plc,5,0,0,5,2012-09-24,51.452431,-0.35837
124325,I'd rather be eating Chocolate,5,5,0,5,2013-10-02,,
124326,Il Casale,4,5,5,10,2013-07-09,51.425647,-0.356769
124327,Il Rustico,4,5,5,10,2012-09-07,51.425647,-0.356769
124328,Il Vero Gusto,1,5,5,20,2013-08-05,51.455222,-0.310555
124329,Imperial China,4,10,5,5,2013-07-03,51.432567,-0.345602
124330,Indian Oven,3,10,10,10,2014-08-04,51.472193,-0.287164
124331,Indian Zilla,5,0,5,0,2013-03-05,51.474274,-0.23879
124332,Iso Sushi Ltd,5,5,5,0,2014-08-13,,
124333,Istanbul Barbecue,4,10,5,5,2014-03-26,51.42618,-0.338439
124334,ITSU Ltd,5,0,0,0,2014-10-15,51.460673,-0.304394
124335,J D News & Booze,1,0,5,20,2012-09-13,51.453342,-0.33623
124336,J Golding Group,4,5,10,0,2013-06-06,51.421224,-0.319432
124337,J K Patel,5,5,5,5,2007-02-28,51.43925,-0.337432
124338,J Seal Butchers,5,0,0,5,2014-03-21,51.473514,-0.249302
124339,Jack & Jill School,5,5,5,0,2006-09-27,,
124340,Jack and Jill School Ltd,5,0,0,5,2014-03-11,51.443464,-0.344215
124341,Jack's Ice Cream,5,0,5,5,2014-05-02,,
124342,Jade Takeaway,1,10,10,20,2015-01-20,51.45479,-0.354125
124343,Jaflong Tandoori,1,5,5,20,2013-10-15,51.438086,-0.313893
124344,Jamie's Trattoria,5,5,5,0,2013-08-29,51.459963,-0.306954
124345,Jay's Newsagents,4,5,10,0,2010-05-14,51.424336,-0.321404
124346,Jellie Tots Pre-School,5,5,5,5,2007-02-28,51.438873,-0.364985
124347,Jenny Hunt Cakes,5,0,5,5,2009-06-29,,
124348,JKS News,5,0,0,0,2011-02-22,51.4478,-0.328473
124349,Joie De Paris Cafe,4,5,10,5,2013-03-21,51.461275,-0.300673
124350,Jolly's Indian Restaurant,4,5,10,5,2013-07-02,51.45441,-0.358428
124351,Jonquil Bakery,4,10,5,5,2013-07-30,51.450739,-0.357667
124352,Jovanni's Cafe,2,15,10,10,2014-07-22,51.425647,-0.356769
124353,Julia Farkas,5,0,0,0,2014-05-15,,
124354,Julie's Montessori Nursery,5,0,0,0,2010-11-23,51.414093,-0.360707
124355,Jumping Jacks,4,5,5,10,2015-01-06,51.423035,-0.382335
124356,Jumping Jacks Nursery,5,0,0,0,2013-04-02,51.445461,-0.369268
124357,Jun Ming Chinese Restaurant,3,10,10,5,2014-05-28,51.445562,-0.331058
124358,Kamares,3,10,10,10,2013-02-19,51.445544,-0.336786
124359,Karens Sandwich Bar,5,5,5,5,2013-07-30,51.44985,-0.357714
124360,Karmarama,5,0,5,5,2013-10-24,51.447014,-0.32004
124361,Kentucky Fried Chicken,4,10,0,0,2013-05-16,51.426906,-0.355516
124362,Kentucky Fried Chicken,5,0,0,0,2013-07-02,51.44586,-0.328644
124363,Kerala Melon,5,nan,nan,nan,2014-09-17,51.445458,-0.334516
124364,Kerbisher & Malt,4,10,5,5,2012-08-09,51.465272,-0.262287
124365,Kernow,4,5,5,10,2015-01-16,51.412956,-0.311064
124366,Kerswell kids Ltd,4,5,10,0,2014-04-29,51.455228,-0.364847
124367,Kew Community Trust,5,5,0,5,2014-11-13,51.473705,-0.287856
124368,Kew Convenience Store,1,5,0,20,2012-10-16,51.476563,-0.284653
124369,Kew Fish Bar,3,10,10,10,2013-08-12,51.476563,-0.284653
124370,Kew Gardens Chinese Takeaway,4,0,0,10,2012-10-18,51.476563,-0.284653
124371,Kew Gardens Tobacco,5,5,5,5,2009-03-31,,
124372,Kew Green Prep School,5,5,5,0,2012-09-11,51.485851,-0.290138
124373,Kew Grill Restaurant,5,5,5,0,2013-06-12,51.48377,-0.28614
124374,Kew Riverside Primary School,5,5,0,0,2013-10-25,51.474198,-0.276664
124375,Kew Road Stores,4,5,10,0,2006-10-23,51.466015,-0.29887
124376,Kewmunicate,5,0,0,0,2013-11-20,,
124377,KG Cafe,4,10,0,5,2014-11-26,51.445941,-0.350256
124378,Kids INC Nurseries,5,0,0,0,2013-02-18,51.463965,-0.271233
124379,Kidsunlimited,5,0,0,0,2014-10-24,51.416856,-0.31837
124380,Kidsunlimited - Bushy Tails,5,0,0,0,2014-05-30,51.426554,-0.343935
124381,Kings Field Limited t/as pitachios in the Parl,4,0,5,10,2010-01-14,51.411142,-0.312454
124382,Kings House Junior School,5,0,0,0,2010-05-26,51.46049,-0.293662
124383,Kings House Nursery,5,0,5,0,2012-09-14,51.460659,-0.29475
124384,Kings House School,5,0,0,0,2010-05-26,51.459366,-0.293028
124385,Kingsway Stores,5,0,5,5,2011-06-06,51.468431,-0.271626
124386,KISH,5,0,0,0,2013-09-10,51.44646,-0.301568
124387,Kitchen at The Court Jester,5,5,0,5,2012-12-13,51.426235,-0.378368
124388,Knot Pretzels,4,10,5,5,2013-08-09,51.464135,-0.300667
124389,KSN Off Licence & Grocery,1,10,5,20,2013-10-18,51.466471,-0.252825
124390,KT2 Eat Ltd,5,0,0,5,2013-07-12,,
124391,Kurk Grill Bar,5,0,0,5,2012-11-20,51.464078,-0.273993
124392,L Unico,3,10,10,10,2012-09-10,51.461525,-0.304233
124393,La Baguetterie,3,10,10,10,2014-07-25,51.446891,-0.327801
124394,La Bottega,4,0,5,10,2013-01-08,51.427033,-0.332625
124395,La Boulangerie,5,0,0,5,2012-10-04,51.456125,-0.308895
124396,La Boulangerie,1,15,10,20,2014-08-27,51.45447,-0.319536
124397,La Buvette,4,0,10,10,2012-08-30,51.460326,-0.303414
124398,La Cloche at The Lion,5,5,0,5,2014-08-04,51.418147,-0.318711
124399,La Crepe Des Delices,5,5,5,0,2013-07-15,,
124400,La Creperie Bretonne,3,10,10,5,2013-02-18,51.454997,-0.319905
124401,La Dolce Vita,2,15,5,5,2013-07-25,51.432416,-0.338745
124402,La Familia,4,10,5,5,2014-01-30,51.424875,-0.35812
124403,La Serenata,4,0,5,10,2012-08-30,51.451015,-0.331953
124404,La Stalla,1,5,0,20,2015-01-20,,
124405,Lady Eleanor Holles,5,5,0,0,2012-10-17,51.427474,-0.367809
124406,L'Amandine,4,10,5,5,2013-09-06,51.421224,-0.319432
124407,L'Amandine,5,0,5,5,2014-06-26,51.455212,-0.296752
124408,L'Amandine,4,10,5,5,2014-11-28,51.431347,-0.306746
124409,Lambsmead,5,5,5,5,2014-09-02,,
124410,Landmark Arts Centre,5,5,5,5,2007-01-12,51.429485,-0.323646
124411,Lass O' Richmond Hill,4,10,0,0,2014-09-02,51.451177,-0.295751
124412,Last Try Wine Store,4,0,0,10,2012-09-25,51.453342,-0.33623
124413,Laurel Dene,5,5,5,0,2014-08-20,51.42837,-0.351507
124414,Laverstoke Park Farm,5,0,0,5,2013-10-14,51.445216,-0.329517
124415,Lazeez Deli,3,10,10,10,2014-03-19,51.46665,-0.266712
124416,Lazgill Ltd,5,5,5,5,2011-08-15,51.415023,-0.315288
124417,LBRUT Social Services,5,5,5,5,2009-01-13,51.427547,-0.356974
124418,Le Bon Gout,4,5,5,10,2013-09-19,51.425792,-0.335835
124419,Le Chanterelle,4,10,5,5,2012-03-17,51.451274,-0.332505
124420,Le Petite Cafe,1,0,0,20,2012-11-28,51.456022,-0.302393
124421,Learning School Trust,5,5,0,5,2014-05-13,51.429369,-0.374114
124422,Lee's Gourmet Oriental,5,nan,nan,nan,2013-09-20,51.464403,-0.272829
124423,Lensbury Limited,5,0,0,0,2013-06-25,51.427943,-0.318955
124424,Leonardo's Cafe,4,0,5,10,2013-10-22,51.464658,-0.265794
124425,Lidl UK,5,0,0,0,2012-04-26,51.452431,-0.35837
124426,Lily Loves Cupcakes,5,0,0,5,2014-04-30,,
124427,Linden Hall Day Centre Assc.,4,5,5,10,2014-09-29,51.416559,-0.375043
124428,Linnea,5,0,5,5,2012-09-04,51.48377,-0.28614
124429,Little Angel Cakes,5,0,5,5,2009-06-29,,
124430,Little Bugs Montessori Nursery,5,0,5,5,2013-10-23,51.449898,-0.324913
124431,Little China Ltd,4,0,10,10,2014-09-01,51.412111,-0.311081
124432,Little Fishes Soft Play Ltd,4,0,0,10,2009-02-26,51.43038,-0.353147
124433,Little Hamsters,4,0,5,10,2013-01-11,,
124434,LittleStairs Day Nursery (UK0 LTD,5,0,5,5,2014-06-03,51.447691,-0.381623
124435,Local Food & Wine,5,0,0,5,2013-06-10,51.4478,-0.328473
124436,Local Letterbox,5,5,5,5,2010-11-17,51.461275,-0.300673
124437,Loch Fyne Restaurant,5,5,0,0,2012-08-13,51.436639,-0.350001
124438,Londis,5,5,5,5,2010-06-07,51.474352,-0.244028
124439,Londis,5,5,5,5,2009-01-15,51.467583,-0.284284
124440,Londis,3,5,10,10,2014-10-13,51.442906,-0.3512
124441,London Food and Wine,4,0,0,10,2012-10-15,51.449314,-0.378644
124442,London Kebabs,1,5,5,20,2013-08-07,51.446975,-0.328661
124443,London Marriott Hotel,5,5,0,5,2012-07-25,51.455151,-0.340151
124444,London Pizza Experts,2,10,15,10,2013-07-31,51.412111,-0.311081
124445,Lorna's Cakery,4,0,0,10,2012-11-23,,
124446,Lotus Palace,4,5,5,10,2014-03-24,51.464764,-0.264393
124447,Love Birds Bakery Ltd,5,0,0,0,2013-12-02,,
124448,Love Food,4,5,5,10,2014-09-16,51.457404,-0.304041
124449,Lowther Primary School,5,0,0,0,2013-04-17,51.483452,-0.239776
124450,Lucky Garden,4,5,10,5,2013-09-03,51.464122,-0.323529
124451,Lulu'z Ltd,4,5,0,10,2013-01-23,51.448209,-0.329451
124452,M G News,5,5,5,5,2008-03-14,51.464122,-0.323529
124453,M S Newsagent,5,5,5,5,2008-03-14,51.439574,-0.361104
124454,Ma Cuisine Bistrot,3,5,10,10,2014-11-26,51.477514,-0.285741
124455,Mace Convenience Stores,1,15,15,20,2014-02-25,51.455212,-0.296752
124456,Machaan,1,10,10,20,2014-08-21,51.412111,-0.311081
124457,Mac's Diner and Grill,3,10,5,10,2013-10-31,51.44523,-0.330524
124458,Madame Macaroon,5,5,0,0,2012-11-21,,
124459,Madeleine's Cake Boutique,5,0,0,5,2010-11-01,51.464329,-0.267822
124460,Madisons House Childminding,Exempt,nan,nan,nan,2014-05-06,51.446532,-0.337974
124461,Mahirah Restaurant,4,0,5,10,2012-06-29,51.421964,-0.375786
124462,Main Refectory,5,5,0,0,2013-10-08,51.451441,-0.342387
124463,Majestic Wine Warehouse,5,0,0,0,2009-06-23,51.440268,-0.333165
124464,Majestic Wine Warehouse Ltd,5,0,0,0,2013-06-20,51.472372,-0.295074
124465,Makan- Makan,4,10,0,5,2012-07-31,51.449453,-0.323318
124466,Maki Japanese Restaurant,1,15,10,20,2014-12-02,,
124467,Malgosia Ltd,1,10,15,20,2014-05-28,51.445458,-0.334516
124468,Maltese Falcon (Lorenzo) Limited,5,0,0,5,2010-04-22,,
124469,Mambocino Caffe,5,0,0,0,2013-01-23,51.445458,-0.334516
124470,Mamma Mia,4,0,5,10,2013-10-22,51.463965,-0.271233
124471,Mamma Ristorante,4,5,10,5,2014-12-08,51.465906,-0.298139
124472,Man's,2,15,10,10,2014-09-30,51.412111,-0.311081
124473,Marble Hill Nursery School,4,5,5,10,2007-02-28,,
124474,Marble Hill Tandoori,1,10,10,20,2014-03-27,51.448683,-0.324828
124475,Marco Polo,4,10,5,5,2011-03-24,51.455222,-0.310555
124476,Marks & Spencer,5,0,0,0,2010-12-30,51.445562,-0.331058
124477,Marks & Spencer Food,5,0,0,0,2012-10-03,51.427376,-0.329592
124478,Marks & Spencer Plc,5,5,0,0,2010-09-07,51.478246,-0.279218
124479,Marks & Spencer Plc,5,0,0,0,2013-03-25,51.459887,-0.306021
124480,Marks and Spencer Simply Food,5,0,0,0,2013-05-01,51.464135,-0.300667
124481,Marshgate Primary School,5,0,0,0,2013-06-24,51.461371,-0.289959
124482,Martins Newsagents,5,0,0,0,2011-01-25,51.476967,-0.285848
124483,Martin's the Newsagent,5,5,5,5,2008-03-14,51.474833,-0.240727
124484,Masaniello Restaurant,5,5,5,5,2012-10-03,51.446917,-0.327095
124485,Masoud,1,10,10,20,2014-02-11,51.485259,-0.233772
124486,Matsuba,5,5,5,5,2013-05-01,51.459507,-0.304596
124487,Maya's,5,5,5,5,2012-09-13,51.444255,-0.346734
124488,McDonalds Restaurants Ltd,5,0,0,0,2013-05-01,51.462444,-0.302501
124489,McDonalds Restaurants Ltd,5,0,0,0,2013-02-20,51.436868,-0.377315
124490,Me Organic,4,5,5,10,2010-05-19,,
124491,Meadlands Primary School,5,0,5,0,2008-03-04,51.433281,-0.314961
124492,Meet & Deep Newsagents,4,5,5,10,2007-02-12,51.441977,-0.344585
124493,Melbury,5,5,5,5,2008-10-09,51.470601,-0.283422
124494,Mencap,5,5,5,5,2008-03-14,51.444187,-0.366939
124495,Merits,5,0,0,0,2013-06-13,51.451441,-0.342387
124496,Merry Gold AMI Montessori Scho,5,5,5,5,2008-03-14,51.456039,-0.354728
124497,Metropolitan Water Board Club,5,5,5,5,2009-03-05,51.416417,-0.371337
124498,Mezzaluna,1,0,15,20,2014-04-05,,
124499,Micks Burger Wagon,3,10,5,10,2013-08-21,51.425092,-0.369217
124500,Midas World (GB) Limited,4,10,0,5,2014-06-02,51.434593,-0.351476
124501,Middle Cottage,1,0,0,20,2014-03-12,51.429485,-0.323646
124502,Miki's Fish Bar,5,5,5,5,2013-03-28,51.450739,-0.357667
124503,Milkshake Montessori Nursery,5,0,5,0,2013-09-09,51.453754,-0.353961
124504,Mill Food and Wine,1,10,10,20,2014-07-11,51.449314,-0.378644
124505,Millie's Handmade Cakes,3,10,5,10,2010-10-18,,
124506,Minar Cash & Carry,1,5,10,20,2014-05-09,51.449314,-0.378644
124507,Minar Tandoori,1,15,10,20,2014-11-26,51.428358,-0.35519
124508,Mind Cafe (Wellbeing Centre),4,nan,nan,nan,2014-01-14,51.49155,-0.296563
124509,Ming's Chinese Takeaway,4,10,5,5,2014-12-05,51.437026,-0.350606
124510,Mini Bites,4,0,10,5,2014-01-13,51.445562,-0.331058
124511,Miss Rubys Pantry,5,5,0,0,2014-05-27,,
124512,Miss Siam Restaurants Ltd,5,5,5,5,2012-07-04,51.447428,-0.32699
124513,Moccia,1,10,5,20,2013-08-16,51.456125,-0.308895
124514,Modis Newsagents & Off Licence,5,5,5,5,2008-03-14,51.445216,-0.329517
124515,Moidhul's,3,10,5,10,2012-07-24,51.427143,-0.329629
124516,Moidul's Rawalpindi,1,10,10,20,2014-06-30,51.445778,-0.329827
124517,Molly's,4,5,0,10,2013-04-30,51.466015,-0.29887
124518,Monaf's,4,5,5,10,2013-12-10,51.415655,-0.371494
124519,Monkey Puzzle Day Nurseries,5,5,5,0,2014-09-01,51.443935,-0.351451
124520,Montien Thai Cuisine,5,5,5,0,2013-10-30,,
124521,Montys @ Marksbury,5,0,0,0,2013-09-11,51.470601,-0.283422
124522,Monty's Day Nursery,5,0,0,0,2013-07-31,,
124523,Monzil Tandoori Restaurant,4,10,10,0,2013-06-26,51.474833,-0.240727
124524,Mooca,1,0,5,20,2014-03-17,51.460357,-0.306162
124525,Mooca Cafe,1,10,15,20,2014-09-08,51.475386,-0.239842
124526,Morrisons,5,5,0,5,2013-11-29,51.445562,-0.331058
124527,Morrisons Local,5,0,0,0,2014-03-20,51.42618,-0.338439
124528,Mortlake Hall Club,5,0,0,0,2011-10-12,51.469006,-0.2564
124529,Moulton Newsagents,4,0,0,10,2012-11-20,51.464403,-0.272829
124530,Mr Andrew Thorndyke,5,5,5,5,2013-07-22,,
124531,Mr Brian Herbert,1,5,5,20,2014-06-05,51.473418,-0.244669
124532,Mr Cod,5,0,5,5,2014-08-27,51.432569,-0.338783
124533,Mr P Smith,1,10,10,20,2014-03-09,,
124534,Mr S Firouz,5,5,5,5,2008-09-15,,
124535,Mrs Jane Sutherland,5,0,0,5,2013-11-06,,
124536,Mrs Julia Lester,5,5,0,5,2012-07-30,,
124537,Mrs Susan Carson,1,10,5,20,2014-03-09,,
124538,Ms Elaine Price,5,5,5,5,2008-03-14,,
124539,Ms T Bennett,5,5,5,5,2008-06-30,,
124540,Mute Swan,5,5,0,0,2012-07-26,51.404762,-0.342421
124541,My Chicken,1,10,10,20,2015-01-06,51.451274,-0.332505
124542,Namo Bar and Kitchen,5,0,5,0,2012-07-14,51.464006,-0.269706
124543,Nando's,5,0,0,5,2014-03-12,51.426562,-0.333678
124544,Nando's Chicken Restaurant,4,5,10,5,2013-07-05,51.457983,-0.304955
124545,National Physical Laboratory,5,5,5,0,2013-08-06,51.419042,-0.324057
124546,Nats Cake Boutique,5,0,5,0,2011-09-06,,
124547,Natson's,4,0,10,0,2007-02-28,51.474352,-0.244028
124548,Naz Balti,2,15,15,10,2014-05-07,51.446917,-0.327095
124549,Nelson Primary School,5,5,5,0,2014-07-01,51.453144,-0.359855
124550,Nemo's Cafe Kiosk,1,10,15,20,2014-07-17,,
124551,Netty's Creative Crumbs,5,0,0,0,2013-11-22,,
124552,New China Express,4,0,10,5,2012-05-31,51.425889,-0.336925
124553,New Mandarin Chinese Restaurant,4,5,10,5,2013-11-20,51.431239,-0.307383
124554,New Royal Dragon,4,10,5,5,2014-03-21,51.46665,-0.266712
124555,New Stepping Stones Playgroup,5,0,0,0,2007-02-28,51.468679,-0.265238
124556,Neway Food & Wine,5,5,5,5,2008-04-09,51.438086,-0.313893
124557,Newland House School,5,0,0,0,2012-09-17,51.433632,-0.333176
124558,News Dip,4,0,5,10,2013-07-08,51.436402,-0.320602
124559,Newsbox,5,5,5,5,2008-03-14,51.43079,-0.3074
124560,Newshouse,5,5,5,5,2007-01-06,51.423967,-0.332694
124561,No Waffle Waffle,3,10,10,10,2013-11-16,51.450139,-0.364928
124562,Noble Green Wines Ltd,5,5,5,5,2006-07-06,51.428358,-0.35519
124563,Nonna's Homemade Pasta,5,0,0,0,2013-02-04,,
124564,NPL Sports Club,3,10,5,10,2013-08-06,51.422777,-0.337527
124565,Nuffield Fitness & Wellbeing,5,5,5,5,2010-01-22,51.450761,-0.343232
124566,Nutty Lady Ltd,5,0,5,5,2014-03-31,,
124567,Obolensky's Restaurant,4,10,5,0,2012-11-10,51.448339,-0.322742
124568,Oddbins,5,0,0,0,2014-02-25,51.455212,-0.296752
124569,Oddbins Ltd,4,5,10,0,2007-02-28,51.47745,-0.286247
124570,Oddfellows,4,0,0,10,2011-02-11,51.463898,-0.302288
124571,Odeon Cinema,AwaitingInspection,nan,nan,nan,,51.458658,-0.305578
124572,Old Hamptonians Association,4,0,0,10,2013-04-29,,
124573,Oldfield Centre,5,5,0,5,2011-09-08,51.415079,-0.375972
124574,Olivers Wholefood,5,0,5,5,2006-07-25,51.477514,-0.285741
124575,Olympic Cinema,5,nan,nan,nan,2014-09-08,51.475014,-0.241411
124576,On The Hoof,5,5,5,0,2014-04-02,51.437518,-0.375537
124577,One Kew Road,5,5,0,0,2012-03-23,51.464044,-0.301808
124578,Orange Pekoe,3,10,10,10,2013-10-25,51.470537,-0.255334
124579,Oriental Chef,3,10,10,10,2014-02-27,51.453342,-0.33623
124580,Oriental Chef Burger Van,4,5,5,10,2013-03-10,,
124581,Original Maids Of Honour Ltd,4,10,0,0,2013-02-18,51.48142,-0.287783
124582,Orione Care,5,0,5,5,2013-11-18,,
124583,Orleans Garden Cafe,4,0,10,10,2013-08-28,51.449966,-0.317701
124584,Orleans Infants School,5,0,0,0,2014-09-11,51.453016,-0.320366
124585,Orleans Park School,5,0,0,0,2013-10-24,51.450984,-0.319074
124586,Orpheus Taverna,3,5,10,10,2013-07-23,51.455236,-0.311476
124587,Osteria Pulcinella Cafeteria,5,5,5,5,2012-10-03,51.446665,-0.327104
124588,Pala Kebab House,1,15,10,20,2014-03-17,51.464961,-0.2662
124589,Palace Service Station,5,5,0,0,2015-01-13,51.405598,-0.343642
124590,Palmyra Express Ltd,3,10,10,10,2014-10-02,51.474314,-0.286408
124591,Panda Garden,2,15,10,10,2014-05-22,51.445544,-0.336786
124592,Papa  John's,4,10,0,5,2014-06-03,51.464264,-0.270142
124593,Parkway Nursery school,5,0,0,5,2012-07-17,,
124594,Parma Pizza,2,15,10,10,2014-08-05,51.445458,-0.334516
124595,Pasta di Piazza,1,15,15,20,2014-04-15,51.449303,-0.322892
124596,Patisserie Valerie,5,0,0,5,2011-09-16,51.460999,-0.302108
124597,Patisserie Valerie,4,10,0,0,2013-01-09,51.44586,-0.328644
124598,Patrick Kevin Boland,1,0,5,20,2014-08-07,,
124599,Pats Foodstore,3,10,5,10,2010-05-19,51.468714,-0.254899
124600,Paul,5,5,5,0,2014-03-14,51.461943,-0.303297
124601,Paulina Wolf,Exempt,nan,nan,nan,2014-05-08,51.44515,-0.336283
124602,Pavilion Restaurant,3,10,10,5,2011-06-23,51.474135,-0.292678
124603,Paya Thai,4,5,5,10,2014-09-17,51.466015,-0.29887
124604,Peachey Nursery School,5,5,5,5,2008-02-07,51.454709,-0.332481
124605,Peggy's Pantry,3,10,5,10,2014-06-12,51.438968,-0.339126
124606,Pembroke Lodge,5,0,5,0,2012-10-01,51.442508,-0.294491
124607,Penelope Dupre Cuisine,5,5,5,5,2014-03-17,,
124608,Peppers,1,15,15,20,2014-02-17,51.428358,-0.35519
124609,Pergola Point Products,4,5,0,10,2009-07-27,,
124610,Petersham Nurseries Ltd,2,15,10,10,2013-10-24,51.446478,-0.304042
124611,Pether's Butchers,5,5,0,0,2013-02-18,51.476967,-0.285848
124612,Petit Delice,3,10,5,10,2013-10-30,51.474352,-0.244028
124613,Pettits of Priory Road,5,5,5,5,2008-03-14,51.418641,-0.371503
124614,Pheasantry Cafe,3,10,5,10,2013-07-23,51.414796,-0.350558
124615,Philglas & Swiggot,5,5,5,5,2008-06-09,51.457404,-0.304041
124616,Pho Saigon,4,5,10,5,2014-08-20,51.448099,-0.326145
124617,Piazza Firenze,4,10,5,5,2014-06-02,51.426266,-0.356704
124618,Pickle + Rye,1,10,10,20,2014-08-18,51.467474,-0.266465
124619,Pier 1 Fish & Chips,4,10,5,5,2014-06-25,51.457068,-0.304499
124620,Pigs Ears Beers Ltd,3,10,10,10,2013-02-22,51.458793,-0.306206
124621,Pincho,5,5,0,0,2013-11-15,51.446665,-0.327104
124622,Pink Sugar Bomb,5,0,5,0,2014-04-28,,
124623,Pitcher and Piano,4,5,10,5,2013-08-14,51.458129,-0.306317
124624,Pizza 2 Night,2,15,5,5,2014-01-22,51.448099,-0.326145
124625,Pizza Bar One,2,15,10,10,2013-12-17,51.485259,-0.233772
124626,Pizza Bella,3,10,10,10,2014-09-24,51.445216,-0.329517
124627,Pizza Express,5,5,0,5,2012-07-24,51.428113,-0.335247
124628,Pizza Express,5,5,0,0,2013-10-10,51.464839,-0.262807
124629,Pizza Express,5,0,5,0,2013-08-19,,
124630,Pizza Go Go,1,15,15,20,2014-08-11,51.464446,-0.273965
124631,Pizza Hut,4,10,0,5,2012-09-03,51.465272,-0.262287
124632,Pizza Hut,5,0,0,0,2013-07-30,51.451999,-0.357737
124633,Pizza TW2,2,5,15,10,2014-07-11,51.453242,-0.357218
124634,PizzaExpress,5,0,0,0,2013-07-31,51.477514,-0.285741
124635,PizzaExpress,5,0,0,0,2012-09-24,51.447393,-0.327725
124636,PizzaExpress,5,0,0,0,2012-09-27,51.473514,-0.249302
124637,Pizzeria Rustica,5,5,5,5,2013-09-27,51.462444,-0.302501
124638,PK's Fish Bar,5,5,0,0,2012-02-16,51.451015,-0.331953
124639,Pop In Sam's Cafe,3,10,5,10,2014-11-06,51.430996,-0.345831
124640,Popeyed Cake Pops,4,0,10,10,2014-04-08,,
124641,Popular Food and Wine,3,10,5,10,2014-03-11,51.441977,-0.344585
124642,Portofino,3,10,5,10,2013-10-21,51.461358,-0.302656
124643,Posh Nosh,5,5,5,5,2013-01-09,,
124644,Post Office,5,0,0,0,2012-01-30,51.451999,-0.357737
124645,Powder Mill News,5,5,5,5,2008-04-07,51.449314,-0.378644
124646,Powerhouse Cafe at Teddington Studios,5,0,0,0,2012-02-13,51.428916,-0.321538
124647,Prem Restaurant,4,5,5,10,2014-03-03,51.427407,-0.331159
124648,Premier Wine,4,5,10,0,2007-02-28,51.43925,-0.337432
124649,Premiere Wines,4,5,10,0,2007-02-28,51.430996,-0.345831
124650,Prince Of Wales,4,0,5,10,2013-02-21,51.439246,-0.348627
124651,Priyas Convenience Store,5,5,5,5,2010-12-22,51.414021,-0.312578
124652,"Prosperity: Shop, Cafe & Bar",1,10,10,20,2013-10-21,51.448099,-0.326145
124653,Protege,5,0,0,0,2013-01-10,51.457404,-0.304041
124654,Puccino's,5,0,0,5,2010-08-19,51.425338,-0.332356
124655,Puccino's cafe Bar,5,0,0,5,2012-07-30,51.464135,-0.300667
124656,Puccino's Cupuccino Expresso Bar,5,5,0,0,2012-12-05,51.464135,-0.300667
124657,Puccino's Expresso Cafe,5,0,0,5,2012-02-15,,
124658,Putney Town Rowing Club,3,5,10,10,2009-08-13,51.473916,-0.27401
124659,Q Verde,5,0,0,0,2014-01-20,51.474314,-0.286408
124660,Quality Fish & Chips,5,5,0,5,2013-03-15,51.415655,-0.371494
124661,Quality Fish Restaurant,5,5,0,5,2012-08-22,51.459963,-0.306954
124662,Quality Grocer's,4,5,5,10,2012-09-20,51.427228,-0.328015
124663,Quinns Hotel,4,5,0,10,2010-12-15,51.461387,-0.29907
124664,R & P Sandwich & Coffee Bar,5,5,5,5,2012-09-03,51.465678,-0.266648
124665,R Chubb & Son,5,5,0,0,2012-07-31,51.464403,-0.272829
124666,R M Armstrong,5,0,5,0,2012-02-17,51.454997,-0.319905
124667,R Tucker,5,0,0,0,2013-04-03,51.43079,-0.3074
124668,Radnor Cafe,2,15,5,5,2013-04-29,51.443304,-0.336266
124669,Radnor House,4,10,0,0,2014-04-29,51.448339,-0.322742
124670,Raefils,5,0,0,5,2014-05-09,51.446665,-0.327104
124671,Rainbow Nursery School,5,0,0,0,2007-02-28,51.4635238647,-0.294441908598
124672,Rainbow Nursery School,3,10,5,10,2013-03-25,51.458505,-0.30436
124673,Rainbow Nursery School,5,0,0,0,2012-11-09,51.457281,-0.266764
124674,Rama Newsagents,5,0,5,0,2010-09-17,51.466471,-0.252825
124675,Rams,5,0,0,0,2007-09-06,51.482508,-0.28165
124676,Rana's Delight,5,0,0,5,2013-10-28,,
124677,Rara,3,10,5,10,2012-07-26,51.474314,-0.286408
124678,Raveka Store,3,10,10,10,2013-08-08,51.468563,-0.278719
124679,Raw For Life,4,0,5,10,2013-12-10,,
124680,Real Ale Ltd,4,5,5,10,2009-06-24,51.45614,-0.309974
124681,Real Cheese Shop,5,0,0,0,2013-07-16,51.473913,-0.24897
124682,Red Cafe,2,15,10,10,2014-03-25,51.455656,-0.296995
124683,Red Peppers,5,5,0,0,2013-07-25,51.42618,-0.338439
124684,Red Planet Pizza,1,15,10,20,2014-11-03,51.46199,-0.29663
124685,Redwoods,5,0,0,0,2012-03-07,51.451441,-0.342387
124686,Reed Exhibitions,5,0,0,0,2012-10-16,51.462444,-0.302501
124687,Refreshment Point,5,0,0,0,2008-06-17,,
124688,Refreshment Point,4,0,0,10,2013-06-24,,
124689,Regal Cafe,2,15,15,10,2015-01-12,51.449518,-0.329748
124690,Regal Haandi,3,10,10,10,2015-01-13,51.44489,-0.340149
124691,Regan's Fish Bar,5,0,0,0,2013-08-28,51.454647,-0.35485
124692,Regard Partnership,Exempt,nan,nan,nan,2010-02-18,51.456584,-0.330887
124693,Regency Fish Bar,2,15,5,10,2014-12-03,51.430996,-0.345831
124694,Restaurant 109,5,0,5,5,2013-04-30,51.466015,-0.29887
124695,Retro Bistrot,4,5,0,10,2014-03-03,51.427228,-0.328015
124696,Revital Health,4,0,0,10,2013-03-21,51.462656,-0.302881
124697,Revolution,5,5,5,0,2012-08-31,51.458696,-0.307606
124698,RFU - Static Bars/Cafes,2,15,15,10,2014-11-15,51.455151,-0.340151
124699,RFU South Stand - Main Kitchen,5,5,5,5,2014-11-15,51.448339,-0.322742
124700,Rich Cafe,AwaitingInspection,nan,nan,nan,,51.45614,-0.309974
124701,Richmond Adult & Community College,4,0,5,10,2013-03-05,51.447661,-0.335817
124702,Richmond Adult College,5,0,0,0,2012-09-10,51.463898,-0.302288
124703,Richmond American University,5,5,0,0,2013-01-22,51.452004,-0.296339
124704,Richmond Cafe,4,5,5,10,2013-08-21,51.457404,-0.304041
124705,Richmond Chinese Restaurant,3,5,10,10,2014-01-16,51.462413,-0.294771
124706,Richmond Day Nursery,5,0,0,0,2014-11-26,51.467392,-0.28599
124707,Richmond Food and Wine,5,5,5,5,2006-09-20,51.49155,-0.296563
124708,Richmond Golf Club,5,5,0,0,2014-09-11,51.443174,-0.30133
124709,Richmond Homes For Life Trust,5,5,5,5,2009-03-05,51.450876,-0.359706
124710,Richmond Mind,5,0,0,0,2013-06-17,51.441977,-0.344585
124711,Richmond News,5,5,5,5,2008-03-14,51.460999,-0.302108
124712,Richmond Park Academy,5,5,0,0,2012-07-06,51.462377,-0.259316
124713,Richmond Premier Inn,5,0,0,0,2013-01-02,51.46623,-0.29198
124714,Richmond Theatre,5,0,0,0,2012-12-21,51.463965,-0.305107
124715,Richmond Yacht Club,3,5,10,10,2008-10-22,51.445348,-0.32554
124716,Rileys,1,0,5,20,2013-08-15,51.444962,-0.332548
124717,Rincon,5,5,5,5,2012-07-15,51.45966,-0.303367
124718,Ristorante Canta Napoli Pizzeria,0,20,15,20,2014-03-03,51.427228,-0.328015
124719,Ristorante Sorrento,4,5,5,10,2013-08-29,51.427228,-0.328015
124720,Riva Restaurant,5,5,0,0,2010-10-20,51.475386,-0.239842
124721,Riverside Cafe,1,5,15,20,2014-07-17,51.485853,-0.232611
124722,Riverside Indian Cuisine,4,0,10,10,2012-08-06,51.412956,-0.311063
124723,Riverside Playgroup,5,5,5,5,2008-03-14,51.44751,-0.32454
124724,Riverside Supermarket,4,5,5,10,2013-11-28,51.437784,-0.331126
124725,Robert & Carol,4,0,0,10,2013-01-02,,
124726,Robsons Butcher & Deli,4,10,5,5,2014-08-13,51.428358,-0.35519
124727,Rock & Rose,4,5,10,0,2013-07-15,51.465906,-0.298139
124728,Rosie & Java,Exempt,nan,nan,nan,2008-07-10,51.460312,-0.306769
124729,Rosslyn Clinic,5,0,0,0,2012-10-04,51.454984,-0.315242
124730,Roundabout Cafe,0,10,10,30,2014-10-20,51.464726,-0.301754
124731,Rowleys,2,15,5,5,2013-11-04,51.430736,-0.306826
124732,Royal Ballet School,5,0,5,0,2012-10-11,51.445194,-0.264876
124733,Royal British Legion (Twickenham) Limited,4,0,0,10,2012-07-23,51.442073,-0.334265
124734,Royal British Legion Club Ltd,3,5,10,10,2013-04-24,51.427777,-0.326844
124735,Royal British Legion Club Ltd,5,0,0,0,2009-07-23,51.463319,-0.30457
124736,Royal British Legion Poppy Fac,5,0,0,5,2010-09-13,51.455702,-0.303254
124737,Royal Mail Delivery Office,5,5,5,0,2010-11-02,51.469294,-0.266108
124738,Royal Mid Surrey Golf Club,4,5,0,10,2012-07-23,,
124739,Royal Military School of Music,5,5,0,0,2010-09-13,51.455103,-0.350804
124740,Rubens Bakehouse,3,10,10,10,2014-11-05,,
124741,Ruby Fish Bar,3,10,10,10,2014-09-09,51.444255,-0.346734
124742,Ruchi,5,0,0,0,2012-11-15,51.414489,-0.365927
124743,Rugby Food & Wine Store,4,5,5,10,2007-02-28,51.445544,-0.336786
124744,Sabena's Kitchen Ltd,4,0,0,10,2012-09-12,,
124745,Sacred Heart Primary School,5,5,5,0,2014-07-10,51.421397,-0.320245
124746,Saffron,3,10,10,10,2014-02-20,51.461348,-0.303175
124747,Sainsbury Supermarkets,4,0,10,5,2012-09-17,51.473514,-0.249302
124748,Sainsburys,5,5,5,0,2012-10-17,51.434514,-0.373586
124749,Sainsburys,5,5,5,5,2009-08-17,51.426906,-0.355516
124750,Sainsburys,5,5,0,0,2009-01-21,51.470537,-0.255334
124751,Sainsburys,5,5,5,0,2014-08-06,51.463456,-0.288613
124752,Sainsburys,5,5,5,0,2013-04-29,51.426243,-0.378295
124753,Sainsburys (Petrol Station),4,5,10,0,2006-04-27,51.463528,-0.288611
124754,Sainsburys (Petrol Station),5,5,5,5,2007-11-01,51.434514,-0.373586
124755,Sainsburys Staff Restaurant,5,0,0,0,2012-05-11,51.431754,-0.374245
124756,Sainsbury's Supermarkets,5,0,0,0,2013-09-04,51.444711,-0.341479
124757,Sakunthala,5,5,5,5,2014-03-20,51.470537,-0.255334
124758,Salvation Army,Exempt,nan,nan,nan,2014-10-06,51.445286,-0.342681
124759,Sam's Cafe,4,5,10,0,2012-12-07,51.45479,-0.354125
124760,Sam's Chicken,5,5,0,0,2013-10-10,51.464764,-0.264393
124761,San Remo Restaurant,4,5,5,10,2013-05-29,51.485259,-0.233772
124762,Sandrine,5,0,5,0,2009-03-05,51.464839,-0.262807
124763,Sandys Fishmongers Ltd,3,5,10,10,2014-07-14,51.445778,-0.329827
124764,Sanho Noodle Bar and Restaurant,1,15,15,20,2014-07-03,51.414021,-0.312578
124765,Sapori,3,10,10,10,2013-10-23,51.445544,-0.336786
124766,Saqui,4,5,5,10,2013-09-05,51.43079,-0.3074
124767,Scamps,4,10,0,0,2013-05-21,,
124768,Scrummy Mummies Healthy Cooking Club,5,5,0,5,2013-06-12,,
124769,Sea Blue,5,0,5,5,2013-07-11,51.449314,-0.378644
124770,Seafood and Eat It,Exempt,nan,nan,nan,2014-03-14,51.437784,-0.331126
124771,Seafresh,5,5,0,0,2012-08-06,51.4478,-0.328473
124772,Seasons Cafe,5,0,0,5,2012-05-15,51.435801,-0.351758
124773,Seed Store Cafe,5,0,0,5,2014-03-28,,
124774,Serious Snacks,5,0,0,0,2012-09-24,51.451441,-0.342387
124775,Sg Senza Glutine Ltd,Exempt,nan,nan,nan,2014-03-12,51.416146,-0.380954
124776,Shambles Wine Bar,4,5,10,5,2014-08-27,,
124777,Shanawaz Express,4,5,10,0,2014-10-14,51.444255,-0.346734
124778,Shandon House,5,5,5,0,2010-02-12,51.462515,-0.298712
124779,Shauns Quality Meats,4,5,5,10,2012-09-06,51.415655,-0.371494
124780,Sheen Cuisine,1,10,15,20,2014-12-09,51.46696,-0.266988
124781,Sheen Lane Centre,5,0,0,0,2014-08-12,51.465867,-0.267274
124782,Sheen Lane Newsagents,4,5,10,0,2006-05-12,,
124783,Sheen Montessori Nursery,5,0,0,0,2012-09-17,51.459597,-0.259781
124784,Sheen Mount Primary School,5,0,0,0,2012-11-09,51.461108,-0.275631
124785,Sheen Polish Delicatessen,1,0,5,20,2013-09-20,51.464764,-0.264393
124786,Sheen Sports & Fitness Centre,5,5,5,0,2009-03-05,51.46266,-0.262645
124787,Sheen Tandoori Restaurant,1,15,15,20,2014-12-03,51.464839,-0.262807
124788,Sheesh Mahal,2,15,15,5,2013-09-02,51.446975,-0.328661
124789,Shell Oak Lane Service Station,5,5,5,5,2008-03-14,51.4487,-0.32477
124790,Shenehom Housing Association,5,0,5,5,2013-04-17,51.471458,-0.241116
124791,Shooting Star Children's Hospice,5,5,0,5,2013-11-27,51.42647,-0.375828
124792,Sidra Cafe,1,15,10,20,2014-08-27,51.427029,-0.337444
124793,Silver Birches,5,0,0,5,2013-04-30,51.458668,-0.294536
124794,Simply Thai,5,5,0,0,2012-11-15,51.421224,-0.319432
124795,Sir Richard Reynolds School,5,5,0,0,2014-02-13,51.447661,-0.335817
124796,Skinners,4,0,0,10,2011-10-19,51.46198,-0.295306
124797,Sky Newsagent,5,5,5,0,2007-02-28,51.431347,-0.306746
124798,Smart Food & Wine,5,0,0,5,2012-01-06,51.449866,-0.358246
124799,Smart Value Supermarket,1,15,0,20,2013-11-19,51.425647,-0.356769
124800,Snax,1,15,15,20,2014-06-25,51.446917,-0.327095
124801,So Bar,5,5,5,5,2011-10-05,51.460883,-0.30525
124802,Sobrio Ltd,5,5,5,5,2010-07-30,,
124803,Sonny's,5,0,5,5,2012-11-14,51.474833,-0.240727
124804,Sonya Newsagents,5,5,5,0,2009-03-05,51.478016,-0.286211
124805,Sopa,2,10,15,10,2014-08-05,51.438951,-0.33986
124806,Spice Of India,4,10,10,0,2014-01-09,51.451999,-0.357737
124807,Spice of Night,3,10,10,10,2013-10-03,51.485392,-0.23309
124808,Spicedew,1,5,15,20,2014-10-14,51.437026,-0.350606
124809,Spirited Wines of Twickenham,5,0,0,0,2007-09-04,51.445562,-0.331058
124810,Spoonful,3,10,10,5,2014-11-03,51.485392,-0.23309
124811,Squires Food and Wine,1,0,0,20,2014-03-13,51.474314,-0.286408
124812,Squirrels Day Nursery,4,0,10,0,2013-08-28,51.453144,-0.359855
124813,St Catherines School,5,0,0,0,2014-10-16,51.443208,-0.330583
124814,St Edmunds Primary School,5,5,5,0,2012-09-13,51.452764,-0.360373
124815,St Elizabeths Primary School,5,0,0,0,2010-10-05,51.455694,-0.292229
124816,St George's Restaurant,2,15,5,5,2014-11-15,51.448339,-0.322742
124817,St James's Primary School,3,10,10,5,2015-01-13,51.437082,-0.347611
124818,St John The Baptist School,5,5,0,0,2013-02-04,51.415927,-0.31002
124819,St John's Superstore,3,10,10,10,2012-09-19,51.4151,-0.366538
124820,St Margarets Fish Bar,1,10,15,20,2015-01-08,51.454997,-0.319905
124821,St Margarets Post Office,5,5,5,5,2008-03-14,51.455272,-0.319665
124822,St Margaret's Tavern,2,15,5,5,2014-10-21,51.454185,-0.317805
124823,St Mary Magdalens Catholic Primary School,5,5,0,0,2013-09-11,51.468602,-0.261239
124824,St Marys & St Peters Primary,5,5,0,0,2010-12-09,51.429563,-0.339855
124825,St Marys C of E Primary School,5,0,0,0,2013-06-10,51.449574,-0.327415
124826,St Mary's Church Hall,Exempt,nan,nan,nan,2007-02-28,51.446917,-0.327095
124827,St Marys Hampton  C of E Primary School,4,10,5,0,2014-03-13,,
124828,St Marys House,3,10,5,10,2014-12-02,51.416736,-0.367745
124829,St Mary's Primary,5,0,0,0,2013-06-11,51.449876,-0.318999
124830,St Mary's University College,5,0,0,0,2012-12-10,51.437448,-0.335325
124831,St Matthias Church & Community Centre,5,5,5,5,2008-03-14,51.457574,-0.297183
124832,St Pauls School,4,0,5,10,2013-03-25,51.488528,-0.238889
124833,St Philip & St James Church,5,0,0,0,2014-06-18,51.455894,-0.356518
124834,St Richard's With St Andrew's,5,0,0,0,2014-03-05,51.436965,-0.319761
124835,St Stephens School,5,0,0,0,2013-10-14,51.456121,-0.32303
124836,Staff Restaurant,5,5,0,0,2012-03-07,51.451441,-0.342387
124837,Staines Road Service Station,5,5,5,5,2008-03-14,51.442295,-0.352502
124838,Stanley Junior School,5,0,0,0,2011-09-07,51.43263,-0.345643
124839,Starbucks Coffee,5,5,5,5,2008-03-14,51.464044,-0.301808
124840,Starbucks Coffee Co,5,5,0,5,2007-01-11,51.47745,-0.286247
124841,Starbucks Coffee Company,5,0,0,0,2009-03-31,51.448339,-0.322742
124842,Starbucks Coffee Company,5,0,0,0,2010-08-23,51.427143,-0.329629
124843,Starbucks Coffee Company,5,0,0,0,2012-09-24,51.434514,-0.373586
124844,Steins Ltd,3,10,10,10,2014-05-29,51.454159,-0.302952
124845,Stephen's Post Office,4,0,10,0,2007-02-28,51.46199,-0.29663
124846,Steve's Catering,5,0,0,0,2012-11-22,,
124847,Stewards Resturant/Bar,4,10,5,5,2014-11-15,51.455151,-0.340151
124848,Stockholm Restaurant and Deli,4,0,0,10,2013-01-24,51.465678,-0.266648
124849,Stokes & Moncreiff,1,15,15,20,2015-01-13,51.4487,-0.32477
124850,Strada,5,5,5,5,2012-09-17,51.474459,-0.250605
124851,Strada,3,10,10,5,2014-06-30,51.458658,-0.305578
124852,Strathmore Centre,4,0,0,10,2011-02-01,51.43373,-0.344581
124853,Strathmore School,5,5,0,0,2012-10-08,51.442884,-0.304881
124854,Strawberry Cafe,AwaitingInspection,nan,nan,nan,,51.432416,-0.338745
124855,Strawberry Hill Golf Club,5,5,5,0,2012-08-06,51.438233,-0.340563
124856,Strawberry Hill Pre-School,4,0,10,10,2014-03-11,51.44399,-0.334972
124857,Streets,5,0,0,5,2012-11-08,51.455904,-0.321038
124858,Studio's Cafe,5,0,0,0,2012-09-14,51.428916,-0.321538
124859,Subway,5,0,0,0,2012-10-10,51.448209,-0.329451
124860,Subway,5,5,0,0,2012-01-30,51.44985,-0.357714
124861,Subway,5,5,0,0,2013-06-18,51.49155,-0.296563
124862,Sudbrook School,5,0,0,0,2012-10-09,51.443831,-0.300759
124863,Sun Deck Cafe,5,0,5,0,2013-01-21,51.417585,-0.358338
124864,Superdrug,Exempt,nan,nan,nan,2007-02-28,51.450621,-0.358204
124865,Superdrug Stores Plc,Exempt,nan,nan,nan,2007-02-28,51.44586,-0.328644
124866,Supersave Express,4,0,0,10,2012-11-09,51.464961,-0.2662
124867,Supersoft,3,10,10,10,2007-08-14,,
124868,Susan Harper,4,5,5,10,2014-05-20,,
124869,Swagat,3,5,10,10,2013-09-27,51.457404,-0.304041
124870,Sweet Beast,5,0,5,5,2013-11-15,,
124871,Sweet Memories Of Twickenham,5,5,0,5,2010-08-18,51.446665,-0.327104
124872,Sweetie Cafe,1,15,15,20,2014-11-24,,
124873,Sweetie Pies Boutique Bakery,5,0,0,5,2010-08-18,51.446917,-0.327095
124874,Tadpoles Nursery School,4,10,5,5,2009-06-01,51.421955,-0.364798
124875,Taj Mahal,4,10,5,5,2013-10-30,51.457068,-0.304499
124876,Tamesis Club,5,5,5,5,2014-09-30,51.423406,-0.308608
124877,Tangawizi,3,5,10,10,2013-09-04,51.456125,-0.308895
124878,Tangley Park Day Nursery,3,10,10,10,2014-03-24,51.426235,-0.378368
124879,Tanya's Fish Bar,4,10,10,0,2014-07-04,51.473747,-0.250474
124880,Tap on the Line,2,15,5,0,2013-07-30,51.4769668579,-0.285847514868
124881,Taste,5,5,0,0,2013-06-12,51.417564,-0.371009
124882,Taste of Gujarat,3,10,10,10,2012-09-18,51.459507,-0.304596
124883,Taste of Lebanon,1,10,10,20,2014-03-27,51.49155,-0.296563
124884,Taste Of Mogul,3,10,10,10,2014-12-01,51.448099,-0.326145
124885,Taste Of Raj,1,10,15,20,2013-09-26,51.465298,-0.259781
124886,Taste of Raj 2,3,10,5,10,2013-10-29,51.444506,-0.343515
124887,Tasty Bites,1,15,10,20,2014-09-04,51.453927,-0.369586
124888,Tasty Garden,5,5,5,0,2012-08-09,51.44623,-0.327494
124889,Tasty Morsel,4,0,0,10,2013-07-08,,
124890,Taylor St Baristas,3,10,10,10,2012-08-31,51.463673,-0.301678
124891,Taylor's Fine Wine,5,0,5,0,2011-07-20,51.430736,-0.306826
124892,Teddies Twickenham,5,0,0,5,2013-07-29,51.451357,-0.331984
124893,Teddies Twickenham West,5,0,5,0,2013-11-20,51.441007,-0.355556
124894,Teddington Arms,3,10,10,5,2014-05-30,51.427033,-0.332625
124895,Teddington Constitutional Club Ltd,4,0,5,10,2013-03-07,51.428212,-0.34222
124896,Teddington Cricket  Club,1,5,5,20,2013-07-08,51.4160957336,-0.335494995117
124897,Teddington Day Nursery,5,0,0,0,2014-08-27,51.426425,-0.331626
124898,Teddington Fish Bar,1,15,5,20,2014-10-14,51.421224,-0.319432
124899,Teddington Food & Wine,3,10,5,10,2012-09-20,51.424336,-0.321404
124900,Teddington Kebab House,4,10,5,5,2014-08-04,51.43263,-0.345643
124901,Teddington Lawn Tennis Club,5,5,5,5,2009-03-05,51.427863,-0.332207
124902,Teddington Memorial Hospital,5,0,0,0,2012-02-02,51.426125,-0.340915
124903,Teddington Mini Market,1,5,5,20,2010-11-24,51.421224,-0.319432
124904,Teddington Old People's Welfare Association,5,0,0,5,2014-03-12,51.425419,-0.336151
124905,Teddington School,5,0,0,5,2012-07-19,51.423246,-0.312468
124906,Teddington Station Bookstall,4,5,10,0,2010-05-14,51.423667,-0.333712
124907,Teddington Tandoori,3,10,5,10,2014-03-31,51.427442,-0.326626
124908,Teddington Theatre Club,5,5,5,5,2009-03-05,51.426906,-0.355516
124909,Teeney Weenies Kids Cafe,4,0,0,10,2013-01-09,51.425208,-0.328134
124910,Tesco Express,5,5,0,5,2012-09-25,51.455904,-0.321038
124911,Tesco Express,5,5,5,5,2010-09-13,51.436402,-0.320602
124912,Tesco Express,5,5,0,0,2011-01-20,51.445544,-0.336786
124913,Tesco Express,5,5,5,0,2010-09-07,51.476967,-0.285848
124914,Tesco Express,4,10,0,5,2011-07-25,51.464329,-0.267822
124915,Tesco Express,5,0,0,0,2013-03-20,51.465906,-0.298139
124916,Tesco Express,5,5,0,0,2012-09-19,51.428358,-0.35519
124917,Tesco Express,5,0,5,0,2012-05-08,51.484217,-0.235022
124918,Tesco Metro,5,5,0,0,2010-08-20,51.425936,-0.338966
124919,Tesco Metro,4,0,10,0,2012-09-24,51.450621,-0.358204
124920,Tesco Metro,5,0,0,0,2007-01-04,51.460673,-0.304394
124921,Tesco Stores Ltd,2,15,0,0,2012-05-08,51.467474,-0.266465
124922,Thai @The Albert,5,5,0,0,2011-08-05,51.441977,-0.344585
124923,Thai Beach@The Watermans Arms,1,15,10,20,2014-08-12,51.459079,-0.307347
124924,Thai Elephant Restaurant,5,5,5,5,2012-08-22,51.459265,-0.304044
124925,Thai Pin Restaurant,4,10,5,0,2014-07-23,51.455904,-0.321038
124926,Thai Square,5,5,5,5,2012-09-04,51.464097,-0.301748
124927,Thai Upon Thames,5,5,0,0,2010-03-24,51.454912,-0.311459
124928,Thames Motor Yacht Club,5,5,0,5,2014-02-11,51.405598,-0.343642
124929,Thames Newsagent,3,10,10,10,2013-08-05,51.449303,-0.322892
124930,Thames Young Mariners,5,5,5,5,2007-02-28,51.437727,-0.327143
124931,The Abercorn Arms,1,10,5,20,2013-04-18,51.428822,-0.338329
124932,The Adelaide,3,10,10,10,2012-09-20,51.423931,-0.334579
124933,The Admiral Nelson,5,0,0,0,2011-08-17,51.452764,-0.360373
124934,The Ailsa Tavern,3,10,10,5,2012-09-21,51.460339,-0.323077
124935,The Albany,5,5,0,5,2012-11-08,51.448229,-0.332112
124936,The Alberts Deli,3,10,5,10,2013-03-26,51.461561,-0.296156
124937,The Aleksander,4,10,5,5,2013-12-16,51.453206,-0.313537
124938,The Alexander Pope Hotel,4,10,5,0,2012-07-23,51.440268,-0.333165
124939,The Angel & Crown,4,10,5,5,2012-02-06,51.460525,-0.304141
124940,The Anglers,5,5,0,0,2013-07-23,51.429252,-0.322417
124941,The Ark Nursery School,4,5,5,10,2008-06-24,51.475367,-0.243313
124942,The Bakery Lounge,4,0,0,10,2013-01-08,,
124943,The Barmy Arms,5,0,0,0,2012-10-11,51.446525,-0.32613
124944,The Barn Nursery,4,5,5,10,2008-10-17,51.472245,-0.283318
124945,The Barnes Fish Shop Limited,4,0,10,5,2014-06-03,51.473514,-0.249302
124946,The Bear,5,5,0,0,2014-10-27,51.447428,-0.32699
124947,The Bell Inn,2,15,15,10,2014-06-02,51.41304,-0.361909
124948,The Bingham Hotel,5,5,0,0,2014-09-02,51.454159,-0.302952
124949,The Black Orchid,1,10,15,20,2014-03-25,51.474319,-0.238817
124950,The Bloomsbury,5,0,0,5,2011-08-19,51.442063,-0.352007
124951,The Book Stall,5,5,5,5,2008-03-14,51.454997,-0.319905
124952,The Botanist,4,10,10,0,2013-09-19,51.483253,-0.288348
124953,The Bread Shop,4,5,0,10,2013-08-05,,
124954,The Bridge,3,nan,nan,nan,2014-10-02,51.485853,-0.232611
124955,The Britannia,3,10,10,10,2013-03-25,51.460883,-0.30525
124956,The Broadway Stores,3,10,5,10,2010-02-10,51.454997,-0.319905
124957,The Brown Dog,4,10,5,5,2013-10-29,51.469501,-0.252148
124958,The Builders Arms,5,5,5,5,2013-09-06,51.425554,-0.33045
124959,The Bull's Head,5,5,5,0,2014-06-23,51.474459,-0.250605
124960,The Butlers Kitchen,5,0,0,5,2013-11-07,,
124961,The Cabbage Patch Public House,3,10,10,5,2014-11-05,51.448209,-0.329451
124962,The Cake Box,4,10,0,10,2015-01-06,,
124963,The Cardinal Wolsey Hotel,AwaitingInspection,nan,nan,nan,,51.405598,-0.343642
124964,The Carlton Mitre Hotel,5,5,5,5,2012-02-13,51.404762,-0.342421
124965,The Cavan Bakery,5,5,0,0,2011-02-22,51.427338,-0.332629
124966,The Cavan Bakery Ltd,5,5,0,0,2011-08-04,51.416999,-0.370468
124967,The Cavan Bakery Ltd,5,0,0,0,2013-09-06,51.425889,-0.336925
124968,The Cavan Bakery Ltd,5,5,5,0,2013-03-15,51.425647,-0.356769
124969,The Cavan Bakery Ltd,4,10,5,5,2014-02-04,51.428358,-0.35519
124970,The Cedar Coffee Shop,4,0,0,10,2012-11-29,51.458129,-0.306317
124971,The Chase Lodge Hotel,4,0,0,10,2012-09-19,51.413243,-0.312837
124972,The Cheese & Wine Co,5,5,0,0,2011-01-05,51.4151,-0.366538
124973,The Children's Garden Kindergarden,3,10,5,10,2012-02-06,51.457061,-0.289774
124974,The China Chef,4,0,5,10,2012-11-14,51.468714,-0.254899
124975,The Clock House Pub,4,10,5,5,2013-09-09,51.427407,-0.331159
124976,The Cloister Coffee House Ltd,5,0,5,5,2013-09-03,51.437448,-0.335325
124977,The Coach & Horses,5,5,0,0,2012-09-27,51.473514,-0.249302
124978,The Coach & Horses,5,0,0,5,2013-10-25,51.48377,-0.28614
124979,The Coach House Cafe,4,5,5,10,2013-02-05,51.449725,-0.315939
124980,The Coffee Bean,5,nan,nan,nan,2014-04-25,51.451999,-0.357737
124981,The Coffee Mill,3,10,5,10,2013-07-24,51.427376,-0.329592
124982,The Corner Cafe & Deli,3,10,10,5,2013-10-29,51.470337,-0.255759
124983,The Cricketers,5,5,0,0,2012-10-16,51.460476,-0.306302
124984,The Cricketers Kew Green,5,5,0,0,2012-09-11,51.485432,-0.289131
124985,The Croft Centre (LBRUT),4,0,0,10,2013-01-08,51.468975,-0.289703
124986,The Crown,5,5,5,5,2010-11-25,51.46623,-0.29198
124987,The Crown Inn,5,0,0,0,2013-06-11,51.451192,-0.318577
124988,The Curry Inn,3,10,10,10,2014-09-24,51.453529,-0.319095
124989,The Damsel Cake Company,5,0,0,5,2013-11-11,,
124990,The Depot Waterfront Brasserie,4,5,0,10,2013-10-29,51.470518,-0.257091
124991,The Duke,5,5,5,0,2013-07-01,51.461525,-0.304233
124992,The Duke of Cambridge,5,0,5,0,2013-02-04,51.455208,-0.352484
124993,The Duke Of York,5,5,0,0,2013-08-01,51.450468,-0.378905
124994,The Dukes Head,3,10,5,10,2013-10-30,51.458332,-0.300465
124995,The Dysart Arms,5,0,5,0,2010-10-26,51.44646,-0.301568
124996,The Educated Palate,1,5,10,20,2014-03-31,51.465906,-0.298139
124997,The Eel Pie,4,10,5,5,2014-07-17,51.446917,-0.327095
124998,The English Bistro,3,10,10,10,2014-03-31,51.43079,-0.3074
124999,The Fallow Deer,5,5,0,0,2014-08-08,51.427228,-0.328015
125000,The Farmery,4,0,0,10,2012-12-11,51.462444,-0.302501
125001,The Fishery Club,3,10,10,10,2012-12-05,51.467583,-0.284284
125002,The Foresters Arms,4,0,5,10,2013-03-07,51.414021,-0.312578
125003,The Fountain,5,5,0,0,2013-02-21,51.438402,-0.359002
125004,The Fox,3,5,10,10,2015-01-13,51.446665,-0.327104
125005,The Fox & Duck,5,5,5,5,2009-07-06,51.445165,-0.302782
125006,The Fulwell Golf Club,5,5,0,0,2014-11-21,51.432173,-0.352751
125007,The Garden Fish Bar,5,0,0,5,2012-12-04,51.474314,-0.286408
125008,The Genuine Dining Company,4,10,5,0,2014-01-26,51.481724,-0.279678
125009,The George,5,5,0,0,2012-08-06,51.446439,-0.328925
125010,The German School,5,5,0,0,2010-12-14,,
125011,The Good Earth Express,5,0,0,5,2013-08-21,51.454311,-0.298499
125012,The Good Health Shop,4,5,5,10,2013-04-09,51.451999,-0.357737
125013,The Good Wine Shop,5,0,0,0,2012-07-26,51.478016,-0.286211
125014,The Green Spice,3,10,5,10,2013-10-29,51.444506,-0.343515
125015,The Greenacres Den,5,5,0,5,2014-10-15,,
125016,The Greyhound,3,10,5,10,2013-08-13,51.485246,-0.286228
125017,The Grocery Street Kitchen,2,15,10,10,2013-10-02,51.420217,-0.378163
125018,The Gurkha's Inn,2,15,15,10,2014-05-07,51.447393,-0.327725
125019,The Halfway House,4,5,0,10,2012-11-08,51.465963,-0.252514
125020,The Ham Brewery Tap,5,0,5,0,2011-07-26,51.436885,-0.311692
125021,The Ham General Store,3,5,10,10,2008-02-04,,
125022,The Ham Institute,Exempt,nan,nan,nan,2007-02-28,51.434702,-0.311816
125023,The Ham Pantry,5,0,0,0,2012-10-08,51.431347,-0.306746
125024,The Hampton,5,5,5,5,2012-06-29,51.426235,-0.378368
125025,The Hampton Hampers Company Ltd,4,0,5,10,2013-01-09,51.423546,-0.37701
125026,The Hamptons Day Nursery,5,0,5,5,2014-11-24,,
125027,The Happy Jar,5,0,0,5,2014-01-28,51.461478,-0.281289
125028,The Harrodian School,5,5,0,5,2013-09-11,51.480631,-0.247157
125029,The Healthy Dessert Kitchen Ltd,3,5,10,10,2009-11-02,,
125030,The Hogarth,5,5,5,5,2012-10-02,51.425889,-0.336925
125031,The Hummingbird Bakery Ltd,5,0,5,5,2014-04-23,51.461943,-0.303297
125032,The Idle Hour,3,10,10,10,2014-03-20,51.469541,-0.249454
125033,The Imperial Cafe,5,5,5,0,2013-01-10,51.45441,-0.358428
125034,The Jam Cupboard,4,5,5,10,2013-09-19,,
125035,The Jolly Coopers,2,10,15,10,2014-08-20,51.414145,-0.361251
125036,The Jolly Gardeners,5,5,5,0,2006-04-27,51.469602,-0.268659
125037,The Kew Gardens Hotel,4,0,10,0,2012-05-02,51.476284,-0.287097
125038,The Kew Greenhouse,5,5,5,5,2013-06-26,51.47745,-0.286247
125039,The Kids Academy,4,0,0,10,2014-08-06,51.465282,-0.305966
125040,The King's Arms,2,15,10,10,2014-10-14,51.406325,-0.336571
125041,The Kings Bar,3,10,10,10,2012-09-13,51.450134,-0.339217
125042,The Kings Head,5,0,5,0,2011-07-14,51.427376,-0.329592
125043,The Kings Road Nursery,5,0,0,0,2012-10-01,51.461218,-0.292973
125044,The Late Shop,5,0,0,0,2012-04-25,51.444255,-0.346734
125045,The Lofty Turtle,4,10,5,5,2013-02-25,51.464078,-0.273993
125046,The Lollipop Club,4,0,5,10,2013-01-08,51.468903,-0.295264
125047,The Lot,5,5,0,0,2014-03-14,51.461525,-0.304233
125048,The Mall School,5,0,0,0,2011-01-07,51.437293,-0.349143
125049,The Marlborough,4,10,5,0,2012-05-08,51.455656,-0.296995
125050,The Masons Arms,4,0,0,10,2012-10-02,51.427064,-0.338608
125051,The Mill Cafe,4,10,5,5,2014-08-05,51.449314,-0.378644
125052,The Misty Moon,4,5,5,10,2012-11-08,51.448209,-0.329451
125053,The Mitre,4,10,5,5,2009-03-31,51.463185,-0.291633
125054,The Montessori Pavilion,5,0,0,0,2012-09-14,51.466645,-0.248226
125055,The Mulberry Tree,3,10,10,10,2009-06-08,51.449453,-0.323318
125056,The Munch Box,1,15,15,20,2014-08-13,51.4478,-0.328473
125057,The New Inn,4,5,0,10,2014-05-01,51.437192,-0.304876
125058,The Old Deer Park Partnership,4,10,5,5,2013-01-02,51.46731,-0.296993
125059,The Old Kings Head,4,0,5,10,2014-03-21,51.41091,-0.311973
125060,The Old Ship,4,10,5,0,2013-03-18,51.459963,-0.306954
125061,The Old Vicarage School,5,5,5,0,2014-11-24,51.456848,-0.302938
125062,The Orange Tree,4,10,5,0,2013-06-18,51.464044,-0.301808
125063,The Orangery,5,5,5,5,2011-08-24,51.4836616516,-0.289758861065
125064,The Parish Bakery,3,10,5,10,2013-11-19,51.464934,-0.261349
125065,The Parish Bakery,3,10,5,10,2014-03-18,51.473514,-0.249302
125066,The Park Hotel,2,15,5,10,2014-08-27,,
125067,The Pavilion Montessori School,5,0,0,0,2010-11-24,,
125068,The Petal Pusher,3,5,10,10,2013-09-16,51.472636,-0.286672
125069,The Petersham Hotel Ltd,4,5,0,10,2014-03-14,51.451015,-0.299427
125070,The Pig & Whistle,4,5,10,5,2013-03-28,51.465867,-0.267274
125071,The Plough,3,10,10,5,2013-03-22,51.46063,-0.271258
125072,The Poppyseed Bakery,5,5,5,0,2012-04-11,,
125073,The Prince Albert,5,5,0,0,2011-08-05,51.441977,-0.344585
125074,The Prince Albert,5,5,5,5,2008-03-14,51.45441,-0.358428
125075,The Prince Blucher,5,5,0,0,2013-02-21,51.444506,-0.343515
125076,The Prince's Head,5,5,0,5,2014-08-12,51.460476,-0.306302
125077,The Queens C of E Primary Sch.,5,0,0,0,2013-06-20,51.480111,-0.286191
125078,The Railway Bell,4,10,5,5,2010-02-08,51.41596,-0.370793
125079,The Railway Pub & Dining Rooms,4,5,0,10,2014-12-05,51.423967,-0.332694
125080,The Railway Tavern,5,0,0,0,2013-03-04,51.462373,-0.302546
125081,The Red Cow,1,0,5,20,2013-08-13,51.461988,-0.295233
125082,The Red Lion,5,0,0,0,2013-03-05,51.476892,-0.238286
125083,The Red Lion,4,10,0,0,2014-09-01,51.430897,-0.345159
125084,The Refectory,3,10,10,10,2014-03-05,51.427022,-0.355468
125085,The Regard Partnership,5,5,5,5,2009-03-05,51.44784,-0.356088
125086,The Richmond Arms,5,5,5,5,2008-03-14,51.461358,-0.302656
125087,The Richmond Cake Company,4,5,5,10,2013-06-06,,
125088,The Richmond Gate Hotel,5,5,0,0,2014-09-02,51.451228,-0.296771
125089,The Richmond Hill Bakery,1,15,15,20,2014-03-14,51.455212,-0.296752
125090,The Richmond Hill Hotel,3,nan,nan,nan,2014-08-13,51.451792,-0.297196
125091,The Richmond Inn Hotel,5,0,5,5,2012-07-31,51.461706,-0.298109
125092,The Richmond Park Hotel,4,0,0,10,2013-05-01,51.457068,-0.304499
125093,The Rifleman,5,5,5,5,2008-03-14,51.441064,-0.349986
125094,The Rising Sun,5,0,0,0,2013-04-04,51.423417,-0.358705
125095,The Roebuck,4,10,5,5,2014-09-09,51.452222,-0.298303
125096,The Roebuck,1,15,5,20,2013-08-22,51.429018,-0.352865
125097,The Rose of York,4,5,10,5,2014-11-24,51.45064,-0.300204
125098,The Royal Oak,4,5,5,10,2007-02-28,51.422786,-0.381266
125099,The Russell School,5,0,0,0,2014-02-25,51.445268,-0.304965
125100,The Salvation Army,5,0,5,5,2012-07-20,51.427029,-0.337444
125101,The Salvation Army,5,5,0,0,2014-10-06,,
125102,The Scrummery,4,10,5,5,2012-12-01,51.453342,-0.33623
125103,The Shack 68,5,5,5,5,2013-01-22,51.449518,-0.329748
125104,The Shaftesbury Arms,5,0,5,5,2012-08-01,51.466015,-0.29887
125105,The Shakespeare,5,5,5,5,2009-03-23,,
125106,The Ship,5,0,5,0,2013-01-24,51.471481,-0.268631
125107,The Slug & Lettuce,5,5,0,0,2013-05-27,,
125108,The Spirit of Rugby,2,15,5,5,2014-11-15,51.455151,-0.340151
125109,The Star,4,5,10,5,2012-09-19,51.425647,-0.356769
125110,The Studio Montessori School,5,0,0,0,2012-09-11,51.479116,-0.287668
125111,The Sun Inn,5,5,0,0,2013-10-18,51.473766,-0.246931
125112,The Sun Inn,5,5,0,5,2013-06-20,51.463898,-0.302288
125113,The Swan,5,5,0,0,2011-08-16,51.412956,-0.311064
125114,The Tapestry,3,10,5,10,2013-10-29,51.469149,-0.269036
125115,The Tea Box,4,5,10,5,2014-01-10,51.45966,-0.303367
125116,The Teddington Cheese,5,0,0,0,2010-08-19,51.425338,-0.332356
125117,The Teddington Cheese,5,0,0,5,2012-10-11,51.457404,-0.304041
125118,The Tide End Cottage,5,0,5,0,2013-07-23,51.429485,-0.323646
125119,The Top Shop,5,5,5,5,2013-02-05,51.454912,-0.311459
125120,The Tree House,5,5,5,5,2012-09-04,51.4684,-0.254321
125121,The Triple Crown,5,0,0,0,2012-10-18,51.465617,-0.301764
125122,The Turk's Head,5,0,0,0,2012-03-09,51.456121,-0.32303
125123,The Vanilla Rainbow Bakery,5,0,0,0,2009-10-23,,
125124,The Victoria,5,5,0,0,2010-11-02,51.461108,-0.275631
125125,The Victoria Inn,5,5,5,0,2006-10-10,51.457404,-0.304041
125126,The Victorian Villa B&B,3,10,10,10,2013-05-01,51.429136,-0.355493
125127,The Vineyard Church,5,0,0,0,2012-10-11,51.457838,-0.302398
125128,The Vineyard Organic Day Centre,4,0,5,10,2012-08-08,51.459006,-0.300455
125129,The Vineyard School,5,5,0,0,2011-06-29,51.454311,-0.298499
125130,The Waldegrave Arms,4,10,5,5,2014-12-02,51.432416,-0.338745
125131,The Waterman's Arms,1,15,10,20,2008-08-14,51.459079,-0.307347
125132,The Wharf,5,0,0,0,2013-07-24,51.429729,-0.324356
125133,The White Hart,5,0,5,0,2013-02-04,51.412111,-0.311081
125134,The White Hart Inn,1,5,15,20,2014-11-26,51.455894,-0.356518
125135,The White Hart Pub,5,5,5,5,2012-08-23,51.471327,-0.254598
125136,The White Horse,5,5,0,0,2013-08-14,51.461561,-0.296156
125137,The White House,4,0,0,10,2012-09-25,51.45227,-0.337362
125138,The White Swan,4,10,5,5,2013-03-18,51.461704,-0.310402
125139,The White Swan,4,10,5,5,2013-11-15,51.447166,-0.321243
125140,The William Webb Ellis,5,0,0,0,2012-10-11,51.4478,-0.328473
125141,The Windmill,4,5,5,10,2012-10-17,51.427855,-0.362242
125142,The Winning Post,5,5,5,0,2012-07-25,51.44784,-0.356088
125143,The Worlds End,4,10,5,5,2012-10-08,51.4151,-0.366538
125144,The York Street Cafe,1,15,15,20,2014-06-18,51.446891,-0.327801
125145,Tic Toc Nursery School,5,0,0,0,2014-11-21,51.439989,-0.358643
125146,Tide Tables,5,0,0,0,2013-02-19,51.458129,-0.306317
125147,Tiltyard Tearooms,4,10,5,0,2014-03-21,51.406377,-0.338323
125148,Time For Thai,2,15,10,10,2013-12-13,,
125149,Tin Tin,5,5,5,5,2014-10-16,51.424875,-0.35812
125150,TJ's Cafe,4,10,5,5,2014-03-04,51.467474,-0.266465
125151,TJ's Place,2,15,5,10,2014-03-17,51.464032,-0.272728
125152,Tom Yum Goong Ltd,3,10,10,10,2012-07-26,51.464006,-0.269706
125153,Tomato Cafe,1,20,10,20,2014-05-21,51.444255,-0.346734
125154,Tony Swatland,3,10,10,10,2014-09-30,51.464329,-0.267822
125155,Top of the Class,5,0,0,0,2013-04-16,51.464358,-0.27165
125156,Tops Pizza,1,10,15,20,2014-08-13,51.45614,-0.309974
125157,Toranj Bar & Restaurant,3,10,10,10,2013-08-16,51.485392,-0.23309
125158,Tower House School,5,0,5,0,2012-09-27,51.46259,-0.26819
125159,Trafalgar Day Nursery,5,0,0,0,2013-10-09,51.444996,-0.350794
125160,Trafalgar Infants Early Years,5,0,0,0,2013-10-09,51.445811,-0.35798
125161,Trafalgar Junior School,5,5,0,0,2012-03-08,51.442536,-0.348551
125162,Traines Food Market,2,5,15,5,2013-11-20,51.462413,-0.294771
125163,Travelodge (London) Teddington,5,0,0,0,2012-06-28,51.426562,-0.333678
125164,Treetops Nursery,5,5,0,0,2014-02-21,51.427057,-0.336868
125165,Tropical Fruits,4,5,10,5,2013-08-23,51.458129,-0.306317
125166,TW2 Bar and Grill,5,5,5,5,2013-09-05,,
125167,Twickenham Academy,5,0,0,5,2013-03-13,51.444342,-0.363192
125168,Twickenham Baptist Church,5,5,0,5,2009-06-25,51.443845,-0.340633
125169,Twickenham Cafe,3,10,10,10,2012-09-21,51.442906,-0.3512
125170,Twickenham Charcoal Grill,5,5,0,0,2012-10-03,51.445376,-0.332519
125171,Twickenham Club,4,5,10,0,2007-02-28,51.446917,-0.327095
125172,Twickenham District Masonic Council Ltd,5,5,5,0,2013-03-27,51.451614,-0.330478
125173,Twickenham Food & Wine,4,5,5,10,2013-04-19,51.453342,-0.33623
125174,Twickenham Guest House,3,10,10,10,2012-06-07,51.453505,-0.337591
125175,Twickenham Methodist Church,Exempt,nan,nan,nan,2014-03-21,51.446312,-0.33011
125176,Twickenham Park Day Nursery,5,5,0,0,2013-08-19,51.455565,-0.307462
125177,Twickenham Preparatory School,5,0,0,0,2013-01-21,51.413954,-0.362351
125178,Twickenham Rowing Club,5,0,5,5,2013-07-16,51.445348,-0.32554
125179,Twickenham Rugby Football Club,4,5,5,10,2013-11-04,51.422985,-0.383287
125180,Twickenham Sea Cadets Corps,Exempt,nan,nan,nan,2007-02-28,51.42093,-0.307793
125181,Twickenham Tandoori,1,15,10,20,2014-12-15,51.446665,-0.327104
125182,Two Peas in a Pod,5,5,5,5,2009-03-05,51.474352,-0.244028
125183,Uncle Jim's Kebab,1,5,10,20,2014-09-17,51.464044,-0.301808
125184,Urban Diner,1,15,15,20,2014-12-03,51.459258,-0.306045
125185,Urban Pantry Food Ltd,5,5,5,5,2013-11-08,,
125186,Urban Village Chocolates,Exempt,nan,nan,nan,2012-02-01,51.450719,-0.323833
125187,V M Rimmer,4,10,5,5,2014-03-09,,
125188,Valentina,5,0,0,5,2014-08-11,51.46511,-0.264697
125189,Vanilla Rose Cupcakes,4,0,0,10,2012-11-29,,
125190,Victoria Gate Coffee Shop,5,5,5,5,2011-08-24,51.474135,-0.292678
125191,Viera Gray House,5,0,0,0,2014-03-17,51.479763,-0.242064
125192,Village Grill Hampton,4,10,5,5,2013-08-22,51.417564,-0.371009
125193,Village Market,4,10,5,5,2009-01-22,51.430736,-0.306826
125194,Village Pizza Ltd,5,5,5,5,2012-07-11,51.448209,-0.329451
125195,Vineyard Project,5,0,0,0,2013-09-23,51.457838,-0.302398
125196,Virgin Active Health Club,5,5,0,0,2010-01-15,51.455151,-0.340151
125197,Viva,5,0,0,0,2009-03-31,51.457909,-0.305404
125198,VS Food & Wine,1,15,10,20,2014-12-15,51.454912,-0.311459
125199,W H Smith,5,0,0,5,2010-01-12,51.464784,-0.267574
125200,W H Smith,Exempt,nan,nan,nan,2013-04-24,51.445778,-0.329827
125201,W H Smith,5,0,0,0,2009-03-05,51.464135,-0.300667
125202,W H Smith Ltd,5,5,5,5,2008-03-14,51.460188,-0.305089
125203,Wagamama,5,0,0,0,2010-02-25,51.458793,-0.306206
125204,Waitrose,5,0,0,0,2012-08-29,51.415622,-0.373652
125205,Waitrose Ltd,5,5,0,0,2010-12-09,51.448308,-0.328828
125206,Waitrose Ltd,5,5,0,0,2010-12-29,51.464367,-0.269174
125207,Waitrose Ltd,5,5,5,5,2013-08-08,51.462357,-0.301439
125208,Waldegrave School,5,5,5,5,2013-10-09,51.43945,-0.351008
125209,West Cornwall Pasty Company,5,5,5,5,2012-09-10,51.464135,-0.300667
125210,White Cross Hotel,4,10,5,0,2013-06-28,51.458129,-0.306317
125211,White Peaks,5,5,5,5,2011-06-23,51.474135,-0.292678
125212,Whitton Baptist Church,5,0,0,0,2013-07-11,51.454563,-0.359099
125213,Whitton Cafe,5,5,5,5,2014-08-05,51.453242,-0.357218
125214,Whitton Community Centre,Exempt,nan,nan,nan,2008-03-14,51.44516,-0.361264
125215,Whitton Day Nursery,5,5,5,5,2014-06-26,51.452383,-0.359451
125216,Whitton Day Nursery,5,5,0,0,2014-05-19,51.444973,-0.365904
125217,Whitton Food & Wine Ltd,3,10,5,10,2014-03-11,51.451999,-0.357737
125218,Whitton Playdays,5,0,0,0,2013-06-04,51.44523,-0.361132
125219,Whitton Tandoori,5,5,0,5,2012-12-12,51.450468,-0.378905
125220,Whitton Youth Zone,1,0,10,20,2014-08-07,51.450468,-0.358857
125221,Wholefoods,3,10,10,10,2013-10-29,,
125222,Wild Hives LTD,Exempt,nan,nan,nan,2013-08-06,51.44271,-0.348142
125223,Wildwood,5,0,0,0,2011-12-15,51.47229,-0.246872
125224,Willow Wines,4,0,0,10,2013-11-29,51.439574,-0.361104
125225,Wimpy,5,5,0,5,2013-11-15,51.4478,-0.328473
125226,Wimpy,5,0,5,0,2013-04-03,51.425889,-0.336925
125227,Windsor Kindergarden,5,0,0,0,2012-10-04,51.454984,-0.315242
125228,Windsor Kindergarten,4,10,10,0,2014-09-04,51.446787,-0.326797
125229,Wine Mart,5,0,0,0,2012-10-08,51.436402,-0.320602
125230,Wing Lee Loi,5,0,5,5,2012-07-16,51.450468,-0.378905
125231,Woodville Centre,5,5,0,0,2013-08-12,51.437378,-0.319717
125232,Working Mums DayCare,5,0,0,0,2013-10-30,51.468431,-0.271626
125233,Working Mums Pre School & Day,Exempt,nan,nan,nan,2013-11-07,51.464784,-0.267574
125234,YaYa's Boutique Cupcakes,5,0,5,0,2014-02-07,51.45348,-0.369745
125235,Yolk,5,5,5,5,2014-08-04,,
125236,York Food and Wine,4,0,5,10,2013-06-11,51.447393,-0.327725
125237,Your Bakery,5,5,5,0,2014-01-04,51.451351,-0.358336
125238,Yuma Sushi Limited,4,5,5,10,2014-11-11,51.460883,-0.30525
125239,Zizzi,5,0,0,0,2013-09-11,51.459963,-0.306954
125240,Zizzi,5,0,0,0,2011-06-28,51.447428,-0.32699
125241,Zolis Cafeteria,1,10,10,20,2014-03-18,51.466471,-0.252825
125242,Zoran's Delicatessen,4,10,5,5,2014-09-11,51.45447,-0.319536
