,addressline1,addressline2,addressline3,addressline4,businessname,businesstype,businesstypeid,confidenceinmanagement,extractdate,fhrsid,hygiene,itemcount,latitude,localauthoritybusinessid,localauthoritycode,localauthorityemailaddress,localauthorityname,localauthoritywebsite,longitude,postcode,ratingdate,ratingkey,ratingvalue,returncode,schemetype,structural
123932,,112 Kew Road,,Richmond,1st Stop,Retailers - other,4613,0,,354107,0,,51.46590600000000,44816,527,commercialeh@richmond.gov.uk,Richmond-Upon-Thames,http://www.richmond.gov.uk,-0.29813900000000,TW9 2PQ,2010-01-21,fhrs_5_en-GB,5,,FHRS,0
123933,,83 Church Road,,Barnes,2 Peas in a Pod,Retailers - other,4613,5,,354276,5,,51.47435200000000,47328,527,commercialeh@richmond.gov.uk,Richmond-Upon-Thames,http://www.richmond.gov.uk,-0.24402800000000,SW13 9HH,2012-07-17,fhrs_5_en-GB,5,,FHRS,5
123934,Scout Hq,Evelyn Close,,Twickenham,2nd Whitton Scout Group,Other catering premises,7841,,,354546,,,51.45158900000000,7222,527,commercialeh@richmond.gov.uk,Richmond-Upon-Thames,http://www.richmond.gov.uk,-0.36637300000000,TW2 7BL,2013-05-30,fhrs_exempt_en-GB,Exempt,,FHRS,
123935,,40 Sheen Lane,,East Sheen,40 Sheen Lane,Restaurant/Cafe/Canteen,1,10,,354178,5,,51.46696000000000,45951,527,commercialeh@richmond.gov.uk,Richmond-Upon-Thames,http://www.richmond.gov.uk,-0.26698800000000,SW14 8LW,2014-06-03,fhrs_4_en-GB,4,,FHRS,5
123936,,8 Waldegrave Road,,Teddington,8WR Cafe,Restaurant/Cafe/Canteen,1,5,,354388,5,,51.42363300000000,50090,527,commercialeh@richmond.gov.uk,Richmond-Upon-Thames,http://www.richmond.gov.uk,-0.33036000000000,TW11 8LD,2014-03-04,fhrs_5_en-GB,5,,FHRS,5
123937,,418 Richmond Road,,Twickenham,A Cena,Restaurant/Cafe/Canteen,1,5,,353401,5,,51.45612500000000,27887,527,commercialeh@richmond.gov.uk,Richmond-Upon-Thames,http://www.richmond.gov.uk,-0.30889500000000,TW1 2EB,2013-02-21,fhrs_5_en-GB,5,,FHRS,5
123938,,152 Waldegrave Road,,Teddington,A G Miller Teddington Ltd,Retailers - other,4613,5,,354581,0,,51.43218100000000,92,527,commercialeh@richmond.gov.uk,Richmond-Upon-Thames,http://www.richmond.gov.uk,-0.33803400000000,TW11 8NA,2014-05-30,fhrs_4_en-GB,4,,FHRS,10
123939,,,,,A Tea Affair,Other catering premises,7841,0,,354373,5,,,49761,527,commercialeh@richmond.gov.uk,Richmond-Upon-Thames,http://www.richmond.gov.uk,,,2010-11-18,fhrs_5_en-GB,5,,FHRS,5
123940,,136 Upper Richmond Road West,,London,A&M Sugarcraft Ltd,Retailers - other,4613,5,,354176,5,,51.46529800000000,45942,527,commercialeh@richmond.gov.uk,Richmond-Upon-Thames,http://www.richmond.gov.uk,-0.25978100000000,SW14 8DS,2009-05-21,fhrs_5_en-GB,5,,FHRS,5
123941,,28 Staines Road,,Twickenham,A4s Retail Limited,Retailers - other,4613,20,,354187,10,,51.44425500000000,46077,527,commercialeh@richmond.gov.uk,Richmond-Upon-Thames,http://www.richmond.gov.uk,-0.34673400000000,TW2 5AH,2013-11-29,fhrs_1_en-GB,1,,FHRS,15
123942,,370 Richmond Road,,Twickenham,Abacus Cafe,Restaurant/Cafe/Canteen,1,10,,354339,5,,51.45522200000000,48850,527,commercialeh@richmond.gov.uk,Richmond-Upon-Thames,http://www.richmond.gov.uk,-0.31055500000000,TW1 2DX,2012-10-04,fhrs_4_en-GB,4,,FHRS,0
123943,Twickenham Railway Station,London Road,,Twickenham,ABC,Retailers - other,4613,10,,353982,5,,,42167,527,commercialeh@richmond.gov.uk,Richmond-Upon-Thames,http://www.richmond.gov.uk,,,2009-08-10,fhrs_4_en-GB,4,,FHRS,5
123944,,14 Kew Green,,Kew,Abhayam Food & Wine Ltd,Retailers - other,4613,10,,354113,5,,51.48377000000000,449,527,commercialeh@richmond.gov.uk,Richmond-Upon-Thames,http://www.richmond.gov.uk,-0.28614000000000,TW9 3BH,2011-01-04,fhrs_4_en-GB,4,,FHRS,5
123945,,24 Hill Rise,,Richmond,Adesso,Restaurant/Cafe/Canteen,1,10,,353523,10,,51.45798300000000,32276,527,commercialeh@richmond.gov.uk,Richmond-Upon-Thames,http://www.richmond.gov.uk,-0.30495500000000,TW10 6UA,2014-09-12,fhrs_3_en-GB,3,,FHRS,10
123946,Twickenham Day Centre,Arragon Road,,Twickenham,Age UK,Hospitals/Childcare/Caring Premises,5,10,,353587,0,,51.44731800000000,3442,527,commercialeh@richmond.gov.uk,Richmond-Upon-Thames,http://www.richmond.gov.uk,-0.32556900000000,TW1 3NH,2014-10-27,fhrs_4_en-GB,4,,FHRS,5
123947,"Suite 301, Parkway House",Sheen Lane,,East Sheen,Age UK Richmond,Hospitals/Childcare/Caring Premises,5,10,,725214,10,,51.46447900000000,108486,527,commercialeh@richmond.gov.uk,Richmond-Upon-Thames,http://www.richmond.gov.uk,-0.26642000000000,SW14 8LS,2014-08-12,fhrs_4_en-GB,4,,FHRS,0
123948,,14 Red Lion Street,,Richmond,Al Boccon Di Vino,Restaurant/Cafe/Canteen,1,0,,354174,0,,51.45950700000000,45911,527,commercialeh@richmond.gov.uk,Richmond-Upon-Thames,http://www.richmond.gov.uk,-0.30459600000000,TW9 1RW,2013-06-27,fhrs_5_en-GB,5,,FHRS,5
123949,,,,,Alanna's Kitchen,Other catering premises,7841,5,,354340,0,,,48869,527,commercialeh@richmond.gov.uk,Richmond-Upon-Thames,http://www.richmond.gov.uk,,,2010-07-13,fhrs_5_en-GB,5,,FHRS,0
123950,,20 King Street,,Richmond,Alianti,Restaurant/Cafe/Canteen,1,0,,353722,5,,51.45996300000000,3677,527,commercialeh@richmond.gov.uk,Richmond-Upon-Thames,http://www.richmond.gov.uk,-0.30695400000000,TW9 1ND,2013-10-21,fhrs_5_en-GB,5,,FHRS,5
123951,,9-11 Hill Street,,Richmond,All Bar One,Pub/bar/nightclub,7843,5,,353466,0,,51.45879300000000,2940,527,commercialeh@richmond.gov.uk,Richmond-Upon-Thames,http://www.richmond.gov.uk,-0.30620600000000,TW9 1SX,2011-06-29,fhrs_5_en-GB,5,,FHRS,0
123952,,Erncroft Way,,Twickenham,All Hallows Church Hall,Other catering premises,7841,,,354586,,,51.45387200000000,9373,527,commercialeh@richmond.gov.uk,Richmond-Upon-Thames,http://www.richmond.gov.uk,-0.33497200000000,TW1 1DA,2009-03-31,fhrs_exempt_en-GB,Exempt,,FHRS,
123953,,374 Upper Richmond Road West,,East Sheen,All Noodle Bar,Restaurant/Cafe/Canteen,1,10,,353162,5,,51.46444600000000,23160,527,commercialeh@richmond.gov.uk,Richmond-Upon-Thames,http://www.richmond.gov.uk,-0.27396500000000,SW14 7JU,2012-08-25,fhrs_4_en-GB,4,,FHRS,5
123954,The Green,Hampton Court Road,,Hampton,All Seasons Restaurant,Restaurant/Cafe/Canteen,1,,,353328,,,51.40559800000000,2694,527,commercialeh@richmond.gov.uk,Richmond-Upon-Thames,http://www.richmond.gov.uk,-0.34364200000000,KT8 9BW,,fhrs_awaitinginspection_en-GB,AwaitingInspection,,FHRS,
123955,,37 Kneller Road,,Twickenham,Altons,Retailers - other,4613,20,,353599,0,,51.45355400000000,34564,527,commercialeh@richmond.gov.uk,Richmond-Upon-Thames,http://www.richmond.gov.uk,-0.34680100000000,TW2 7DF,2013-09-02,fhrs_1_en-GB,1,,FHRS,0
123956,,9 Paved Court,,Richmond,Amadora,Restaurant/Cafe/Canteen,1,5,,353834,10,,51.46031200000000,38858,527,commercialeh@richmond.gov.uk,Richmond-Upon-Thames,http://www.richmond.gov.uk,-0.30676900000000,TW9 1LZ,2013-02-19,fhrs_4_en-GB,4,,FHRS,5
123957,,,,,Amena's Chutney,Other catering premises,7841,10,,353966,10,,,41764,527,commercialeh@richmond.gov.uk,Richmond-Upon-Thames,http://www.richmond.gov.uk,,,2010-09-14,fhrs_4_en-GB,4,,FHRS,0
123958,,98 Heath Road,,Twickenham,Amin's,Restaurant/Cafe/Canteen,1,20,,353327,10,,51.44545800000000,26931,527,commercialeh@richmond.gov.uk,Richmond-Upon-Thames,http://www.richmond.gov.uk,-0.33451600000000,TW1 4BW,2014-12-16,fhrs_1_en-GB,1,,FHRS,15
123959,Ticket Hall,Richmond Station,,Kew Road,AMT Enterprises,Takeaway/sandwich shop,7844,5,,353194,5,,51.44833900000000,24372,527,commercialeh@richmond.gov.uk,Richmond-Upon-Thames,http://www.richmond.gov.uk,-0.32274200000000,TW1 2NA,2007-02-28,fhrs_5_en-GB,5,,FHRS,5
123960,,215 Lower Mortlake Road,,Richmond,Anatolia,Restaurant/Cafe/Canteen,1,10,,353617,5,,51.46662200000000,34789,527,commercialeh@richmond.gov.uk,Richmond-Upon-Thames,http://www.richmond.gov.uk,-0.29235400000000,TW9 2LN,2014-11-13,fhrs_3_en-GB,3,,FHRS,10
123961,,185 Castelnau,,Barnes,Angelica's Fine Foods,Retailers - other,4613,5,,353969,0,,51.48525900000000,41873,527,commercialeh@richmond.gov.uk,Richmond-Upon-Thames,http://www.richmond.gov.uk,-0.23377200000000,SW13 9ER,2011-02-23,fhrs_5_en-GB,5,,FHRS,0
123962,,20 Staines Road,,Twickenham,Angel's News,Retailers - other,4613,10,,354436,0,,51.44425500000000,506,527,commercialeh@richmond.gov.uk,Richmond-Upon-Thames,http://www.richmond.gov.uk,-0.34673400000000,TW2 5AH,2013-04-19,fhrs_4_en-GB,4,,FHRS,0
123963,,,,,Anjula Devi Authentic Indian Cooking,Other catering premises,7841,20,,354357,5,,,49441,527,commercialeh@richmond.gov.uk,Richmond-Upon-Thames,http://www.richmond.gov.uk,,,2014-04-10,fhrs_1_en-GB,1,,FHRS,5
123964,,231 Powder Mill Lane,,Twickenham,Annapurna,Restaurant/Cafe/Canteen,1,5,,353533,5,,51.44931400000000,32641,527,commercialeh@richmond.gov.uk,Richmond-Upon-Thames,http://www.richmond.gov.uk,-0.37864400000000,TW2 6EH,2013-03-21,fhrs_5_en-GB,5,,FHRS,0
123965,,199 Upper Richmond Road West,,East Sheen,Annapurna Nepalese Restaurant,Restaurant/Cafe/Canteen,1,5,,353986,5,,51.46493400000000,42231,527,commercialeh@richmond.gov.uk,Richmond-Upon-Thames,http://www.richmond.gov.uk,-0.26134900000000,SW14 8QT,2014-03-27,fhrs_5_en-GB,5,,FHRS,5
123966,,36-38 White Hart Lane,,London,Annie's,Restaurant/Cafe/Canteen,1,0,,353541,5,,51.46871400000000,32933,527,commercialeh@richmond.gov.uk,Richmond-Upon-Thames,http://www.richmond.gov.uk,-0.25489900000000,SW13 0PZ,2012-11-14,fhrs_5_en-GB,5,,FHRS,5
123967,,22 High Street,,Hampton Hill,Anothai Thai Cuisine,Restaurant/Cafe/Canteen,1,5,,353495,5,,51.42564700000000,30625,527,commercialeh@richmond.gov.uk,Richmond-Upon-Thames,http://www.richmond.gov.uk,-0.35676900000000,TW12 1PD,2013-11-27,fhrs_4_en-GB,4,,FHRS,10
123968,Richmond Upon Thames College,Egerton Road,,Twickenham,Apple Tree Cafe,Restaurant/Cafe/Canteen,1,0,,354592,0,,51.45144100000000,9388,527,commercialeh@richmond.gov.uk,Richmond-Upon-Thames,http://www.richmond.gov.uk,-0.34238700000000,TW2 7SJ,2013-09-03,fhrs_5_en-GB,5,,FHRS,0
123969,,107 Sheen Lane,,East Sheen,Apples and Bees,Retailers - other,4613,5,,734075,5,,51.46567800000000,760,527,commercialeh@richmond.gov.uk,Richmond-Upon-Thames,http://www.richmond.gov.uk,-0.26664700000000,SW14 8AE,2015-01-29,fhrs_5_en-GB,5,,FHRS,5
123970,Thames Water Plc,Lower Sunbury Road,,Hampton,Aquarius Sailing Club,Pub/bar/nightclub,7843,5,,353739,5,,,3716,527,commercialeh@richmond.gov.uk,Richmond-Upon-Thames,http://www.richmond.gov.uk,,,2008-03-19,fhrs_5_en-GB,5,,FHRS,5
123971,Archdeacon Cambridges School,The Green,,Twickenham,Archdeacon Cambridge's Primary,School/college/university,7845,0,,353659,0,,51.44384500000000,3557,527,commercialeh@richmond.gov.uk,Richmond-Upon-Thames,http://www.richmond.gov.uk,-0.34063300000000,TW2 5TU,2013-06-17,fhrs_5_en-GB,5,,FHRS,0
123972,,205 Lower Mortlake Road,,Richmond,Armstrongs of Richmond,Retailers - other,4613,5,,354531,0,,51.46622300000000,69,527,commercialeh@richmond.gov.uk,Richmond-Upon-Thames,http://www.richmond.gov.uk,-0.29401000000000,TW9 2LP,2010-11-25,fhrs_5_en-GB,5,,FHRS,0
123973,,58 Church Road,,Barnes,ArteChef,Restaurant/Cafe/Canteen,1,5,,353699,5,,51.47483300000000,36325,527,commercialeh@richmond.gov.uk,Richmond-Upon-Thames,http://www.richmond.gov.uk,-0.24072700000000,SW13 0DQ,2013-08-13,fhrs_2_en-GB,2,,FHRS,15
123974,Arthurs On The Green,The Green,,Twickenham,Arthurs Bistro,Restaurant/Cafe/Canteen,1,5,,354042,5,,51.44469900000000,43632,527,commercialeh@richmond.gov.uk,Richmond-Upon-Thames,http://www.richmond.gov.uk,-0.34126400000000,TW2 5AB,2013-04-20,fhrs_4_en-GB,4,,FHRS,10
123975,,85 Kew Green,,Kew,ASK Pizza & Pasta,Restaurant/Cafe/Canteen,1,0,,353116,5,,51.48543200000000,20646,527,commercialeh@richmond.gov.uk,Richmond-Upon-Thames,http://www.richmond.gov.uk,-0.28913100000000,TW9 3AH,2012-10-18,fhrs_5_en-GB,5,,FHRS,5
123976,,58-62 The Green,,Twickenham,ASK Pizza & Pasta,Restaurant/Cafe/Canteen,1,0,,353173,0,,51.44470000000000,23785,527,commercialeh@richmond.gov.uk,Richmond-Upon-Thames,http://www.richmond.gov.uk,-0.34132100000000,TW2 5AB,2011-08-19,fhrs_5_en-GB,5,,FHRS,5
123977,Kew Riverside School,Courtlands Avenue,,Kew,Asquith Day Nursery,Hospitals/Childcare/Caring Premises,5,0,,354171,0,,51.47419800000000,45866,527,commercialeh@richmond.gov.uk,Richmond-Upon-Thames,http://www.richmond.gov.uk,-0.27666400000000,TW9 4ES,2013-06-20,fhrs_5_en-GB,5,,FHRS,5
123978,Asquith Nursery,Church Grove,,Hampton Wick,Asquith Nursery,Hospitals/Childcare/Caring Premises,5,10,,354564,0,,51.41273600000000,8169,527,commercialeh@richmond.gov.uk,Richmond-Upon-Thames,http://www.richmond.gov.uk,-0.31387600000000,KT1 4AL,2014-10-24,fhrs_4_en-GB,4,,FHRS,10
123979,,63 Arragon Road,,Twickenham,Asquith Nursery St Mary's,Hospitals/Childcare/Caring Premises,5,0,,353542,0,,,32958,527,commercialeh@richmond.gov.uk,Richmond-Upon-Thames,http://www.richmond.gov.uk,,,2014-03-11,fhrs_5_en-GB,5,,FHRS,0
123980,,,,,Aston Pierpoint Nursery,Hospitals/Childcare/Caring Premises,5,5,,353397,10,,,27823,527,commercialeh@richmond.gov.uk,Richmond-Upon-Thames,http://www.richmond.gov.uk,,,2014-06-16,fhrs_4_en-GB,4,,FHRS,5
123981,,31 Broad Street,,Teddington,Astrora Coffee ( Roasters),Retailers - other,4613,10,,354130,0,,51.42618000000000,45318,527,commercialeh@richmond.gov.uk,Richmond-Upon-Thames,http://www.richmond.gov.uk,-0.33843900000000,TW11 8QZ,2009-06-17,fhrs_4_en-GB,4,,FHRS,0
123982,,36 Percy Road,,Hampton,Athelstan House School,School/college/university,7845,0,,353770,0,,51.41710900000000,3777,527,commercialeh@richmond.gov.uk,Richmond-Upon-Thames,http://www.richmond.gov.uk,-0.37321100000000,TW12 2LA,2013-02-06,fhrs_5_en-GB,5,,FHRS,0
123983,Flat At,27 York Street,,Twickenham,Atithi Indian Cuisine,Restaurant/Cafe/Canteen,1,5,,353804,5,,51.44739300000000,38412,527,commercialeh@richmond.gov.uk,Richmond-Upon-Thames,http://www.richmond.gov.uk,-0.32772500000000,TW1 3JZ,2014-07-25,fhrs_4_en-GB,4,,FHRS,10
123984,,68 Church Road,,Barnes,Awesome Thai Restaurant,Restaurant/Cafe/Canteen,1,5,,353182,5,,51.47483300000000,2413,527,commercialeh@richmond.gov.uk,Richmond-Upon-Thames,http://www.richmond.gov.uk,-0.24072700000000,SW13 0DQ,2012-06-11,fhrs_5_en-GB,5,,FHRS,0
123985,St JohnThe divine Church,18-20 Kew Road,,Richmond,Azbuka Russian Nursery,Hospitals/Childcare/Caring Premises,5,5,,354396,0,,51.46362900000000,50240,527,commercialeh@richmond.gov.uk,Richmond-Upon-Thames,http://www.richmond.gov.uk,-0.30172200000000,TW9 2ND,2012-12-11,fhrs_5_en-GB,5,,FHRS,0
123986,,39 Kew Road,,Richmond,Bacco Restaurant,Restaurant/Cafe/Canteen,1,10,,353130,0,,51.46409700000000,21533,527,commercialeh@richmond.gov.uk,Richmond-Upon-Thames,http://www.richmond.gov.uk,-0.30174800000000,TW9 2NQ,2013-03-04,fhrs_4_en-GB,4,,FHRS,5
123987,,175 Ashburnham Road,,Ham,Backhaus Delicatessen,Retailers - other,4613,10,,352999,5,,51.43640200000000,14115,527,commercialeh@richmond.gov.uk,Richmond-Upon-Thames,http://www.richmond.gov.uk,-0.32060200000000,TW10 7NR,2014-12-09,fhrs_3_en-GB,3,,FHRS,10
123988,,181 Ashburnham Road,,Ham,Backhaus German Bakers Ltd,Retailers - other,4613,20,,353460,5,,51.43640200000000,28926,527,commercialeh@richmond.gov.uk,Richmond-Upon-Thames,http://www.richmond.gov.uk,-0.32060200000000,TW10 7NR,2013-01-22,fhrs_1_en-GB,1,,FHRS,5
123989,Flat Above,80 Nelson Road,,Twickenham,Bad Brownie,Other catering premises,7841,0,,571438,5,,51.45381000000000,105623,527,commercialeh@richmond.gov.uk,Richmond-Upon-Thames,http://www.richmond.gov.uk,-0.35670800000000,TW2 7AY,2013-07-10,fhrs_5_en-GB,5,,FHRS,5
123990,Platform 2 Richmond Station,Kew Road,,Richmond,Bagels Already,Restaurant/Cafe/Canteen,1,5,,353995,5,,51.46413500000000,42672,527,commercialeh@richmond.gov.uk,Richmond-Upon-Thames,http://www.richmond.gov.uk,-0.30066700000000,TW9 2NA,2013-11-21,fhrs_4_en-GB,4,,FHRS,10
123991,,,,,Bake Away,Other catering premises,7841,0,,665444,10,,,79636,527,commercialeh@richmond.gov.uk,Richmond-Upon-Thames,http://www.richmond.gov.uk,,,2014-04-30,fhrs_4_en-GB,4,,FHRS,0
123992,,122 Sheen Road,,Richmond,Bamboo Noodle,Restaurant/Cafe/Canteen,1,5,,353560,5,,51.46241300000000,33599,527,commercialeh@richmond.gov.uk,Richmond-Upon-Thames,http://www.richmond.gov.uk,-0.29477100000000,TW9 1UR,2013-03-19,fhrs_5_en-GB,5,,FHRS,0
123993,,44 Broad Street,,Teddington,Bar Estilo,Restaurant/Cafe/Canteen,1,0,,353053,0,,51.42588900000000,17319,527,commercialeh@richmond.gov.uk,Richmond-Upon-Thames,http://www.richmond.gov.uk,-0.33692500000000,TW11 8QY,2013-07-03,fhrs_5_en-GB,5,,FHRS,5
123994,,105 High Street,,Whitton,Bargain House Whitton,Retailers - other,4613,5,,725222,5,,51.45073900000000,332,527,commercialeh@richmond.gov.uk,Richmond-Upon-Thames,http://www.richmond.gov.uk,-0.35766700000000,TW2 7LD,2008-03-14,fhrs_5_en-GB,5,,FHRS,5
123995,Barn Elms Playing Fields,Queen Elizabeth Walk,,Barnes,Barn Elms Sports Centre,Restaurant/Cafe/Canteen,1,0,,654142,0,,51.47547800000000,26230,527,commercialeh@richmond.gov.uk,Richmond-Upon-Thames,http://www.richmond.gov.uk,-0.23754800000000,SW13 9SA,2014-03-24,fhrs_5_en-GB,5,,FHRS,5
123996,,,,,Barnes Buffet,Other catering premises,7841,5,,353595,0,,,3451,527,commercialeh@richmond.gov.uk,Richmond-Upon-Thames,http://www.richmond.gov.uk,,,2013-10-18,fhrs_5_en-GB,5,,FHRS,0
123997,,11 Gipsy Lane,,Barnes,Barnes Day Centre,Other catering premises,7841,10,,687348,0,,51.46527200000000,60628,527,commercialeh@richmond.gov.uk,Richmond-Upon-Thames,http://www.richmond.gov.uk,-0.23761100000000,SW15 5RG,2014-06-20,fhrs_4_en-GB,4,,FHRS,10
123998,,171 Church Road,,Barnes,Barnes Express,Retailers - other,4613,5,,353044,5,,51.47538600000000,170,527,commercialeh@richmond.gov.uk,Richmond-Upon-Thames,http://www.richmond.gov.uk,-0.23984200000000,SW13 9HR,2008-03-14,fhrs_5_en-GB,5,,FHRS,5
123999,Barnes Green Centre,Church Road,,London,Barnes Green Centre,Hospitals/Childcare/Caring Premises,5,0,,353620,5,,51.47376600000000,3485,527,commercialeh@richmond.gov.uk,Richmond-Upon-Thames,http://www.richmond.gov.uk,-0.24693100000000,SW13 9HE,2012-09-17,fhrs_5_en-GB,5,,FHRS,0
124000,,76a Richmond Park Road,,East Sheen,Barnes Home Guard Association,Pub/bar/nightclub,7843,10,,354300,10,,51.46183900000000,4792,527,commercialeh@richmond.gov.uk,Richmond-Upon-Thames,http://www.richmond.gov.uk,-0.26670700000000,SW14 8LA,2012-08-29,fhrs_3_en-GB,3,,FHRS,10
124001,Trinity Hall,Trinity Church Road,,Barnes,Barnes Nature Kindergarten,Hospitals/Childcare/Caring Premises,5,5,,353538,5,,51.48486900000000,32924,527,commercialeh@richmond.gov.uk,Richmond-Upon-Thames,http://www.richmond.gov.uk,-0.23299500000000,SW13 8ES,2014-06-03,fhrs_5_en-GB,5,,FHRS,0
124002,Barnes Primary School,Cross Street,,London,Barnes Primary School,School/college/university,7845,0,,353885,0,,51.46865400000000,3986,527,commercialeh@richmond.gov.uk,Richmond-Upon-Thames,http://www.richmond.gov.uk,-0.25087000000000,SW13 0QQ,2013-06-26,fhrs_5_en-GB,5,,FHRS,5
124003,Barnes Railway Station,Station Road,,Barnes,Barnes Station News,Mobile caterer,7846,0,,544629,0,,51.46713700000000,43081,527,commercialeh@richmond.gov.uk,Richmond-Upon-Thames,http://www.richmond.gov.uk,-0.24204500000000,SW13 0HT,2012-09-03,fhrs_5_en-GB,5,,FHRS,0
124004,,,,,Barty's Creative Caterers,Other catering premises,7841,0,,353071,0,,,18067,527,commercialeh@richmond.gov.uk,Richmond-Upon-Thames,http://www.richmond.gov.uk,,,2013-09-06,fhrs_5_en-GB,5,,FHRS,0
124005,,178 Upper Richmond Road West,,East Sheen,Basilico,Takeaway/sandwich shop,7844,0,,353359,5,,51.46527200000000,27386,527,commercialeh@richmond.gov.uk,Richmond-Upon-Thames,http://www.richmond.gov.uk,-0.26228700000000,SW14 8AW,2013-01-24,fhrs_5_en-GB,5,,FHRS,5
124006,The Stag Brewery,Lower Richmond Road,,Richmond,Baxter Storey @ The Stag Brewery,Restaurant/Cafe/Canteen,1,0,,354004,5,,51.46976100000000,42948,527,commercialeh@richmond.gov.uk,Richmond-Upon-Thames,http://www.richmond.gov.uk,-0.26603200000000,SW14 7ET,2012-07-17,fhrs_5_en-GB,5,,FHRS,5
124007,,134 High Street,,Whitton,BBQ Kebab House,Restaurant/Cafe/Canteen,1,10,,352991,10,,51.44986600000000,1369,527,commercialeh@richmond.gov.uk,Richmond-Upon-Thames,http://www.richmond.gov.uk,-0.35824600000000,TW2 7LL,2014-07-16,fhrs_3_en-GB,3,,FHRS,5
124008,,7a Petersham Road,,Richmond,Be At One,Pub/bar/nightclub,7843,5,,353303,5,,51.45706800000000,26617,527,commercialeh@richmond.gov.uk,Richmond-Upon-Thames,http://www.richmond.gov.uk,-0.30449900000000,TW10 6UH,2010-03-26,fhrs_5_en-GB,5,,FHRS,5
124009,,7 Lower George Street,,Richmond,Beirut Street Kitchen,Restaurant/Cafe/Canteen,1,,,353023,,,51.46096900000000,16040,527,commercialeh@richmond.gov.uk,Richmond-Upon-Thames,http://www.richmond.gov.uk,-0.30313100000000,TW9 1HU,2014-05-12,fhrs_5_en-GB,5,,FHRS,
124010,,313 Upper Richmond Road West,,East Sheen,Bellinis,Restaurant/Cafe/Canteen,1,0,,353087,0,,51.46476400000000,18671,527,commercialeh@richmond.gov.uk,Richmond-Upon-Thames,http://www.richmond.gov.uk,-0.26439300000000,SW14 8QR,2012-07-31,fhrs_5_en-GB,5,,FHRS,0
124011,,162 Stanley Road,,Teddington,Bengal Brasserie,Restaurant/Cafe/Canteen,1,5,,353276,5,,51.43089700000000,2609,527,commercialeh@richmond.gov.uk,Richmond-Upon-Thames,http://www.richmond.gov.uk,-0.34515900000000,TW11 8UD,2012-08-25,fhrs_5_en-GB,5,,FHRS,0
124012,,74 Sheen Road,,Richmond,Bengal Village,Takeaway/sandwich shop,7844,10,,353830,10,,51.46199000000000,3879,527,commercialeh@richmond.gov.uk,Richmond-Upon-Thames,http://www.richmond.gov.uk,-0.29663000000000,TW9 1UF,2012-11-29,fhrs_3_en-GB,3,,FHRS,5
124013,,69 Ham Street,,Ham,Best Grill & Fish Bar,Takeaway/sandwich shop,7844,20,,353131,5,,51.43839700000000,21547,527,commercialeh@richmond.gov.uk,Richmond-Upon-Thames,http://www.richmond.gov.uk,-0.31365100000000,TW10 7HW,2014-05-02,fhrs_1_en-GB,1,,FHRS,15
124014,,2 The Parade,,Hampton,Best Kebab Hampton Hill LTD,Takeaway/sandwich shop,7844,10,,353682,5,,51.42910200000000,36049,527,commercialeh@richmond.gov.uk,Richmond-Upon-Thames,http://www.richmond.gov.uk,-0.35371100000000,TW12 1JW,2012-08-25,fhrs_4_en-GB,4,,FHRS,0
124015,,6 Hill Rise,,Richmond,Best One,Retailers - other,4613,10,,353960,0,,51.45798300000000,41678,527,commercialeh@richmond.gov.uk,Richmond-Upon-Thames,http://www.richmond.gov.uk,-0.30495500000000,TW10 6UA,2013-07-09,fhrs_4_en-GB,4,,FHRS,0
124016,,391 St Margarets Road,,Twickenham,Best Wine & Foods,Retailers - other,4613,5,,353069,0,,51.46483300000000,17977,527,commercialeh@richmond.gov.uk,Richmond-Upon-Thames,http://www.richmond.gov.uk,-0.32356000000000,TW7 7BZ,2009-06-23,fhrs_5_en-GB,5,,FHRS,0
124017,,,,,Bianca Mailsan,Other catering premises,7841,0,,670237,0,,,69720,527,commercialeh@richmond.gov.uk,Richmond-Upon-Thames,http://www.richmond.gov.uk,,,2014-06-06,fhrs_5_en-GB,5,,FHRS,0
124018,,4 Broad Street,,Teddington,Bilas Tandoori,Restaurant/Cafe/Canteen,1,0,,353452,5,,51.42593600000000,2862,527,commercialeh@richmond.gov.uk,Richmond-Upon-Thames,http://www.richmond.gov.uk,-0.33896600000000,TW11 8RF,2013-07-31,fhrs_4_en-GB,4,,FHRS,10
124019,,1 Hill Rise,,Richmond,Bill's Restaurants,Restaurant/Cafe/Canteen,1,0,,353243,0,,,25482,527,commercialeh@richmond.gov.uk,Richmond-Upon-Thames,http://www.richmond.gov.uk,,,2012-10-11,fhrs_5_en-GB,5,,FHRS,0
124020,Bishop Perrin School,Hospital Bridge Road,,Twickenham,Bishop Perrin Primary School,School/college/university,7845,5,,353707,0,,51.44857300000000,3645,527,commercialeh@richmond.gov.uk,Richmond-Upon-Thames,http://www.richmond.gov.uk,-0.36612100000000,TW2 6LF,2010-12-07,fhrs_5_en-GB,5,,FHRS,0
124021,,,,,Bizzie Lizzie Cakes,Other catering premises,7841,10,,354313,5,,,48184,527,commercialeh@richmond.gov.uk,Richmond-Upon-Thames,http://www.richmond.gov.uk,,,2011-01-11,fhrs_4_en-GB,4,,FHRS,5
124022,,,,,Blackbird Bread,Other catering premises,7841,10,,494097,0,,,24482,527,commercialeh@richmond.gov.uk,Richmond-Upon-Thames,http://www.richmond.gov.uk,,,2012-12-04,fhrs_4_en-GB,4,,FHRS,0
124023,,157 Heath Road,,Twickenham,Blah blah blah,Restaurant/Cafe/Canteen,1,10,,354338,0,,51.44508500000000,48804,527,commercialeh@richmond.gov.uk,Richmond-Upon-Thames,http://www.richmond.gov.uk,-0.33739300000000,TW1 4BH,2013-01-23,fhrs_4_en-GB,4,,FHRS,0
124024,,,,,Bliss Brownies,Other catering premises,7841,10,,709356,5,,,78575,527,commercialeh@richmond.gov.uk,Richmond-Upon-Thames,http://www.richmond.gov.uk,,,2014-05-14,fhrs_4_en-GB,4,,FHRS,5
124025,,147 High Street,,Hampton Hill,Bloated Mallard TW12,Pub/bar/nightclub,7843,0,,353312,0,,51.42626600000000,2674,527,commercialeh@richmond.gov.uk,Richmond-Upon-Thames,http://www.richmond.gov.uk,-0.35670400000000,TW12 1NJ,2013-12-12,fhrs_4_en-GB,4,,FHRS,10
124026,Twickenham Tavern,11 London Road,,Twickenham,Blue's Smokehouse,Pub/bar/nightclub,7843,10,,353903,5,,51.44712000000000,40156,527,commercialeh@richmond.gov.uk,Richmond-Upon-Thames,http://www.richmond.gov.uk,-0.32869900000000,TW1 3SX,2009-07-29,fhrs_4_en-GB,4,,FHRS,0
124027,,4 Park Road,,Teddington,Bombay Spice,Restaurant/Cafe/Canteen,1,10,,353172,10,,51.42612100000000,23761,527,commercialeh@richmond.gov.uk,Richmond-Upon-Thames,http://www.richmond.gov.uk,-0.33494600000000,TW11 0AA,2012-08-21,fhrs_3_en-GB,3,,FHRS,10
124028,,171b High Street,,Hampton Hill,Bonjourno,Restaurant/Cafe/Canteen,1,10,,353532,15,,51.42835800000000,32616,527,commercialeh@richmond.gov.uk,Richmond-Upon-Thames,http://www.richmond.gov.uk,-0.35519000000000,TW12 1NL,2014-08-04,fhrs_2_en-GB,2,,FHRS,10
124029,,100 High Street,,Whitton,Boots The Chemists Ltd,Retailers - other,4613,,,353031,,,51.45062100000000,1665,527,commercialeh@richmond.gov.uk,Richmond-Upon-Thames,http://www.richmond.gov.uk,-0.35820400000000,TW2 7LN,2009-03-05,fhrs_exempt_en-GB,Exempt,,FHRS,
124030,,59 Broad Street,,Teddington,Boots The Chemists Ltd,Retailers - other,4613,5,,353034,5,,51.42618000000000,1675,527,commercialeh@richmond.gov.uk,Richmond-Upon-Thames,http://www.richmond.gov.uk,-0.33843900000000,TW11 8QZ,2009-03-24,fhrs_5_en-GB,5,,FHRS,5
124031,,197 Castelnau,,Barnes,Booze & News,Retailers - other,4613,20,,353981,0,,51.48525900000000,42144,527,commercialeh@richmond.gov.uk,Richmond-Upon-Thames,http://www.richmond.gov.uk,-0.23377200000000,SW13 9ER,2013-04-17,fhrs_1_en-GB,1,,FHRS,0
124032,Lcc Playing Fields,Queen Elizabeth Walk,,Barnes,Brackenburys,Restaurant/Cafe/Canteen,1,0,,716426,5,,51.47547800000000,118359,527,commercialeh@richmond.gov.uk,Richmond-Upon-Thames,http://www.richmond.gov.uk,-0.23754800000000,SW13 9SA,2014-10-16,fhrs_5_en-GB,5,,FHRS,5
124033,,,,,Breadren Ltd,Other catering premises,7841,5,,641208,0,,,10426,527,commercialeh@richmond.gov.uk,Richmond-Upon-Thames,http://www.richmond.gov.uk,,,2014-02-12,fhrs_5_en-GB,5,,FHRS,0
124034,Grosvenor House,Grosvenor Road,,Twickenham,Bright Beginnings,Hospitals/Childcare/Caring Premises,5,0,,354302,5,,51.44814600000000,48010,527,commercialeh@richmond.gov.uk,Richmond-Upon-Thames,http://www.richmond.gov.uk,-0.33064800000000,TW1 4AD,2015-01-12,fhrs_5_en-GB,5,,FHRS,5
124035,,,,,Bright Beginnings Day Nursery,Hospitals/Childcare/Caring Premises,5,5,,352929,5,,,101136,527,commercialeh@richmond.gov.uk,Richmond-Upon-Thames,http://www.richmond.gov.uk,,,2015-01-12,fhrs_5_en-GB,5,,FHRS,5
124036,Brinsworth House,72 Staines Road,,Twickenham,Brinsworth House,Hospitals/Childcare/Caring Premises,5,0,,354548,0,,51.44379400000000,7290,527,commercialeh@richmond.gov.uk,Richmond-Upon-Thames,http://www.richmond.gov.uk,-0.34849100000000,TW2 5AL,2013-03-20,fhrs_5_en-GB,5,,FHRS,5
124037,,30 Broad Street,,Teddington,Broad Street Extra,Retailers - other,4613,0,,354468,5,,51.42593600000000,555,527,commercialeh@richmond.gov.uk,Richmond-Upon-Thames,http://www.richmond.gov.uk,-0.33896600000000,TW11 8RF,2008-03-28,fhrs_5_en-GB,5,,FHRS,5
124038,,139 St Margarets Road,,Twickenham,Brocca Antica,Restaurant/Cafe/Canteen,1,0,,353391,0,,51.45590400000000,27741,527,commercialeh@richmond.gov.uk,Richmond-Upon-Thames,http://www.richmond.gov.uk,-0.32103800000000,TW1 1RG,2013-12-09,fhrs_4_en-GB,4,,FHRS,10
124039,,,,,Brook House Nursery,Hospitals/Childcare/Caring Premises,5,0,,353633,0,,,3506,527,commercialeh@richmond.gov.uk,Richmond-Upon-Thames,http://www.richmond.gov.uk,,,2013-08-29,fhrs_5_en-GB,5,,FHRS,5
124040,Broomfield House School,10 Broomfield Road,,Kew,Broomfield House School,School/college/university,7845,5,,354544,0,,51.47873800000000,7216,527,commercialeh@richmond.gov.uk,Richmond-Upon-Thames,http://www.richmond.gov.uk,-0.28822900000000,TW9 3HS,2014-03-05,fhrs_5_en-GB,5,,FHRS,0
124041,The Old Goat,241 Hampton Road,,Twickenham,Brouge Bistros Ltd,Pub/bar/nightclub,7843,5,,353756,5,,51.43663900000000,37621,527,commercialeh@richmond.gov.uk,Richmond-Upon-Thames,http://www.richmond.gov.uk,-0.35000100000000,TW2 5NG,2012-09-12,fhrs_5_en-GB,5,,FHRS,5
124042,,332 Staines Road,,Twickenham,Bruce's,Retailers - other,4613,5,,354561,10,,51.43957400000000,79,527,commercialeh@richmond.gov.uk,Richmond-Upon-Thames,http://www.richmond.gov.uk,-0.36110400000000,TW2 5AT,2013-06-20,fhrs_3_en-GB,3,,FHRS,10
124043,,43 Crown Road,,Twickenham,Brula,Restaurant/Cafe/Canteen,1,0,,353247,0,,51.45323300000000,25517,527,commercialeh@richmond.gov.uk,Richmond-Upon-Thames,http://www.richmond.gov.uk,-0.31853000000000,TW1 3EJ,2014-05-30,fhrs_4_en-GB,4,,FHRS,10
124044,,,,,Bubble Royal Tea,Other catering premises,7841,5,,725223,5,,,36542,527,commercialeh@richmond.gov.uk,Richmond-Upon-Thames,http://www.richmond.gov.uk,,,2013-11-20,fhrs_5_en-GB,5,,FHRS,5
124045,,27 Heath Road,,Twickenham,Bubbles,Retailers - other,4613,10,,353526,0,,51.44496200000000,323,527,commercialeh@richmond.gov.uk,Richmond-Upon-Thames,http://www.richmond.gov.uk,-0.33254800000000,TW1 4AW,2012-10-03,fhrs_4_en-GB,4,,FHRS,0
124046,,112 Heath Road,,Twickenham,Buchanan's,Retailers - other,4613,5,,354368,5,,51.44545800000000,497,527,commercialeh@richmond.gov.uk,Richmond-Upon-Thames,http://www.richmond.gov.uk,-0.33451600000000,TW1 4BW,2008-03-17,fhrs_5_en-GB,5,,FHRS,5
124047,Buckingham Primary School,Buckingham Road,,Hampton,Buckingham Primary School,School/college/university,7845,0,,353610,0,,51.42794900000000,3469,527,commercialeh@richmond.gov.uk,Richmond-Upon-Thames,http://www.richmond.gov.uk,-0.37742900000000,TW12 3LT,2015-01-20,fhrs_5_en-GB,5,,FHRS,0
124048,,31-33 High Street,,Teddington,Budgens,Retailers - other,4613,0,,354384,0,,51.42733800000000,5,527,commercialeh@richmond.gov.uk,Richmond-Upon-Thames,http://www.richmond.gov.uk,-0.33262900000000,TW11 8ET,2013-04-18,fhrs_5_en-GB,5,,FHRS,0
124049,,13-19 The Square,,Richmond,Buenos Aires Restaurant Ltd,Restaurant/Cafe/Canteen,1,5,,353776,5,,51.46157800000000,37822,527,commercialeh@richmond.gov.uk,Richmond-Upon-Thames,http://www.richmond.gov.uk,-0.30295000000000,TW9 1EA,2013-08-05,fhrs_5_en-GB,5,,FHRS,5
124050,Richmond Athletic Association,Kew Foot Road,,Richmond,Buffers Catering Limited,Other catering premises,7841,0,,433138,0,,51.46561700000000,117701,527,commercialeh@richmond.gov.uk,Richmond-Upon-Thames,http://www.richmond.gov.uk,-0.30176400000000,TW9 2SS,2012-11-22,fhrs_5_en-GB,5,,FHRS,5
124051,,81 Fulwell Road,,Teddington,Building Blocks Childcare,Hospitals/Childcare/Caring Premises,5,0,,353921,5,,51.43241000000000,40597,527,commercialeh@richmond.gov.uk,Richmond-Upon-Thames,http://www.richmond.gov.uk,-0.35041200000000,TW11 0RJ,2013-02-07,fhrs_5_en-GB,5,,FHRS,0
124052,,33-35 London Road,,Twickenham,Burger King,Restaurant/Cafe/Canteen,1,0,,353418,0,,51.44820900000000,28034,527,commercialeh@richmond.gov.uk,Richmond-Upon-Thames,http://www.richmond.gov.uk,-0.32945100000000,TW1 3SZ,2013-01-10,fhrs_5_en-GB,5,,FHRS,0
124053,,51 High Street,,Hampton,Buttons Day Nursery School Ltd,Hospitals/Childcare/Caring Premises,5,10,,353695,5,,51.41658800000000,36266,527,commercialeh@richmond.gov.uk,Richmond-Upon-Thames,http://www.richmond.gov.uk,-0.35910700000000,TW12 2SX,2014-09-09,fhrs_4_en-GB,4,,FHRS,5
124054,,,,,Buttons Day Nursery Teddington LLP,Hospitals/Childcare/Caring Premises,5,0,,353692,0,,,36165,527,commercialeh@richmond.gov.uk,Richmond-Upon-Thames,http://www.richmond.gov.uk,,,2013-07-25,fhrs_5_en-GB,5,,FHRS,0
124055,,38-42 Hampton Road,,Teddington,Byrne Group,Restaurant/Cafe/Canteen,1,0,,354126,0,,51.42768900000000,45277,527,commercialeh@richmond.gov.uk,Richmond-Upon-Thames,http://www.richmond.gov.uk,-0.34597900000000,TW11 0JE,2013-11-18,fhrs_5_en-GB,5,,FHRS,0
124056,,2 Ashburnham Road,,Ham,C C Pizza,Takeaway/sandwich shop,7844,5,,353251,0,,51.43808600000000,25570,527,commercialeh@richmond.gov.uk,Richmond-Upon-Thames,http://www.richmond.gov.uk,-0.31389300000000,TW10 7NF,2013-02-21,fhrs_4_en-GB,4,,FHRS,10
124057,,,,,C J Cakes,Other catering premises,7841,5,,353950,5,,,41338,527,commercialeh@richmond.gov.uk,Richmond-Upon-Thames,http://www.richmond.gov.uk,,,2007-10-12,fhrs_5_en-GB,5,,FHRS,5
124058,,670 Hanworth Road,,Whitton,C Y N Mangal,Restaurant/Cafe/Canteen,1,5,,354308,10,,51.45046800000000,48061,527,commercialeh@richmond.gov.uk,Richmond-Upon-Thames,http://www.richmond.gov.uk,-0.37890500000000,TW4 5NP,2013-10-16,fhrs_4_en-GB,4,,FHRS,5
124059,,4 Church Court - Footpath,,Richmond,Cafe Alambra,Restaurant/Cafe/Canteen,1,10,,353630,10,,51.46052500000000,35028,527,commercialeh@richmond.gov.uk,Richmond-Upon-Thames,http://www.richmond.gov.uk,-0.30414100000000,TW9 1JL,2012-07-06,fhrs_3_en-GB,3,,FHRS,10
124060,,55-61 Heath Road,,Twickenham,Cafe Bar,Restaurant/Cafe/Canteen,1,20,,725219,10,,51.44496200000000,118283,527,commercialeh@richmond.gov.uk,Richmond-Upon-Thames,http://www.richmond.gov.uk,-0.33254800000000,TW1 4AW,2014-06-12,fhrs_1_en-GB,1,,FHRS,5
124061,,Mortlake Station,,Sheen Lane,Cafe Bar Mortlake,Restaurant/Cafe/Canteen,1,20,,353566,0,,51.46813000000000,33871,527,commercialeh@richmond.gov.uk,Richmond-Upon-Thames,http://www.richmond.gov.uk,-0.26707300000000,SW14 8LN,2013-01-24,fhrs_1_en-GB,1,,FHRS,0
124062,,216 Hampton Road,,Twickenham,Cafe Bellisimmo,Restaurant/Cafe/Canteen,1,5,,354433,10,,51.43702600000000,50506,527,commercialeh@richmond.gov.uk,Richmond-Upon-Thames,http://www.richmond.gov.uk,-0.35060600000000,TW2 5NJ,2013-05-09,fhrs_3_en-GB,3,,FHRS,10
124063,,135 Station Road,,Hampton,Cafe Deli Plenty,Restaurant/Cafe/Canteen,1,5,,353864,5,,51.41565500000000,39510,527,commercialeh@richmond.gov.uk,Richmond-Upon-Thames,http://www.richmond.gov.uk,-0.37149400000000,TW12 2AL,2014-09-30,fhrs_4_en-GB,4,,FHRS,10
124064,,118d High Street,,Hampton Hill,Cafe du Panache,Restaurant/Cafe/Canteen,1,10,,353788,10,,51.42882000000000,38112,527,commercialeh@richmond.gov.uk,Richmond-Upon-Thames,http://www.richmond.gov.uk,-0.35412400000000,TW12 1NT,2013-10-07,fhrs_2_en-GB,2,,FHRS,15
124065,,8 High Street,,Teddington,Cafe Francais The Vinery,Restaurant/Cafe/Canteen,1,10,,353953,10,,51.42703300000000,4139,527,commercialeh@richmond.gov.uk,Richmond-Upon-Thames,http://www.richmond.gov.uk,-0.33262500000000,TW11 8EW,2013-02-19,fhrs_2_en-GB,2,,FHRS,15
124066,,41 Heath Road,,Twickenham,Cafe La Cigale,Restaurant/Cafe/Canteen,1,5,,353576,5,,51.44496200000000,34216,527,commercialeh@richmond.gov.uk,Richmond-Upon-Thames,http://www.richmond.gov.uk,-0.33254800000000,TW1 4AW,2013-10-14,fhrs_4_en-GB,4,,FHRS,10
124067,,108 High Street,,Whitton,Cafe La Parisiene,Restaurant/Cafe/Canteen,1,5,,353743,5,,51.45062100000000,37296,527,commercialeh@richmond.gov.uk,Richmond-Upon-Thames,http://www.richmond.gov.uk,-0.35820400000000,TW2 7LN,2013-02-04,fhrs_5_en-GB,5,,FHRS,5
124068,,28a Sheen Lane,,East Sheen,Cafe Leo,Restaurant/Cafe/Canteen,1,5,,354090,5,,51.46696000000000,44491,527,commercialeh@richmond.gov.uk,Richmond-Upon-Thames,http://www.richmond.gov.uk,-0.26698800000000,SW14 8LW,2013-09-11,fhrs_4_en-GB,4,,FHRS,10
124069,,113 Kew Road,,Richmond,Cafe Masala,Restaurant/Cafe/Canteen,1,10,,354555,10,,51.46601500000000,7670,527,commercialeh@richmond.gov.uk,Richmond-Upon-Thames,http://www.richmond.gov.uk,-0.29887000000000,TW9 2PN,2013-12-13,fhrs_2_en-GB,2,,FHRS,15
124070,,76 Sheen Road,,Richmond,Cafe Nano,Restaurant/Cafe/Canteen,1,10,,353914,0,,51.46199000000000,40424,527,commercialeh@richmond.gov.uk,Richmond-Upon-Thames,http://www.richmond.gov.uk,-0.29663000000000,TW9 1UF,2012-07-31,fhrs_4_en-GB,4,,FHRS,5
124071,,113 North Road,,Kew,Cafe Pagoda,Restaurant/Cafe/Canteen,1,10,,353197,10,,51.47656300000000,2444,527,commercialeh@richmond.gov.uk,Richmond-Upon-Thames,http://www.richmond.gov.uk,-0.28465300000000,TW9 4HJ,2012-07-11,fhrs_3_en-GB,3,,FHRS,10
124072,,Twickenham Road,,Richmond,Cafe SiSi (Pools on the Park),Restaurant/Cafe/Canteen,1,5,,354189,5,,51.46696900000000,46109,527,commercialeh@richmond.gov.uk,Richmond-Upon-Thames,http://www.richmond.gov.uk,-0.30701200000000,TW9 2SB,2013-06-18,fhrs_5_en-GB,5,,FHRS,0
124073,The Embankment,Riverside,,Twickenham,Cafe Sunshine,Restaurant/Cafe/Canteen,1,5,,354190,0,,51.44526200000000,46112,527,commercialeh@richmond.gov.uk,Richmond-Upon-Thames,http://www.richmond.gov.uk,-0.32832100000000,TW1 3DX,2014-05-28,fhrs_5_en-GB,5,,FHRS,0
124074,Richmond Gate Hotel,152-158 Richmond Hill,,Richmond,Cafe Terra,Restaurant/Cafe/Canteen,1,0,,354296,5,,51.45122800000000,47853,527,commercialeh@richmond.gov.uk,Richmond-Upon-Thames,http://www.richmond.gov.uk,-0.29677100000000,TW10 6RP,2010-01-22,fhrs_5_en-GB,5,,FHRS,0
124075,,3 Royal Parade,,Kew,Cafe Torelli,Restaurant/Cafe/Canteen,1,0,,354047,5,,51.47801600000000,43664,527,commercialeh@richmond.gov.uk,Richmond-Upon-Thames,http://www.richmond.gov.uk,-0.28621100000000,TW9 3QD,2010-02-12,fhrs_5_en-GB,5,,FHRS,0
124076,,49 High Street,,Whitton,Cafe Venice,Restaurant/Cafe/Canteen,1,20,,353378,10,,51.45199900000000,27573,527,commercialeh@richmond.gov.uk,Richmond-Upon-Thames,http://www.richmond.gov.uk,-0.35773700000000,TW2 7LB,2014-11-26,fhrs_1_en-GB,1,,FHRS,5
124077,,52 King Street,,Twickenham,Cafe Zizou,Restaurant/Cafe/Canteen,1,0,,353499,0,,51.44577800000000,30929,527,commercialeh@richmond.gov.uk,Richmond-Upon-Thames,http://www.richmond.gov.uk,-0.32982700000000,TW1 3SH,2013-01-23,fhrs_5_en-GB,5,,FHRS,5
124078,,459a Upper Richmond Road West,,London,Caffe Al Fresco,Restaurant/Cafe/Canteen,1,5,,353339,5,,51.46396500000000,27071,527,commercialeh@richmond.gov.uk,Richmond-Upon-Thames,http://www.richmond.gov.uk,-0.27123300000000,SW14 7PR,2013-02-18,fhrs_5_en-GB,5,,FHRS,0
124079,,27 London Road,,Twickenham,Caffe Bellissimo,Restaurant/Cafe/Canteen,1,5,,354084,0,,51.44697500000000,44333,527,commercialeh@richmond.gov.uk,Richmond-Upon-Thames,http://www.richmond.gov.uk,-0.32866100000000,TW1 3SX,2013-01-23,fhrs_5_en-GB,5,,FHRS,0
124080,,46 Broad Street,,Teddington,Caffe Caffe,Restaurant/Cafe/Canteen,1,5,,353556,10,,51.42588900000000,33477,527,commercialeh@richmond.gov.uk,Richmond-Upon-Thames,http://www.richmond.gov.uk,-0.33692500000000,TW11 8QY,2013-03-28,fhrs_3_en-GB,3,,FHRS,10
124081,,55 York Street,,Twickenham,Caffe Del Mare Dal Corsaro,Restaurant/Cafe/Canteen,1,10,,353024,5,,51.44809900000000,16115,527,commercialeh@richmond.gov.uk,Richmond-Upon-Thames,http://www.richmond.gov.uk,-0.32614500000000,TW1 3LP,2013-09-04,fhrs_4_en-GB,4,,FHRS,5
124082,Old Park House,Hampton Court Road,,Hampton,Caffe la Fiamma,Restaurant/Cafe/Canteen,1,5,,354584,5,,51.40694200000000,9355,527,commercialeh@richmond.gov.uk,Richmond-Upon-Thames,http://www.richmond.gov.uk,-0.33889200000000,KT8 9BY,2012-08-08,fhrs_5_en-GB,5,,FHRS,5
124083,,27 Broad Street,,Teddington,Caffe Mimmo,Restaurant/Cafe/Canteen,1,5,,353085,10,,51.42618000000000,18615,527,commercialeh@richmond.gov.uk,Richmond-Upon-Thames,http://www.richmond.gov.uk,-0.33843900000000,TW11 8QZ,2014-03-31,fhrs_3_en-GB,3,,FHRS,10
124084,,21 Barnes High Street,,Barnes,Caffe Nero,Restaurant/Cafe/Canteen,1,5,,353510,5,,51.47351400000000,31590,527,commercialeh@richmond.gov.uk,Richmond-Upon-Thames,http://www.richmond.gov.uk,-0.24930200000000,SW13 9LW,2009-03-31,fhrs_4_en-GB,4,,FHRS,10
124085,,248 Upper Richmond Road West,,East Sheen,Caffe Nero,Restaurant/Cafe/Canteen,1,5,,353404,5,,51.46496100000000,27907,527,commercialeh@richmond.gov.uk,Richmond-Upon-Thames,http://www.richmond.gov.uk,-0.26620000000000,SW14 8AG,2008-03-14,fhrs_5_en-GB,5,,FHRS,5
124086,,7 The Square,,Richmond,Caffe Nero,Restaurant/Cafe/Canteen,1,0,,352965,0,,51.46135800000000,117629,527,commercialeh@richmond.gov.uk,Richmond-Upon-Thames,http://www.richmond.gov.uk,-0.30265600000000,TW9 1DZ,2012-08-06,fhrs_5_en-GB,5,,FHRS,0
124087,Ruthbridge House,15 London Road,,Twickenham,Caffe Nero,Restaurant/Cafe/Canteen,1,0,,353850,0,,51.44712000000000,39257,527,commercialeh@richmond.gov.uk,Richmond-Upon-Thames,http://www.richmond.gov.uk,-0.32869900000000,TW1 3SX,2012-09-24,fhrs_5_en-GB,5,,FHRS,0
124088,,9 Hill Rise,,Richmond,Caffe Paola,Restaurant/Cafe/Canteen,1,5,,353330,0,,51.45790900000000,26984,527,commercialeh@richmond.gov.uk,Richmond-Upon-Thames,http://www.richmond.gov.uk,-0.30540400000000,TW10 6UQ,2012-08-02,fhrs_5_en-GB,5,,FHRS,0
124089,,,,,Cake About Town,Other catering premises,7841,,,354394,,,,50197,527,commercialeh@richmond.gov.uk,Richmond-Upon-Thames,http://www.richmond.gov.uk,,,,fhrs_awaitinginspection_en-GB,AwaitingInspection,,FHRS,
124090,,,,,Cake Angel,Other catering premises,7841,10,,354003,0,,,42901,527,commercialeh@richmond.gov.uk,Richmond-Upon-Thames,http://www.richmond.gov.uk,,,2013-04-30,fhrs_4_en-GB,4,,FHRS,0
124091,,,,,Cake Crazy,Other catering premises,7841,10,,353712,0,,,36529,527,commercialeh@richmond.gov.uk,Richmond-Upon-Thames,http://www.richmond.gov.uk,,,2007-06-06,fhrs_4_en-GB,4,,FHRS,5
124092,,,,,Cakes By Trudi,Other catering premises,7841,0,,354360,5,,,49614,527,commercialeh@richmond.gov.uk,Richmond-Upon-Thames,http://www.richmond.gov.uk,,,2013-05-29,fhrs_5_en-GB,5,,FHRS,5
124093,,,,,CakesLover,Other catering premises,7841,5,,354542,0,,,71648,527,commercialeh@richmond.gov.uk,Richmond-Upon-Thames,http://www.richmond.gov.uk,,,2011-10-26,fhrs_5_en-GB,5,,FHRS,0
124094,Royal Botanic Gardens,Kew Green,,Kew,Cambridge Cottage,Restaurant/Cafe/Canteen,1,5,,353911,0,,51.48366165161133,4037,527,commercialeh@richmond.gov.uk,Richmond-Upon-Thames,http://www.richmond.gov.uk,-0.28975886106491,TW9 3AB,2009-03-05,fhrs_5_en-GB,5,,FHRS,5
124095,Cambridge Gardens Tennis Pavil,Clevedon Road,,Twickenham,Cambridge Gardens,Restaurant/Cafe/Canteen,1,10,,354040,5,,51.45569100000000,43569,527,commercialeh@richmond.gov.uk,Richmond-Upon-Thames,http://www.richmond.gov.uk,-0.30623400000000,TW1 2TY,2009-06-24,fhrs_4_en-GB,4,,FHRS,5
124096,Cambridge Gardens Cafe,Clevedon Road,,Twickenham,Cambridge Gardens Cafe,Restaurant/Cafe/Canteen,1,10,,353881,5,,51.45569100000000,39814,527,commercialeh@richmond.gov.uk,Richmond-Upon-Thames,http://www.richmond.gov.uk,-0.30623400000000,TW1 2TY,2013-02-07,fhrs_3_en-GB,3,,FHRS,10
124097,Cambridge Park Bowling & Sports Club Ltd,Cambridge Park,,Twickenham,Cambridge Park Bowling Club,Pub/bar/nightclub,7843,10,,353612,0,,51.45366900000000,3475,527,commercialeh@richmond.gov.uk,Richmond-Upon-Thames,http://www.richmond.gov.uk,-0.31130400000000,TW1 2PG,2014-06-19,fhrs_4_en-GB,4,,FHRS,5
124098,,336 Richmond Road,,Twickenham,Cambridge Park Convenience Store,Retailers - other,4613,20,,353097,0,,51.45491200000000,1896,527,commercialeh@richmond.gov.uk,Richmond-Upon-Thames,http://www.richmond.gov.uk,-0.31145900000000,TW1 2DU,2013-11-18,fhrs_1_en-GB,1,,FHRS,0
124099,Richmond Athletic Association,Twickenham Road,,Richmond,Cannons,Pub/bar/nightclub,7843,5,,353167,5,,51.46597100000000,23290,527,commercialeh@richmond.gov.uk,Richmond-Upon-Thames,http://www.richmond.gov.uk,-0.30329100000000,TW9 2SF,2008-03-14,fhrs_5_en-GB,5,,FHRS,5
124100,Royal Canoe Club,Trowlock Island,,Teddington,Canoe Club (Freehold) Ltd,Pub/bar/nightclub,7843,20,,353003,5,,51.42479000000000,1436,527,commercialeh@richmond.gov.uk,Richmond-Upon-Thames,http://www.richmond.gov.uk,-0.30916100000000,TW11 9QZ,2014-11-26,fhrs_1_en-GB,1,,FHRS,10
124101,,,,,Caren Cakes,Other catering premises,7841,10,,354213,0,,,46474,527,commercialeh@richmond.gov.uk,Richmond-Upon-Thames,http://www.richmond.gov.uk,,,2010-02-12,fhrs_4_en-GB,4,,FHRS,0
124102,Carlisle School,Broad Lane,,Hampton,Carlisle Infant School,School/college/university,7845,0,,353604,0,,51.42310900000000,3461,527,commercialeh@richmond.gov.uk,Richmond-Upon-Thames,http://www.richmond.gov.uk,-0.36369200000000,TW12 3AJ,2013-06-10,fhrs_4_en-GB,4,,FHRS,10
124103,,31-35 Kew Road,,Richmond,Carluccio's,Restaurant/Cafe/Canteen,1,0,,353815,0,,51.46409700000000,38563,527,commercialeh@richmond.gov.uk,Richmond-Upon-Thames,http://www.richmond.gov.uk,-0.30174800000000,TW9 2NQ,2012-02-20,fhrs_5_en-GB,5,,FHRS,5
124104,,20-22 High Street,,Teddington,Carluccio's,Restaurant/Cafe/Canteen,1,0,,353934,0,,51.42702600000000,40929,527,commercialeh@richmond.gov.uk,Richmond-Upon-Thames,http://www.richmond.gov.uk,-0.33278400000000,TW11 8EW,2012-07-24,fhrs_5_en-GB,5,,FHRS,0
124105,,138 Upper Richmond Road West,,East Sheen,Carol's Place,Restaurant/Cafe/Canteen,1,5,,353861,5,,51.46529800000000,3947,527,commercialeh@richmond.gov.uk,Richmond-Upon-Thames,http://www.richmond.gov.uk,-0.25978100000000,SW14 8DS,2013-08-13,fhrs_5_en-GB,5,,FHRS,5
124106,,4 Whitton Road,,Twickenham,Carol's Sandwich Bar,Restaurant/Cafe/Canteen,1,10,,353893,5,,51.45127400000000,39989,527,commercialeh@richmond.gov.uk,Richmond-Upon-Thames,http://www.richmond.gov.uk,-0.33250500000000,TW1 1BJ,2013-08-29,fhrs_4_en-GB,4,,FHRS,5
124107,,61 High Street,,Hampton Hill,Carp and Trout,Restaurant/Cafe/Canteen,1,5,,610818,0,,51.42487500000000,33051,527,commercialeh@richmond.gov.uk,Richmond-Upon-Thames,http://www.richmond.gov.uk,-0.35812000000000,TW12 1NH,2014-10-30,fhrs_5_en-GB,5,,FHRS,5
124108,,2-6 Whitton Road,,Twickenham,Casa Mia,Restaurant/Cafe/Canteen,1,10,,353509,0,,51.45127400000000,31589,527,commercialeh@richmond.gov.uk,Richmond-Upon-Thames,http://www.richmond.gov.uk,-0.33250500000000,TW1 1BJ,2013-03-10,fhrs_4_en-GB,4,,FHRS,10
124109,Cassel Hospital,1 Ham Common,,Ham,Cassel Hospital,Hospitals/Childcare/Caring Premises,5,,,353153,,,51.43642300000000,22749,527,commercialeh@richmond.gov.uk,Richmond-Upon-Thames,http://www.richmond.gov.uk,-0.30583900000000,TW10 7JL,,fhrs_awaitinginspection_en-GB,AwaitingInspection,,FHRS,
124110,Castelnau Youth Club,7 Stillingfleet Road,,Barnes,Castelnau Community Centre,Other catering premises,7841,10,,353719,5,,51.48345200000000,36694,527,commercialeh@richmond.gov.uk,Richmond-Upon-Thames,http://www.richmond.gov.uk,-0.23977600000000,SW13 9AE,2013-04-03,fhrs_4_en-GB,4,,FHRS,5
124111,,101 High Street,,Whitton,Centre News and Cards,Retailers - other,4613,5,,354457,5,,51.45073900000000,533,527,commercialeh@richmond.gov.uk,Richmond-Upon-Thames,http://www.richmond.gov.uk,-0.35766700000000,TW2 7LD,2008-03-14,fhrs_5_en-GB,5,,FHRS,5
124112,1a Mortlake Terrace,Mortlake Road,,Kew,Ceramics Cafe Kew,Retailers - other,4613,10,,353165,5,,51.48266800000000,23283,527,commercialeh@richmond.gov.uk,Richmond-Upon-Thames,http://www.richmond.gov.uk,-0.28645500000000,TW9 3DT,2007-10-17,fhrs_4_en-GB,4,,FHRS,5
124113,,86 High Street,,Teddington,Charm Thai Dining,Restaurant/Cafe/Canteen,1,10,,353485,5,,51.42714300000000,30281,527,commercialeh@richmond.gov.uk,Richmond-Upon-Thames,http://www.richmond.gov.uk,-0.32962900000000,TW11 8JD,2013-07-24,fhrs_3_en-GB,3,,FHRS,10
124114,Chase Bridge School,Kneller Road,,Twickenham,Chase Bridge Primary School,School/college/university,7845,0,,353724,0,,51.45395800000000,3683,527,commercialeh@richmond.gov.uk,Richmond-Upon-Thames,http://www.richmond.gov.uk,-0.34550500000000,TW2 7DE,2013-09-09,fhrs_5_en-GB,5,,FHRS,0
124115,,173 Ashburnham Road,,Ham,Chef For You,Takeaway/sandwich shop,7844,10,,353132,5,,51.43640200000000,21576,527,commercialeh@richmond.gov.uk,Richmond-Upon-Thames,http://www.richmond.gov.uk,-0.32060200000000,TW10 7NR,2012-11-29,fhrs_4_en-GB,4,,FHRS,5
124116,,48 Crown Road,,Twickenham,Ches' Cafe,Restaurant/Cafe/Canteen,1,20,,353261,5,,51.45352900000000,2579,527,commercialeh@richmond.gov.uk,Richmond-Upon-Thames,http://www.richmond.gov.uk,-0.31909500000000,TW1 3EH,2013-08-20,fhrs_1_en-GB,1,,FHRS,0
124117,,127 Colne Road,,Twickenham,Chestnuts Pre School Baby Pod,Hospitals/Childcare/Caring Premises,5,0,,451775,0,,51.44529100000000,109412,527,commercialeh@richmond.gov.uk,Richmond-Upon-Thames,http://www.richmond.gov.uk,-0.34368900000000,TW2 6RA,2013-03-05,fhrs_5_en-GB,5,,FHRS,0
124118,Salvation Army Hall,May Road,,Twickenham,Chestnuts Pre-School,Hospitals/Childcare/Caring Premises,5,5,,353701,0,,51.44524600000000,36351,527,commercialeh@richmond.gov.uk,Richmond-Upon-Thames,http://www.richmond.gov.uk,-0.34307100000000,TW2 6QP,2014-11-06,fhrs_5_en-GB,5,,FHRS,5
124119,,11 Hill Rise,,Richmond,Chez Lindsay,Restaurant/Cafe/Canteen,1,10,,353218,10,,51.45790900000000,2497,527,commercialeh@richmond.gov.uk,Richmond-Upon-Thames,http://www.richmond.gov.uk,-0.30540400000000,TW10 6UQ,2014-09-12,fhrs_3_en-GB,3,,FHRS,5
124120,,,,,Chez Swan,Other catering premises,7841,0,,353806,10,,,38415,527,commercialeh@richmond.gov.uk,Richmond-Upon-Thames,http://www.richmond.gov.uk,,,2006-06-26,fhrs_4_en-GB,4,,FHRS,5
124121,,29-31 York Street,,Twickenham,Chicago Rib Shack,Pub/bar/nightclub,7843,0,,509728,5,,51.44739300000000,40916,527,commercialeh@richmond.gov.uk,Richmond-Upon-Thames,http://www.richmond.gov.uk,-0.32772500000000,TW1 3JZ,2013-01-04,fhrs_5_en-GB,5,,FHRS,5
124122,,388 Richmond Road,,Twickenham,Chicken Cottage,Takeaway/sandwich shop,7844,5,,354027,0,,51.45562500000000,43392,527,commercialeh@richmond.gov.uk,Richmond-Upon-Thames,http://www.richmond.gov.uk,-0.30977800000000,TW1 2DY,2014-05-28,fhrs_2_en-GB,2,,FHRS,15
124123,,176 Castelnau,,Barnes,China Express,Takeaway/sandwich shop,7844,10,,353049,10,,51.48539200000000,17121,527,commercialeh@richmond.gov.uk,Richmond-Upon-Thames,http://www.richmond.gov.uk,-0.23309000000000,SW13 9DH,2013-02-18,fhrs_3_en-GB,3,,FHRS,10
124124,,110a High Street,,Teddington,China Garden,Takeaway/sandwich shop,7844,10,,354209,10,,51.42714300000000,4638,527,commercialeh@richmond.gov.uk,Richmond-Upon-Thames,http://www.richmond.gov.uk,-0.32962900000000,TW11 8JD,2012-08-21,fhrs_3_en-GB,3,,FHRS,10
124125,,205 Sandycombe Road,,Richmond,China Pearl,Restaurant/Cafe/Canteen,1,10,,353918,15,,51.47263600000000,40528,527,commercialeh@richmond.gov.uk,Richmond-Upon-Thames,http://www.richmond.gov.uk,-0.28667200000000,TW9 2EW,2013-09-05,fhrs_2_en-GB,2,,FHRS,10
124126,,82 Station Road,,Hampton,Chinos Cafe,Restaurant/Cafe/Canteen,1,5,,353150,5,,51.41510000000000,22446,527,commercialeh@richmond.gov.uk,Richmond-Upon-Thames,http://www.richmond.gov.uk,-0.36653800000000,TW12 2AX,2012-06-28,fhrs_5_en-GB,5,,FHRS,5
124127,,121b Nelson Road,,Twickenham,Chopra's Superstore,Retailers - other,4613,5,,353530,10,,51.45324200000000,32467,527,commercialeh@richmond.gov.uk,Richmond-Upon-Thames,http://www.richmond.gov.uk,-0.35721800000000,TW2 7AZ,2007-01-10,fhrs_4_en-GB,4,,FHRS,5
124128,,6 New Broadway,,Hampton Hill,Chow Chow Oriental Restaurant,Restaurant/Cafe/Canteen,1,5,,353858,5,,51.42881400000000,39434,527,commercialeh@richmond.gov.uk,Richmond-Upon-Thames,http://www.richmond.gov.uk,-0.35367800000000,TW12 1JG,2012-08-25,fhrs_5_en-GB,5,,FHRS,0
124129,,27 Halford Road,,Richmond,Christian Fellowship in Richmo,Other catering premises,7841,,,354173,,,51.45931400000000,4588,527,commercialeh@richmond.gov.uk,Richmond-Upon-Thames,http://www.richmond.gov.uk,-0.30247300000000,TW10 6AW,2009-03-31,fhrs_exempt_en-GB,Exempt,,FHRS,
124130,Christs School,Queens Road,,Richmond,Christs School,School/college/university,7845,5,,353084,5,,51.45875700000000,1861,527,commercialeh@richmond.gov.uk,Richmond-Upon-Thames,http://www.richmond.gov.uk,-0.28827200000000,TW10 6HW,2013-09-10,fhrs_5_en-GB,5,,FHRS,0
124131,,68 Heath Road,,Twickenham,Chuba Rasa,Restaurant/Cafe/Canteen,1,20,,353265,5,,51.44545800000000,2587,527,commercialeh@richmond.gov.uk,Richmond-Upon-Thames,http://www.richmond.gov.uk,-0.33451600000000,TW1 4BW,2012-11-08,fhrs_1_en-GB,1,,FHRS,0
124132,,316 Nelson Road,,Twickenham,Chung's Take Away,Takeaway/sandwich shop,7844,5,,353016,10,,51.45392700000000,15269,527,commercialeh@richmond.gov.uk,Richmond-Upon-Thames,http://www.richmond.gov.uk,-0.36958600000000,TW2 7AH,2013-01-16,fhrs_4_en-GB,4,,FHRS,0
124133,Clarendon School,Hanworth Road,,Hampton,Clarendon School,School/college/university,7845,0,,353684,0,,51.42486300000000,3607,527,commercialeh@richmond.gov.uk,Richmond-Upon-Thames,http://www.richmond.gov.uk,-0.36436300000000,TW12 3DH,2012-09-07,fhrs_4_en-GB,4,,FHRS,10
124134,,43 Sheen Lane,,East Sheen,Classic Food & Wine,Retailers - other,4613,10,,353727,5,,51.46747400000000,36922,527,commercialeh@richmond.gov.uk,Richmond-Upon-Thames,http://www.richmond.gov.uk,-0.26646500000000,SW14 8AB,2010-03-23,fhrs_4_en-GB,4,,FHRS,5
124135,,,,,Claude Harry Catering,Manufacturers/packers,7839,,,353973,,,,4202,527,commercialeh@richmond.gov.uk,Richmond-Upon-Thames,http://www.richmond.gov.uk,,,2014-07-02,fhrs_exempt_en-GB,Exempt,,FHRS,
124136,,69a High Street,,Whitton,Coffee Ways,Restaurant/Cafe/Canteen,1,10,,451776,0,,51.45073900000000,11481,527,commercialeh@richmond.gov.uk,Richmond-Upon-Thames,http://www.richmond.gov.uk,-0.35766700000000,TW2 7LD,2014-07-16,fhrs_4_en-GB,4,,FHRS,10
124137,,1 Red Lion Street,,Richmond,Coin De Richmond,Restaurant/Cafe/Canteen,1,10,,353454,5,,51.45965000000000,2868,527,commercialeh@richmond.gov.uk,Richmond-Upon-Thames,http://www.richmond.gov.uk,-0.30578500000000,TW9 1RJ,2013-03-25,fhrs_3_en-GB,3,,FHRS,10
124138,Collis Primary School,Fairfax Road,,Teddington,Collis Primary School,School/college/university,7845,0,,353901,5,,51.42217200000000,4013,527,commercialeh@richmond.gov.uk,Richmond-Upon-Thames,http://www.richmond.gov.uk,-0.32601300000000,TW11 9BS,2011-09-07,fhrs_5_en-GB,5,,FHRS,0
124139,,100 Church Road,,Teddington,Connect Catering Limited,Restaurant/Cafe/Canteen,1,0,,353403,0,,51.42923500000000,27906,527,commercialeh@richmond.gov.uk,Richmond-Upon-Thames,http://www.richmond.gov.uk,-0.33828500000000,TW11 8QE,2012-10-02,fhrs_5_en-GB,5,,FHRS,0
124140,,,,,Connor's Chocolate,Other catering premises,7841,0,,623093,0,,,56694,527,commercialeh@richmond.gov.uk,Richmond-Upon-Thames,http://www.richmond.gov.uk,,,2013-11-25,fhrs_5_en-GB,5,,FHRS,5
124141,,29 London Road,,Twickenham,Cook,Retailers - other,4613,0,,486806,0,,51.44820900000000,112397,527,commercialeh@richmond.gov.uk,Richmond-Upon-Thames,http://www.richmond.gov.uk,-0.32945100000000,TW1 3SZ,2012-11-28,fhrs_5_en-GB,5,,FHRS,0
124142,,395 Upper Richmond Road West,,East Sheen,Cook,Retailers - other,4613,0,,451782,0,,51.46432900000000,19112,527,commercialeh@richmond.gov.uk,Richmond-Upon-Thames,http://www.richmond.gov.uk,-0.26782200000000,SW14 7NX,2013-01-03,fhrs_5_en-GB,5,,FHRS,0
124143,,156 High Street,,Teddington,Cook,Retailers - other,4613,0,,354398,5,,51.42732800000000,50306,527,commercialeh@richmond.gov.uk,Richmond-Upon-Thames,http://www.richmond.gov.uk,-0.32749400000000,TW11 8HZ,2012-02-28,fhrs_5_en-GB,5,,FHRS,0
124144,1 Quadrant House,The Quadrant,,Richmond,Cook & Garcia LLP,Restaurant/Cafe/Canteen,1,0,,433147,0,,51.46265600000000,947,527,commercialeh@richmond.gov.uk,Richmond-Upon-Thames,http://www.richmond.gov.uk,-0.30288100000000,TW9 1DJ,2012-07-11,fhrs_5_en-GB,5,,FHRS,0
124145,,,,,Cooking For Fun Skills For Life,Other catering premises,7841,0,,353123,10,,,21309,527,commercialeh@richmond.gov.uk,Richmond-Upon-Thames,http://www.richmond.gov.uk,,,2006-09-12,fhrs_4_en-GB,4,,FHRS,5
124146,,36 King Street,,Twickenham,Coopers,Retailers - other,4613,5,,353008,5,,51.44643900000000,148,527,commercialeh@richmond.gov.uk,Richmond-Upon-Thames,http://www.richmond.gov.uk,-0.32892500000000,TW1 3SN,2008-03-04,fhrs_4_en-GB,4,,FHRS,10
124147,,The Gate House,,Kingsway Business Park,Corona Theatre School,School/college/university,7845,5,,446405,0,,51.41584100000000,117738,527,commercialeh@richmond.gov.uk,Richmond-Upon-Thames,http://www.richmond.gov.uk,-0.37903700000000,TW12 2HD,2012-09-06,fhrs_5_en-GB,5,,FHRS,5
124148,,46 Church Street,,Twickenham,Corto Italian Delicatessen,Restaurant/Cafe/Canteen,1,20,,354166,15,,51.44666500000000,45732,527,commercialeh@richmond.gov.uk,Richmond-Upon-Thames,http://www.richmond.gov.uk,-0.32710400000000,TW1 3NR,2014-03-11,fhrs_1_en-GB,1,,FHRS,15
124149,,82 High Street,,Whitton,Costa Coffee,Retailers - other,4613,0,,654147,0,,51.45135100000000,33320,527,commercialeh@richmond.gov.uk,Richmond-Upon-Thames,http://www.richmond.gov.uk,-0.35833600000000,TW2 7LS,2013-06-17,fhrs_5_en-GB,5,,FHRS,0
124150,,27c The Quadrant,,Richmond,Costa Coffee,Restaurant/Cafe/Canteen,1,0,,353666,0,,51.46244400000000,35717,527,commercialeh@richmond.gov.uk,Richmond-Upon-Thames,http://www.richmond.gov.uk,-0.30250100000000,TW9 1DN,2011-07-01,fhrs_5_en-GB,5,,FHRS,5
124151,Kew Retail Park Unit C,1-7 Bessant Drive,,Richmond,Costa Coffee,Restaurant/Cafe/Canteen,1,0,,433137,0,,51.47945900000000,117636,527,commercialeh@richmond.gov.uk,Richmond-Upon-Thames,http://www.richmond.gov.uk,-0.28163500000000,TW9 4AA,2012-07-26,fhrs_5_en-GB,5,,FHRS,0
124152,Unit 1,59-67 Broad Street,,Teddington,Costa Coffee,Restaurant/Cafe/Canteen,1,5,,353930,5,,51.42618000000000,40848,527,commercialeh@richmond.gov.uk,Richmond-Upon-Thames,http://www.richmond.gov.uk,-0.33843900000000,TW11 8QZ,2007-05-29,fhrs_5_en-GB,5,,FHRS,0
124153,Unit 2,68-78 High Street,,Hampton Hill,Costa Coffee,Restaurant/Cafe/Canteen,1,0,,354449,0,,51.42632000000000,51111,527,commercialeh@richmond.gov.uk,Richmond-Upon-Thames,http://www.richmond.gov.uk,-0.35667300000000,TW12 1NJ,2012-04-27,fhrs_5_en-GB,5,,FHRS,0
124154,,300 Nelson Road,,Twickenham,Costcutter,Retailers - other,4613,5,,353689,5,,51.45320400000000,36121,527,commercialeh@richmond.gov.uk,Richmond-Upon-Thames,http://www.richmond.gov.uk,-0.36801400000000,TW2 7AJ,2013-04-02,fhrs_5_en-GB,5,,FHRS,5
124155,,132 Percy Road,,Hampton,Costcutters,Retailers - other,4613,5,,353717,10,,51.42171200000000,36664,527,commercialeh@richmond.gov.uk,Richmond-Upon-Thames,http://www.richmond.gov.uk,-0.37510500000000,TW12 2JW,2010-12-14,fhrs_3_en-GB,3,,FHRS,10
124156,,24 Hill Street,,Richmond,Cote,Restaurant/Cafe/Canteen,1,0,,354050,0,,51.45865800000000,43745,527,commercialeh@richmond.gov.uk,Richmond-Upon-Thames,http://www.richmond.gov.uk,-0.30557800000000,TW9 1TW,2014-05-29,fhrs_5_en-GB,5,,FHRS,0
124157,Royal Oak,172 High Street,,Teddington,Cote Restaurant,Restaurant/Cafe/Canteen,1,,,353730,,,51.42744200000000,36933,527,commercialeh@richmond.gov.uk,Richmond-Upon-Thames,http://www.richmond.gov.uk,-0.32662600000000,TW11 8HU,2014-08-08,fhrs_awaitinginspection_en-GB,AwaitingInspection,,FHRS,
124158,Wykeham Community Centre,Gostling Road,,Twickenham,Crofters Club at The Barn,Hospitals/Childcare/Caring Premises,5,0,,354600,0,,51.44801800000000,9548,527,commercialeh@richmond.gov.uk,Richmond-Upon-Thames,http://www.richmond.gov.uk,-0.36883200000000,TW2 6ER,2013-07-30,fhrs_5_en-GB,5,,FHRS,0
124159,,,,,Crowes Mobile Catering,Mobile caterer,7846,5,,467624,5,,,96262,527,commercialeh@richmond.gov.uk,Richmond-Upon-Thames,http://www.richmond.gov.uk,,,2012-11-10,fhrs_4_en-GB,4,,FHRS,10
124160,,183 Richmond Road,,Twickenham,Crown Newsagents,Retailers - other,4613,0,,354431,10,,51.45177400000000,505,527,commercialeh@richmond.gov.uk,Richmond-Upon-Thames,http://www.richmond.gov.uk,-0.31772000000000,TW1 2NJ,2006-11-06,fhrs_4_en-GB,4,,FHRS,5
124161,Orleans Infant School,Hartington Road,,Twickenham,Cup Cakes Club,Hospitals/Childcare/Caring Premises,5,5,,353665,5,,51.45301600000000,35716,527,commercialeh@richmond.gov.uk,Richmond-Upon-Thames,http://www.richmond.gov.uk,-0.32036600000000,TW1 3EN,2012-09-14,fhrs_5_en-GB,5,,FHRS,5
124162,,289 Sandycombe Road,,Richmond,Curry Garden Tandoori Rest,Restaurant/Cafe/Canteen,1,10,,353201,5,,51.47431400000000,2452,527,commercialeh@richmond.gov.uk,Richmond-Upon-Thames,http://www.richmond.gov.uk,-0.28640800000000,TW9 3LU,2012-07-26,fhrs_3_en-GB,3,,FHRS,10
124163,,28 Crown Road,,Twickenham,Cutters,Retailers - other,4613,10,,353118,5,,51.45447000000000,2091,527,commercialeh@richmond.gov.uk,Richmond-Upon-Thames,http://www.richmond.gov.uk,-0.31953600000000,TW1 3EE,2009-06-23,fhrs_4_en-GB,4,,FHRS,5
124164,,180 Upper Richmond Road West,,East Sheen,CXY Trading Ltd,Restaurant/Cafe/Canteen,1,5,,353128,5,,51.46527200000000,21440,527,commercialeh@richmond.gov.uk,Richmond-Upon-Thames,http://www.richmond.gov.uk,-0.26228700000000,SW14 8AW,2015-01-06,fhrs_4_en-GB,4,,FHRS,10
124165,,179b High Street,,Hampton Hill,Daisy Chain,Takeaway/sandwich shop,7844,20,,352983,10,,51.42835800000000,1325,527,commercialeh@richmond.gov.uk,Richmond-Upon-Thames,http://www.richmond.gov.uk,-0.35519000000000,TW12 1NL,2014-09-01,fhrs_1_en-GB,1,,FHRS,10
124166,Dalemead,10-12 Riverdale Gardens,,Twickenham,Dalemead Residential Care Home,Hospitals/Childcare/Caring Premises,5,0,,353801,5,,51.45773200000000,3835,527,commercialeh@richmond.gov.uk,Richmond-Upon-Thames,http://www.richmond.gov.uk,-0.31249200000000,TW1 2DA,2014-08-13,fhrs_5_en-GB,5,,FHRS,5
124167,,13 The Green,,Richmond,Danieli on The Green,Retailers - other,4613,0,,353660,0,,51.46086000000000,3558,527,commercialeh@richmond.gov.uk,Richmond-Upon-Thames,http://www.richmond.gov.uk,-0.30553900000000,TW9 1PX,2012-08-01,fhrs_5_en-GB,5,,FHRS,0
124168,Darell Primary School And Nursery,Niton Road,,Richmond,Darell Primary School,School/college/university,7845,5,,353642,0,,51.46855800000000,3518,527,commercialeh@richmond.gov.uk,Richmond-Upon-Thames,http://www.richmond.gov.uk,-0.28394500000000,TW9 4LH,2013-09-11,fhrs_4_en-GB,4,,FHRS,10
124169,,Staines Road,,Twickenham,David Lloyd,Pub/bar/nightclub,7843,0,,353507,5,,51.43805200000000,31444,527,commercialeh@richmond.gov.uk,Richmond-Upon-Thames,http://www.richmond.gov.uk,-0.36934500000000,TW2 5JD,2011-08-18,fhrs_5_en-GB,5,,FHRS,0
124170,,101 Stanley Road,,Teddington,Day One Express,Retailers - other,4613,10,,354462,10,,51.43099600000000,547,527,commercialeh@richmond.gov.uk,Richmond-Upon-Thames,http://www.richmond.gov.uk,-0.34583100000000,TW11 8UB,2014-03-20,fhrs_3_en-GB,3,,FHRS,10
124171,,,,,Deelicious Nazish's Kitchen,Other catering premises,7841,0,,354387,5,,,50066,527,commercialeh@richmond.gov.uk,Richmond-Upon-Thames,http://www.richmond.gov.uk,,,2011-01-17,fhrs_5_en-GB,5,,FHRS,5
124172,,14 High Street,,Hampton Wick,Deep Blue,Restaurant/Cafe/Canteen,1,20,,354577,10,,51.41295600000000,8820,527,commercialeh@richmond.gov.uk,Richmond-Upon-Thames,http://www.richmond.gov.uk,-0.31106400000000,KT1 4DB,2014-05-19,fhrs_1_en-GB,1,,FHRS,10
124173,,21 Church Street,,Twickenham,Delhi Durbar Tandoori Restaurant,Restaurant/Cafe/Canteen,1,10,,353252,10,,51.44691700000000,2560,527,commercialeh@richmond.gov.uk,Richmond-Upon-Thames,http://www.richmond.gov.uk,-0.32709500000000,TW1 3NJ,2015-01-13,fhrs_3_en-GB,3,,FHRS,10
124174,,5 Petersham Road,,Richmond,Delhi Orchid,Restaurant/Cafe/Canteen,1,10,,353230,5,,51.45706800000000,2528,527,commercialeh@richmond.gov.uk,Richmond-Upon-Thames,http://www.richmond.gov.uk,-0.30449900000000,TW10 6UH,2012-08-22,fhrs_4_en-GB,4,,FHRS,5
124175,,76 High Street,,Whitton,Delhi Wala,Restaurant/Cafe/Canteen,1,0,,354439,0,,51.45135100000000,50701,527,commercialeh@richmond.gov.uk,Richmond-Upon-Thames,http://www.richmond.gov.uk,-0.35833600000000,TW2 7LS,2012-12-07,fhrs_5_en-GB,5,,FHRS,5
124176,,,,,Delicious Moments,Other catering premises,7841,0,,551940,0,,,37982,527,commercialeh@richmond.gov.uk,Richmond-Upon-Thames,http://www.richmond.gov.uk,,,2013-05-20,fhrs_5_en-GB,5,,FHRS,5
124177,,63 Oldfield Road,,Hampton,Dempsey's Cafe & Takeaway,Restaurant/Cafe/Canteen,1,5,,354382,0,,51.41507900000000,49951,527,commercialeh@richmond.gov.uk,Richmond-Upon-Thames,http://www.richmond.gov.uk,-0.37597200000000,TW12 2HP,2013-11-18,fhrs_5_en-GB,5,,FHRS,0
124178,Denmead School,41-43 Wensleydale Road,,Hampton,Denmead  School,School/college/university,7845,0,,353882,0,,51.41867200000000,3982,527,commercialeh@richmond.gov.uk,Richmond-Upon-Thames,http://www.richmond.gov.uk,-0.36855400000000,TW12 2LP,2011-09-08,fhrs_5_en-GB,5,,FHRS,0
124179,,563 Upper Richmond Road West,,East Sheen,Derby Cigar Stores,Retailers - other,4613,5,,354235,5,,51.46405200000000,468,527,commercialeh@richmond.gov.uk,Richmond-Upon-Thames,http://www.richmond.gov.uk,-0.27770800000000,SW14 7ED,2008-03-14,fhrs_5_en-GB,5,,FHRS,5
124180,,7 Church Road,,Teddington,Diners Delight,Restaurant/Cafe/Canteen,1,5,,353625,5,,51.42702900000000,3494,527,commercialeh@richmond.gov.uk,Richmond-Upon-Thames,http://www.richmond.gov.uk,-0.33744400000000,TW11 8PF,2014-03-03,fhrs_4_en-GB,4,,FHRS,10
124181,,209 Lower Mortlake Road,,Richmond,DKS Food and Wine,Retailers - other,4613,5,,353148,10,,51.46622300000000,223,527,commercialeh@richmond.gov.uk,Richmond-Upon-Thames,http://www.richmond.gov.uk,-0.29401000000000,TW9 2LP,2013-02-25,fhrs_3_en-GB,3,,FHRS,10
124182,,3 The Broadway,,Barnes,Dolce Crema,Restaurant/Cafe/Canteen,1,10,,571440,5,,51.47033700000000,22431,527,commercialeh@richmond.gov.uk,Richmond-Upon-Thames,http://www.richmond.gov.uk,-0.25575900000000,SW13 0NY,2013-06-25,fhrs_3_en-GB,3,,FHRS,10
124183,,70 Heath Road,,Twickenham,Dominos Pizza,Takeaway/sandwich shop,7844,0,,354285,5,,51.44545800000000,47485,527,commercialeh@richmond.gov.uk,Richmond-Upon-Thames,http://www.richmond.gov.uk,-0.33451600000000,TW1 4BW,2010-11-12,fhrs_5_en-GB,5,,FHRS,0
124184,,190 Stanley Road,,Teddington,Domino's Pizza,Takeaway/sandwich shop,7844,0,,353839,10,,51.43263000000000,3898,527,commercialeh@richmond.gov.uk,Richmond-Upon-Thames,http://www.richmond.gov.uk,-0.34564300000000,TW11 8UE,2009-01-12,fhrs_4_en-GB,4,,FHRS,10
124185,,188a Upper Richmond Road West,,East Sheen,Domino's Pizza,Takeaway/sandwich shop,7844,0,,353563,0,,51.46512900000000,33689,527,commercialeh@richmond.gov.uk,Richmond-Upon-Thames,http://www.richmond.gov.uk,-0.26353000000000,SW14 8AN,2012-09-27,fhrs_5_en-GB,5,,FHRS,0
124186,,27f The Quadrant,,Richmond,Don Fernandos Restaurant,Restaurant/Cafe/Canteen,1,5,,353782,5,,51.46244400000000,3800,527,commercialeh@richmond.gov.uk,Richmond-Upon-Thames,http://www.richmond.gov.uk,-0.30250100000000,TW9 1DN,2012-09-14,fhrs_5_en-GB,5,,FHRS,5
124187,,12 High Street,,Teddington,Dowsetts,Retailers - other,4613,0,,354463,0,,51.42703300000000,550,527,commercialeh@richmond.gov.uk,Richmond-Upon-Thames,http://www.richmond.gov.uk,-0.33262500000000,TW11 8EW,2012-10-02,fhrs_5_en-GB,5,,FHRS,0
124188,,130 Sheen Road,,Richmond,Dragon Inn Restaurant,Restaurant/Cafe/Canteen,1,0,,353223,0,,51.46241300000000,2501,527,commercialeh@richmond.gov.uk,Richmond-Upon-Thames,http://www.richmond.gov.uk,-0.29477100000000,TW9 1UR,2013-02-19,fhrs_5_en-GB,5,,FHRS,0
124189,Duke Street Baptist Church,Quadrant Road,,Richmond,Duke Street Church,Restaurant/Cafe/Canteen,1,5,,353474,5,,51.46202300000000,29712,527,commercialeh@richmond.gov.uk,Richmond-Upon-Thames,http://www.richmond.gov.uk,-0.30323600000000,TW9 1DH,2014-03-27,fhrs_5_en-GB,5,,FHRS,0
124190,,12 Crown Road,,Twickenham,E Wok Ltd,Takeaway/sandwich shop,7844,10,,353239,10,,51.45447000000000,25434,527,commercialeh@richmond.gov.uk,Richmond-Upon-Thames,http://www.richmond.gov.uk,-0.31953600000000,TW1 3EE,2013-03-26,fhrs_3_en-GB,3,,FHRS,10
124191,,,,,Earl & Greenly Cakes,Other catering premises,7841,0,,670234,5,,,118015,527,commercialeh@richmond.gov.uk,Richmond-Upon-Thames,http://www.richmond.gov.uk,,,2014-06-12,fhrs_5_en-GB,5,,FHRS,5
124192,East Sheen Cp Junior School,Upper Richmond Road West,,East Sheen,East Sheen Primary School,School/college/university,7845,0,,353860,0,,51.46492100000000,3946,527,commercialeh@richmond.gov.uk,Richmond-Upon-Thames,http://www.richmond.gov.uk,-0.25436700000000,SW14 8ED,2013-10-25,fhrs_5_en-GB,5,,FHRS,5
124193,5 Mortlake Terrace,Mortlake Road,,Kew,Elliotts News,Retailers - other,4613,10,,354123,0,,51.48266800000000,451,527,commercialeh@richmond.gov.uk,Richmond-Upon-Thames,http://www.richmond.gov.uk,-0.28645500000000,TW9 3DT,2013-06-10,fhrs_4_en-GB,4,,FHRS,0
124194,,99 High Street,,Whitton,Ellis Fine Foods,Retailers - other,4613,0,,354578,0,,51.45073900000000,89,527,commercialeh@richmond.gov.uk,Richmond-Upon-Thames,http://www.richmond.gov.uk,-0.35766700000000,TW2 7LD,2013-07-30,fhrs_5_en-GB,5,,FHRS,5
124195,,8 Hill Rise,,Richmond,Encore Lounge,Pub/bar/nightclub,7843,0,,353567,0,,51.45798300000000,33878,527,commercialeh@richmond.gov.uk,Richmond-Upon-Thames,http://www.richmond.gov.uk,-0.30495500000000,TW10 6UA,2013-07-09,fhrs_5_en-GB,5,,FHRS,0
124196,,127 Kew Road,,Richmond,Essentially Wine Ltd,Retailers - other,4613,5,,354076,5,,51.46601500000000,44175,527,commercialeh@richmond.gov.uk,Richmond-Upon-Thames,http://www.richmond.gov.uk,-0.29887000000000,TW9 2PN,2009-06-10,fhrs_5_en-GB,5,,FHRS,5
124197,,45 Sheen Lane,,East Sheen,Euro Cafe,Restaurant/Cafe/Canteen,1,10,,353912,5,,51.46747400000000,40409,527,commercialeh@richmond.gov.uk,Richmond-Upon-Thames,http://www.richmond.gov.uk,-0.26646500000000,SW14 8AB,2013-12-16,fhrs_2_en-GB,2,,FHRS,15
124198,,72 Milton Road,,Hampton,Everydays,Retailers - other,4613,5,,353697,5,,51.41756400000000,36297,527,commercialeh@richmond.gov.uk,Richmond-Upon-Thames,http://www.richmond.gov.uk,-0.37100900000000,TW12 2LJ,2009-08-03,fhrs_5_en-GB,5,,FHRS,5
124199,,108 Priory Road,,Hampton,Everydays,Retailers - other,4613,5,,353502,5,,51.41863900000000,31019,527,commercialeh@richmond.gov.uk,Richmond-Upon-Thames,http://www.richmond.gov.uk,-0.37980100000000,TW12 2PP,2008-02-16,fhrs_5_en-GB,5,,FHRS,5
124200,,1 Wellesley Parade,,Twickenham,Everydays,Retailers - other,4613,20,,353170,10,,51.43895100000000,23646,527,commercialeh@richmond.gov.uk,Richmond-Upon-Thames,http://www.richmond.gov.uk,-0.33986000000000,TW2 5SQ,2013-06-17,fhrs_1_en-GB,1,,FHRS,5
124201,,167 St Margarets Road,,Twickenham,Express Coffee,Restaurant/Cafe/Canteen,1,5,,353656,0,,51.45645200000000,35472,527,commercialeh@richmond.gov.uk,Richmond-Upon-Thames,http://www.richmond.gov.uk,-0.32168000000000,TW1 1RD,2010-08-09,fhrs_5_en-GB,5,,FHRS,0
124202,,481 Upper Richmond Road West,,East Sheen,Faanoo's,Restaurant/Cafe/Canteen,1,20,,353989,20,,51.46403200000000,42371,527,commercialeh@richmond.gov.uk,Richmond-Upon-Thames,http://www.richmond.gov.uk,-0.27272800000000,SW14 7PU,2014-03-17,fhrs_0_en-GB,0,,FHRS,15
124203,,41 Kew Foot Road,,Richmond,Falcon Preparatory School,School/college/university,7845,0,,354075,0,,51.46561700000000,44165,527,commercialeh@richmond.gov.uk,Richmond-Upon-Thames,http://www.richmond.gov.uk,-0.30176400000000,TW9 2SS,2011-10-14,fhrs_5_en-GB,5,,FHRS,0
124204,,47 High Street,,Teddington,Famous Wines (UK) Ltd,Retailers - other,4613,10,,353164,5,,51.42740700000000,23232,527,commercialeh@richmond.gov.uk,Richmond-Upon-Thames,http://www.richmond.gov.uk,-0.33115900000000,TW11 8HA,2007-02-28,fhrs_4_en-GB,4,,FHRS,5
124205,,431-433 Richmond Road,,Twickenham,Fat Boys,Restaurant/Cafe/Canteen,1,0,,353235,10,,51.45614000000000,25381,527,commercialeh@richmond.gov.uk,Richmond-Upon-Thames,http://www.richmond.gov.uk,-0.30997400000000,TW1 2EF,2014-11-13,fhrs_4_en-GB,4,,FHRS,10
124206,,201 Upper Richmond Road West,,East Sheen,Fat Boys Thai Restaurant,Restaurant/Cafe/Canteen,1,5,,354106,5,,51.46493400000000,44815,527,commercialeh@richmond.gov.uk,Richmond-Upon-Thames,http://www.richmond.gov.uk,-0.26134900000000,SW14 8QT,2013-10-22,fhrs_5_en-GB,5,,FHRS,5
124207,,129 Station Road,,Hampton,Fatti Mama,Takeaway/sandwich shop,7844,10,,354095,10,,51.41565500000000,44631,527,commercialeh@richmond.gov.uk,Richmond-Upon-Thames,http://www.richmond.gov.uk,-0.37149400000000,TW12 2AL,2014-10-23,fhrs_3_en-GB,3,,FHRS,5
124208,,52 Clare Lawn Avenue,,East Sheen,Fine and Candy,Mobile caterer,7846,20,,665440,0,,51.45777300000000,42526,527,commercialeh@richmond.gov.uk,Richmond-Upon-Thames,http://www.richmond.gov.uk,-0.26357900000000,SW14 8BG,2014-05-01,fhrs_1_en-GB,1,,FHRS,0
124209,,,,,Flavour for Baby,Other catering premises,7841,5,,654139,5,,,112260,527,commercialeh@richmond.gov.uk,Richmond-Upon-Thames,http://www.richmond.gov.uk,,,2014-04-04,fhrs_5_en-GB,5,,FHRS,5
124210,,39 Heath Road,,Twickenham,Flavours of Sicily,Restaurant/Cafe/Canteen,1,,,354365,,,51.44496200000000,49632,527,commercialeh@richmond.gov.uk,Richmond-Upon-Thames,http://www.richmond.gov.uk,-0.33254800000000,TW1 4AW,,fhrs_awaitinginspection_en-GB,AwaitingInspection,,FHRS,
124211,,Ferry Road,,Teddington,Flying Cloud Cafe,Restaurant/Cafe/Canteen,1,5,,354432,0,,51.42938800000000,50503,527,commercialeh@richmond.gov.uk,Richmond-Upon-Thames,http://www.richmond.gov.uk,-0.32337100000000,,2011-04-15,fhrs_5_en-GB,5,,FHRS,5
124212,,53-57 London Road,,Twickenham,Food At The Misty Moon,Pub/bar/nightclub,7843,5,,354369,0,,51.44820900000000,49700,527,commercialeh@richmond.gov.uk,Richmond-Upon-Thames,http://www.richmond.gov.uk,-0.32945100000000,TW1 3SZ,2010-10-25,fhrs_5_en-GB,5,,FHRS,0
124213,,20 Mortlake High Street,,London,Food in Fabula,Restaurant/Cafe/Canteen,1,20,,353468,10,,51.46948200000000,29516,527,commercialeh@richmond.gov.uk,Richmond-Upon-Thames,http://www.richmond.gov.uk,-0.26542400000000,SW14 8JN,2014-12-02,fhrs_1_en-GB,1,,FHRS,20
124214,,23 Friars Stile Road,,Richmond,Food on the Hill,Retailers - other,4613,10,,354251,5,,51.45565600000000,46918,527,commercialeh@richmond.gov.uk,Richmond-Upon-Thames,http://www.richmond.gov.uk,-0.29699500000000,TW10 6NH,2013-09-10,fhrs_4_en-GB,4,,FHRS,0
124215,,8-12 Whitton Road,,Twickenham,Foodland,Retailers - other,4613,5,,354121,0,,51.45127400000000,45057,527,commercialeh@richmond.gov.uk,Richmond-Upon-Thames,http://www.richmond.gov.uk,-0.33250500000000,TW1 1BJ,2013-10-21,fhrs_5_en-GB,5,,FHRS,0
124216,,,,,For Goodness Cake Ltd,Other catering premises,7841,5,,353812,5,,,38491,527,commercialeh@richmond.gov.uk,Richmond-Upon-Thames,http://www.richmond.gov.uk,,,2006-05-18,fhrs_5_en-GB,5,,FHRS,5
124217,,,,,For Heaven's Cakes,Other catering premises,7841,5,,594461,0,,,52614,527,commercialeh@richmond.gov.uk,Richmond-Upon-Thames,http://www.richmond.gov.uk,,,2013-10-02,fhrs_5_en-GB,5,,FHRS,0
124218,,,,,Foresnacks,Mobile caterer,7846,5,,353662,5,,,35698,527,commercialeh@richmond.gov.uk,Richmond-Upon-Thames,http://www.richmond.gov.uk,,,2012-07-18,fhrs_5_en-GB,5,,FHRS,5
124219,,102-104 Kew Road,,Richmond,Four Regions Restaurant,Restaurant/Cafe/Canteen,1,10,,353216,10,,51.46590600000000,2490,527,commercialeh@richmond.gov.uk,Richmond-Upon-Thames,http://www.richmond.gov.uk,-0.29813900000000,TW9 2PQ,2012-12-11,fhrs_3_en-GB,3,,FHRS,10
124220,St Marys Parish Hall,Langham Road,,Teddington,Frankie and Flo's Play Cafe,Restaurant/Cafe/Canteen,1,5,,354389,0,,51.42604900000000,50111,527,commercialeh@richmond.gov.uk,Richmond-Upon-Thames,http://www.richmond.gov.uk,-0.32421800000000,TW11 9HF,2014-03-13,fhrs_5_en-GB,5,,FHRS,0
124221,,4 Barnes High Street,,Barnes,Fresh Cafe,Restaurant/Cafe/Canteen,1,10,,354097,5,,51.47331700000000,44657,527,commercialeh@richmond.gov.uk,Richmond-Upon-Thames,http://www.richmond.gov.uk,-0.24820100000000,SW13 9LB,2013-06-12,fhrs_4_en-GB,4,,FHRS,5
124222,,12 Broad Street,,Teddington,Freshfare Fish and Chip Restau,Restaurant/Cafe/Canteen,1,5,,353448,10,,51.42593600000000,2854,527,commercialeh@richmond.gov.uk,Richmond-Upon-Thames,http://www.richmond.gov.uk,-0.33896600000000,TW11 8RF,2014-12-02,fhrs_4_en-GB,4,,FHRS,5
124223,Royal Hospital,Kew Foot Road,,Richmond,Friends of Kew Hospital,Restaurant/Cafe/Canteen,1,0,,480876,0,,51.49155000000000,117705,527,commercialeh@richmond.gov.uk,Richmond-Upon-Thames,http://www.richmond.gov.uk,-0.29656300000000,TW9 2TE,2014-01-13,fhrs_5_en-GB,5,,FHRS,0
124224,Sports Ground House,190 Wills Crescent,,Whitton,Frizz Kidz Ltd,School/college/university,7845,10,,451781,5,,51.45484100000000,117845,527,commercialeh@richmond.gov.uk,Richmond-Upon-Thames,http://www.richmond.gov.uk,-0.36680400000000,TW3 2JD,2014-07-01,fhrs_3_en-GB,3,,FHRS,10
124225,,,,,Frost and Fondant,Other catering premises,7841,10,,571441,5,,,35089,527,commercialeh@richmond.gov.uk,Richmond-Upon-Thames,http://www.richmond.gov.uk,,,2013-07-04,fhrs_4_en-GB,4,,FHRS,0
124226,,58 Wellington Road,,Hampton,Fulwell Food and Wine,Retailers - other,4613,20,,353516,5,,51.43234200000000,31823,527,commercialeh@richmond.gov.uk,Richmond-Upon-Thames,http://www.richmond.gov.uk,-0.35201200000000,TW12 1JT,2010-08-16,fhrs_1_en-GB,1,,FHRS,0
124227,,328-330 Staines Road,,Twickenham,Fulwell Park Post Office,Retailers - other,4613,10,,353558,5,,51.43957400000000,33562,527,commercialeh@richmond.gov.uk,Richmond-Upon-Thames,http://www.richmond.gov.uk,-0.36110400000000,TW2 5AT,2014-03-11,fhrs_3_en-GB,3,,FHRS,10
124228,,68 Hounslow Road,,Twickenham,Fung's Kitchen,Takeaway/sandwich shop,7844,10,,353708,10,,51.45441000000000,36472,527,commercialeh@richmond.gov.uk,Richmond-Upon-Thames,http://www.richmond.gov.uk,-0.35842800000000,TW2 7EX,2014-02-19,fhrs_3_en-GB,3,,FHRS,5
124229,,44 Sheen Lane,,East Sheen,Fusion Seven,Restaurant/Cafe/Canteen,1,10,,354077,5,,51.46586700000000,44209,527,commercialeh@richmond.gov.uk,Richmond-Upon-Thames,http://www.richmond.gov.uk,-0.26727400000000,SW14 8LP,2014-03-19,fhrs_3_en-GB,3,,FHRS,10
124230,,123 St Margarets Road,,Twickenham,Gaia  Wholefoods,Retailers - other,4613,10,,354517,0,,51.45499700000000,6619,527,commercialeh@richmond.gov.uk,Richmond-Upon-Thames,http://www.richmond.gov.uk,-0.31990500000000,TW1 2LH,2012-09-25,fhrs_4_en-GB,4,,FHRS,0
124231,,Riverside,,Richmond,Gaucho Grill,Restaurant/Cafe/Canteen,1,0,,353926,0,,51.45713424682617,40706,527,commercialeh@richmond.gov.uk,Richmond-Upon-Thames,http://www.richmond.gov.uk,-0.30595058202744,TW10 6UJ,2013-10-20,fhrs_5_en-GB,5,,FHRS,5
124232,Gayatri Traders,Verdun Road,,London,Gayatri Traders,Retailers - other,4613,5,,353072,5,,51.48381200000000,182,527,commercialeh@richmond.gov.uk,Richmond-Upon-Thames,http://www.richmond.gov.uk,-0.24344900000000,SW13 9AN,2008-03-14,fhrs_5_en-GB,5,,FHRS,5
124233,,16 Brewers Lane,,Richmond,Gelateria Danieli,Restaurant/Cafe/Canteen,1,5,,353694,0,,51.46088300000000,36237,527,commercialeh@richmond.gov.uk,Richmond-Upon-Thames,http://www.richmond.gov.uk,-0.30525000000000,TW9 1HH,2012-08-01,fhrs_5_en-GB,5,,FHRS,0
124234,,1 Lower George Street,,Richmond,Genji,Other catering premises,7841,5,,725216,5,,,118144,527,commercialeh@richmond.gov.uk,Richmond-Upon-Thames,http://www.richmond.gov.uk,,TW9 1AB,2013-11-26,fhrs_4_en-GB,4,,FHRS,10
124235,,179a High Street,,Hampton Hill,Get Fresh Hampton Hill,Retailers - other,4613,5,,353991,5,,51.42835800000000,42605,527,commercialeh@richmond.gov.uk,Richmond-Upon-Thames,http://www.richmond.gov.uk,-0.35519000000000,TW12 1NL,2008-05-15,fhrs_4_en-GB,4,,FHRS,10
124236,,,,,Ginger Q,Other catering premises,7841,5,,632786,0,,,94028,527,commercialeh@richmond.gov.uk,Richmond-Upon-Thames,http://www.richmond.gov.uk,,,2013-04-09,fhrs_5_en-GB,5,,FHRS,0
124237,,30 Hill Street,,Richmond,Giraffe,Restaurant/Cafe/Canteen,1,0,,353470,0,,51.45865800000000,29648,527,commercialeh@richmond.gov.uk,Richmond-Upon-Thames,http://www.richmond.gov.uk,-0.30557800000000,TW9 1TW,2010-10-12,fhrs_5_en-GB,5,,FHRS,5
124238,,154 High Street,,Teddington,Girasole Foods Ltd,Retailers - other,4613,20,,353740,5,,51.42732800000000,37163,527,commercialeh@richmond.gov.uk,Richmond-Upon-Thames,http://www.richmond.gov.uk,-0.32749400000000,TW11 8HZ,2013-07-24,fhrs_1_en-GB,1,,FHRS,5
124239,,14 Station Parade,,Richmond,Glasshouse,Restaurant/Cafe/Canteen,1,0,,353090,10,,51.47696700000000,18709,527,commercialeh@richmond.gov.uk,Richmond-Upon-Thames,http://www.richmond.gov.uk,-0.28584800000000,TW9 3PZ,2013-02-18,fhrs_4_en-GB,4,,FHRS,10
124240,,654 Hanworth Road,,Whitton,Golden Carp,Takeaway/sandwich shop,7844,5,,353447,5,,51.45046800000000,2853,527,commercialeh@richmond.gov.uk,Richmond-Upon-Thames,http://www.richmond.gov.uk,-0.37890500000000,TW4 5NP,2013-08-19,fhrs_5_en-GB,5,,FHRS,0
124241,,43 High Street,,Whitton,Golden Grill,Restaurant/Cafe/Canteen,1,5,,353273,15,,51.45199900000000,2602,527,commercialeh@richmond.gov.uk,Richmond-Upon-Thames,http://www.richmond.gov.uk,-0.35773700000000,TW2 7LB,2014-08-05,fhrs_2_en-GB,2,,FHRS,15
124242,,51 Kew Road,,Richmond,Golden Palace Chinese Takeaway,Takeaway/sandwich shop,7844,10,,353716,5,,51.46404400000000,3666,527,commercialeh@richmond.gov.uk,Richmond-Upon-Thames,http://www.richmond.gov.uk,-0.30180800000000,TW9 2NQ,2014-12-05,fhrs_3_en-GB,3,,FHRS,10
124243,,15-17 Hill Rise,,Richmond,Gourmet Burger Kitchen,Restaurant/Cafe/Canteen,1,0,,353703,0,,51.45790900000000,36387,527,commercialeh@richmond.gov.uk,Richmond-Upon-Thames,http://www.richmond.gov.uk,-0.30540400000000,TW10 6UQ,2012-06-11,fhrs_5_en-GB,5,,FHRS,0
124244,,,,,Grassroots Nursery School,Hospitals/Childcare/Caring Premises,5,5,,353589,10,,,3445,527,commercialeh@richmond.gov.uk,Richmond-Upon-Thames,http://www.richmond.gov.uk,,,2015-01-20,fhrs_4_en-GB,4,,FHRS,5
124245,,68 Priory Road,,Hampton,Green Acres Day Nursery,Hospitals/Childcare/Caring Premises,5,5,,353174,0,,51.41859800000000,23998,527,commercialeh@richmond.gov.uk,Richmond-Upon-Thames,http://www.richmond.gov.uk,-0.37819200000000,TW12 2PN,2014-08-04,fhrs_5_en-GB,5,,FHRS,0
124246,,85 High Street,,Hampton Hill,Green Acres Nursery School,Hospitals/Childcare/Caring Premises,5,5,,353585,0,,51.42487500000000,34404,527,commercialeh@richmond.gov.uk,Richmond-Upon-Thames,http://www.richmond.gov.uk,-0.35812000000000,TW12 1NH,2014-06-02,fhrs_5_en-GB,5,,FHRS,0
124247,,143b High Street,,Hampton Hill,Greenacres Day Nursery School,Hospitals/Childcare/Caring Premises,5,0,,353015,0,,51.42626600000000,15265,527,commercialeh@richmond.gov.uk,Richmond-Upon-Thames,http://www.richmond.gov.uk,-0.35670400000000,TW12 1NJ,2014-06-02,fhrs_5_en-GB,5,,FHRS,5
124248,,28 High Street,,Hampton Hill,Greenacres Kids Cafe,Restaurant/Cafe/Canteen,1,0,,354053,5,,51.42564700000000,43786,527,commercialeh@richmond.gov.uk,Richmond-Upon-Thames,http://www.richmond.gov.uk,-0.35676900000000,TW12 1PD,2010-08-16,fhrs_5_en-GB,5,,FHRS,0
124249,The Greenwood Centre,1a School Road,,Hampton Hill,Greenwood Community Centre,Hospitals/Childcare/Caring Premises,5,,,353905,,,51.42585800000000,4017,527,commercialeh@richmond.gov.uk,Richmond-Upon-Thames,http://www.richmond.gov.uk,-0.36030000000000,TW12 1QL,2010-08-16,fhrs_exempt_en-GB,Exempt,,FHRS,
124250,,430 Richmond Road,,Kingston Upon Thames,Greggs,Retailers - other,4613,5,,354486,5,,51.43073600000000,5984,527,commercialeh@richmond.gov.uk,Richmond-Upon-Thames,http://www.richmond.gov.uk,-0.30682600000000,KT2 5PU,2012-10-08,fhrs_5_en-GB,5,,FHRS,5
124251,,8 King Street,,Twickenham,Greggs,Retailers - other,4613,0,,353841,5,,51.44643900000000,39,527,commercialeh@richmond.gov.uk,Richmond-Upon-Thames,http://www.richmond.gov.uk,-0.32892500000000,TW1 3SN,2011-03-03,fhrs_5_en-GB,5,,FHRS,0
124252,,35 The Quadrant,,Richmond,Greggs,Retailers - other,4613,0,,610816,0,,51.46237300000000,21380,527,commercialeh@richmond.gov.uk,Richmond-Upon-Thames,http://www.richmond.gov.uk,-0.30254600000000,TW9 1DN,2013-10-21,fhrs_5_en-GB,5,,FHRS,0
124253,,Grena Road,,Richmond,Grena Road Day Nursery,Hospitals/Childcare/Caring Premises,5,0,,354048,0,,51.46326600000000,43690,527,commercialeh@richmond.gov.uk,Richmond-Upon-Thames,http://www.richmond.gov.uk,-0.28915400000000,TW9 1XS,2014-11-11,fhrs_4_en-GB,4,,FHRS,10
124254,Grey Court School,Ham Street,,Ham,Grey Court School,School/college/university,7845,0,,353091,5,,51.43927400000000,1872,527,commercialeh@richmond.gov.uk,Richmond-Upon-Thames,http://www.richmond.gov.uk,-0.31333100000000,TW10 7HN,2010-09-09,fhrs_5_en-GB,5,,FHRS,0
124255,,23 Priory Road,,Hampton,Grimditch,Retailers - other,4613,20,,353082,10,,51.41864100000000,186,527,commercialeh@richmond.gov.uk,Richmond-Upon-Thames,http://www.richmond.gov.uk,-0.37150300000000,TW12 2NS,2014-12-04,fhrs_1_en-GB,1,,FHRS,15
124256,,56 White Hart Lane,,Barnes,Gusto & Relish,Retailers - other,4613,5,,353237,10,,51.46871400000000,25392,527,commercialeh@richmond.gov.uk,Richmond-Upon-Thames,http://www.richmond.gov.uk,-0.25489900000000,SW13 0PZ,2012-09-17,fhrs_4_en-GB,4,,FHRS,0
124257,Ham And Petersham Youth Club,Ham Close,,Ham,Ham & Petersham Youth Club,Other catering premises,7841,,,354500,,,51.43816800000000,6315,527,commercialeh@richmond.gov.uk,Richmond-Upon-Thames,http://www.richmond.gov.uk,-0.31521300000000,TW10 7PL,2009-03-31,fhrs_exempt_en-GB,Exempt,,FHRS,
124258,,Lock Road,,Ham,Ham Christian Centre,Other catering premises,7841,,,353464,,,51.43696500000000,29371,527,commercialeh@richmond.gov.uk,Richmond-Upon-Thames,http://www.richmond.gov.uk,-0.31976100000000,TW10 7NL,2009-03-31,fhrs_exempt_en-GB,Exempt,,FHRS,
124259,,297 Richmond Road,,Kingston Upon Thames,Ham Cross Service Station,Retailers - other,4613,5,,354478,5,,51.43079000000000,5779,527,commercialeh@richmond.gov.uk,Richmond-Upon-Thames,http://www.richmond.gov.uk,-0.30740000000000,KT2 5QU,2008-03-14,fhrs_5_en-GB,5,,FHRS,5
124260,,301 Richmond Road,,Kingston Upon Thames,Ham Fruiterers,Retailers - other,4613,0,,354488,0,,51.43079000000000,6004,527,commercialeh@richmond.gov.uk,Richmond-Upon-Thames,http://www.richmond.gov.uk,-0.30740000000000,KT2 5QU,2007-02-28,fhrs_5_en-GB,5,,FHRS,0
124261,Ham House,Ham Street,,Ham,Ham House Cafe,Restaurant/Cafe/Canteen,1,5,,352945,5,,51.44368900000000,11445,527,commercialeh@richmond.gov.uk,Richmond-Upon-Thames,http://www.richmond.gov.uk,-0.31647800000000,TW10 7RS,2014-09-09,fhrs_5_en-GB,5,,FHRS,5
124262,Ham Polo Club,Petersham Road,,Ham,Ham Polo Club,Restaurant/Cafe/Canteen,1,10,,353307,10,,51.44526800000000,26672,527,commercialeh@richmond.gov.uk,Richmond-Upon-Thames,http://www.richmond.gov.uk,-0.30496500000000,TW10 7AH,2012-06-01,fhrs_3_en-GB,3,,FHRS,5
124263,Hampton Academy,122 Hanworth Road,,Hampton,Hampton Academy,School/college/university,7845,5,,353088,5,,51.42936900000000,1869,527,commercialeh@richmond.gov.uk,Richmond-Upon-Thames,http://www.richmond.gov.uk,-0.37411400000000,TW12 3HB,2012-09-07,fhrs_5_en-GB,5,,FHRS,5
124264,Hampton Football Club,Station Road,,Hampton,Hampton and Richmond Football Club,Pub/bar/nightclub,7843,0,,352939,0,,51.41396000000000,11225,527,commercialeh@richmond.gov.uk,Richmond-Upon-Thames,http://www.richmond.gov.uk,-0.36342900000000,TW12 2BX,2013-04-04,fhrs_5_en-GB,5,,FHRS,0
124265,,Upper Sunbury Road,,Hampton,Hampton Care,Hospitals/Childcare/Caring Premises,5,5,,354080,5,,51.41416900000000,44255,527,commercialeh@richmond.gov.uk,Richmond-Upon-Thames,http://www.richmond.gov.uk,-0.37393400000000,TW12 2DW,2014-11-26,fhrs_5_en-GB,5,,FHRS,5
124266,Hampton Court House,Campbell Road,,East Molesey,Hampton Court House School,School/college/university,7845,10,,353270,5,,51.40753700000000,25955,527,commercialeh@richmond.gov.uk,Richmond-Upon-Thames,http://www.richmond.gov.uk,-0.34085400000000,KT8 9BS,2013-03-11,fhrs_4_en-GB,4,,FHRS,5
124267,Home Park Golf Course,Barge Walk,,Hampton Wick,Hampton Court Palace Golf Club,Pub/bar/nightclub,7843,0,,354477,5,,,5775,527,commercialeh@richmond.gov.uk,Richmond-Upon-Thames,http://www.richmond.gov.uk,,,2013-11-18,fhrs_5_en-GB,5,,FHRS,5
124268,,169 High Street,,Hampton Hill,Hampton Garden Chinese Restaurant,Restaurant/Cafe/Canteen,1,10,,353190,15,,51.42835800000000,2423,527,commercialeh@richmond.gov.uk,Richmond-Upon-Thames,http://www.richmond.gov.uk,-0.35519000000000,TW12 1NL,2014-09-04,fhrs_1_en-GB,1,,FHRS,20
124269,Cricket Ground,High Street,,Hampton Hill,Hampton Hill Cricket Club,Pub/bar/nightclub,7843,10,,354539,10,,51.42564700000000,7019,527,commercialeh@richmond.gov.uk,Richmond-Upon-Thames,http://www.richmond.gov.uk,-0.35676900000000,TW12 1PD,2014-04-10,fhrs_4_en-GB,4,,FHRS,0
124270,Hampton Hill Junior School,St James Avenue,,Hampton Hill,Hampton Hill Junior School,School/college/university,7845,0,,353814,0,,51.42778000000000,3853,527,commercialeh@richmond.gov.uk,Richmond-Upon-Thames,http://www.richmond.gov.uk,-0.36074900000000,TW12 1HW,2013-04-18,fhrs_5_en-GB,5,,FHRS,0
124271,Hampton Infants School,Ripley Road,,Hampton,Hampton Infant School,School/college/university,7845,5,,354523,5,,51.41944000000000,6800,527,commercialeh@richmond.gov.uk,Richmond-Upon-Thames,http://www.richmond.gov.uk,-0.37531500000000,TW12 2JH,2014-10-06,fhrs_5_en-GB,5,,FHRS,0
124272,Hampton Junior School,Percy Road,,Hampton,Hampton Junior School,School/college/university,7845,5,,353769,0,,51.41710900000000,3776,527,commercialeh@richmond.gov.uk,Richmond-Upon-Thames,http://www.richmond.gov.uk,-0.37321100000000,TW12 2LA,2013-02-06,fhrs_4_en-GB,4,,FHRS,10
124273,Hampton Methodist Church,Percy Road,,Hampton,Hampton Methodist Church Hall,Other catering premises,7841,20,,352927,5,,51.41772200000000,10001,527,commercialeh@richmond.gov.uk,Richmond-Upon-Thames,http://www.richmond.gov.uk,-0.37398000000000,TW12 2JT,2014-09-03,fhrs_1_en-GB,1,,FHRS,0
124274,Hampton Junior School,Percy Road,,Hampton,Hampton Munchies,Hospitals/Childcare/Caring Premises,5,0,,353524,5,,51.41710900000000,32280,527,commercialeh@richmond.gov.uk,Richmond-Upon-Thames,http://www.richmond.gov.uk,-0.37321100000000,TW12 2LA,2013-06-12,fhrs_5_en-GB,5,,FHRS,5
124275,Hampton Sailing Club Benns Isl,Thames Street,,Hampton,Hampton Sailing Club,Pub/bar/nightclub,7843,0,,353596,5,,51.41311900000000,3455,527,commercialeh@richmond.gov.uk,Richmond-Upon-Thames,http://www.richmond.gov.uk,-0.36370400000000,TW12 2EW,2009-03-31,fhrs_5_en-GB,5,,FHRS,5
124276,Hampton School,Hanworth Road,,Hampton,Hampton School,School/college/university,7845,0,,352981,0,,51.42874300000000,1316,527,commercialeh@richmond.gov.uk,Richmond-Upon-Thames,http://www.richmond.gov.uk,-0.37114400000000,TW12 3HD,2012-09-07,fhrs_5_en-GB,5,,FHRS,0
124277,,5 Station Approach,,Hampton,Hampton Spice,Restaurant/Cafe/Canteen,1,10,,354052,10,,51.41668400000000,43784,527,commercialeh@richmond.gov.uk,Richmond-Upon-Thames,http://www.richmond.gov.uk,-0.37049400000000,TW12 2HY,2013-10-29,fhrs_2_en-GB,2,,FHRS,15
124278,,31 Percy Road,,Hampton,Hampton Supermarket,Retailers - other,4613,5,,353220,10,,51.41467700000000,24981,527,commercialeh@richmond.gov.uk,Richmond-Upon-Thames,http://www.richmond.gov.uk,-0.37295200000000,TW12 2HW,2012-09-06,fhrs_4_en-GB,4,,FHRS,5
124279,,59 Oldfield Road,,Hampton,Hampton Tandoori Restaurant,Takeaway/sandwich shop,7844,10,,354521,15,,51.41507900000000,6752,527,commercialeh@richmond.gov.uk,Richmond-Upon-Thames,http://www.richmond.gov.uk,-0.37597200000000,TW12 2HP,2014-08-05,fhrs_2_en-GB,2,,FHRS,10
124280,Hampton Wick Infants School,Normansfield Avenue,,Hampton Wick,Hampton Wick Infants School,School/college/university,7845,10,,353753,0,,,3751,527,commercialeh@richmond.gov.uk,Richmond-Upon-Thames,http://www.richmond.gov.uk,,,2015-01-16,fhrs_4_en-GB,4,,FHRS,10
124281,,36-38 High Street,,Hampton Wick,Hampton Wick Tandoori,Restaurant/Cafe/Canteen,1,0,,353866,15,,51.41295600000000,39597,527,commercialeh@richmond.gov.uk,Richmond-Upon-Thames,http://www.richmond.gov.uk,-0.31106400000000,KT1 4DB,2014-10-14,fhrs_2_en-GB,2,,FHRS,10
124282,The Hand And Flower Ph,24 Upper Ham Road,,Ham,Hand & Flower,Pub/bar/nightclub,7843,10,,354161,5,,51.43283600000000,45690,527,commercialeh@richmond.gov.uk,Richmond-Upon-Thames,http://www.richmond.gov.uk,-0.30649000000000,TW10 5LA,2013-08-12,fhrs_4_en-GB,4,,FHRS,5
124283,,,,,Hank Marvin,Other catering premises,7841,5,,353731,0,,,36974,527,commercialeh@richmond.gov.uk,Richmond-Upon-Thames,http://www.richmond.gov.uk,,,2013-07-11,fhrs_5_en-GB,5,,FHRS,0
124284,,71 Ham Street,,Ham,Hansel & Pretzel,Manufacturers/packers,7839,5,,354044,0,,51.43839700000000,43634,527,commercialeh@richmond.gov.uk,Richmond-Upon-Thames,http://www.richmond.gov.uk,-0.31365100000000,TW10 7HW,2013-10-15,fhrs_5_en-GB,5,,FHRS,0
124285,,666 Hanworth Road,,Whitton,Hanworth Superstore,Retailers - other,4613,10,,353484,10,,51.45046800000000,30105,527,commercialeh@richmond.gov.uk,Richmond-Upon-Thames,http://www.richmond.gov.uk,-0.37890500000000,TW4 5NP,2013-01-21,fhrs_2_en-GB,2,,FHRS,15
124286,D E R A Social Centre,Chertsey Road,,Twickenham,Happy Hut Playgroup,Hospitals/Childcare/Caring Premises,5,0,,354607,0,,51.44892500000000,9600,527,commercialeh@richmond.gov.uk,Richmond-Upon-Thames,http://www.richmond.gov.uk,-0.35209100000000,TW2 7QB,2013-10-16,fhrs_5_en-GB,5,,FHRS,5
124287,Flat,216-216 Upper Richmond Road West,,East Sheen,Hare and Hound,Pub/bar/nightclub,7843,0,,353337,0,,51.46511000000000,2706,527,commercialeh@richmond.gov.uk,Richmond-Upon-Thames,http://www.richmond.gov.uk,-0.26469700000000,SW14 8AH,2011-01-18,fhrs_5_en-GB,5,,FHRS,5
124288,,190 Upper Richmond Road West,,East Sheen,Hari Supermarket,Retailers - other,4613,10,,353824,0,,51.46512900000000,38715,527,commercialeh@richmond.gov.uk,Richmond-Upon-Thames,http://www.richmond.gov.uk,-0.26353000000000,SW14 8AN,2013-01-03,fhrs_4_en-GB,4,,FHRS,0
124289,Twickenham Stoop Stadium,Langhorn Drive,,Twickenham,Harlequins FC,Pub/bar/nightclub,7843,0,,353479,5,,51.45076100000000,29900,527,commercialeh@richmond.gov.uk,Richmond-Upon-Thames,http://www.richmond.gov.uk,-0.34323200000000,TW2 7SX,2013-10-08,fhrs_5_en-GB,5,,FHRS,5
124290,,24 King Street,,Twickenham,Harris and Hoole,Restaurant/Cafe/Canteen,1,0,,486807,0,,51.44643900000000,11520,527,commercialeh@richmond.gov.uk,Richmond-Upon-Thames,http://www.richmond.gov.uk,-0.32892500000000,TW1 3SN,2012-12-10,fhrs_5_en-GB,5,,FHRS,0
124291,,28 Red Lion Street,,Richmond,Harrison News UK,Retailers - other,4613,10,,354301,5,,51.45950700000000,480,527,commercialeh@richmond.gov.uk,Richmond-Upon-Thames,http://www.richmond.gov.uk,-0.30459600000000,TW9 1RW,2010-02-12,fhrs_3_en-GB,3,,FHRS,10
124292,,82 Nelson Road,,Twickenham,Harry's Newsagent & Grocers,Retailers - other,4613,5,,354461,5,,51.45381000000000,546,527,commercialeh@richmond.gov.uk,Richmond-Upon-Thames,http://www.richmond.gov.uk,-0.35670800000000,TW2 7AY,2008-03-14,fhrs_5_en-GB,5,,FHRS,5
124293,,7 The Broadway,,Barnes,Haweli,Restaurant/Cafe/Canteen,1,20,,353877,15,,51.47033700000000,39756,527,commercialeh@richmond.gov.uk,Richmond-Upon-Thames,http://www.richmond.gov.uk,-0.25575900000000,SW13 0NY,2014-12-08,fhrs_1_en-GB,1,,FHRS,10
124294,,122 St Margarets Road,,Twickenham,Haweli of St Margarets,Takeaway/sandwich shop,7844,10,,352997,15,,51.45527200000000,1409,527,commercialeh@richmond.gov.uk,Richmond-Upon-Thames,http://www.richmond.gov.uk,-0.31966500000000,TW1 2AA,2013-08-15,fhrs_2_en-GB,2,,FHRS,10
124295,,153 Kingston Road,,Teddington,Haweli Of Teddington,Takeaway/sandwich shop,7844,10,,354116,10,,51.42433600000000,44964,527,commercialeh@richmond.gov.uk,Richmond-Upon-Thames,http://www.richmond.gov.uk,-0.32140400000000,TW11 9JP,2014-09-30,fhrs_3_en-GB,3,,FHRS,10
124296,Heathfield Primary School,Cobbett Road,,Twickenham,Heathfield Infants School,School/college/university,7845,5,,353631,0,,51.44740400000000,3503,527,commercialeh@richmond.gov.uk,Richmond-Upon-Thames,http://www.richmond.gov.uk,-0.36868100000000,TW2 6EN,2014-03-13,fhrs_4_en-GB,4,,FHRS,10
124297,,157b Heath Road,,Twickenham,Heath's Sandwich Bar,Restaurant/Cafe/Canteen,1,5,,353687,10,,51.44508500000000,36089,527,commercialeh@richmond.gov.uk,Richmond-Upon-Thames,http://www.richmond.gov.uk,-0.33739300000000,TW1 4BH,2013-08-19,fhrs_4_en-GB,4,,FHRS,0
124298,,636 Hanworth Road,,Whitton,Heathside Food Store,Retailers - other,4613,10,,353341,0,,51.45046800000000,271,527,commercialeh@richmond.gov.uk,Richmond-Upon-Thames,http://www.richmond.gov.uk,-0.37890500000000,TW4 5NP,2013-04-03,fhrs_4_en-GB,4,,FHRS,0
124299,,,,,Heavenly Dish,Restaurant/Cafe/Canteen,1,10,,353886,5,,,39871,527,commercialeh@richmond.gov.uk,Richmond-Upon-Thames,http://www.richmond.gov.uk,,,2014-03-20,fhrs_4_en-GB,4,,FHRS,5
124300,,20 Queens Road,,Teddington,Helix Restaurant (LGC LTD),Restaurant/Cafe/Canteen,1,0,,354062,0,,51.42504800000000,4391,527,commercialeh@richmond.gov.uk,Richmond-Upon-Thames,http://www.richmond.gov.uk,-0.34039300000000,TW11 0LR,2013-08-06,fhrs_5_en-GB,5,,FHRS,5
124301,,209 Upper Richmond Road West,,East Sheen,Henry's Fish Bar,Takeaway/sandwich shop,7844,10,,353863,0,,51.46493400000000,3951,527,commercialeh@richmond.gov.uk,Richmond-Upon-Thames,http://www.richmond.gov.uk,-0.26134900000000,SW14 8QT,2014-08-11,fhrs_4_en-GB,4,,FHRS,0
124302,,55-61 Heath Road,,Twickenham,High Road Auctions,Other catering premises,7841,20,,709353,10,,51.44496200000000,112061,527,commercialeh@richmond.gov.uk,Richmond-Upon-Thames,http://www.richmond.gov.uk,-0.33254800000000,TW1 4AW,2014-06-12,fhrs_1_en-GB,1,,FHRS,5
124303,,20 Richmond Hill,,Richmond,Hill Cafe,Other catering premises,7841,10,,641210,10,,,1524,527,commercialeh@richmond.gov.uk,Richmond-Upon-Thames,http://www.richmond.gov.uk,,,2014-02-20,fhrs_3_en-GB,3,,FHRS,5
124304,St James Church,St James Road,,Hampton Hill,Hillpark Nursery,Hospitals/Childcare/Caring Premises,5,5,,354321,5,,51.42875100000000,48425,527,commercialeh@richmond.gov.uk,Richmond-Upon-Thames,http://www.richmond.gov.uk,-0.36393700000000,TW12 1DJ,2014-02-04,fhrs_5_en-GB,5,,FHRS,0
124305,,18 Red Lion Street,,Richmond,Hilltribe,Restaurant/Cafe/Canteen,1,5,,353551,0,,51.45950700000000,33205,527,commercialeh@richmond.gov.uk,Richmond-Upon-Thames,http://www.richmond.gov.uk,-0.30459600000000,TW9 1RW,2014-05-12,fhrs_5_en-GB,5,,FHRS,5
124306,Hampton Court Palace,Hampton Court Road,,Hampton,Historic Royal Palaces Enterprises,Restaurant/Cafe/Canteen,1,10,,353868,0,,51.40382300000000,39652,527,commercialeh@richmond.gov.uk,Richmond-Upon-Thames,http://www.richmond.gov.uk,-0.33768200000000,KT8 9AU,2007-09-06,fhrs_4_en-GB,4,,FHRS,0
124307,Hmp Latchmere House,Church Road,,Ham,HMP Latchmere House,Restaurant/Cafe/Canteen,1,0,,353622,0,,51.42869700000000,3490,527,commercialeh@richmond.gov.uk,Richmond-Upon-Thames,http://www.richmond.gov.uk,-0.29582500000000,TW10 5HH,2011-03-16,fhrs_5_en-GB,5,,FHRS,0
124308,,408 Richmond Road,,Twickenham,HND Self Service,Retailers - other,4613,0,,353259,10,,51.45612500000000,257,527,commercialeh@richmond.gov.uk,Richmond-Upon-Thames,http://www.richmond.gov.uk,-0.30889500000000,TW1 2EB,2013-10-03,fhrs_4_en-GB,4,,FHRS,10
124309,,50a George Street,,Richmond,Holland & Barrett Ltd,Retailers - other,4613,0,,353152,10,,51.46108700000000,227,527,commercialeh@richmond.gov.uk,Richmond-Upon-Thames,http://www.richmond.gov.uk,-0.30445100000000,TW9 1HJ,2007-02-28,fhrs_4_en-GB,4,,FHRS,5
124310,Hollygrove Nursery School,South Road,,Hampton,Holly Grove Nursery School,Hospitals/Childcare/Caring Premises,5,5,,354565,5,,51.42298500000000,8367,527,commercialeh@richmond.gov.uk,Richmond-Upon-Thames,http://www.richmond.gov.uk,-0.38328700000000,TW12 3PE,2012-09-25,fhrs_5_en-GB,5,,FHRS,0
124311,Terrace Gardens,Petersham Road,,Ham,Hollyhock Cafe,Restaurant/Cafe/Canteen,1,0,,354177,0,,51.45259700000000,45947,527,commercialeh@richmond.gov.uk,Richmond-Upon-Thames,http://www.richmond.gov.uk,-0.30183000000000,TW10 6UX,2013-02-20,fhrs_5_en-GB,5,,FHRS,5
124312,Holy Trinity Parish Church,Sheen Park,,Richmond,Holy Trinity Church Centre,Other catering premises,7841,,,353942,,,51.46352300000000,4122,527,commercialeh@richmond.gov.uk,Richmond-Upon-Thames,http://www.richmond.gov.uk,-0.29444200000000,TW9 1UP,2008-03-14,fhrs_exempt_en-GB,Exempt,,FHRS,
124313,Holy Trinity C Of E School,Carrington Road,,Richmond,Holy Trinity Primary School,School/college/university,7845,0,,353081,0,,51.46342400000000,1859,527,commercialeh@richmond.gov.uk,Richmond-Upon-Thames,http://www.richmond.gov.uk,-0.28582200000000,TW10 5AA,2014-12-01,fhrs_5_en-GB,5,,FHRS,0
124314,St Augustines Vicarage,Hospital Bridge Road,,Twickenham,Homelink,Other catering premises,7841,0,,353018,0,,51.44319500000000,15359,527,commercialeh@richmond.gov.uk,Richmond-Upon-Thames,http://www.richmond.gov.uk,-0.36480200000000,TW2 6DE,2013-11-20,fhrs_5_en-GB,5,,FHRS,5
124315,Homemead,28 Park Road,,Teddington,Homemead,Hospitals/Childcare/Caring Premises,5,0,,353767,0,,51.42306200000000,3770,527,commercialeh@richmond.gov.uk,Richmond-Upon-Thames,http://www.richmond.gov.uk,-0.33546000000000,TW11 0AQ,2013-07-23,fhrs_5_en-GB,5,,FHRS,0
124316,,350 Richmond Road,,Twickenham,Honey Food & Wine Ltd,Retailers - other,4613,0,,353527,0,,51.45491200000000,324,527,commercialeh@richmond.gov.uk,Richmond-Upon-Thames,http://www.richmond.gov.uk,-0.31145900000000,TW1 2DU,2007-02-28,fhrs_5_en-GB,5,,FHRS,0
124317,,151 High Street,,Hampton Hill,Hons Takeaway,Takeaway/sandwich shop,7844,10,,353436,10,,51.42835800000000,2828,527,commercialeh@richmond.gov.uk,Richmond-Upon-Thames,http://www.richmond.gov.uk,-0.35519000000000,TW12 1NL,2013-12-18,fhrs_2_en-GB,2,,FHRS,15
124318,,,,,Hot Knives Catering,Other catering premises,7841,20,,716427,0,,,87580,527,commercialeh@richmond.gov.uk,Richmond-Upon-Thames,http://www.richmond.gov.uk,,,2014-10-21,fhrs_1_en-GB,1,,FHRS,0
124319,,,,,Hot Skillet,Other catering premises,7841,5,,590016,0,,,65665,527,commercialeh@richmond.gov.uk,Richmond-Upon-Thames,http://www.richmond.gov.uk,,,2013-09-09,fhrs_5_en-GB,5,,FHRS,5
124320,,224 Powder Mill Lane,,Twickenham,Hounslow Meat Store,Retailers - other,4613,10,,354212,5,,51.44921500000000,46471,527,commercialeh@richmond.gov.uk,Richmond-Upon-Thames,http://www.richmond.gov.uk,-0.37736700000000,TW2 6EJ,2014-05-28,fhrs_4_en-GB,4,,FHRS,0
