,addressline1,addressline2,addressline3,addressline4,businessname,businesstype,businesstypeid,confidenceinmanagement,extractdate,fhrsid,hygiene,itemcount,latitude,localauthoritybusinessid,localauthoritycode,localauthorityemailaddress,localauthorityname,localauthoritywebsite,longitude,postcode,ratingdate,ratingkey,ratingvalue,returncode,schemetype,structural
467531,Dolgam,,Capel Curig,Betws y Coed,A & C H Davies,Hotel/bed & breakfast/guest house,7842,0,,707190,0,,53.10123300000000,16619,550,regulatory.services@conwy.gov.uk,Conwy,http://www.conwy.gov.uk,-3.86912000000000,LL24 0DS,2014-09-25,fhrs_5_en-GB,5,,FHRS,0
467532,Private Address,Private Address,Private Address,Private Address,A Gift From Me to You,Retailers - other,4613,0,,719102,0,,,107541,550,regulatory.services@conwy.gov.uk,Conwy,http://www.conwy.gov.uk,,Private Ad,2014-03-14,fhrs_5_en-GB,5,,FHRS,0
467533,,20 Denbigh Street,Llanrwst,,A L & R O Jones,Retailers - other,4613,5,,112427,5,,53.13897300000000,41636,550,regulatory.services@conwy.gov.uk,Conwy,http://www.conwy.gov.uk,-3.79739600000000,LL26 0LL,2014-07-08,fhrs_5_en-GB,5,,FHRS,5
467534,A M K Indian Takeaway,2 Wentworth Avenue,Colwyn Bay,,A M K Indian Takeaway,Takeaway/sandwich shop,7844,20,,128201,15,,53.28844200000000,58032,550,regulatory.services@conwy.gov.uk,Conwy,http://www.conwy.gov.uk,-3.73798500000000,LL29 6DD,2014-09-25,fhrs_1_en-GB,1,,FHRS,10
467535,,61 Princes Drive,Colwyn Bay,,Abbey Dale House,Hospitals/Childcare/Caring Premises,5,5,,108127,0,,53.29935400000000,38440,550,regulatory.services@conwy.gov.uk,Conwy,http://www.conwy.gov.uk,-3.73566700000000,LL29 8PW,2013-09-24,fhrs_5_en-GB,5,,FHRS,5
467536,,52 Abbey Road,Llandudno,,Abbey House,Hotel/bed & breakfast/guest house,7842,10,,106658,5,,53.32303400000000,37189,550,regulatory.services@conwy.gov.uk,Conwy,http://www.conwy.gov.uk,-3.83937400000000,LL30 2EH,2011-06-20,fhrs_4_en-GB,4,,FHRS,5
467537,Abbey Lodge,14 Abbey Road,Llandudno,,Abbey Lodge Guest House,Hotel/bed & breakfast/guest house,7842,0,,609116,0,,53.32578600000000,15618,550,regulatory.services@conwy.gov.uk,Conwy,http://www.conwy.gov.uk,-3.83581300000000,LL30 2EA,2013-10-29,fhrs_5_en-GB,5,,FHRS,0
467538,,81 Abbey Road,Llandudno,,Abbey Nursing Home,Hospitals/Childcare/Caring Premises,5,5,,58611,0,,53.32303400000000,13007,550,regulatory.services@conwy.gov.uk,Conwy,http://www.conwy.gov.uk,-3.83937400000000,LL30 2EH,2014-10-30,fhrs_5_en-GB,5,,FHRS,5
467539,,29 Maelgwyn Road,Llandudno,,Abbeyfield,Hospitals/Childcare/Caring Premises,5,5,,550548,5,,53.32244200000000,18423,550,regulatory.services@conwy.gov.uk,Conwy,http://www.conwy.gov.uk,-3.83576000000000,LL30 2YN,2013-04-25,fhrs_4_en-GB,4,,FHRS,10
467540,,57 Lloyd Street,Llandudno,,Abbeyfield,Hospitals/Childcare/Caring Premises,5,0,,107952,0,,53.32159000000000,38296,550,regulatory.services@conwy.gov.uk,Conwy,http://www.conwy.gov.uk,-3.83566300000000,LL30 2YP,2014-09-25,fhrs_5_en-GB,5,,FHRS,0
467541,,9 Whitehall Road,Rhos On Sea,Colwyn Bay,Abbeyfield (C/Bay) Society Ltd,Other catering premises,7841,0,,492284,0,,53.30395300000000,3863,550,regulatory.services@conwy.gov.uk,Conwy,http://www.conwy.gov.uk,-3.74269700000000,LL28 4HW,2012-11-29,fhrs_5_en-GB,5,,FHRS,0
467542,Abbeyfield Society,10 Alexandra Road,Colwyn Bay,,Abbeyfield (C/Bay) Society Ltd,Other catering premises,7841,0,,719114,0,,53.29782900000000,3859,550,regulatory.services@conwy.gov.uk,Conwy,http://www.conwy.gov.uk,-3.73725500000000,LL29 7YB,2014-09-23,fhrs_5_en-GB,5,,FHRS,0
467543,Abbeyfield House,Lon Garnedd,Abergele,,Abbeyfield House,Other catering premises,7841,10,,144557,5,,53.28347500000000,8349,550,regulatory.services@conwy.gov.uk,Conwy,http://www.conwy.gov.uk,-3.58749200000000,LL22 7EW,2014-05-07,fhrs_4_en-GB,4,,FHRS,0
467544,Private Address,Private Address,Private Address,Private Address,ABC Cakes,Other catering premises,7841,5,,492288,5,,,78543,550,regulatory.services@conwy.gov.uk,Conwy,http://www.conwy.gov.uk,,Private Ad,2014-12-11,fhrs_5_en-GB,5,,FHRS,0
467545,Private Address,Private Address,Private Address,Private Address,Aberffraw Biscuit Co,Retailers - other,4613,5,,654350,5,,,102862,550,regulatory.services@conwy.gov.uk,Conwy,http://www.conwy.gov.uk,,Private Ad,2014-03-19,fhrs_5_en-GB,5,,FHRS,5
467546,O C S Centre,Rhuddlan Road,Abergele,,Abergele Day Care Centre,Other catering premises,7841,0,,145821,0,,53.28427600000000,87446,550,regulatory.services@conwy.gov.uk,Conwy,http://www.conwy.gov.uk,-3.57594100000000,LL22 7HF,2011-09-23,fhrs_5_en-GB,5,,FHRS,0
467547,Abergele Golf Club Ltd,Tan Y Gopa,Abergele,,Abergele Golf Club,Pub/bar/nightclub,7843,0,,622229,5,,53.28112800000000,82226,550,regulatory.services@conwy.gov.uk,Conwy,http://www.conwy.gov.uk,-3.59628500000000,LL22 8DS,2013-12-09,fhrs_5_en-GB,5,,FHRS,0
467548,,71 Market Street,Abergele,,Abergele Grill,Restaurant/Cafe/Canteen,1,0,,338835,0,,53.28465200000000,1992,550,regulatory.services@conwy.gov.uk,Conwy,http://www.conwy.gov.uk,-3.58623000000000,LL22 7BP,2014-02-12,fhrs_5_en-GB,5,,FHRS,0
467549,Abergele Hospital,Llanfair Road,Abergele,,Abergele Hospital,Hospitals/Childcare/Caring Premises,5,0,,80365,0,,53.26624900000000,1945,550,regulatory.services@conwy.gov.uk,Conwy,http://www.conwy.gov.uk,-3.57955100000000,LL22 8DP,2013-11-22,fhrs_5_en-GB,5,,FHRS,0
467550,Manchester Lounge,Llanfair Road,Abergele,,Abergele Hospital Tea Bar,Restaurant/Cafe/Canteen,1,5,,338778,0,,53.24336300000000,102212,550,regulatory.services@conwy.gov.uk,Conwy,http://www.conwy.gov.uk,-3.59756100000000,LL22 8PD,2014-12-12,fhrs_5_en-GB,5,,FHRS,0
467551,,41 Market Street,Abergele,,Abergele Kebab & Pizza,Takeaway/sandwich shop,7844,5,,536218,0,,53.28448300000000,102580,550,regulatory.services@conwy.gov.uk,Conwy,http://www.conwy.gov.uk,-3.58403400000000,LL22 7AF,2014-09-13,fhrs_5_en-GB,5,,FHRS,5
467552,,487-489 Abergele Road,Old Colwyn,Colwyn Bay,Acorn Activity Centre,Other catering premises,7841,5,,499502,5,,53.28977800000000,102529,550,regulatory.services@conwy.gov.uk,Conwy,http://www.conwy.gov.uk,-3.68822900000000,LL29 9AE,2014-07-22,fhrs_5_en-GB,5,,FHRS,5
467553,Gerlan,64 Station Road,Llanrwst,Conwy,Adair's,Takeaway/sandwich shop,7844,0,,619779,0,,53.14292000000000,102966,550,regulatory.services@conwy.gov.uk,Conwy,http://www.conwy.gov.uk,-3.80213600000000,LL26 0EH,2013-11-07,fhrs_5_en-GB,5,,FHRS,5
467554,Adcote House,10 Deganwy Avenue,Llandudno,Conwy,Adcote House,Hotel/bed & breakfast/guest house,7842,0,,656807,0,,53.32361000000000,103518,550,regulatory.services@conwy.gov.uk,Conwy,http://www.conwy.gov.uk,-3.83349800000000,LL30 2YB,2014-04-10,fhrs_5_en-GB,5,,FHRS,0
467555,Adlington House,Abbey Road,Rhos On Sea,Colwyn Bay,Adlington House Cafe,Restaurant/Cafe/Canteen,1,10,,39718,5,,53.31225800000000,100163,550,regulatory.services@conwy.gov.uk,Conwy,http://www.conwy.gov.uk,-3.74096400000000,LL28 4PU,2013-11-26,fhrs_4_en-GB,4,,FHRS,5
467556,,Ffordd Tan Llan,Cerrigydrudion,,Adloniant Maelor,Restaurant/Cafe/Canteen,1,10,,609088,5,,53.02537000000000,102813,550,regulatory.services@conwy.gov.uk,Conwy,http://www.conwy.gov.uk,-3.56214600000000,LL21 9SR,2013-09-16,fhrs_4_en-GB,4,,FHRS,5
467557,Afon Gwyn Country House,,Betws y Coed,,Afon Gwyn Country House,Hotel/bed & breakfast/guest house,7842,0,,550564,0,,53.07863800000000,59150,550,regulatory.services@conwy.gov.uk,Conwy,http://www.conwy.gov.uk,-3.79515000000000,LL24 0SH,2013-04-13,fhrs_5_en-GB,5,,FHRS,0
467558,Afon View Guest House,Holyhead Road,Betws Y Coed,,Afon View Guest House,Hotel/bed & breakfast/guest house,7842,0,,427480,0,,53.08988300000000,52440,550,regulatory.services@conwy.gov.uk,Conwy,http://www.conwy.gov.uk,-3.80057600000000,LL24 0AN,2012-06-30,fhrs_5_en-GB,5,,FHRS,0
467559,Agar House Hotel,17 St. Davids Road,Llandudno,,Agar House,Hotel/bed & breakfast/guest house,7842,0,,609105,0,,53.32126300000000,11950,550,regulatory.services@conwy.gov.uk,Conwy,http://www.conwy.gov.uk,-3.83354700000000,LL30 2UL,2013-10-28,fhrs_5_en-GB,5,,FHRS,0
467560,Private Address,Private Address,Private Address,Private Address,Aga's Cakes,Other catering premises,7841,0,,409250,0,,,102211,550,regulatory.services@conwy.gov.uk,Conwy,http://www.conwy.gov.uk,,Private Ad,2014-09-17,fhrs_5_en-GB,5,,FHRS,0
467561,,50 Brompton Avenue,Rhos On Sea,Colwyn Bay,Aingarth Residential Home,Hospitals/Childcare/Caring Premises,5,5,,201615,10,,53.30596100000000,2004,550,regulatory.services@conwy.gov.uk,Conwy,http://www.conwy.gov.uk,-3.74801700000000,LL28 4TP,2014-09-23,fhrs_3_en-GB,3,,FHRS,10
467562,,13-15 Foryd Road,Kinmel Bay,Rhyl,Alastair House,Hospitals/Childcare/Caring Premises,5,10,,78701,0,,53.31202200000000,1879,550,regulatory.services@conwy.gov.uk,Conwy,http://www.conwy.gov.uk,-3.51531500000000,LL18 5BA,2014-09-11,fhrs_4_en-GB,4,,FHRS,10
467563,Albany House,Craig y Don Parade,Llandudno,,Albany House Guest House,Hotel/bed & breakfast/guest house,7842,5,,609115,0,,53.32186300000000,15457,550,regulatory.services@conwy.gov.uk,Conwy,http://www.conwy.gov.uk,-3.80956500000000,LL30 1BG,2013-10-30,fhrs_4_en-GB,4,,FHRS,10
467564,The Albion,Uppergate Street,Conwy,,Albion Ale House Cyf,Pub/bar/nightclub,7843,5,,230352,5,,53.28066800000000,102105,550,regulatory.services@conwy.gov.uk,Conwy,http://www.conwy.gov.uk,-3.83209300000000,LL32 8RF,2012-02-09,fhrs_4_en-GB,4,,FHRS,10
467565,Aldi Foodstore Ltd,Mostyn Champneys Retail Park,Llandudno,,Aldi,Retailers - supermarkets/hypermarkets,7840,5,,516976,5,,53.31894100000000,12344,550,regulatory.services@conwy.gov.uk,Conwy,http://www.conwy.gov.uk,-3.81726300000000,LL30 1RY,2013-01-26,fhrs_5_en-GB,5,,FHRS,0
467566,Aldi Supermarket,394 Abergele Road,Old Colwyn,Colwyn Bay,Aldi,Retailers - other,4613,0,,492290,0,,53.28884200000000,99281,550,regulatory.services@conwy.gov.uk,Conwy,http://www.conwy.gov.uk,-3.69711900000000,LL29 9LU,2014-12-08,fhrs_5_en-GB,5,,FHRS,0
467567,Alexandra Hotel,Clonmel Street,Llandudno,Conwy,Alexandra Hotel,Pub/bar/nightclub,7843,10,,40684,15,,53.32353600000000,101560,550,regulatory.services@conwy.gov.uk,Conwy,http://www.conwy.gov.uk,-3.82720300000000,LL30 2LE,2014-09-25,fhrs_2_en-GB,2,,FHRS,5
467568,Alexandra Hotel,High Street,Penmaenmawr,,Alexandra Hotel,Hotel/bed & breakfast/guest house,7842,10,,636604,10,,53.26695900000000,12832,550,regulatory.services@conwy.gov.uk,Conwy,http://www.conwy.gov.uk,-3.93560500000000,LL34 6NF,2014-02-10,fhrs_4_en-GB,4,,FHRS,0
467569,Alfredos Restaurant,Lancaster Square,Conwy,,Alfredos Restaurant,Restaurant/Cafe/Canteen,1,0,,201634,0,,53.28084600000000,12327,550,regulatory.services@conwy.gov.uk,Conwy,http://www.conwy.gov.uk,-3.83045100000000,LL32 8DA,2013-12-03,fhrs_5_en-GB,5,,FHRS,5
467570,,Station Approach,Betws Y Coed,,Alpine Coffee Shop,Restaurant/Cafe/Canteen,1,5,,194409,10,,53.09234400000000,100669,550,regulatory.services@conwy.gov.uk,Conwy,http://www.conwy.gov.uk,-3.80075300000000,LL24 0AE,2013-07-02,fhrs_4_en-GB,4,,FHRS,5
467571,,24 Caroline Road,Llandudno,,Alvastrada,Hotel/bed & breakfast/guest house,7842,0,,64619,0,,53.32164200000000,14392,550,regulatory.services@conwy.gov.uk,Conwy,http://www.conwy.gov.uk,-3.83051500000000,LL30 2TY,2014-04-11,fhrs_5_en-GB,5,,FHRS,0
467572,Network Cafe,Conway Road,Mochdre,,Amanda's Snax Ltd,Restaurant/Cafe/Canteen,1,5,,40787,5,,53.28868400000000,101697,550,regulatory.services@conwy.gov.uk,Conwy,http://www.conwy.gov.uk,-3.76556900000000,LL28 5HN,2014-08-28,fhrs_4_en-GB,4,,FHRS,10
467573,Amandas Tea Room - Sandwich Bar,59 Abergele Road,Colwyn Bay,Conwy,Amanda's Tea Room - Sandwich Bar,Restaurant/Cafe/Canteen,1,,,619778,,,53.29371700000000,102934,550,regulatory.services@conwy.gov.uk,Conwy,http://www.conwy.gov.uk,-3.72454500000000,LL29 7RU,2014-02-14,fhrs_4_en-GB,4,,FHRS,
467574,Ambassador Hotel,St. Georges Place,Llandudno,,Ambassador Hotel,Hotel/bed & breakfast/guest house,7842,10,,53470,10,,53.32470100000000,12048,550,regulatory.services@conwy.gov.uk,Conwy,http://www.conwy.gov.uk,-3.82979100000000,LL30 2NR,2014-05-27,fhrs_3_en-GB,3,,FHRS,10
467575,Amber Court,West Parade,Llandudno,Conwy,Amber Court,Hotel/bed & breakfast/guest house,7842,5,,481333,0,,53.31816700000000,13610,550,regulatory.services@conwy.gov.uk,Conwy,http://www.conwy.gov.uk,-3.84249700000000,LL30 2BD,2012-10-24,fhrs_5_en-GB,5,,FHRS,0
467576,Amelies,High Street,Conwy,,Amelies,Restaurant/Cafe/Canteen,1,5,,128196,5,,53.28146700000000,58025,550,regulatory.services@conwy.gov.uk,Conwy,http://www.conwy.gov.uk,-3.82869200000000,LL32 8DB,2014-09-18,fhrs_5_en-GB,5,,FHRS,5
467577,,32-34 Station Road,Llanrwst,,Amser Da,Restaurant/Cafe/Canteen,1,5,,59727,10,,53.13959700000000,13110,550,regulatory.services@conwy.gov.uk,Conwy,http://www.conwy.gov.uk,-3.79957500000000,LL26 0BT,2013-08-05,fhrs_4_en-GB,4,,FHRS,5
467578,Private Address,Private Address,Private Address,Private Address,Anheddau,Hospitals/Childcare/Caring Premises,5,0,,684050,0,,,15860,550,regulatory.services@conwy.gov.uk,Conwy,http://www.conwy.gov.uk,,Private Ad,2014-07-11,fhrs_5_en-GB,5,,FHRS,0
467579,Annan Hotel,1 Abbey Road,Llandudno,Conwy,Annan Hotel,Hotel/bed & breakfast/guest house,7842,5,,52704,5,,53.32578600000000,11930,550,regulatory.services@conwy.gov.uk,Conwy,http://www.conwy.gov.uk,-3.83581300000000,LL30 2EA,2013-05-31,fhrs_5_en-GB,5,,FHRS,5
467580,,9 Castle Street,Conwy,,Annas Tea Room,Restaurant/Cafe/Canteen,1,5,,62272,0,,53.28116300000000,13742,550,regulatory.services@conwy.gov.uk,Conwy,http://www.conwy.gov.uk,-3.82794400000000,LL32 8AY,2013-12-17,fhrs_5_en-GB,5,,FHRS,5
467581,,12 Rivieres Avenue,Colwyn Bay,,Apple Residential Care Home,Hospitals/Childcare/Caring Premises,5,0,,194386,0,,53.29396400000000,4750,550,regulatory.services@conwy.gov.uk,Conwy,http://www.conwy.gov.uk,-3.72979100000000,LL29 7DP,2014-10-24,fhrs_5_en-GB,5,,FHRS,0
467582,,53-55 Greenfield Road,Colwyn Bay,,Arden Towers Mentally Handicap,Hospitals/Childcare/Caring Premises,5,5,,79730,0,,53.29382900000000,1922,550,regulatory.services@conwy.gov.uk,Conwy,http://www.conwy.gov.uk,-3.72112800000000,LL29 8EW,2014-06-25,fhrs_5_en-GB,5,,FHRS,5
467583,Private Address,Private Address,Private Address,Private Address,Arlwyo Ty Nant Catering,Mobile caterer,7846,0,,338865,0,,,54225,550,regulatory.services@conwy.gov.uk,Conwy,http://www.conwy.gov.uk,,Private Ad,2014-03-14,fhrs_5_en-GB,5,,FHRS,0
467584,Celynnen,Llanelian,Colwyn Bay,,Arundales,Retailers - other,4613,0,,633300,5,,53.25952900000000,103032,550,regulatory.services@conwy.gov.uk,Conwy,http://www.conwy.gov.uk,-3.70891100000000,LL29 6AT,2014-01-24,fhrs_5_en-GB,5,,FHRS,5
467585,,18 Arvon Avenue,Llandudno,,Arvon House,Hotel/bed & breakfast/guest house,7842,10,,442750,0,,53.32521500000000,13733,550,regulatory.services@conwy.gov.uk,Conwy,http://www.conwy.gov.uk,-3.83433200000000,LL30 2DY,2012-07-19,fhrs_4_en-GB,4,,FHRS,0
467586,Ascot House,4 Carmen Sylva Road,Llandudno,,Ascot House,Hotel/bed & breakfast/guest house,7842,0,,145154,0,,53.32179300000000,85271,550,regulatory.services@conwy.gov.uk,Conwy,http://www.conwy.gov.uk,-3.80822600000000,LL30 1LZ,2014-03-12,fhrs_5_en-GB,5,,FHRS,0
467587,Asda,Conway Road,Llandudno Junction,,Asda,Retailers - other,4613,5,,194387,5,,53.28433500000000,101694,550,regulatory.services@conwy.gov.uk,Conwy,http://www.conwy.gov.uk,-3.81277900000000,LL31 9LU,2013-11-05,fhrs_5_en-GB,5,,FHRS,5
467588,Asda Supermarket,Conway Road,Llandudno,Conwy,Asda Customer Cafe,Restaurant/Cafe/Canteen,1,5,,722299,5,,53.31847700000000,107901,550,regulatory.services@conwy.gov.uk,Conwy,http://www.conwy.gov.uk,-3.82407400000000,LL30 1PJ,2014-12-01,fhrs_4_en-GB,4,,FHRS,10
467589,Asda Stores Ltd,St. Asaph Avenue North,Kinmel Bay,Rhyl,Asda Stores,Retailers - other,4613,0,,89950,0,,53.31133800000000,2428,550,regulatory.services@conwy.gov.uk,Conwy,http://www.conwy.gov.uk,-3.52174600000000,LL18 5EQ,2014-06-28,fhrs_5_en-GB,5,,FHRS,0
467590,Asda,Conway Road,Llandudno,,Asda Stores Ltd,Retailers - supermarkets/hypermarkets,7840,5,,126600,5,,53.31847700000000,55690,550,regulatory.services@conwy.gov.uk,Conwy,http://www.conwy.gov.uk,-3.82407400000000,LL30 1PJ,2013-12-11,fhrs_5_en-GB,5,,FHRS,0
467591,Regent House,4 Denbigh Street,Llanrwst,,Asha Balti House,Restaurant/Cafe/Canteen,1,0,,63954,5,,53.13897300000000,14134,550,regulatory.services@conwy.gov.uk,Conwy,http://www.conwy.gov.uk,-3.79739600000000,LL26 0LL,2013-10-08,fhrs_5_en-GB,5,,FHRS,5
467592,,32 Deganwy Avenue,Llandudno,,Ashfields,Hotel/bed & breakfast/guest house,7842,10,,427467,0,,53.32361000000000,11937,550,regulatory.services@conwy.gov.uk,Conwy,http://www.conwy.gov.uk,-3.83349800000000,LL30 2YB,2014-06-26,fhrs_4_en-GB,4,,FHRS,10
467593,,1 Tan yr Foel,Rhyd y Foel,Abergele,Ashley Day Centre,Hospitals/Childcare/Caring Premises,5,20,,108370,10,,53.27565500000000,3864,550,regulatory.services@conwy.gov.uk,Conwy,http://www.conwy.gov.uk,-3.63399500000000,LL22 8HZ,2014-12-02,fhrs_1_en-GB,1,,FHRS,5
467594,,18 College Avenue,Rhos On Sea,Colwyn Bay,Ashmount,Hotel/bed & breakfast/guest house,7842,0,,442752,0,,53.31357300000000,1784,550,regulatory.services@conwy.gov.uk,Conwy,http://www.conwy.gov.uk,-3.74266800000000,LL28 4NT,2014-07-11,fhrs_5_en-GB,5,,FHRS,0
467595,Asia Restaurant,96 Gloddaeth Street,Llandudno,Conwy,Asia Indian Takeaway,Restaurant/Cafe/Canteen,1,5,,121836,5,,53.32565000000000,50451,550,regulatory.services@conwy.gov.uk,Conwy,http://www.conwy.gov.uk,-3.83235400000000,LL30 2DS,2014-12-11,fhrs_5_en-GB,5,,FHRS,5
467596,,16 Chapel Street,Llandudno,,Astonwood Hotel,Hotel/bed & breakfast/guest house,7842,0,,52649,0,,53.32437400000000,11911,550,regulatory.services@conwy.gov.uk,Conwy,http://www.conwy.gov.uk,-3.83232900000000,LL30 2SY,2014-03-13,fhrs_5_en-GB,5,,FHRS,0
467597,Audley House,6 Arvon Avenue,Llandudno,,Audley  Guest House,Hotel/bed & breakfast/guest house,7842,0,,609104,0,,53.32521500000000,11915,550,regulatory.services@conwy.gov.uk,Conwy,http://www.conwy.gov.uk,-3.83433200000000,LL30 2DY,2013-10-28,fhrs_5_en-GB,5,,FHRS,0
467598,Avalon,3 Betws Avenue,Kinmel Bay,Rhyl,Avalon,Hospitals/Childcare/Caring Premises,5,0,,654388,0,,53.31276800000000,3751,550,regulatory.services@conwy.gov.uk,Conwy,http://www.conwy.gov.uk,-3.51741300000000,LL18 5BN,2014-03-10,fhrs_5_en-GB,5,,FHRS,0
467599,,52 Abergele Road,Colwyn Bay,,Aydin's,Takeaway/sandwich shop,7844,5,,76114,5,,53.29360000000000,1790,550,regulatory.services@conwy.gov.uk,Conwy,http://www.conwy.gov.uk,-3.72514000000000,LL29 7PA,2014-09-24,fhrs_5_en-GB,5,,FHRS,5
467600,92-94 Nant Clwyd House,Towyn Road,Towyn,Abergele,B J's Cafe,Restaurant/Cafe/Canteen,1,5,,481336,5,,53.30179000000000,1679,550,regulatory.services@conwy.gov.uk,Conwy,http://www.conwy.gov.uk,-3.54066000000000,LL22 9HD,2014-10-29,fhrs_5_en-GB,5,,FHRS,5
467601,,"Victoria Centre, Mostyn Street",Llandudno,,Badgers Tea Rooms,Restaurant/Cafe/Canteen,1,0,,64486,0,,53.32341500000000,14340,550,regulatory.services@conwy.gov.uk,Conwy,http://www.conwy.gov.uk,-3.82919500000000,LL30 2RP,2013-08-16,fhrs_5_en-GB,5,,FHRS,0
467602,,13 Bangor Road,Conwy,,Baravellis,Manufacturers/packers,7839,0,,719105,0,,53.28106200000000,107928,550,regulatory.services@conwy.gov.uk,Conwy,http://www.conwy.gov.uk,-3.83164500000000,LL32 8NG,2014-11-04,fhrs_5_en-GB,5,,FHRS,5
467603,Private Address,Private Address,Private Address,Private Address,Barcut Rose Veal,Farmers/growers,7838,5,,665798,5,,,107521,550,regulatory.services@conwy.gov.uk,Conwy,http://www.conwy.gov.uk,,Private Ad,2014-04-29,fhrs_5_en-GB,5,,FHRS,5
467604,Barnacles,7-7a Mostyn Street,Llandudno,Conwy,Barnacles Restaurant,Restaurant/Cafe/Canteen,1,,,128664,,,53.32282200000000,58824,550,regulatory.services@conwy.gov.uk,Conwy,http://www.conwy.gov.uk,-3.82567100000000,LL30 2NL,2014-02-04,fhrs_5_en-GB,5,,FHRS,
467605,,105-107 Abergele Road,Colwyn Bay,,Bartons Fish and Chips,Takeaway/sandwich shop,7844,5,,40440,5,,53.29301000000000,101241,550,regulatory.services@conwy.gov.uk,Conwy,http://www.conwy.gov.uk,-3.72309100000000,LL29 7SA,2014-10-23,fhrs_5_en-GB,5,,FHRS,0
467606,"Office 2, Ty Tyldesley",48 Clarence Road,Craig Y Don,Llandudno,Bashar Fine Foods LTD,Retailers - other,4613,5,,619771,5,,53.31793000000000,102794,550,regulatory.services@conwy.gov.uk,Conwy,http://www.conwy.gov.uk,-3.81340700000000,LL30 1TW,2013-11-04,fhrs_5_en-GB,5,,FHRS,5
467607,Bay Court Residential Home,St Asaph Avenue,Kinmel Bay,Conwy,Bay Court,Hospitals/Childcare/Caring Premises,5,10,,120077,0,,53.31131900000000,4913,550,regulatory.services@conwy.gov.uk,Conwy,http://www.conwy.gov.uk,-3.52040900000000,LL18 5EE,2014-09-02,fhrs_4_en-GB,4,,FHRS,5
467608,,54 Sea View Road,Colwyn Bay,,Bay Grill,Takeaway/sandwich shop,7844,10,,338838,0,,53.29524500000000,2092,550,regulatory.services@conwy.gov.uk,Conwy,http://www.conwy.gov.uk,-3.72582200000000,LL29 8DG,2014-12-08,fhrs_4_en-GB,4,,FHRS,10
467609,,29 Queen's Road,Craig Y Don,Llandudno,Bay Grill 2,Takeaway/sandwich shop,7844,10,,126107,10,,53.32027300000000,54958,550,regulatory.services@conwy.gov.uk,Conwy,http://www.conwy.gov.uk,-3.81065400000000,LL30 1TE,2014-05-30,fhrs_2_en-GB,2,,FHRS,15
467610,,164 Conway Road,Llandudno Junction,,Bay Grill II,Takeaway/sandwich shop,7844,,,230367,,,53.28371100000000,57646,550,regulatory.services@conwy.gov.uk,Conwy,http://www.conwy.gov.uk,-3.80471200000000,LL31 9DU,2014-05-13,fhrs_4_en-GB,4,,FHRS,
467611,,6-9 North Parade,Llandudno,,Baytree,Hotel/bed & breakfast/guest house,7842,10,,583331,0,,53.32699500000000,102633,550,regulatory.services@conwy.gov.uk,Conwy,http://www.conwy.gov.uk,-3.83140500000000,LL30 2LP,2014-10-23,fhrs_4_en-GB,4,,FHRS,10
467612,Beach Cafe,Promenade,Penmaenmawr,,Beach Cafe,Restaurant/Cafe/Canteen,1,0,,128587,5,,53.27051900000000,58670,550,regulatory.services@conwy.gov.uk,Conwy,http://www.conwy.gov.uk,-3.92057400000000,LL34 6AY,2014-08-15,fhrs_5_en-GB,5,,FHRS,5
467613,Beach Caravan & Chalet Park,Beach Road,Llanddulas,Abergele,Beach Comber Club (Thornley Leisure Ltd),Pub/bar/nightclub,7843,5,,719113,5,,53.29206500000000,3477,550,regulatory.services@conwy.gov.uk,Conwy,http://www.conwy.gov.uk,-3.64093800000000,LL22 8HB,2014-10-27,fhrs_5_en-GB,5,,FHRS,5
467614,Beach Cove,8 Church Walks,Llandudno,,Beach Cove Guest House,Hotel/bed & breakfast/guest house,7842,0,,654381,0,,53.32762900000000,15456,550,regulatory.services@conwy.gov.uk,Conwy,http://www.conwy.gov.uk,-3.83228900000000,LL30 2HD,2014-03-13,fhrs_5_en-GB,5,,FHRS,0
467615,,82 Church Walks,Llandudno,,Beach House Hotel,Hotel/bed & breakfast/guest house,7842,10,,338782,10,,53.32762900000000,11912,550,regulatory.services@conwy.gov.uk,Conwy,http://www.conwy.gov.uk,-3.83228900000000,LL30 2HD,2013-08-16,fhrs_3_en-GB,3,,FHRS,10
467616,,118 Glan Y Mor Road,Penrhyn Bay,Llandudno,Beach Restaurant,Restaurant/Cafe/Canteen,1,5,,201650,5,,53.31776500000000,13897,550,regulatory.services@conwy.gov.uk,Conwy,http://www.conwy.gov.uk,-3.76264100000000,LL30 3PR,2013-08-08,fhrs_4_en-GB,4,,FHRS,10
467617,Private Address,Private Address,Private Address,Private Address,Becci's Tasty Treats,Retailers - other,4613,0,,700866,5,,,107617,550,regulatory.services@conwy.gov.uk,Conwy,http://www.conwy.gov.uk,,Private Ad,2014-09-12,fhrs_5_en-GB,5,,FHRS,5
467618,2 Oxford Arcade,Pant Yr Afon,Penmaenmawr,,Becws Alun,Retailers - other,4613,0,,41013,5,,53.26835700000000,101988,550,regulatory.services@conwy.gov.uk,Conwy,http://www.conwy.gov.uk,-3.92139200000000,LL34 6AE,2014-12-03,fhrs_5_en-GB,5,,FHRS,0
467619,Beechwood Court,Mountain Road,Conwy,,Beechwood Court,Hotel/bed & breakfast/guest house,7842,5,,52685,0,,53.28375000000000,11925,550,regulatory.services@conwy.gov.uk,Conwy,http://www.conwy.gov.uk,-3.84035600000000,LL32 8PY,2014-02-10,fhrs_5_en-GB,5,,FHRS,0
467620,Private Address,Private Address,Private Address,Private Address,Bella Torta,Other catering premises,7841,0,,622218,0,,,102868,550,regulatory.services@conwy.gov.uk,Conwy,http://www.conwy.gov.uk,,Private Ad,2013-12-21,fhrs_5_en-GB,5,,FHRS,0
467621,,83 Church Walks,Llandudno,,Bella Vista,Hotel/bed & breakfast/guest house,7842,0,,128014,5,,53.32762900000000,57716,550,regulatory.services@conwy.gov.uk,Conwy,http://www.conwy.gov.uk,-3.83228900000000,LL30 2HD,2013-08-15,fhrs_5_en-GB,5,,FHRS,0
467622,Private Address,Private Address,Private Address,Private Address,Beloved Bakery,Other catering premises,7841,10,,583340,5,,,102755,550,regulatory.services@conwy.gov.uk,Conwy,http://www.conwy.gov.uk,,Private Ad,2013-06-10,fhrs_4_en-GB,4,,FHRS,5
467623,,1 North Parade,Llandudno,,Bengal Dynasty,Restaurant/Cafe/Canteen,1,5,,53469,10,,53.32699500000000,12047,550,regulatory.services@conwy.gov.uk,Conwy,http://www.conwy.gov.uk,-3.83140500000000,LL30 2LP,2014-09-10,fhrs_4_en-GB,4,,FHRS,5
467624,,Parc Hen Blas Estate,Llanfairfechan,,Bernina,Other catering premises,7841,0,,201619,0,,53.25458900000000,13222,550,regulatory.services@conwy.gov.uk,Conwy,http://www.conwy.gov.uk,-3.97607700000000,LL33 0RW,2013-09-12,fhrs_5_en-GB,5,,FHRS,0
467625,,9 Rhodfa'r Carneddau,Upper Colwyn Bay,Colwyn Bay,Bespoke Cakes,Retailers - other,4613,5,,729975,5,,53.28657700000000,107991,550,regulatory.services@conwy.gov.uk,Conwy,http://www.conwy.gov.uk,-3.73147300000000,LL29 6EE,2015-01-07,fhrs_5_en-GB,5,,FHRS,0
467626,,74 Abergele Road,Colwyn Bay,,Best End Butchers,Retailers - other,4613,5,,77147,0,,53.29245100000000,1806,550,regulatory.services@conwy.gov.uk,Conwy,http://www.conwy.gov.uk,-3.72315800000000,LL29 7PP,2014-09-30,fhrs_5_en-GB,5,,FHRS,5
467627,,83 Grove Park,Colwyn Bay,Conwy,Best One,Retailers - other,4613,10,,619784,10,,53.29166800000000,103020,550,regulatory.services@conwy.gov.uk,Conwy,http://www.conwy.gov.uk,-3.72573800000000,LL29 7TY,2013-09-16,fhrs_3_en-GB,3,,FHRS,5
467628,,42 Market Street,Abergele,,Best One,Retailers - other,4613,10,,499506,0,,53.28453500000000,3610,550,regulatory.services@conwy.gov.uk,Conwy,http://www.conwy.gov.uk,-3.58282100000000,LL22 7AA,2014-12-05,fhrs_4_en-GB,4,,FHRS,5
467629,,West Parade,Llandudno,,Beth Eden Guest House & Tea Room,Hotel/bed & breakfast/guest house,7842,,,230380,,,53.32092000000000,12348,550,regulatory.services@conwy.gov.uk,Conwy,http://www.conwy.gov.uk,-3.84467300000000,LL30 2BB,2014-04-15,fhrs_4_en-GB,4,,FHRS,
467630,,Bettys Cafe,Pant yr Afon,Penmaenmawr,Bettys Cafe,Restaurant/Cafe/Canteen,1,5,,123900,5,,53.26587100000000,52321,550,regulatory.services@conwy.gov.uk,Conwy,http://www.conwy.gov.uk,-3.91280900000000,LL34 6NR,2014-09-25,fhrs_5_en-GB,5,,FHRS,5
467631,Gernant,Abergele Road,Betws Yn Rhos,Conwy,Betws Bakes & Cakes,Retailers - other,4613,0,,700869,5,,53.24831300000000,107695,550,regulatory.services@conwy.gov.uk,Conwy,http://www.conwy.gov.uk,-3.63758400000000,LL22 8AF,2014-08-13,fhrs_5_en-GB,5,,FHRS,0
467632,The Clubhouse,Ffordd Hen Eglwys,Betws Y Coed,,Betws y Coed Golf Club,Pub/bar/nightclub,7843,0,,40451,5,,53.09423000000000,101266,550,regulatory.services@conwy.gov.uk,Conwy,http://www.conwy.gov.uk,-3.79848700000000,LL24 0AL,2014-07-01,fhrs_4_en-GB,4,,FHRS,10
467633,Private Address,Private Address,Private Address,Private Address,Bev's Cakes,Retailers - other,4613,10,,700868,5,,,107674,550,regulatory.services@conwy.gov.uk,Conwy,http://www.conwy.gov.uk,,Private Ad,2014-08-18,fhrs_4_en-GB,4,,FHRS,5
467634,The Exchange,Bangor Road,Penmaenmawr,,Big Rock Cafe,Restaurant/Cafe/Canteen,1,5,,150579,5,,53.26808900000000,98612,550,regulatory.services@conwy.gov.uk,Conwy,http://www.conwy.gov.uk,-3.92242900000000,LL34 6DA,2013-04-15,fhrs_4_en-GB,4,,FHRS,10
467635,,24 Augusta Street,Llandudno,,Billy Macs Store,Retailers - other,4613,0,,654376,0,,53.32111900000000,12808,550,regulatory.services@conwy.gov.uk,Conwy,http://www.conwy.gov.uk,-3.82768500000000,LL30 2AD,2014-03-17,fhrs_5_en-GB,5,,FHRS,0
467636,,53 Overlea Avenue,Deganwy,Conwy,Birchwood Residental Care Home,Hospitals/Childcare/Caring Premises,5,5,,62657,0,,53.29162000000000,13848,550,regulatory.services@conwy.gov.uk,Conwy,http://www.conwy.gov.uk,-3.81907400000000,LL31 9TD,2011-11-22,fhrs_5_en-GB,5,,FHRS,0
467637,,160 Foryd Road,Kinmel Bay,Rhyl,Birds Shop & Taxi Office,Retailers - other,4613,,,481339,,,53.30845400000000,2573,550,regulatory.services@conwy.gov.uk,Conwy,http://www.conwy.gov.uk,-3.52580100000000,LL18 5LS,2014-05-07,fhrs_exempt_en-GB,Exempt,,FHRS,
467638,,5-5a St George's Place,Llandudno,Conwy,Bish Pots Pantri,Retailers - other,4613,10,,679858,5,,53.32470100000000,107685,550,regulatory.services@conwy.gov.uk,Conwy,http://www.conwy.gov.uk,-3.82979100000000,LL30 2NR,2014-06-04,fhrs_4_en-GB,4,,FHRS,5
467639,Bistro Betws Y Coed,Holyhead Road,Betws Y Coed,Conwy,Bistro Betws Y Coed,Hotel/bed & breakfast/guest house,7842,5,,636598,0,,53.09298500000000,102993,550,regulatory.services@conwy.gov.uk,Conwy,http://www.conwy.gov.uk,-3.80470800000000,LL24 0AY,2014-02-07,fhrs_4_en-GB,4,,FHRS,10
467640,Black Cat Garage,,Glan Conwy Corner,Colwyn Bay,Black Cat Garage,Retailers - other,4613,0,,636603,0,,53.27801700000000,1268,550,regulatory.services@conwy.gov.uk,Conwy,http://www.conwy.gov.uk,-3.79119800000000,LL28 5LE,2014-02-11,fhrs_5_en-GB,5,,FHRS,0
467641,The Black Cat,Sandbank Road,Towyn,Abergele,Black Cat Kiosk,Takeaway/sandwich shop,7844,0,,40901,0,,53.30341000000000,101849,550,regulatory.services@conwy.gov.uk,Conwy,http://www.conwy.gov.uk,-3.54191900000000,LL22 9LB,2012-07-26,fhrs_5_en-GB,5,,FHRS,0
467642,,25 Station Road,Llanrwst,,Blas Ar Fwyd,Retailers - other,4613,5,,61360,5,,53.13866800000000,1347,550,regulatory.services@conwy.gov.uk,Conwy,http://www.conwy.gov.uk,-3.79917700000000,LL26 0EP,2014-09-26,fhrs_4_en-GB,4,,FHRS,10
467643,Private Address,Private Address,Private Address,Private Address,Blas o'r Wlad,Mobile caterer,7846,0,,40533,0,,,101372,550,regulatory.services@conwy.gov.uk,Conwy,http://www.conwy.gov.uk,,Private Ad,2013-03-28,fhrs_5_en-GB,5,,FHRS,0
467644,Blind Veterans Uk,Queen's Road,Craig Y Don,Llandudno,Blind Veterans Uk,Hospitals/Childcare/Caring Premises,5,0,,40810,0,,53.31464400000000,101711,550,regulatory.services@conwy.gov.uk,Conwy,http://www.conwy.gov.uk,-3.80717300000000,LL30 1UT,2014-11-21,fhrs_5_en-GB,5,,FHRS,0
467645,,7 Princes Drive,Colwyn Bay,,Blockbuster Video Express,Retailers - other,4613,,,481342,,,53.29663000000000,4920,550,regulatory.services@conwy.gov.uk,Conwy,http://www.conwy.gov.uk,-3.72761800000000,LL29 8LA,2012-10-26,fhrs_exempt_en-GB,Exempt,,FHRS,
467646,Blue Bell Inn,Castle Street,Conwy,,Blue Bell,Pub/bar/nightclub,7843,10,,609100,10,,53.28116300000000,102955,550,regulatory.services@conwy.gov.uk,Conwy,http://www.conwy.gov.uk,-3.82794400000000,LL32 8AY,2014-12-18,fhrs_4_en-GB,4,,FHRS,0
467647,Canolfan Tan Y Fron,,Bylchau,Denbigh,Bobol Bach Day Nursery,Hospitals/Childcare/Caring Premises,5,10,,201637,10,,53.15462300000000,11961,550,regulatory.services@conwy.gov.uk,Conwy,http://www.conwy.gov.uk,-3.55831100000000,LL16 5LY,2013-10-23,fhrs_2_en-GB,2,,FHRS,15
467648,,Garage Rear Watling Street,,Llanrwst,Bobs Dairy,Distributors/Transporters,7,5,,609092,5,,53.13820800000000,102865,550,regulatory.services@conwy.gov.uk,Conwy,http://www.conwy.gov.uk,-3.79627300000000,LL26 0LS,2013-08-16,fhrs_5_en-GB,5,,FHRS,5
467649,Bodafon Hall Farm,Bodafon Road,Llandudno,,Bodafon Farm Park,Pub/bar/nightclub,7843,10,,230388,10,,53.31856700000000,16857,550,regulatory.services@conwy.gov.uk,Conwy,http://www.conwy.gov.uk,-3.79682900000000,LL30 3BB,2014-09-29,fhrs_3_en-GB,3,,FHRS,10
467650,Ysgol Bodlondeb,Town Ditch Road,Conwy,,Bodlondeb Youth & Community Centre,Other catering premises,7841,0,,707193,0,,53.28175200000000,38843,550,regulatory.services@conwy.gov.uk,Conwy,http://www.conwy.gov.uk,-3.83179500000000,LL32 8NU,2014-09-10,fhrs_5_en-GB,5,,FHRS,0
467651,Bodnant,Towyn Road,Towyn,Abergele,Bodnant Convenience Store,Retailers - other,4613,,,682095,,,53.30353700000000,100451,550,regulatory.services@conwy.gov.uk,Conwy,http://www.conwy.gov.uk,-3.53764600000000,LL22 9EN,2014-06-28,fhrs_exempt_en-GB,Exempt,,FHRS,
467652,Bodnant Farm Shop,,Tal Y Cafn,Colwyn Bay,Bodnant Farm Shop,Retailers - other,4613,0,,550501,0,,53.23455600000000,100102,550,regulatory.services@conwy.gov.uk,Conwy,http://www.conwy.gov.uk,-3.79919600000000,LL28 5RE,2013-03-24,fhrs_5_en-GB,5,,FHRS,0
467653,,39 St. Marys Road,Llandudno,,Bodnant Guest House,Hotel/bed & breakfast/guest house,7842,5,,409253,5,,53.32106700000000,12010,550,regulatory.services@conwy.gov.uk,Conwy,http://www.conwy.gov.uk,-3.83049100000000,LL30 2UE,2012-05-17,fhrs_5_en-GB,5,,FHRS,5
467654,Furnace Farm,,Tal Y Cafn,Colwyn Bay,Bodnant Welsh Food Farm Shop,Manufacturers/packers,7839,10,,442766,5,,53.23388100000000,85023,550,regulatory.services@conwy.gov.uk,Conwy,http://www.conwy.gov.uk,-3.80459200000000,LL28 5RP,2013-12-12,fhrs_4_en-GB,4,,FHRS,5
467655,Furnace Farm,,Tal Y Cafn,Colwyn Bay,Bodnant Welsh Food Restaurant,Restaurant/Cafe/Canteen,1,5,,442738,10,,53.23388100000000,102373,550,regulatory.services@conwy.gov.uk,Conwy,http://www.conwy.gov.uk,-3.80459200000000,LL28 5RP,2014-10-31,fhrs_4_en-GB,4,,FHRS,5
467656,Furnace Farm,,Tal Y Cafn,Colwyn Bay,Bodnant Welsh Food Tea Room,Restaurant/Cafe/Canteen,1,10,,442737,0,,53.23388100000000,102372,550,regulatory.services@conwy.gov.uk,Conwy,http://www.conwy.gov.uk,-3.80459200000000,LL28 5RP,2014-01-23,fhrs_4_en-GB,4,,FHRS,5
467657,Bodysgallen Hall & Spa,Pentywyn Road,Llandudno,,Bodysgallen Hall,Hotel/bed & breakfast/guest house,7842,,,338789,,,53.29847100000000,12110,550,regulatory.services@conwy.gov.uk,Conwy,http://www.conwy.gov.uk,-3.80661000000000,LL30 1RS,2014-08-20,fhrs_5_en-GB,5,,FHRS,
467658,,156 Foryd Road,Kinmel Bay,Rhyl,Bombay Buffet,Restaurant/Cafe/Canteen,1,5,,230354,5,,53.30845400000000,102119,550,regulatory.services@conwy.gov.uk,Conwy,http://www.conwy.gov.uk,-3.52580100000000,LL18 5LS,2013-10-17,fhrs_5_en-GB,5,,FHRS,0
467659,,13 Abergele Road,Colwyn Bay,,Bon Appetit,Takeaway/sandwich shop,7844,0,,230382,10,,53.29481100000000,55740,550,regulatory.services@conwy.gov.uk,Conwy,http://www.conwy.gov.uk,-3.72659900000000,LL29 7RS,2013-09-21,fhrs_4_en-GB,4,,FHRS,5
467660,Christ Church,Llewelyn Avenue,Llandudno,,Bonkerz,Other catering premises,7841,0,,40808,0,,53.32622400000000,101703,550,regulatory.services@conwy.gov.uk,Conwy,http://www.conwy.gov.uk,-3.83361000000000,LL30 2ER,2014-11-26,fhrs_5_en-GB,5,,FHRS,5
467661,,160 Conway Road,Llandudno Junction,,Boots the Chemist,Retailers - other,4613,,,583366,,,53.28371100000000,99142,550,regulatory.services@conwy.gov.uk,Conwy,http://www.conwy.gov.uk,-3.80471200000000,LL31 9DU,2013-07-05,fhrs_exempt_en-GB,Exempt,,FHRS,
467662,,7 Colwyn Avenue,Rhos On Sea,Colwyn Bay,Brambles,Restaurant/Cafe/Canteen,1,10,,148459,5,,53.30965800000000,93483,550,regulatory.services@conwy.gov.uk,Conwy,http://www.conwy.gov.uk,-3.74045300000000,LL28 4RB,2013-09-25,fhrs_4_en-GB,4,,FHRS,5
467663,,14 Llewelyn Avenue,Llandudno,,Branstone Guest House,Hotel/bed & breakfast/guest house,7842,0,,442742,0,,53.32622400000000,12355,550,regulatory.services@conwy.gov.uk,Conwy,http://www.conwy.gov.uk,-3.83361000000000,LL30 2ER,2014-02-01,fhrs_5_en-GB,5,,FHRS,0
467664,Bridge Hotel,Rose Hill Street,Conwy,,Bridge Pub,Pub/bar/nightclub,7843,5,,622227,5,,53.28026200000000,103057,550,regulatory.services@conwy.gov.uk,Conwy,http://www.conwy.gov.uk,-3.82753100000000,LL32 8LD,2013-12-19,fhrs_5_en-GB,5,,FHRS,5
467665,Bridge View,Ffordd Hen Eglwys,Betws Y Coed,,Bridge View Bed & Breakfast,Hotel/bed & breakfast/guest house,7842,10,,492289,0,,53.09423000000000,98605,550,regulatory.services@conwy.gov.uk,Conwy,http://www.conwy.gov.uk,-3.79848700000000,LL24 0AL,2012-11-09,fhrs_4_en-GB,4,,FHRS,0
467666,Brig Y Don Hotel,Gloddaeth Crescent,Llandudno,,Brig y Don Hotel,Hotel/bed & breakfast/guest house,7842,5,,62075,0,,53.32346700000000,13686,550,regulatory.services@conwy.gov.uk,Conwy,http://www.conwy.gov.uk,-3.82523300000000,LL30 2XS,2013-10-18,fhrs_4_en-GB,4,,FHRS,10
467667,Brigadoon,24-26 Bryniau Road,Llandudno,,Brigadoon Care Home,Hospitals/Childcare/Caring Premises,5,5,,550527,5,,53.31681500000000,12059,550,regulatory.services@conwy.gov.uk,Conwy,http://www.conwy.gov.uk,-3.83862600000000,LL30 2EZ,2014-11-20,fhrs_5_en-GB,5,,FHRS,5
467668,,1 St. Davids Place,Llandudno,,Brigstock House,Hotel/bed & breakfast/guest house,7842,5,,442748,5,,53.32076400000000,13598,550,regulatory.services@conwy.gov.uk,Conwy,http://www.conwy.gov.uk,-3.83209900000000,LL30 2UG,2014-03-05,fhrs_5_en-GB,5,,FHRS,0
467669,,15 Craig Y Don Parade,Llandudno,,Britannia Hotel,Hotel/bed & breakfast/guest house,7842,0,,55158,0,,53.32186300000000,12444,550,regulatory.services@conwy.gov.uk,Conwy,http://www.conwy.gov.uk,-3.80956500000000,LL30 1BG,2014-03-12,fhrs_5_en-GB,5,,FHRS,5
467670,Unit 10,Parc Llandudno,,Llandudno,British Home Stores,Restaurant/Cafe/Canteen,1,5,,128614,5,,53.31847700000000,58718,550,regulatory.services@conwy.gov.uk,Conwy,http://www.conwy.gov.uk,-3.82407400000000,LL30 1PJ,2014-08-13,fhrs_5_en-GB,5,,FHRS,5
467671,Broadway Hotel,Mostyn Broadway,Llandudno,,Broadway Hotel,Hotel/bed & breakfast/guest house,7842,5,,52869,5,,53.32225400000000,11970,550,regulatory.services@conwy.gov.uk,Conwy,http://www.conwy.gov.uk,-3.82282400000000,LL30 1YL,2014-03-13,fhrs_4_en-GB,4,,FHRS,10
467672,,54 Rhos Road,Rhos On Sea,Colwyn Bay,Brompton Lodge Res. Home,Hospitals/Childcare/Caring Premises,5,5,,83846,5,,53.30770200000000,2066,550,regulatory.services@conwy.gov.uk,Conwy,http://www.conwy.gov.uk,-3.74634700000000,LL28 4RY,2014-03-25,fhrs_5_en-GB,5,,FHRS,5
467673,,6 Craig Y Don Parade,Llandudno,,Bromwell Court Hotel,Hotel/bed & breakfast/guest house,7842,10,,442746,0,,53.32186300000000,13460,550,regulatory.services@conwy.gov.uk,Conwy,http://www.conwy.gov.uk,-3.80956500000000,LL30 1BG,2014-03-10,fhrs_4_en-GB,4,,FHRS,5
467674,Bron Celyn Guest House,Betws y Coed,,,Bron Celyn Guest House,Hotel/bed & breakfast/guest house,7842,0,,550529,0,,53.09284200000000,12800,550,regulatory.services@conwy.gov.uk,Conwy,http://www.conwy.gov.uk,-3.79276900000000,LL24 0HD,2013-04-24,fhrs_5_en-GB,5,,FHRS,0
467675,Bron Eryri,,Capel Curig,Betws y Coed,Bron Eryri Guest House,Hotel/bed & breakfast/guest house,7842,5,,550538,0,,53.09871200000000,13623,550,regulatory.services@conwy.gov.uk,Conwy,http://www.conwy.gov.uk,-3.89434300000000,LL24 0EE,2013-04-13,fhrs_5_en-GB,5,,FHRS,0
467676,Bron Eryri Hotel,Bangor Road,Penmaenmawr,,Bron Eryri Hotel,Pub/bar/nightclub,7843,5,,550535,0,,53.26837600000000,13494,550,regulatory.services@conwy.gov.uk,Conwy,http://www.conwy.gov.uk,-3.92355200000000,LL34 6AF,2013-04-13,fhrs_5_en-GB,5,,FHRS,0
467677,,54 Church Walks,Llandudno,,Bron Orme Hotel,Hotel/bed & breakfast/guest house,7842,0,,52771,0,,53.32564600000000,11947,550,regulatory.services@conwy.gov.uk,Conwy,http://www.conwy.gov.uk,-3.83846500000000,LL30 2HL,2014-03-13,fhrs_5_en-GB,5,,FHRS,0
467678,Bron Afallon,,Cerrigydrudion,Corwen,Bronafallen Residential Home,Hospitals/Childcare/Caring Premises,5,5,,79405,5,,53.03245800000000,1908,550,regulatory.services@conwy.gov.uk,Conwy,http://www.conwy.gov.uk,-3.58559200000000,LL21 0RU,2014-10-21,fhrs_4_en-GB,4,,FHRS,10
467679,Browns Holiday Camp,Towyn Road,Towyn,Abergele,Brown's Camp Club,Pub/bar/nightclub,7843,0,,684053,0,,53.30179000000000,3926,550,regulatory.services@conwy.gov.uk,Conwy,http://www.conwy.gov.uk,-3.54066000000000,LL22 9HD,2014-07-10,fhrs_5_en-GB,5,,FHRS,0
467680,Bryn Aber Care Home,Llanfair Road,Abergele,,Bryn Aber Care Home,Hospitals/Childcare/Caring Premises,5,10,,90428,0,,53.27798900000000,2462,550,regulatory.services@conwy.gov.uk,Conwy,http://www.conwy.gov.uk,-3.58497900000000,LL22 8DH,2014-06-13,fhrs_4_en-GB,4,,FHRS,5
467681,Bryn Afon,,Betws Y Coed,,Bryn Afon,Hotel/bed & breakfast/guest house,7842,5,,338779,5,,53.09428900000000,102228,550,regulatory.services@conwy.gov.uk,Conwy,http://www.conwy.gov.uk,-3.80473200000000,LL24 0BB,2012-04-17,fhrs_5_en-GB,5,,FHRS,5
467682,Bryn Arthur,Tabor Hill,Llandudno,,Bryn Arthur,Restaurant/Cafe/Canteen,1,0,,201628,0,,53.32844300000000,101214,550,regulatory.services@conwy.gov.uk,Conwy,http://www.conwy.gov.uk,-3.83726400000000,LL30 2QW,2014-03-15,fhrs_5_en-GB,5,,FHRS,0
467683,Bryn Bella,Betws y Coed,,,Bryn Bella Guest House,Hotel/bed & breakfast/guest house,7842,5,,536226,5,,53.09284200000000,13889,550,regulatory.services@conwy.gov.uk,Conwy,http://www.conwy.gov.uk,-3.79276900000000,LL24 0HD,2013-02-13,fhrs_5_en-GB,5,,FHRS,5
467684,Bryn Castell Day Care Centre,Cae Ffynnon Road,Llanfairfechan,,Bryn Castell Day Care Centre,Hospitals/Childcare/Caring Premises,5,,,550544,,,53.25188200000000,1666,550,regulatory.services@conwy.gov.uk,Conwy,http://www.conwy.gov.uk,-3.97829000000000,LL33 0HP,2013-04-22,fhrs_exempt_en-GB,Exempt,,FHRS,
467685,Bryn Cocyn,,Cefn Berain,Llannefydd,Bryn Cocyn Organic Farm,Retailers - other,4613,0,,654382,0,,53.20513500000000,16098,550,regulatory.services@conwy.gov.uk,Conwy,http://www.conwy.gov.uk,-3.51531400000000,LL16 5DH,2014-03-11,fhrs_5_en-GB,5,,FHRS,0
467686,,34 Abbey Road,Llandudno,,Bryn Derwen Guest House,Hotel/bed & breakfast/guest house,7842,0,,409254,0,,53.32462000000000,12122,550,regulatory.services@conwy.gov.uk,Conwy,http://www.conwy.gov.uk,-3.83735500000000,LL30 2EE,2014-03-13,fhrs_5_en-GB,5,,FHRS,0
467687,Bryn Eithin Nursing Home,30 Llanrwst Road,Colwyn Bay,Conwy,Bryn Eithin Hall,Hospitals/Childcare/Caring Premises,5,5,,82667,0,,53.29778800000000,2008,550,regulatory.services@conwy.gov.uk,Conwy,http://www.conwy.gov.uk,-3.74930300000000,LL29 7YU,2014-11-24,fhrs_5_en-GB,5,,FHRS,0
467688,Bryn Glo,,Capel Curig,Betws y Coed,Bryn Glo Cafe,Restaurant/Cafe/Canteen,1,5,,61528,5,,53.09598200000000,13518,550,regulatory.services@conwy.gov.uk,Conwy,http://www.conwy.gov.uk,-3.88853300000000,LL24 0DT,2014-08-08,fhrs_5_en-GB,5,,FHRS,5
467689,Bryn,Sychnant Pass Road,Conwy,,Bryn Guesthouse,Hotel/bed & breakfast/guest house,7842,0,,656814,0,,53.27987900000000,55967,550,regulatory.services@conwy.gov.uk,Conwy,http://www.conwy.gov.uk,-3.83489500000000,LL32 8NS,2014-04-10,fhrs_5_en-GB,5,,FHRS,0
467690,Colwyn Bay Community Hospital,Hesketh Road,Old Colwyn,Colwyn Bay,Bryn Hesketh EMI Unit,Hospitals/Childcare/Caring Premises,5,10,,52845,10,,53.28824700000000,11962,550,regulatory.services@conwy.gov.uk,Conwy,http://www.conwy.gov.uk,-3.71047700000000,LL29 8AY,2014-02-18,fhrs_4_en-GB,4,,FHRS,0
467691,,9 Grosvenor Road,Colwyn Bay,,Bryn Holcombe,Hotel/bed & breakfast/guest house,7842,0,,550549,0,,53.29858500000000,2295,550,regulatory.services@conwy.gov.uk,Conwy,http://www.conwy.gov.uk,-3.73910200000000,LL29 7YF,2013-04-11,fhrs_5_en-GB,5,,FHRS,0
467692,Bryn Llewelyn Guest House,Holyhead Road,Betws y Coed,,Bryn Llewelyn Guest House,Hotel/bed & breakfast/guest house,7842,0,,550562,0,,53.09338000000000,58227,550,regulatory.services@conwy.gov.uk,Conwy,http://www.conwy.gov.uk,-3.81007100000000,LL24 0BN,2014-10-23,fhrs_5_en-GB,5,,FHRS,0
467693,Bryn Marl Nursing Home,Marl Drive,Llandudno Junction,Conwy,Bryn Marl Nursing Home,Hospitals/Childcare/Caring Premises,5,10,,62647,5,,53.28713600000000,13843,550,regulatory.services@conwy.gov.uk,Conwy,http://www.conwy.gov.uk,-3.80292100000000,LL31 9YX,2014-03-07,fhrs_4_en-GB,4,,FHRS,5
467694,Bryn Morfa Caravan Park,Bangor Road,Conwy,,Bryn Morfa Caravan Park,Pub/bar/nightclub,7843,5,,338828,5,,53.28601300000000,14474,550,regulatory.services@conwy.gov.uk,Conwy,http://www.conwy.gov.uk,-3.84922900000000,LL32 8DW,2013-09-27,fhrs_5_en-GB,5,,FHRS,5
467695,Bryn Rosa,16 Abbey Road,Llandudno,,Bryn Rosa Guest House,Hotel/bed & breakfast/guest house,7842,5,,516977,5,,53.32546100000000,13064,550,regulatory.services@conwy.gov.uk,Conwy,http://www.conwy.gov.uk,-3.83533400000000,LL30 2EA,2013-01-18,fhrs_5_en-GB,5,,FHRS,5
467696,Bryntyrch Hotel,,Capel Curig,Betws y Coed,Bryn Tyrch Inn,Hotel/bed & breakfast/guest house,7842,5,,58602,5,,53.10305200000000,13006,550,regulatory.services@conwy.gov.uk,Conwy,http://www.conwy.gov.uk,-3.90859100000000,LL24 0EL,2014-04-03,fhrs_5_en-GB,5,,FHRS,5
467697,,14 Woodland Road East,Colwyn Bay,,Bryn Woodlands House,Hotel/bed & breakfast/guest house,7842,10,,492277,0,,53.29381400000000,2431,550,regulatory.services@conwy.gov.uk,Conwy,http://www.conwy.gov.uk,-3.72836000000000,LL29 7DT,2014-08-28,fhrs_4_en-GB,4,,FHRS,10
467698,Bryn Y Mor Hotel,25 North Parade,Llandudno,Conwy,Bryn Y Mor Hotel,Hotel/bed & breakfast/guest house,7842,10,,609084,5,,53.32699500000000,102721,550,regulatory.services@conwy.gov.uk,Conwy,http://www.conwy.gov.uk,-3.83140500000000,LL30 2LP,2013-09-30,fhrs_4_en-GB,4,,FHRS,5
467699,Bryn y Neuadd Hospital,Aber Road,Llanfairfechan,,Bryn Y Neuadd Hospital (BCUHB),Hospitals/Childcare/Caring Premises,5,5,,62362,5,,53.25187600000000,13771,550,regulatory.services@conwy.gov.uk,Conwy,http://www.conwy.gov.uk,-3.98515600000000,LL33 0HH,2013-10-24,fhrs_4_en-GB,4,,FHRS,10
467700,Brynaber,,Cerrigydrudion,Conwy,Brynaber Post Office and Stores,Retailers - other,4613,,,565621,,,53.02346700000000,2536,550,regulatory.services@conwy.gov.uk,Conwy,http://www.conwy.gov.uk,-3.56049600000000,LL21 9SU,2013-05-07,fhrs_exempt_en-GB,Exempt,,FHRS,
467701,,The Old Goods Yard,Betws Y Coed,,Buffet Coach Cafe,Restaurant/Cafe/Canteen,1,5,,609099,5,,53.09423000000000,102942,550,regulatory.services@conwy.gov.uk,Conwy,http://www.conwy.gov.uk,-3.79848700000000,LL24 0AL,2013-10-25,fhrs_5_en-GB,5,,FHRS,5
467702,Bunkers,Conwy Old Road,Penmaenmawr,,Bunkers Bistro,Restaurant/Cafe/Canteen,1,5,,230373,5,,53.27150500000000,12664,550,regulatory.services@conwy.gov.uk,Conwy,http://www.conwy.gov.uk,-3.88867400000000,LL34 6SP,2013-08-15,fhrs_5_en-GB,5,,FHRS,5
467703,,74 Church Walks,Llandudno,,Burleigh House Hotel,Hotel/bed & breakfast/guest house,7842,0,,61190,0,,53.32762900000000,13410,550,regulatory.services@conwy.gov.uk,Conwy,http://www.conwy.gov.uk,-3.83228900000000,LL30 2HD,2011-11-23,fhrs_5_en-GB,5,,FHRS,0
467704,Deva,Marl Lane,Deganwy,Conwy,Butterflies,Hospitals/Childcare/Caring Premises,5,5,,201643,0,,53.29437500000000,56195,550,regulatory.services@conwy.gov.uk,Conwy,http://www.conwy.gov.uk,-3.81404400000000,LL31 9AJ,2014-10-31,fhrs_4_en-GB,4,,FHRS,10
467705,Private Address,Private Address,Private Address,Private Address,Butterfly Cakes,Other catering premises,7841,0,,201651,0,,,53990,550,regulatory.services@conwy.gov.uk,Conwy,http://www.conwy.gov.uk,,Private Ad,2012-01-19,fhrs_5_en-GB,5,,FHRS,0
467706,North Wales Garden World,St. Asaph Avenue,Kinmel Bay,Rhyl,Butterfly's Tea Room,Restaurant/Cafe/Canteen,1,5,,201644,0,,53.29612100000000,4705,550,regulatory.services@conwy.gov.uk,Conwy,http://www.conwy.gov.uk,-3.51514300000000,LL18 5TU,2014-04-22,fhrs_5_en-GB,5,,FHRS,0
467707,,12 Rosebery Avenue,Llandudno,,Buxton House,Hotel/bed & breakfast/guest house,7842,,,609125,,,53.31981800000000,63287,550,regulatory.services@conwy.gov.uk,Conwy,http://www.conwy.gov.uk,-3.80982400000000,LL30 1TF,2014-03-06,fhrs_5_en-GB,5,,FHRS,
467708,Caban Y Pair,Holyhead Road,Betws Y Coed,,Caban Y Pair,Restaurant/Cafe/Canteen,1,10,,65566,5,,53.09107700000000,1474,550,regulatory.services@conwy.gov.uk,Conwy,http://www.conwy.gov.uk,-3.80132700000000,LL24 0AB,2014-09-22,fhrs_4_en-GB,4,,FHRS,5
467709,,38 Lloyd Street,Llandudno,,Cadnant Guest House,Hotel/bed & breakfast/guest house,7842,10,,609106,0,,53.32239800000000,12117,550,regulatory.services@conwy.gov.uk,Conwy,http://www.conwy.gov.uk,-3.83397100000000,LL30 2YG,2013-10-28,fhrs_4_en-GB,4,,FHRS,0
467710,Cadwaladers Ice Cream,Station Approach,Betws Y Coed,,Cadwaladers Ice Cream,Restaurant/Cafe/Canteen,1,5,,72967,5,,53.09107700000000,1668,550,regulatory.services@conwy.gov.uk,Conwy,http://www.conwy.gov.uk,-3.80132700000000,LL24 0AB,2011-11-25,fhrs_5_en-GB,5,,FHRS,5
467711,,364 Abergele Road,Old Colwyn,Colwyn Bay,Cadwgan Bakery,Takeaway/sandwich shop,7844,10,,93322,0,,53.28884200000000,2676,550,regulatory.services@conwy.gov.uk,Conwy,http://www.conwy.gov.uk,-3.69711900000000,LL29 9LU,2014-02-28,fhrs_4_en-GB,4,,FHRS,5
467712,,6 Penrhyn Crescent,Llandudno,,Cae Mor Hotel,Hotel/bed & breakfast/guest house,7842,5,,61201,0,,53.32211300000000,13415,550,regulatory.services@conwy.gov.uk,Conwy,http://www.conwy.gov.uk,-3.81850900000000,LL30 1BA,2015-01-23,fhrs_5_en-GB,5,,FHRS,5
467713,Caerhun Hall,,Conwy,,Caer Rhun Hall,School/college/university,7845,5,,679862,5,,,12616,550,regulatory.services@conwy.gov.uk,Conwy,http://www.conwy.gov.uk,,LL32 8HX,2014-11-14,fhrs_5_en-GB,5,,FHRS,5
467714,Caerlyr Hall Hotel,Conwy Old Road,Dwygyfylchi,Penmaenmawr,Caerlyr Hall,Hotel/bed & breakfast/guest house,7842,0,,619788,0,,53.27196300000000,13580,550,regulatory.services@conwy.gov.uk,Conwy,http://www.conwy.gov.uk,-3.89383900000000,LL34 6SW,2013-11-29,fhrs_5_en-GB,5,,FHRS,0
467715,,2 Lancaster Square,Conwy,,Cafe Culture,Restaurant/Cafe/Canteen,1,5,,449766,5,,53.28056900000000,102385,550,regulatory.services@conwy.gov.uk,Conwy,http://www.conwy.gov.uk,-3.83094900000000,LL32 8HT,2014-03-19,fhrs_4_en-GB,4,,FHRS,10
467716,,79 Mostyn Street,Llandudno,,Cafe Culture,Restaurant/Cafe/Canteen,1,10,,128178,10,,53.32394300000000,58000,550,regulatory.services@conwy.gov.uk,Conwy,http://www.conwy.gov.uk,-3.82881200000000,LL30 2NN,2013-09-18,fhrs_3_en-GB,3,,FHRS,10
467717,,56 Mostyn Street,Llandudno,,Cafe Express,Restaurant/Cafe/Canteen,1,5,,55944,0,,53.32341500000000,12631,550,regulatory.services@conwy.gov.uk,Conwy,http://www.conwy.gov.uk,-3.82919500000000,LL30 2RP,2014-09-26,fhrs_5_en-GB,5,,FHRS,5
467718,,8 Gloddaeth Street,Llandudno,,Cafe Orient Express,Restaurant/Cafe/Canteen,1,10,,125824,15,,53.32565000000000,54400,550,regulatory.services@conwy.gov.uk,Conwy,http://www.conwy.gov.uk,-3.83235400000000,LL30 2DS,2014-03-24,fhrs_2_en-GB,2,,FHRS,10
467719,Unit 37,"Victoria Centre, Mostyn Street",Llandudno,,Cafe W,Restaurant/Cafe/Canteen,1,5,,550513,5,,53.32341500000000,102615,550,regulatory.services@conwy.gov.uk,Conwy,http://www.conwy.gov.uk,-3.82919500000000,LL30 2NG,2013-03-04,fhrs_5_en-GB,5,,FHRS,5
467720,,81-83a Mostyn Street,Llandudno,,Caffe Nero,Restaurant/Cafe/Canteen,1,5,,338770,0,,53.32497700000000,102154,550,regulatory.services@conwy.gov.uk,Conwy,http://www.conwy.gov.uk,-3.83052300000000,LL30 2PD,2015-01-24,fhrs_5_en-GB,5,,FHRS,5
467721,Coach Park,Mostyn Broadway,Llandudno,,Caffi Cais,Restaurant/Cafe/Canteen,1,10,,40542,10,,53.32225400000000,101380,550,regulatory.services@conwy.gov.uk,Conwy,http://www.conwy.gov.uk,-3.82282400000000,LL30 1YL,2014-07-29,fhrs_3_en-GB,3,,FHRS,10
467722,The Woodland,Llanrwst Road,Betws Y Coed,,Caffi Coed,Restaurant/Cafe/Canteen,1,5,,150624,5,,53.09300000000000,98799,550,regulatory.services@conwy.gov.uk,Conwy,http://www.conwy.gov.uk,-3.79482200000000,LL24 0HA,2014-10-21,fhrs_4_en-GB,4,,FHRS,10
467723,Sheffield House,Ancaster Square,Llanrwst,Conwy,Caffi Contessa,Restaurant/Cafe/Canteen,1,20,,125250,10,,53.13804900000000,53761,550,regulatory.services@conwy.gov.uk,Conwy,http://www.conwy.gov.uk,-3.79788100000000,LL26 0LG,2014-09-22,fhrs_1_en-GB,1,,FHRS,10
467724,Betws Y Coed Garden Nursery,,Betws Y Coed,Conwy,Caffi Cristobal,Restaurant/Cafe/Canteen,1,5,,682096,0,,53.09107700000000,102974,550,regulatory.services@conwy.gov.uk,Conwy,http://www.conwy.gov.uk,-3.80132700000000,LL24 0AB,2014-07-01,fhrs_5_en-GB,5,,FHRS,5
467725,Tanllan Cafe,Cerrigydrudion,Corwen,,Caffi Ty Tan Llan,Restaurant/Cafe/Canteen,1,5,,338842,0,,53.02475700000000,2532,550,regulatory.services@conwy.gov.uk,Conwy,http://www.conwy.gov.uk,-3.56158700000000,LL21 9ST,2015-01-13,fhrs_5_en-GB,5,,FHRS,0
467726,Tir Prince Leisure Park,Towyn Road,Towyn,Conwy,Cake Stall,Takeaway/sandwich shop,7844,10,,689263,0,,53.30312400000000,107841,550,regulatory.services@conwy.gov.uk,Conwy,http://www.conwy.gov.uk,-3.53689600000000,LL22 9NW,2014-10-10,fhrs_4_en-GB,4,,FHRS,10
467727,Private Address,Private Address,Private Address,Private Address,Cakemonsterrr,Other catering premises,7841,5,,619777,5,,,102885,550,regulatory.services@conwy.gov.uk,Conwy,http://www.conwy.gov.uk,,Private Ad,2013-11-13,fhrs_5_en-GB,5,,FHRS,5
467728,,62 Abergele Road,Colwyn Bay,,Cakes by Clair,Retailers - other,4613,5,,550514,10,,53.29245100000000,102616,550,regulatory.services@conwy.gov.uk,Conwy,http://www.conwy.gov.uk,-3.72315800000000,LL29 7PP,2014-02-14,fhrs_4_en-GB,4,,FHRS,5
467729,Private Address,Private Address,Private Address,Private Address,Cakes for Precious Moments,Other catering premises,7841,0,,619768,0,,,102552,550,regulatory.services@conwy.gov.uk,Conwy,http://www.conwy.gov.uk,,Private Ad,2013-11-16,fhrs_5_en-GB,5,,FHRS,0
467730,Cambria Caravan Park,Gaingc Road,Towyn,Abergele,Cambria Club,Pub/bar/nightclub,7843,0,,682101,5,,53.30050800000000,25972,550,regulatory.services@conwy.gov.uk,Conwy,http://www.conwy.gov.uk,-3.55080300000000,LL22 9HR,2014-06-25,fhrs_5_en-GB,5,,FHRS,0
467731,Cambridge Restaurant,107 Mostyn Street,Llandudno,Conwy,Cambridge Mostyn,Restaurant/Cafe/Canteen,1,5,,583333,0,,53.32497700000000,102723,550,regulatory.services@conwy.gov.uk,Conwy,http://www.conwy.gov.uk,-3.83052300000000,LL30 2PD,2015-01-23,fhrs_5_en-GB,5,,FHRS,5
467732,,29 Lloyd Street,Llandudno,,Candles,Restaurant/Cafe/Canteen,1,5,,338805,0,,53.32334200000000,13035,550,regulatory.services@conwy.gov.uk,Conwy,http://www.conwy.gov.uk,-3.83221000000000,LL30 2YA,2014-01-17,fhrs_5_en-GB,5,,FHRS,5
467733,Canolfan Dewi Sant Centre,South Parade,Pensarn,,Canolfan Dewi Sant Centre,Other catering premises,7841,,,40417,,,53.29334400000000,101219,550,regulatory.services@conwy.gov.uk,Conwy,http://www.conwy.gov.uk,-3.58022100000000,LL22 7RG,2011-03-24,fhrs_exempt_en-GB,Exempt,,FHRS,
467734,Maen Alaw,Bangor Road,Penmaenmawr,,Canolfan Maen Alaw,Other catering premises,7841,,,550547,,,53.26767800000000,18189,550,regulatory.services@conwy.gov.uk,Conwy,http://www.conwy.gov.uk,-3.92785400000000,LL34 6LE,2013-04-22,fhrs_exempt_en-GB,Exempt,,FHRS,
467735,,2/4 Coed Pella Road,Colwyn Bay,,Canteen,Restaurant/Cafe/Canteen,1,0,,536237,5,,53.29552400000000,8309,550,regulatory.services@conwy.gov.uk,Conwy,http://www.conwy.gov.uk,-3.73013900000000,LL29 8LR,2013-02-15,fhrs_5_en-GB,5,,FHRS,0
467736,,10 Mostyn Crescent,Llandudno,,Can-y-Bae,Hotel/bed & breakfast/guest house,7842,0,,62007,0,,53.32275800000000,13665,550,regulatory.services@conwy.gov.uk,Conwy,http://www.conwy.gov.uk,-3.82220000000000,LL30 1AR,2013-03-21,fhrs_5_en-GB,5,,FHRS,0
467737,The Old School House,Capel Curig,Betws Y Coed,,Capel Curig Community Centre,Other catering premises,7841,,,87415,,,53.09871200000000,22585,550,regulatory.services@conwy.gov.uk,Conwy,http://www.conwy.gov.uk,-3.89434300000000,LL24 0EE,2011-08-11,fhrs_exempt_en-GB,Exempt,,FHRS,
467738,Army Training Camp,,Capel Curig,Betws y Coed,Capel Curig Training Camp,Restaurant/Cafe/Canteen,1,0,,58710,5,,53.10123300000000,13014,550,regulatory.services@conwy.gov.uk,Conwy,http://www.conwy.gov.uk,-3.86912000000000,LL24 0DS,2014-06-05,fhrs_5_en-GB,5,,FHRS,0
467739,,70 Church Walks,Llandudno,,Capri Guest House,Hotel/bed & breakfast/guest house,7842,0,,442749,0,,53.32710300000000,13621,550,regulatory.services@conwy.gov.uk,Conwy,http://www.conwy.gov.uk,-3.83492400000000,LL30 2HG,2014-06-27,fhrs_5_en-GB,5,,FHRS,0
467740,Private Address,Private Address,Private Address,Private Address,Caramels Cupcakes,Other catering premises,7841,10,,550516,5,,,102626,550,regulatory.services@conwy.gov.uk,Conwy,http://www.conwy.gov.uk,,Private Ad,2013-04-30,fhrs_4_en-GB,4,,FHRS,5
467741,Private Address,Private Address,Private Address,Private Address,Cariad Bach Cupcakes,Other catering premises,7841,5,,619770,5,,,102719,550,regulatory.services@conwy.gov.uk,Conwy,http://www.conwy.gov.uk,,Private Ad,2013-11-19,fhrs_5_en-GB,5,,FHRS,5
467742,,2 Pleasant Street,Craig Y Don,Llandudno,Carlo's,Restaurant/Cafe/Canteen,1,5,,338815,0,,53.32120100000000,1380,550,regulatory.services@conwy.gov.uk,Conwy,http://www.conwy.gov.uk,-3.81228400000000,LL30 1LJ,2014-01-22,fhrs_5_en-GB,5,,FHRS,5
467743,,17 Craig Y Don Parade,Llandudno,,Carmel Hotel,Hotel/bed & breakfast/guest house,7842,5,,338809,5,,53.32186300000000,13378,550,regulatory.services@conwy.gov.uk,Conwy,http://www.conwy.gov.uk,-3.80956500000000,LL30 1BG,2014-03-20,fhrs_5_en-GB,5,,FHRS,0
467744,4-6 Victoria Buildings,Mostyn Avenue,Llandudno,,Carmens Asian Mini Market,Retailers - other,4613,5,,633314,5,,53.32058100000000,99324,550,regulatory.services@conwy.gov.uk,Conwy,http://www.conwy.gov.uk,-3.81051600000000,LL30 1YU,2014-01-20,fhrs_5_en-GB,5,,FHRS,0
467745,Cartref Y Borth,Betws Road,Llanrwst,,Cartref Y Borth Nursing Home,Hospitals/Childcare/Caring Premises,5,0,,60867,0,,53.13602300000000,13318,550,regulatory.services@conwy.gov.uk,Conwy,http://www.conwy.gov.uk,-3.79510500000000,LL26 0HE,2014-02-11,fhrs_5_en-GB,5,,FHRS,5
467746,Cartrefle,Betws Road,Llanrwst,,Cartrefle Care Home,Hospitals/Childcare/Caring Premises,5,0,,55489,5,,53.13412000000000,12519,550,regulatory.services@conwy.gov.uk,Conwy,http://www.conwy.gov.uk,-3.79136300000000,LL26 0HG,2014-08-05,fhrs_5_en-GB,5,,FHRS,0
467747,Sheffield House,Bangor Road,Penmaenmawr,,Casablanca Takeaway,Takeaway/sandwich shop,7844,10,,146361,5,,53.26808900000000,89017,550,regulatory.services@conwy.gov.uk,Conwy,http://www.conwy.gov.uk,-3.92242900000000,LL34 6DA,2014-09-25,fhrs_4_en-GB,4,,FHRS,5
467748,Casanova,18 Chapel Street,Llandudno,,Casanova Italian Restaurant Ltd,Restaurant/Cafe/Canteen,1,0,,53397,0,,53.32437400000000,1203,550,regulatory.services@conwy.gov.uk,Conwy,http://www.conwy.gov.uk,-3.83232900000000,LL30 2SY,2014-06-26,fhrs_5_en-GB,5,,FHRS,5
467749,Castle Bank Hotel,Mount Pleasant,Conwy,,Castle Bank Hotel,Hotel/bed & breakfast/guest house,7842,10,,62578,10,,53.28051000000000,13820,550,regulatory.services@conwy.gov.uk,Conwy,http://www.conwy.gov.uk,-3.83364700000000,LL32 8NY,2014-09-19,fhrs_3_en-GB,3,,FHRS,5
467750,Castle Cove Caravan Park,Promenade,Abergele,,Castle Cove,Takeaway/sandwich shop,7844,0,,39887,0,,53.29410000000000,100433,550,regulatory.services@conwy.gov.uk,Conwy,http://www.conwy.gov.uk,-3.58625000000000,LL22 7PP,2014-03-28,fhrs_5_en-GB,5,,FHRS,0
467751,,5 Rose Hill Street,Conwy,,Castle Gallery Tea Rooms & Gift Shop,Restaurant/Cafe/Canteen,1,10,,338816,0,,53.28026200000000,13822,550,regulatory.services@conwy.gov.uk,Conwy,http://www.conwy.gov.uk,-3.82753100000000,LL32 8LD,2013-12-17,fhrs_4_en-GB,4,,FHRS,0
467752,Castle Hotel,High Street,Conwy,,Castle Hotel,Hotel/bed & breakfast/guest house,7842,0,,338792,0,,53.28146700000000,12134,550,regulatory.services@conwy.gov.uk,Conwy,http://www.conwy.gov.uk,-3.82869200000000,LL32 8DB,2014-01-31,fhrs_5_en-GB,5,,FHRS,5
467753,,27 Castle Street,Conwy,,Castle Tea Gardens,Restaurant/Cafe/Canteen,1,0,,64799,0,,53.28116300000000,14478,550,regulatory.services@conwy.gov.uk,Conwy,http://www.conwy.gov.uk,-3.82794400000000,LL32 8AY,2013-03-22,fhrs_5_en-GB,5,,FHRS,0
467754,Abergele Golf Club Ltd,Tan Y Gopa,Abergele,,Castle View,Other catering premises,7841,5,,550521,5,,53.28112800000000,102639,550,regulatory.services@conwy.gov.uk,Conwy,http://www.conwy.gov.uk,-3.59628500000000,LL22 8DS,2014-10-28,fhrs_5_en-GB,5,,FHRS,0
467755,Castle View,Pentywyn Road,Deganwy,Conwy,Castle View,Pub/bar/nightclub,7843,0,,656811,0,,53.29039900000000,12236,550,regulatory.services@conwy.gov.uk,Conwy,http://www.conwy.gov.uk,-3.82247300000000,LL31 9TH,2014-04-10,fhrs_5_en-GB,5,,FHRS,0
467756,,69 Rhos Promenade,Rhos On Sea,Colwyn Bay,Cayley Arms Public House,Pub/bar/nightclub,7843,10,,85340,5,,53.30806200000000,2145,550,regulatory.services@conwy.gov.uk,Conwy,http://www.conwy.gov.uk,-3.73960700000000,LL28 4EN,2014-07-29,fhrs_3_en-GB,3,,FHRS,10
467757,Private Address,Private Address,Private Address,Private Address,Cegin Minfordd,Other catering premises,7841,0,,565626,0,,,50649,550,regulatory.services@conwy.gov.uk,Conwy,http://www.conwy.gov.uk,,Private Ad,2013-05-03,fhrs_5_en-GB,5,,FHRS,0
467758,Private Address,Private Address,Private Address,Private Address,Celtalan,Other catering premises,7841,0,,338871,0,,,68135,550,regulatory.services@conwy.gov.uk,Conwy,http://www.conwy.gov.uk,,Private Ad,2012-03-23,fhrs_5_en-GB,5,,FHRS,0
467759,Private Address,Private Address,Private Address,Private Address,Celtic Catering,Other catering premises,7841,0,,583363,5,,,82980,550,regulatory.services@conwy.gov.uk,Conwy,http://www.conwy.gov.uk,,Private Ad,2013-07-05,fhrs_5_en-GB,5,,FHRS,0
467760,The Central,1 Station Road,Colwyn Bay,Conwy,Central Hotel,Pub/bar/nightclub,7843,5,,84176,10,,53.29580000000000,2085,550,regulatory.services@conwy.gov.uk,Conwy,http://www.conwy.gov.uk,-3.72719500000000,LL29 8BP,2013-06-27,fhrs_4_en-GB,4,,FHRS,5
467761,Kiosk 1,The Promenade,Pensarn,Abergele,Centre Kiosk-Kiosk No 1,Retailers - other,4613,0,,565622,0,,53.29410000000000,2630,550,regulatory.services@conwy.gov.uk,Conwy,http://www.conwy.gov.uk,-3.58625000000000,LL22 7PP,2014-09-27,fhrs_5_en-GB,5,,FHRS,0
467762,Chandlers,,Trefriw,Conwy,Chandlers Brasserie Ltd,Restaurant/Cafe/Canteen,1,5,,707181,5,,53.15187900000000,107671,550,regulatory.services@conwy.gov.uk,Conwy,http://www.conwy.gov.uk,-3.82424100000000,LL27 0JH,2014-09-25,fhrs_5_en-GB,5,,FHRS,5
467763,,181 Conway Road,Llandudno Junction,,Chang Lung,Takeaway/sandwich shop,7844,5,,65201,0,,53.28338200000000,14619,550,regulatory.services@conwy.gov.uk,Conwy,http://www.conwy.gov.uk,-3.80093300000000,LL31 9AY,2015-01-20,fhrs_5_en-GB,5,,FHRS,5
467764,,11 Llewelyn Avenue,Llandudno,,Characters Tea House and Restaurant,Restaurant/Cafe/Canteen,1,5,,427461,5,,53.32622400000000,102237,550,regulatory.services@conwy.gov.uk,Conwy,http://www.conwy.gov.uk,-3.83361000000000,LL30 2ER,2014-03-03,fhrs_5_en-GB,5,,FHRS,0
467765,,26 Whitehall Road,Rhos On Sea,Colwyn Bay,Chaseley House Rest Home,Hospitals/Childcare/Caring Premises,5,0,,108310,0,,53.30395300000000,38606,550,regulatory.services@conwy.gov.uk,Conwy,http://www.conwy.gov.uk,-3.74269700000000,LL28 4HW,2014-01-31,fhrs_5_en-GB,5,,FHRS,5
467766,"Chatsworth House, Gloddaeth Crescent",The Parade,Llandudno,Conwy,Chatsworth House Hotel,Hotel/bed & breakfast/guest house,7842,20,,109016,10,,53.32346700000000,39208,550,regulatory.services@conwy.gov.uk,Conwy,http://www.conwy.gov.uk,-3.82523300000000,LL30 2XS,2014-11-28,fhrs_1_en-GB,1,,FHRS,10
467767,,35 Colwyn Avenue,Rhos On Sea,Colwyn Bay,Cheeky Pizza,Takeaway/sandwich shop,7844,10,,128569,5,,53.30965800000000,58622,550,regulatory.services@conwy.gov.uk,Conwy,http://www.conwy.gov.uk,-3.74045300000000,LL28 4RB,2013-09-03,fhrs_4_en-GB,4,,FHRS,5
467768,Chelsea Hotel,67 Church Walks,Llandudno,,Chelsea Hotel,Hotel/bed & breakfast/guest house,7842,0,,609123,0,,53.32710300000000,58678,550,regulatory.services@conwy.gov.uk,Conwy,http://www.conwy.gov.uk,-3.83492400000000,LL30 2HG,2013-10-19,fhrs_5_en-GB,5,,FHRS,0
467769,Liverpool House,Lower High Street,Conwy,,Chez illy,Restaurant/Cafe/Canteen,1,5,,66710,5,,53.28185900000000,14978,550,regulatory.services@conwy.gov.uk,Conwy,http://www.conwy.gov.uk,-3.82830400000000,LL32 8AL,2014-11-04,fhrs_5_en-GB,5,,FHRS,0
467770,Private Address,Private Address,Private Address,Private Address,Chiccadees Childminding,Hospitals/Childcare/Caring Premises,5,,,409258,,,,68157,550,regulatory.services@conwy.gov.uk,Conwy,http://www.conwy.gov.uk,,Private Ad,2014-09-22,fhrs_exempt_en-GB,Exempt,,FHRS,
467771,Abergele Hospital,Llanfair Road,Abergele,,Child Adolescent Unit Catering,Hospitals/Childcare/Caring Premises,5,5,,39540,5,,53.26624900000000,100095,550,regulatory.services@conwy.gov.uk,Conwy,http://www.conwy.gov.uk,-3.57955100000000,LL22 8DP,2014-07-29,fhrs_5_en-GB,5,,FHRS,5
467772,Chilterns,19 Deganwy Avenue,Llandudno,,Chilterns,Hotel/bed & breakfast/guest house,7842,0,,40812,0,,53.32361000000000,101715,550,regulatory.services@conwy.gov.uk,Conwy,http://www.conwy.gov.uk,-3.83349800000000,LL30 2YB,2014-03-12,fhrs_5_en-GB,5,,FHRS,0
467773,,156-160 Conway Road,Colwyn Bay,,China Club and Kwong Chow,Restaurant/Cafe/Canteen,1,,,112451,,,53.29998600000000,4166,550,regulatory.services@conwy.gov.uk,Conwy,http://www.conwy.gov.uk,-3.73980400000000,LL29 7LR,2014-01-06,fhrs_4_en-GB,4,,FHRS,
467774,,10 Penrhyn Road,Colwyn Bay,,China Garden Restaurant,Restaurant/Cafe/Canteen,1,0,,128283,0,,53.29619900000000,58199,550,regulatory.services@conwy.gov.uk,Conwy,http://www.conwy.gov.uk,-3.72821600000000,LL29 8LG,2013-10-24,fhrs_5_en-GB,5,,FHRS,5
467775,Chips Ahoy,170 Conway Road,Colwyn Bay,Conwy,Chips Ahoy,Takeaway/sandwich shop,7844,10,,619781,10,,53.29998600000000,102995,550,regulatory.services@conwy.gov.uk,Conwy,http://www.conwy.gov.uk,-3.73980400000000,LL29 7LR,2013-11-12,fhrs_3_en-GB,3,,FHRS,10
467776,,11 Victoria Street,Craig Y Don,Llandudno,Chish N Fips,Takeaway/sandwich shop,7844,5,,727375,5,,53.32153700000000,107999,550,regulatory.services@conwy.gov.uk,Conwy,http://www.conwy.gov.uk,-3.81210300000000,LL30 1LQ,2014-12-17,fhrs_5_en-GB,5,,FHRS,5
467777,Private Address,Private Address,Private Address,Private Address,Chloe Hughes,Retailers - other,4613,0,,719101,0,,,107513,550,regulatory.services@conwy.gov.uk,Conwy,http://www.conwy.gov.uk,,Private Ad,2014-03-11,fhrs_5_en-GB,5,,FHRS,0
467778,Private Address,Private Address,Private Address,Private Address,Choc o Art,Manufacturers/packers,7839,0,,374228,0,,,99996,550,regulatory.services@conwy.gov.uk,Conwy,http://www.conwy.gov.uk,,Private Ad,2013-10-18,fhrs_5_en-GB,5,,FHRS,0
467779,,111 Abergele Road,Colwyn Bay,,Chris's News,Retailers - other,4613,5,,481337,5,,53.29194000000000,1887,550,regulatory.services@conwy.gov.uk,Conwy,http://www.conwy.gov.uk,-3.72183300000000,LL29 7SG,2014-10-23,fhrs_4_en-GB,4,,FHRS,10
467780,Private Address,Private Address,Private Address,Private Address,Chrissy Corner,Other catering premises,7841,5,,338764,0,,,100453,550,regulatory.services@conwy.gov.uk,Conwy,http://www.conwy.gov.uk,,Private Ad,2013-09-25,fhrs_5_en-GB,5,,FHRS,0
467781,Christleton Hotel,15 Llewelyn Avenue,Llandudno,,Christleton Hotel,Hotel/bed & breakfast/guest house,7842,0,,609113,0,,53.32622400000000,13550,550,regulatory.services@conwy.gov.uk,Conwy,http://www.conwy.gov.uk,-3.83361000000000,LL30 2ER,2013-10-29,fhrs_5_en-GB,5,,FHRS,0
467782,Church Manor Care Home,Towyn Road,Towyn,Abergele,Church Manor Care Home,Hospitals/Childcare/Caring Premises,5,,,619767,,,53.30208900000000,102519,550,regulatory.services@conwy.gov.uk,Conwy,http://www.conwy.gov.uk,-3.54191600000000,LL22 9ER,2014-05-20,fhrs_5_en-GB,5,,FHRS,
467783,Church Hill Hotel,Betws y Coed,,,Churchill House,Hotel/bed & breakfast/guest house,7842,0,,56749,0,,53.09068500000000,12842,550,regulatory.services@conwy.gov.uk,Conwy,http://www.conwy.gov.uk,-3.80226700000000,LL24 0AD,2014-08-07,fhrs_5_en-GB,5,,FHRS,0
467784,,17 Lon Kinmel,Pensarn,Abergele,Chwarae Teg,Hospitals/Childcare/Caring Premises,5,5,,40069,0,,53.29399700000000,100723,550,regulatory.services@conwy.gov.uk,Conwy,http://www.conwy.gov.uk,-3.57706400000000,LL22 7SG,2014-01-31,fhrs_5_en-GB,5,,FHRS,5
467785,Cineworld,3 Junction Way/Lon y Gyffordd,Llandudno Junction,,Cineworld Cinemas Plc,Pub/bar/nightclub,7843,5,,516982,0,,53.28227900000000,52752,550,regulatory.services@conwy.gov.uk,Conwy,http://www.conwy.gov.uk,-3.80843100000000,LL31 9XX,2015-01-20,fhrs_5_en-GB,5,,FHRS,5
467786,,10 Station Road,Llanfairfechan,,Cinnamon,Takeaway/sandwich shop,7844,,,201640,,,53.25432400000000,100644,550,regulatory.services@conwy.gov.uk,Conwy,http://www.conwy.gov.uk,-3.97904800000000,LL33 0AL,2014-03-12,fhrs_5_en-GB,5,,FHRS,
467787,,Gaingc Road,Towyn,Abergele,Clares Cafe,Restaurant/Cafe/Canteen,1,5,,128291,0,,53.29808400000000,58209,550,regulatory.services@conwy.gov.uk,Conwy,http://www.conwy.gov.uk,-3.53667000000000,LL22 9NE,2014-09-11,fhrs_5_en-GB,5,,FHRS,5
467788,,97-99 Mostyn Street,Llandudno,,Clares Department Store,Restaurant/Cafe/Canteen,1,5,,61474,5,,53.32497700000000,13501,550,regulatory.services@conwy.gov.uk,Conwy,http://www.conwy.gov.uk,-3.83052300000000,LL30 2PD,2014-07-30,fhrs_5_en-GB,5,,FHRS,5
467789,,8 Denbigh Street,Llanrwst,,Clare's Health Shop Ltd,Retailers - other,4613,10,,40235,0,,53.13897300000000,100956,550,regulatory.services@conwy.gov.uk,Conwy,http://www.conwy.gov.uk,-3.79739600000000,LL26 0LL,2013-07-05,fhrs_4_en-GB,4,,FHRS,5
467790,Private Address,Private Address,Private Address,Private Address,Classy Creations,Other catering premises,7841,5,,622223,5,,,103005,550,regulatory.services@conwy.gov.uk,Conwy,http://www.conwy.gov.uk,,Private Ad,2013-12-10,fhrs_5_en-GB,5,,FHRS,5
467791,Pyllau Gloewon Farm,Llanrwst Road,Tal Y Bont,Conwy,Claudia Bryan,Retailers - other,4613,5,,583345,5,,53.20723200000000,102796,550,regulatory.services@conwy.gov.uk,Conwy,http://www.conwy.gov.uk,-3.84581900000000,LL32 8YX,2013-07-30,fhrs_5_en-GB,5,,FHRS,5
467792,,1 St. Seiriols Road,Llandudno,,Cleave Court Guest House,Hotel/bed & breakfast/guest house,7842,5,,40239,5,,53.31962100000000,100964,550,regulatory.services@conwy.gov.uk,Conwy,http://www.conwy.gov.uk,-3.83331200000000,LL30 2YY,2014-06-13,fhrs_5_en-GB,5,,FHRS,5
467793,,24 Vicarage Road,Llandudno,,Clebran Day Nursery,Hospitals/Childcare/Caring Premises,5,5,,128207,10,,53.31094000000000,58051,550,regulatory.services@conwy.gov.uk,Conwy,http://www.conwy.gov.uk,-3.81489700000000,LL30 1PT,2015-01-05,fhrs_4_en-GB,4,,FHRS,5
467794,,5 Clement Avenue,Llandudno,,Clement House,Hospitals/Childcare/Caring Premises,5,10,,536232,0,,53.32468800000000,37324,550,regulatory.services@conwy.gov.uk,Conwy,http://www.conwy.gov.uk,-3.83585600000000,LL30 2ED,2013-02-14,fhrs_4_en-GB,4,,FHRS,0
467795,,34 St. Davids Road,Llandudno,,Cliffbury Guest House,Hotel/bed & breakfast/guest house,7842,0,,61761,0,,53.31994100000000,13597,550,regulatory.services@conwy.gov.uk,Conwy,http://www.conwy.gov.uk,-3.83237900000000,LL30 2UH,2013-10-19,fhrs_5_en-GB,5,,FHRS,0
467796,,28 Chapel Street,Llandudno,,Clifton Villa Guest House,Hotel/bed & breakfast/guest house,7842,0,,128294,0,,53.32437400000000,58215,550,regulatory.services@conwy.gov.uk,Conwy,http://www.conwy.gov.uk,-3.83232900000000,LL30 2SY,2014-07-12,fhrs_5_en-GB,5,,FHRS,0
467797,,2 Great Ormes Road,Llandudno,,Clontarf Hotel,Hotel/bed & breakfast/guest house,7842,0,,58289,0,,53.32118000000000,12998,550,regulatory.services@conwy.gov.uk,Conwy,http://www.conwy.gov.uk,-3.84418900000000,LL30 2AR,2014-11-06,fhrs_5_en-GB,5,,FHRS,0
467798,Ysgol Maelgwyn,Broad Street,Llandudno Junction,,Clwb Enfys,Hospitals/Childcare/Caring Premises,5,5,,665805,0,,53.28521500000000,98790,550,regulatory.services@conwy.gov.uk,Conwy,http://www.conwy.gov.uk,-3.80926000000000,LL31 9HG,2014-05-15,fhrs_4_en-GB,4,,FHRS,10
467799,Ysgol Pencae,Graiglwyd Road,Penmaenmawr,,Clwb Enfys Penmaenmawr,Hospitals/Childcare/Caring Premises,5,0,,654390,0,,53.26886300000000,57342,550,regulatory.services@conwy.gov.uk,Conwy,http://www.conwy.gov.uk,-3.91451600000000,LL34 6YG,2014-03-10,fhrs_5_en-GB,5,,FHRS,0
467800,,Ancaster Square,Llanrwst,,Clwb Llanrwst,Pub/bar/nightclub,7843,5,,61677,10,,53.13864200000000,13571,550,regulatory.services@conwy.gov.uk,Conwy,http://www.conwy.gov.uk,-3.79848800000000,LL26 0LB,2014-12-30,fhrs_4_en-GB,4,,FHRS,5
467801,,Ronald Avenue,Llandudno Junction,,Clwb Plant Nant Y Coed,Hospitals/Childcare/Caring Premises,5,,,583347,,,53.28658400000000,102798,550,regulatory.services@conwy.gov.uk,Conwy,http://www.conwy.gov.uk,-3.80081200000000,LL31 9EU,2013-07-18,fhrs_exempt_en-GB,Exempt,,FHRS,
467802,Ysgol San Sior,Church Walks,Llandudno,,Clwb San Sior,Hospitals/Childcare/Caring Premises,5,0,,654396,0,,53.32564600000000,59583,550,regulatory.services@conwy.gov.uk,Conwy,http://www.conwy.gov.uk,-3.83846500000000,LL30 2HL,2014-03-13,fhrs_5_en-GB,5,,FHRS,0
467803,Ysgol Glan Morfa,Ffordd y Morfa,Abergele,,Clwb y Morfa,Hospitals/Childcare/Caring Premises,5,0,,654387,0,,53.28782400000000,27110,550,regulatory.services@conwy.gov.uk,Conwy,http://www.conwy.gov.uk,-3.57685200000000,LL22 7NU,2014-03-10,fhrs_5_en-GB,5,,FHRS,0
467804,Yr Efail Centre,Berry Street,Conwy,,Clwb Yr Efail,Other catering premises,7841,0,,67692,0,,53.28198100000000,1512,550,regulatory.services@conwy.gov.uk,Conwy,http://www.conwy.gov.uk,-3.82914900000000,LL32 8DG,2013-01-24,fhrs_5_en-GB,5,,FHRS,0
467805,,4 Ebberston Road East,Rhos on Sea,Colwyn Bay,Clwyd Community Care,Hospitals/Childcare/Caring Premises,5,5,,142593,5,,53.30218500000000,7947,550,regulatory.services@conwy.gov.uk,Conwy,http://www.conwy.gov.uk,-3.74252000000000,LL28 4DP,2013-02-28,fhrs_4_en-GB,4,,FHRS,10
467806,,Plough Street,Llanrwst,,Co op,Retailers - other,4613,5,,40552,5,,53.13944100000000,101393,550,regulatory.services@conwy.gov.uk,Conwy,http://www.conwy.gov.uk,-3.79680300000000,LL26 0AG,2014-08-26,fhrs_5_en-GB,5,,FHRS,5
467807,,Glan y Mor Road,Penrhyn Bay,Llandudno,Co op,Retailers - other,4613,5,,54758,0,,53.31736700000000,12345,550,regulatory.services@conwy.gov.uk,Conwy,http://www.conwy.gov.uk,-3.77490500000000,LL30 3NL,2013-10-18,fhrs_5_en-GB,5,,FHRS,5
467808,Co-Operative Retail Services L,Penrhyn Avenue,Rhos on Sea,Colwyn Bay,Co op,Retailers - other,4613,5,,194393,5,,53.31018100000000,3267,550,regulatory.services@conwy.gov.uk,Conwy,http://www.conwy.gov.uk,-3.74163000000000,LL28 4RD,2013-11-18,fhrs_4_en-GB,4,,FHRS,10
467809,,157 Conway Road,Llandudno Junction,,Co op Local,Retailers - other,4613,0,,61697,0,,53.28389300000000,13578,550,regulatory.services@conwy.gov.uk,Conwy,http://www.conwy.gov.uk,-3.80395400000000,LL31 9EG,2011-11-22,fhrs_4_en-GB,4,,FHRS,10
467810,Cobdens Hotel,,Capel Curig,Betws y Coed,Cobdens Hotel Restaurant and Bar,Hotel/bed & breakfast/guest house,7842,10,,61260,5,,53.09871200000000,13436,550,regulatory.services@conwy.gov.uk,Conwy,http://www.conwy.gov.uk,-3.89434300000000,LL24 0EE,2013-10-04,fhrs_4_en-GB,4,,FHRS,5
467811,,35 Tan Y Bryn Road,Rhos On Sea,Colwyn Bay,Coed Craig Residential Home,Hospitals/Childcare/Caring Premises,5,5,,230379,5,,53.30256000000000,1728,550,regulatory.services@conwy.gov.uk,Conwy,http://www.conwy.gov.uk,-3.75003900000000,LL28 4AD,2014-06-17,fhrs_5_en-GB,5,,FHRS,5
467812,Coed Isaf,Bryn Lupus Road,Llandudno,,Coed Isaf Nursing Home Ltd,Hospitals/Childcare/Caring Premises,5,10,,56694,5,,53.30303400000000,12826,550,regulatory.services@conwy.gov.uk,Conwy,http://www.conwy.gov.uk,-3.81747300000000,LL30 1SH,2014-03-07,fhrs_4_en-GB,4,,FHRS,5
467813,Coedmor,Groes Lwyd,Abergele,,Coed Mor Residential Home,Hospitals/Childcare/Caring Premises,5,0,,499504,0,,53.28671400000000,1997,550,regulatory.services@conwy.gov.uk,Conwy,http://www.conwy.gov.uk,-3.58530200000000,LL22 7TA,2014-10-23,fhrs_5_en-GB,5,,FHRS,0
467814,Coed y Fron,Betws y Coed,,,Coed Y Fron,Hotel/bed & breakfast/guest house,7842,0,,492266,0,,53.09068500000000,13600,550,regulatory.services@conwy.gov.uk,Conwy,http://www.conwy.gov.uk,-3.80226700000000,LL24 0AD,2012-11-09,fhrs_5_en-GB,5,,FHRS,0
467815,Llandudno Pier,North Parade,Llandudno,,Coffee Bean,Restaurant/Cafe/Canteen,1,5,,427485,5,,53.32699500000000,96365,550,regulatory.services@conwy.gov.uk,Conwy,http://www.conwy.gov.uk,-3.83140500000000,LL30 2LP,2012-06-13,fhrs_5_en-GB,5,,FHRS,5
467816,,38 Abergele Road,Colwyn Bay,,Coffee Corner,Restaurant/Cafe/Canteen,1,5,,75839,0,,53.29360000000000,1779,550,regulatory.services@conwy.gov.uk,Conwy,http://www.conwy.gov.uk,-3.72514000000000,LL29 7PA,2013-12-20,fhrs_5_en-GB,5,,FHRS,5
467817,,179 Conway Road,Llandudno Junction,,Coffee Junction,Restaurant/Cafe/Canteen,1,0,,128087,0,,53.28338200000000,57847,550,regulatory.services@conwy.gov.uk,Conwy,http://www.conwy.gov.uk,-3.80093300000000,LL31 9AY,2014-08-08,fhrs_5_en-GB,5,,FHRS,0
467818,Victoria Station,Church Walks,Llandudno,Conwy,Coffee Lodge,Restaurant/Cafe/Canteen,1,5,,692291,0,,53.32760000000000,107719,550,regulatory.services@conwy.gov.uk,Conwy,http://www.conwy.gov.uk,-3.83596600000000,LL30 2NB,2014-08-07,fhrs_5_en-GB,5,,FHRS,0
467819,Bay View Shopping Centre,Sea View Road,Colwyn Bay,,Coffee Shop,Restaurant/Cafe/Canteen,1,10,,125946,10,,53.29524500000000,546,550,regulatory.services@conwy.gov.uk,Conwy,http://www.conwy.gov.uk,-3.72582200000000,LL29 8DG,2013-11-26,fhrs_3_en-GB,3,,FHRS,10
467820,,18 Mostyn Avenue,Llandudno,,Coffee V,Restaurant/Cafe/Canteen,1,10,,457650,0,,53.32055400000000,66390,550,regulatory.services@conwy.gov.uk,Conwy,http://www.conwy.gov.uk,-3.81228700000000,LL30 1YS,2014-10-23,fhrs_4_en-GB,4,,FHRS,10
467821,Colbourn Hotel,8 Sea Bank Road,Colwyn Bay,,Colbourn Hotel,Hotel/bed & breakfast/guest house,7842,5,,565620,5,,53.30005900000000,2119,550,regulatory.services@conwy.gov.uk,Conwy,http://www.conwy.gov.uk,-3.73290400000000,LL28 4BT,2013-05-10,fhrs_5_en-GB,5,,FHRS,5
467822,Colwyn Bay Cricket Club,Penrhyn Avenue,Rhos on Sea,Colwyn Bay,Colwyn Bay Cricket Club,Pub/bar/nightclub,7843,0,,122799,0,,53.31174700000000,5125,550,regulatory.services@conwy.gov.uk,Conwy,http://www.conwy.gov.uk,-3.74456000000000,LL28 4LR,2013-03-28,fhrs_5_en-GB,5,,FHRS,0
467823,Football Ground & Premises,Llanelian Road,Old Colwyn,Colwyn Bay,Colwyn Bay Football Club,Retailers - other,4613,0,,609124,0,,53.28145200000000,58680,550,regulatory.services@conwy.gov.uk,Conwy,http://www.conwy.gov.uk,-3.69840100000000,LL29 8UN,2013-10-19,fhrs_5_en-GB,5,,FHRS,5
467824,Colwyn Bay Community Hospital,Hesketh Road,Old Colwyn,Colwyn Bay,Colwyn Bay Hospital,Hospitals/Childcare/Caring Premises,5,10,,40242,5,,53.28824700000000,100969,550,regulatory.services@conwy.gov.uk,Conwy,http://www.conwy.gov.uk,-3.71047700000000,LL29 8AY,2015-01-07,fhrs_4_en-GB,4,,FHRS,0
467825,Colwyn Bay Rugby Club,Brookfield Drive,Rhos on Sea,Colwyn Bay,Colwyn Bay Rugby Club,Pub/bar/nightclub,7843,0,,86886,0,,53.30417200000000,2226,550,regulatory.services@conwy.gov.uk,Conwy,http://www.conwy.gov.uk,-3.76266600000000,LL28 4SW,2013-03-21,fhrs_5_en-GB,5,,FHRS,5
467826,Colwyn Service Station,Abergele Road,Old Colwyn,Colwyn Bay,Colwyn Service Station,Retailers - other,4613,10,,449779,0,,53.28986500000000,2997,550,regulatory.services@conwy.gov.uk,Conwy,http://www.conwy.gov.uk,-3.70358000000000,LL29 9YG,2012-08-11,fhrs_4_en-GB,4,,FHRS,0
467827,Concord Hotel,35 Abbey Road,Llandudno,,Concord House,Other catering premises,7841,10,,536223,0,,53.32303400000000,13001,550,regulatory.services@conwy.gov.uk,Conwy,http://www.conwy.gov.uk,-3.83937400000000,LL30 2EH,2013-02-13,fhrs_4_en-GB,4,,FHRS,0
467828,,9 Church Road,Rhos On Sea,Colwyn Bay,Conifers Care Home,Hospitals/Childcare/Caring Premises,5,0,,201632,0,,53.31243700000000,29264,550,regulatory.services@conwy.gov.uk,Conwy,http://www.conwy.gov.uk,-3.74898700000000,LL28 4DJ,2013-12-21,fhrs_5_en-GB,5,,FHRS,5
467829,,106 Mostyn Street,Llandudno,,Conservative Club,Pub/bar/nightclub,7843,0,,63973,5,,53.32610300000000,14140,550,regulatory.services@conwy.gov.uk,Conwy,http://www.conwy.gov.uk,-3.83276400000000,LL30 2SW,2011-11-02,fhrs_5_en-GB,5,,FHRS,0
467830,,15 Lansdowne Road,Colwyn Bay,,Convent of Mercy Nursing Home,Hospitals/Childcare/Caring Premises,5,5,,89336,5,,53.29672200000000,2384,550,regulatory.services@conwy.gov.uk,Conwy,http://www.conwy.gov.uk,-3.73796100000000,LL29 7YD,2014-03-05,fhrs_5_en-GB,5,,FHRS,0
467831,Conwy Golf Club,Beacons Way,Conwy,,Conwy (Caernarvonshire) Golf Club,Pub/bar/nightclub,7843,0,,707186,0,,53.29062200000000,107888,550,regulatory.services@conwy.gov.uk,Conwy,http://www.conwy.gov.uk,-3.84362200000000,LL32 8ER,2014-09-11,fhrs_5_en-GB,5,,FHRS,0
467832,,4 Castle Street,Conwy,,Conwy Bakery,Retailers - other,4613,5,,128281,0,,53.28116300000000,58198,550,regulatory.services@conwy.gov.uk,Conwy,http://www.conwy.gov.uk,-3.82794400000000,LL32 8AY,2013-12-10,fhrs_4_en-GB,4,,FHRS,10
467833,Ts Aberconwy,All Saints Avenue,Deganwy,Conwy,Conwy County Sea Cadets,Other catering premises,7841,0,,707194,0,,53.29379800000000,51251,550,regulatory.services@conwy.gov.uk,Conwy,http://www.conwy.gov.uk,-3.82771900000000,LL31 9DZ,2014-09-11,fhrs_5_en-GB,5,,FHRS,5
467834,Conwy Falls Cafe,,Betws Y Coed,,Conwy Falls Cafe,Restaurant/Cafe/Canteen,1,0,,62276,10,,53.06556800000000,13743,550,regulatory.services@conwy.gov.uk,Conwy,http://www.conwy.gov.uk,-3.77647200000000,LL24 0PN,2014-03-14,fhrs_4_en-GB,4,,FHRS,5
467835,Cilmeityn Farm,Gilfach Road,Llandudno Junction,,Conwy Goat Products,Manufacturers/packers,7839,5,,409249,0,,53.29972700000000,101727,550,regulatory.services@conwy.gov.uk,Conwy,http://www.conwy.gov.uk,-3.78527800000000,LL31 9JX,2014-07-16,fhrs_5_en-GB,5,,FHRS,5
467836,Conwy (Caernarvonshire) Golf C,Beacons Way,Conwy,,Conwy Golf Club Catering,Pub/bar/nightclub,7843,5,,58240,5,,53.29062200000000,12993,550,regulatory.services@conwy.gov.uk,Conwy,http://www.conwy.gov.uk,-3.84362200000000,LL32 8ER,2014-09-11,fhrs_5_en-GB,5,,FHRS,5
467837,,5 Castle Street,Conwy,,Conwy Ice Cream,Takeaway/sandwich shop,7844,10,,61321,5,,53.28116300000000,1346,550,regulatory.services@conwy.gov.uk,Conwy,http://www.conwy.gov.uk,-3.82794400000000,LL32 8AY,2014-05-08,fhrs_4_en-GB,4,,FHRS,5
467838,,8-10 Berry Street,Conwy,,Conwy Kebab Burger and Pizza House,Takeaway/sandwich shop,7844,10,,59416,5,,53.28198100000000,13080,550,regulatory.services@conwy.gov.uk,Conwy,http://www.conwy.gov.uk,-3.82914900000000,LL32 8DG,2013-10-08,fhrs_4_en-GB,4,,FHRS,5
467839,Mussel Purification Centre,The Quay,Conwy,,Conwy Mussels,Manufacturers/packers,7839,,,622220,,,53.28083800000000,102915,550,regulatory.services@conwy.gov.uk,Conwy,http://www.conwy.gov.uk,-3.82632600000000,LL32 8BB,2014-11-19,fhrs_exempt_en-GB,Exempt,,FHRS,
467840,The Mussel Purification Centre,Conwy Quay Access Road,Conwy,,Conwy Mussels - Fish Sales,Manufacturers/packers,7839,5,,583346,5,,53.28083800000000,102797,550,regulatory.services@conwy.gov.uk,Conwy,http://www.conwy.gov.uk,-3.82632600000000,LL32 8BB,2013-07-18,fhrs_5_en-GB,5,,FHRS,5
467841,,26 High Street,Conwy,,Conwy Pantry,Restaurant/Cafe/Canteen,1,5,,54721,5,,53.28107700000000,12338,550,regulatory.services@conwy.gov.uk,Conwy,http://www.conwy.gov.uk,-3.83005600000000,LL32 8DE,2014-07-24,fhrs_5_en-GB,5,,FHRS,5
467842,Conwy Borough Football Club,Penmaen Road,Conwy,,Conwy United Football Club,Pub/bar/nightclub,7843,,,338830,,,53.28707600000000,15169,550,regulatory.services@conwy.gov.uk,Conwy,http://www.conwy.gov.uk,-3.84678500000000,LL32 8HA,2012-03-23,fhrs_exempt_en-GB,Exempt,,FHRS,
467843,Birmingham Garage,Ffordd Berthddu,Llanrwst,Conwy,Conwy Valley Rotary Club,Mobile caterer,7846,5,,679861,5,,53.13517800000000,107755,550,regulatory.services@conwy.gov.uk,Conwy,http://www.conwy.gov.uk,-3.79330600000000,LL26 0HF,2014-06-23,fhrs_5_en-GB,5,,FHRS,5
467844,Conwy Visitor Centre,Rose Hill Street,Conwy,,Conwy Visitor Centre Ltd,Restaurant/Cafe/Canteen,1,20,,583359,10,,53.28026200000000,15014,550,regulatory.services@conwy.gov.uk,Conwy,http://www.conwy.gov.uk,-3.82753100000000,LL32 8LD,2013-06-25,fhrs_1_en-GB,1,,FHRS,5
467845,Larkhill,Sychnant Pass Road,Conwy,,Conwy YHA,Other catering premises,7841,5,,61427,5,,53.27859100000000,1349,550,regulatory.services@conwy.gov.uk,Conwy,http://www.conwy.gov.uk,-3.83915900000000,LL32 8AJ,2014-03-26,fhrs_5_en-GB,5,,FHRS,5
467846,,137 Mostyn Street,Llandudno,,Cooneys Irish Bar,Restaurant/Cafe/Canteen,1,5,,149599,10,,53.31306100000000,96356,550,regulatory.services@conwy.gov.uk,Conwy,http://www.conwy.gov.uk,-3.81796700000000,LL30 2PB,2014-09-16,fhrs_3_en-GB,3,,FHRS,10
467847,The Co-Operative Food,Village Road,Llanfairfechan,Conwy,Co-Operative Group Ltd,Retailers - other,4613,5,,60811,0,,53.25324400000000,13298,550,regulatory.services@conwy.gov.uk,Conwy,http://www.conwy.gov.uk,-3.97643400000000,LL33 0NH,2014-01-30,fhrs_5_en-GB,5,,FHRS,5
467848,,4 Colwyn Avenue,Rhos On Sea,Colwyn Bay,Copper Kettle,Restaurant/Cafe/Canteen,1,0,,492275,5,,53.30965800000000,2050,550,regulatory.services@conwy.gov.uk,Conwy,http://www.conwy.gov.uk,-3.74045300000000,LL28 4RB,2012-11-29,fhrs_5_en-GB,5,,FHRS,0
467849,Private Address,Private Address,Private Address,Private Address,Cordonbleu Catering,Other catering premises,7841,0,,230362,0,,,99998,550,regulatory.services@conwy.gov.uk,Conwy,http://www.conwy.gov.uk,,Private Ad,2012-02-27,fhrs_5_en-GB,5,,FHRS,0
467850,,1 Wynnstay Road,Colwyn Bay,,Corner Cupboard / Ate Days a Week Ltd,Restaurant/Cafe/Canteen,1,20,,499496,10,,53.29666500000000,102319,550,regulatory.services@conwy.gov.uk,Conwy,http://www.conwy.gov.uk,-3.72955500000000,LL29 8NB,2014-04-17,fhrs_1_en-GB,1,,FHRS,10
467851,,1 Ffordd Yr Orsedd,Llandudno,Conwy,Corner Stores,Retailers - other,4613,10,,449774,5,,53.31260400000000,13870,550,regulatory.services@conwy.gov.uk,Conwy,http://www.conwy.gov.uk,-3.82897300000000,LL30 1LA,2013-08-19,fhrs_4_en-GB,4,,FHRS,5
467852,,2 St. Davids Place,Llandudno,,Cornerways House,Hotel/bed & breakfast/guest house,7842,0,,54830,0,,53.32076400000000,12364,550,regulatory.services@conwy.gov.uk,Conwy,http://www.conwy.gov.uk,-3.83209900000000,LL30 2UG,2013-10-19,fhrs_5_en-GB,5,,FHRS,5
467853,,57 Marine Road,Pensarn,Abergele,Cost Cutter,Retailers - other,4613,20,,40226,15,,53.29444400000000,100936,550,regulatory.services@conwy.gov.uk,Conwy,http://www.conwy.gov.uk,-3.57858100000000,LL22 7PS,2014-06-28,fhrs_1_en-GB,1,,FHRS,0
467854,,26 Castle Street,Conwy,,Costa Coffee,Restaurant/Cafe/Canteen,1,5,,727376,0,,53.28116300000000,108020,550,regulatory.services@conwy.gov.uk,Conwy,http://www.conwy.gov.uk,-3.82794400000000,LL32 8AY,2014-12-23,fhrs_5_en-GB,5,,FHRS,5
467855,Bay View Centre,Sea View Road,Colwyn Bay,Conwy,Costa Coffee,Restaurant/Cafe/Canteen,1,0,,619774,0,,53.29524500000000,102856,550,regulatory.services@conwy.gov.uk,Conwy,http://www.conwy.gov.uk,-3.72582200000000,LL29 8DG,2013-11-13,fhrs_5_en-GB,5,,FHRS,5
467856,"Unit 13, Parc Llandudno",Conway Road,Llandudno,,Costa Coffee,Restaurant/Cafe/Canteen,1,5,,128596,0,,53.32131100000000,58685,550,regulatory.services@conwy.gov.uk,Conwy,http://www.conwy.gov.uk,-3.82162800000000,LL30 1PX,2014-08-08,fhrs_5_en-GB,5,,FHRS,5
467857,The Cottage Loaf,Market Street,Llandudno,,Cottage Loaf,Pub/bar/nightclub,7843,5,,53486,5,,53.32476100000000,12051,550,regulatory.services@conwy.gov.uk,Conwy,http://www.conwy.gov.uk,-3.83231600000000,LL30 2SR,2014-06-23,fhrs_5_en-GB,5,,FHRS,5
467858,Two Gates,,Ty Nant,Corwen,Country Cooks,Restaurant/Cafe/Canteen,1,0,,338843,0,,52.99766800000000,2533,550,regulatory.services@conwy.gov.uk,Conwy,http://www.conwy.gov.uk,-3.51796200000000,LL21 0PT,2014-03-14,fhrs_5_en-GB,5,,FHRS,0
467859,"County Hotel, East Parade",The Parade,Craig Y Don,Llandudno,County Hotel,Pub/bar/nightclub,7843,0,,654393,0,,53.32171000000000,58688,550,regulatory.services@conwy.gov.uk,Conwy,http://www.conwy.gov.uk,-3.81134500000000,LL30 1BD,2014-03-28,fhrs_5_en-GB,5,,FHRS,0
467860,Crafnant House,,Trefriw,,Crafnant Guest House,Hotel/bed & breakfast/guest house,7842,0,,550537,0,,53.15187900000000,13622,550,regulatory.services@conwy.gov.uk,Conwy,http://www.conwy.gov.uk,-3.82424100000000,LL27 0JH,2013-04-13,fhrs_5_en-GB,5,,FHRS,0
467861,,3 Arvon Avenue,Llandudno,Conwy,Craig Ard Hotel,Hotel/bed & breakfast/guest house,7842,5,,64751,0,,53.32534700000000,14457,550,regulatory.services@conwy.gov.uk,Conwy,http://www.conwy.gov.uk,-3.83453300000000,LL30 2DY,2014-06-11,fhrs_5_en-GB,5,,FHRS,5
467862,Craig Y Dderwen Hotel,Betws Y Coed,,,Craig Y Dderwen Riverside Hotel,Hotel/bed & breakfast/guest house,7842,0,,61308,0,,53.08445700000000,13451,550,regulatory.services@conwy.gov.uk,Conwy,http://www.conwy.gov.uk,-3.79676600000000,LL24 0AS,2014-02-11,fhrs_5_en-GB,5,,FHRS,0
467863,Ysgol Craig Y Don,Clarence Drive,Llandudno,,Craig y Don Out of School Club,Hospitals/Childcare/Caring Premises,5,0,,719111,0,,53.31799000000000,26215,550,regulatory.services@conwy.gov.uk,Conwy,http://www.conwy.gov.uk,-3.81420500000000,LL30 1TR,2014-09-23,fhrs_5_en-GB,5,,FHRS,5
467864,Craig Y Don Community Centre,Queens Road,Llandudno,,Craig y Don Playschool,Hospitals/Childcare/Caring Premises,5,5,,654379,0,,53.32027300000000,13814,550,regulatory.services@conwy.gov.uk,Conwy,http://www.conwy.gov.uk,-3.81065400000000,LL30 1TE,2014-03-12,fhrs_5_en-GB,5,,FHRS,0
467865,Craiglands Guest House,7 Carmen Sylva Road,Craig Y Don,Llandudno,Craiglands Guest House,Hotel/bed & breakfast/guest house,7842,0,,449781,0,,53.32179300000000,58237,550,regulatory.services@conwy.gov.uk,Conwy,http://www.conwy.gov.uk,-3.80822600000000,LL30 1LZ,2013-10-30,fhrs_5_en-GB,5,,FHRS,0
467866,Craigside Inn,Colwyn Road,Llandudno,,Craigside Brewers Fayre,Pub/bar/nightclub,7843,5,,53298,0,,53.32358200000000,12007,550,regulatory.services@conwy.gov.uk,Conwy,http://www.conwy.gov.uk,-3.78800100000000,LL30 3AL,2014-03-31,fhrs_4_en-GB,4,,FHRS,10
467867,,12 Abbey Road,Llandudno,,Cranberry Guest House,Hotel/bed & breakfast/guest house,7842,0,,442741,0,,53.32546100000000,12014,550,regulatory.services@conwy.gov.uk,Conwy,http://www.conwy.gov.uk,-3.83533400000000,LL30 2EA,2014-06-27,fhrs_5_en-GB,5,,FHRS,0
467868,,39 Lloyd Street,Llandudno,,Crickleigh House,Hotel/bed & breakfast/guest house,7842,10,,442761,0,,53.32239800000000,55608,550,regulatory.services@conwy.gov.uk,Conwy,http://www.conwy.gov.uk,-3.83397100000000,LL30 2YG,2014-03-12,fhrs_4_en-GB,4,,FHRS,0
467869,,26-28 Madoc Street,Llandudno,Conwy,Cross Keys,Pub/bar/nightclub,7843,5,,40583,5,,53.32301900000000,101406,550,regulatory.services@conwy.gov.uk,Conwy,http://www.conwy.gov.uk,-3.83043900000000,LL30 2TL,2013-03-26,fhrs_5_en-GB,5,,FHRS,5
467870,Cross Keys,Pendre Road,Penrhynside,Llandudno,Cross Keys Inn,Pub/bar/nightclub,7843,5,,338822,0,,53.31772400000000,13944,550,regulatory.services@conwy.gov.uk,Conwy,http://www.conwy.gov.uk,-3.78176600000000,LL30 3DD,2012-03-01,fhrs_5_en-GB,5,,FHRS,0
467871,,"2 St Asaph Avenue, The Square",Kinmel Bay,Rhyl,Crossroads Cafe,Restaurant/Cafe/Canteen,1,0,,90491,5,,53.30983600000000,2467,550,regulatory.services@conwy.gov.uk,Conwy,http://www.conwy.gov.uk,-3.52104700000000,LL18 5LU,2014-07-10,fhrs_5_en-GB,5,,FHRS,0
467872,Crosville Club,Glan Y Mor Road,Llandudno Junction,,Crosville Social Club,Pub/bar/nightclub,7843,5,,442745,0,,53.28477200000000,12902,550,regulatory.services@conwy.gov.uk,Conwy,http://www.conwy.gov.uk,-3.81716200000000,LL31 9RU,2014-09-25,fhrs_4_en-GB,4,,FHRS,10
467873,Cues Snooker Club,Towyn Road,Towyn,Abergele,Cues Snooker Club,Pub/bar/nightclub,7843,0,,565628,5,,53.30353700000000,8363,550,regulatory.services@conwy.gov.uk,Conwy,http://www.conwy.gov.uk,-3.53764600000000,LL22 9EN,2013-05-06,fhrs_5_en-GB,5,,FHRS,0
467874,Cumberland House Bakery,Market Street,Abergele,,Cumberland House Bakery,Retailers - other,4613,10,,104602,10,,53.28423900000000,3571,550,regulatory.services@conwy.gov.uk,Conwy,http://www.conwy.gov.uk,-3.58215000000000,LL22 7AG,2014-09-29,fhrs_3_en-GB,3,,FHRS,5
467875,,109 Mostyn Street,Llandudno,Conwy,Cups N Cakes,Takeaway/sandwich shop,7844,0,,665797,0,,53.32497700000000,107505,550,regulatory.services@conwy.gov.uk,Conwy,http://www.conwy.gov.uk,-3.83052300000000,LL30 2PD,2014-05-02,fhrs_5_en-GB,5,,FHRS,5
467876,,Station Road,Betws y Coed,,Cwmni Cacen Gri Cyf,Retailers - other,4613,5,,40452,5,,53.09234400000000,101268,550,regulatory.services@conwy.gov.uk,Conwy,http://www.conwy.gov.uk,-3.80075300000000,LL24 0AE,2014-06-23,fhrs_5_en-GB,5,,FHRS,5
467877,Cwrt Sant Tudno,Clarence Road,Llandudno,,Cwrt Sant Tudno,Other catering premises,7841,5,,122068,5,,53.32122400000000,50621,550,regulatory.services@conwy.gov.uk,Conwy,http://www.conwy.gov.uk,-3.81314100000000,LL30 1BX,2014-03-27,fhrs_5_en-GB,5,,FHRS,5
467878,Ysgol Pencae,Graiglwyd Road,Penmaenmawr,,Cylch Meithrin,Hospitals/Childcare/Caring Premises,5,0,,654397,0,,53.26886300000000,98789,550,regulatory.services@conwy.gov.uk,Conwy,http://www.conwy.gov.uk,-3.91451600000000,LL34 6YG,2014-03-10,fhrs_5_en-GB,5,,FHRS,0
467879,Ysgol Babanod,Village Road,Llanfairfechan,Conwy,Cylch Meithrin Llanfairfechan,Hospitals/Childcare/Caring Premises,5,0,,722300,0,,53.25278900000000,107947,550,regulatory.services@conwy.gov.uk,Conwy,http://www.conwy.gov.uk,-3.97512400000000,LL33 0AA,2014-11-21,fhrs_5_en-GB,5,,FHRS,0
467880,Private Address,Private Address,Private Address,Private Address,Cymru Ices,Mobile caterer,7846,0,,338874,0,,,91285,550,regulatory.services@conwy.gov.uk,Conwy,http://www.conwy.gov.uk,,Private Ad,2014-04-11,fhrs_5_en-GB,5,,FHRS,5
467881,T A Centre,Groes Road,Colwyn Bay,,D Company 3rd Battalion The Royal Welsh,Restaurant/Cafe/Canteen,1,0,,682103,0,,53.28792100000000,5531,550,regulatory.services@conwy.gov.uk,Conwy,http://www.conwy.gov.uk,-3.71750000000000,LL29 8PU,2014-06-26,fhrs_5_en-GB,5,,FHRS,0
467882,The Old Parish Hall,Rhiw Road,Colwyn Bay,,Daffodil Day Centre,Other catering premises,7841,5,,684048,0,,53.29019900000000,107807,550,regulatory.services@conwy.gov.uk,Conwy,http://www.conwy.gov.uk,-3.72662300000000,LL29 7TS,2014-07-10,fhrs_5_en-GB,5,,FHRS,5
467883,Private Address,Private Address,Private Address,Private Address,Daffodil Fudge,Mobile caterer,7846,5,,101194,0,,,32962,550,regulatory.services@conwy.gov.uk,Conwy,http://www.conwy.gov.uk,,Private Ad,2011-04-27,fhrs_5_en-GB,5,,FHRS,0
467884,,Eirias Road,Colwyn Bay,,Dan's Den Cafe,Restaurant/Cafe/Canteen,1,10,,481322,5,,53.29096000000000,102375,550,regulatory.services@conwy.gov.uk,Conwy,http://www.conwy.gov.uk,-3.71745700000000,LL29 7SP,2013-10-29,fhrs_4_en-GB,4,,FHRS,5
467885,,9-11 Station Road,Colwyn Bay,,Darbey Fish Restaurant,Restaurant/Cafe/Canteen,1,5,,550500,0,,53.29580000000000,100086,550,regulatory.services@conwy.gov.uk,Conwy,http://www.conwy.gov.uk,-3.72719500000000,LL29 8BP,2014-11-21,fhrs_5_en-GB,5,,FHRS,5
467886,Station Road Market,Station Road,Colwyn Bay,,David Windsor,Retailers - other,4613,,,609128,,,,902,550,regulatory.services@conwy.gov.uk,Conwy,http://www.conwy.gov.uk,,,2013-09-14,fhrs_exempt_en-GB,Exempt,,FHRS,
467887,"Unit 1 - 3, Parc Llandudno",Conway Road,Llandudno,Conwy,Debenhams,Restaurant/Cafe/Canteen,1,0,,516984,0,,53.32131100000000,57968,550,regulatory.services@conwy.gov.uk,Conwy,http://www.conwy.gov.uk,-3.82162800000000,LL30 1PX,2015-01-24,fhrs_5_en-GB,5,,FHRS,0
467888,Deganwy News And General Store,Pentywyn Road,Deganwy,Conwy,Deganwy News & General Store,Retailers - other,4613,,,516980,,,53.29000800000000,13867,550,regulatory.services@conwy.gov.uk,Conwy,http://www.conwy.gov.uk,-3.82275600000000,LL31 9TY,2013-01-26,fhrs_exempt_en-GB,Exempt,,FHRS,
467889,,87 Station Road,Deganwy,Conwy,Deganwy Village Stores,Retailers - other,4613,10,,583360,10,,53.29526300000000,1667,550,regulatory.services@conwy.gov.uk,Conwy,http://www.conwy.gov.uk,-3.83415900000000,LL31 9DB,2013-08-19,fhrs_3_en-GB,3,,FHRS,10
467890,Llandudno Pier,North Parade,Llandudno,Conwy,Delights of the Sea (Kiosk No 4),Retailers - other,4613,10,,665801,0,,53.32699500000000,107592,550,regulatory.services@conwy.gov.uk,Conwy,http://www.conwy.gov.uk,-3.83140500000000,LL30 2LP,2014-04-24,fhrs_4_en-GB,4,,FHRS,10
467891,Private Address,Private Address,Private Address,Private Address,Delish Ices,Takeaway/sandwich shop,7844,5,,656809,5,,,107515,550,regulatory.services@conwy.gov.uk,Conwy,http://www.conwy.gov.uk,,Private Ad,2014-04-12,fhrs_5_en-GB,5,,FHRS,5
467892,,12 Deganwy Avenue,Llandudno,,Delmar,Hotel/bed & breakfast/guest house,7842,0,,61835,0,,53.32361000000000,13616,550,regulatory.services@conwy.gov.uk,Conwy,http://www.conwy.gov.uk,-3.83349800000000,LL30 2YB,2011-09-16,fhrs_5_en-GB,5,,FHRS,0
467893,,19 Lloyd Street,Llandudno,Conwy,Devine,Restaurant/Cafe/Canteen,1,5,,654365,5,,53.32351500000000,103536,550,regulatory.services@conwy.gov.uk,Conwy,http://www.conwy.gov.uk,-3.83089600000000,LL30 2UU,2014-02-27,fhrs_5_en-GB,5,,FHRS,5
467894,Morton Grill,Sandbank Road,Towyn,Conwy,Diane's Deli,Restaurant/Cafe/Canteen,1,0,,654375,0,,53.30341000000000,107556,550,regulatory.services@conwy.gov.uk,Conwy,http://www.conwy.gov.uk,-3.54191900000000,LL22 9LB,2014-03-31,fhrs_5_en-GB,5,,FHRS,0
467895,3 Bank Buildings,Pant Yr Afon,Penmaenmawr,,Dino's,Takeaway/sandwich shop,7844,10,,492249,10,,53.26813200000000,102442,550,regulatory.services@conwy.gov.uk,Conwy,http://www.conwy.gov.uk,-3.92087200000000,LL34 6BY,2014-06-18,fhrs_3_en-GB,3,,FHRS,10
467896,Dol Awel Residential Home,Y Ddol,Abergele,,Dol Awel Residential Home,Hospitals/Childcare/Caring Premises,5,5,,80928,5,,53.29710500000000,1968,550,regulatory.services@conwy.gov.uk,Conwy,http://www.conwy.gov.uk,-3.56634500000000,LL22 9AW,2014-07-22,fhrs_5_en-GB,5,,FHRS,5
467897,Dol Gethin,Betws y Coed,,,Dol Gethin,Hotel/bed & breakfast/guest house,7842,0,,427472,5,,53.09338000000000,13630,550,regulatory.services@conwy.gov.uk,Conwy,http://www.conwy.gov.uk,-3.81007100000000,LL24 0BN,2014-09-25,fhrs_5_en-GB,5,,FHRS,0
467898,Cefn Fran,,Dolwen,Abergele,Dolwen Farm Shop,Retailers - other,4613,0,,84913,0,,53.26173000000000,2114,550,regulatory.services@conwy.gov.uk,Conwy,http://www.conwy.gov.uk,-3.65353900000000,LL22 8NH,2011-09-21,fhrs_5_en-GB,5,,FHRS,5
467899,Dolwen Guest House,7 St. Marys Road,Llandudno,,Dolwen Guest House,Hotel/bed & breakfast/guest house,7842,0,,609107,0,,53.32177600000000,12357,550,regulatory.services@conwy.gov.uk,Conwy,http://www.conwy.gov.uk,-3.83173700000000,LL30 2UB,2013-10-28,fhrs_5_en-GB,5,,FHRS,0
467900,Dolwaunydd,,Pentre Du,Betws y Coed,Dolweunydd Guest House,Hotel/bed & breakfast/guest house,7842,5,,550551,0,,53.09349000000000,26103,550,regulatory.services@conwy.gov.uk,Conwy,http://www.conwy.gov.uk,-3.81997700000000,LL24 0BY,2013-04-13,fhrs_5_en-GB,5,,FHRS,0
467901,,12 Station Road,Colwyn Bay,Conwy,Dominos Pizza,Takeaway/sandwich shop,7844,5,,692292,0,,53.29557400000000,107757,550,regulatory.services@conwy.gov.uk,Conwy,http://www.conwy.gov.uk,-3.72667500000000,LL29 8BU,2014-08-14,fhrs_5_en-GB,5,,FHRS,5
467902,Private Address,Private Address,Private Address,Private Address,Donut Stall,Mobile caterer,7846,10,,536235,0,,,56988,550,regulatory.services@conwy.gov.uk,Conwy,http://www.conwy.gov.uk,,Private Ad,2013-02-12,fhrs_4_en-GB,4,,FHRS,10
467903,Llandudno Pier,North Parade,Llandudno,Conwy,Donuts,Takeaway/sandwich shop,7844,0,,665799,0,,53.32699500000000,107539,550,regulatory.services@conwy.gov.uk,Conwy,http://www.conwy.gov.uk,-3.83140500000000,LL30 2LP,2014-05-08,fhrs_5_en-GB,5,,FHRS,0
467904,,25 Colwyn Avenue,Rhos On Sea,Colwyn Bay,Dragon City Chinese Take Away,Takeaway/sandwich shop,7844,10,,99939,10,,53.30965800000000,3187,550,regulatory.services@conwy.gov.uk,Conwy,http://www.conwy.gov.uk,-3.74045300000000,LL28 4RB,2013-10-23,fhrs_3_en-GB,3,,FHRS,10
467905,,Betws y Coed,,,Dragon Hotel and Restaurant,Hotel/bed & breakfast/guest house,7842,20,,56747,15,,53.09338000000000,12841,550,regulatory.services@conwy.gov.uk,Conwy,http://www.conwy.gov.uk,-3.81007100000000,LL24 0BN,2014-01-08,fhrs_1_en-GB,1,,FHRS,15
467906,"Dragonfly Fisheries, A5",Pant Dedwydd,Cerrigydrudion,Conwy,Dragonfly Cafe,Restaurant/Cafe/Canteen,1,5,,656808,10,,53.03245800000000,103538,550,regulatory.services@conwy.gov.uk,Conwy,http://www.conwy.gov.uk,-3.58559200000000,LL21 0RU,2014-04-03,fhrs_4_en-GB,4,,FHRS,0
467907,,78 Abergele Road,Colwyn Bay,,Dragons Kitchen,Takeaway/sandwich shop,7844,5,,481323,5,,53.29245100000000,102465,550,regulatory.services@conwy.gov.uk,Conwy,http://www.conwy.gov.uk,-3.72315800000000,LL29 7PP,2014-06-23,fhrs_5_en-GB,5,,FHRS,5
467908,Dunoon Hotel,Gloddaeth Street,Llandudno,Conwy,Dunoon Hotel,Hotel/bed & breakfast/guest house,7842,5,,62038,5,,53.32471500000000,13674,550,regulatory.services@conwy.gov.uk,Conwy,http://www.conwy.gov.uk,-3.83473100000000,LL30 2DW,2014-09-12,fhrs_5_en-GB,5,,FHRS,5
467909,Glyn Isa,,Rowen,Conwy,Dutch Pancake House,Restaurant/Cafe/Canteen,1,5,,62596,5,,53.23501400000000,13826,550,regulatory.services@conwy.gov.uk,Conwy,http://www.conwy.gov.uk,-3.85492600000000,LL32 8TP,2014-05-29,fhrs_4_en-GB,4,,FHRS,10
467910,,1 Treforris Road,Dwygyfylchi,Penmaenmawr,Dwygyfylchi Convenience Store,Retailers - other,4613,10,,194381,0,,53.27701600000000,102004,550,regulatory.services@conwy.gov.uk,Conwy,http://www.conwy.gov.uk,-3.89941700000000,LL34 6UB,2011-12-19,fhrs_4_en-GB,4,,FHRS,0
467911,The Eagles,Ancaster Square,Llanrwst,,Eagles Hotel,Hotel/bed & breakfast/guest house,7842,,,55883,,,53.13804900000000,12619,550,regulatory.services@conwy.gov.uk,Conwy,http://www.conwy.gov.uk,-3.79788100000000,LL26 0LG,2014-01-03,fhrs_5_en-GB,5,,FHRS,
467912,,21 Augusta Street,Llandudno,,East,Restaurant/Cafe/Canteen,1,5,,338851,10,,53.32111900000000,26257,550,regulatory.services@conwy.gov.uk,Conwy,http://www.conwy.gov.uk,-3.82768500000000,LL30 2AD,2013-11-04,fhrs_4_en-GB,4,,FHRS,5
467913,Eateasy,Station Road,Colwyn Bay,,Eateasy,Restaurant/Cafe/Canteen,1,10,,201641,5,,53.29580000000000,102085,550,regulatory.services@conwy.gov.uk,Conwy,http://www.conwy.gov.uk,-3.72719500000000,LL29 8BP,2013-10-07,fhrs_4_en-GB,4,,FHRS,5
467914,,18 High Street,Conwy,,Edwards of Conwy,Manufacturers/packers,7839,5,,56861,5,,53.28107700000000,12868,550,regulatory.services@conwy.gov.uk,Conwy,http://www.conwy.gov.uk,-3.83005600000000,LL32 8DE,2014-05-28,fhrs_5_en-GB,5,,FHRS,5
467915,,162 Conway Road,Llandudno Junction,Conwy,Efes Junction,Takeaway/sandwich shop,7844,,,201647,,,53.28371100000000,102099,550,regulatory.services@conwy.gov.uk,Conwy,http://www.conwy.gov.uk,-3.80471200000000,LL31 9DU,2014-05-14,fhrs_4_en-GB,4,,FHRS,
