,businessname,ratingvalue,structural,hygiene,confidenceinmanagement,ratingdate,latitude,longitude
467531,A & C H Davies,5,0,0,0,2014-09-25,53.101233,-3.86912
467532,A Gift From Me to You,5,0,0,0,2014-03-14,,
467533,A L & R O Jones,5,5,5,5,2014-07-08,53.138973,-3.797396
467534,A M K Indian Takeaway,1,10,15,20,2014-09-25,53.288442,-3.737985
467535,Abbey Dale House,5,5,0,5,2013-09-24,53.299354,-3.735667
467536,Abbey House,4,5,5,10,2011-06-20,53.323034,-3.839374
467537,Abbey Lodge Guest House,5,0,0,0,2013-10-29,53.325786,-3.835813
467538,Abbey Nursing Home,5,5,0,5,2014-10-30,53.323034,-3.839374
467539,Abbeyfield,4,10,5,5,2013-04-25,53.322442,-3.83576
467540,Abbeyfield,5,0,0,0,2014-09-25,53.32159,-3.835663
467541,Abbeyfield (C/Bay) Society Ltd,5,0,0,0,2012-11-29,53.303953,-3.742697
467542,Abbeyfield (C/Bay) Society Ltd,5,0,0,0,2014-09-23,53.297829,-3.737255
467543,Abbeyfield House,4,0,5,10,2014-05-07,53.283475,-3.587492
467544,ABC Cakes,5,0,5,5,2014-12-11,,
467545,Aberffraw Biscuit Co,5,5,5,5,2014-03-19,,
467546,Abergele Day Care Centre,5,0,0,0,2011-09-23,53.284276,-3.575941
467547,Abergele Golf Club,5,0,5,0,2013-12-09,53.281128,-3.596285
467548,Abergele Grill,5,0,0,0,2014-02-12,53.284652,-3.58623
467549,Abergele Hospital,5,0,0,0,2013-11-22,53.266249,-3.579551
467550,Abergele Hospital Tea Bar,5,0,0,5,2014-12-12,53.243363,-3.597561
467551,Abergele Kebab & Pizza,5,5,0,5,2014-09-13,53.284483,-3.584034
467552,Acorn Activity Centre,5,5,5,5,2014-07-22,53.289778,-3.688229
467553,Adair's,5,5,0,0,2013-11-07,53.14292,-3.802136
467554,Adcote House,5,0,0,0,2014-04-10,53.32361,-3.833498
467555,Adlington House Cafe,4,5,5,10,2013-11-26,53.312258,-3.740964
467556,Adloniant Maelor,4,5,5,10,2013-09-16,53.02537,-3.562146
467557,Afon Gwyn Country House,5,0,0,0,2013-04-13,53.078638,-3.79515
467558,Afon View Guest House,5,0,0,0,2012-06-30,53.089883,-3.800576
467559,Agar House,5,0,0,0,2013-10-28,53.321263,-3.833547
467560,Aga's Cakes,5,0,0,0,2014-09-17,,
467561,Aingarth Residential Home,3,10,10,5,2014-09-23,53.305961,-3.748017
467562,Alastair House,4,10,0,10,2014-09-11,53.312022,-3.515315
467563,Albany House Guest House,4,10,0,5,2013-10-30,53.321863,-3.809565
467564,Albion Ale House Cyf,4,10,5,5,2012-02-09,53.280668,-3.832093
467565,Aldi,5,0,5,5,2013-01-26,53.318941,-3.817263
467566,Aldi,5,0,0,0,2014-12-08,53.288842,-3.697119
467567,Alexandra Hotel,2,5,15,10,2014-09-25,53.323536,-3.827203
467568,Alexandra Hotel,4,0,10,10,2014-02-10,53.266959,-3.935605
467569,Alfredos Restaurant,5,5,0,0,2013-12-03,53.280846,-3.830451
467570,Alpine Coffee Shop,4,5,10,5,2013-07-02,53.092344,-3.800753
467571,Alvastrada,5,0,0,0,2014-04-11,53.321642,-3.830515
467572,Amanda's Snax Ltd,4,10,5,5,2014-08-28,53.288684,-3.765569
467573,Amanda's Tea Room - Sandwich Bar,4,nan,nan,nan,2014-02-14,53.293717,-3.724545
467574,Ambassador Hotel,3,10,10,10,2014-05-27,53.324701,-3.829791
467575,Amber Court,5,0,0,5,2012-10-24,53.318167,-3.842497
467576,Amelies,5,5,5,5,2014-09-18,53.281467,-3.828692
467577,Amser Da,4,5,10,5,2013-08-05,53.139597,-3.799575
467578,Anheddau,5,0,0,0,2014-07-11,,
467579,Annan Hotel,5,5,5,5,2013-05-31,53.325786,-3.835813
467580,Annas Tea Room,5,5,0,5,2013-12-17,53.281163,-3.827944
467581,Apple Residential Care Home,5,0,0,0,2014-10-24,53.293964,-3.729791
467582,Arden Towers Mentally Handicap,5,5,0,5,2014-06-25,53.293829,-3.721128
467583,Arlwyo Ty Nant Catering,5,0,0,0,2014-03-14,,
467584,Arundales,5,5,5,0,2014-01-24,53.259529,-3.708911
467585,Arvon House,4,0,0,10,2012-07-19,53.325215,-3.834332
467586,Ascot House,5,0,0,0,2014-03-12,53.321793,-3.808226
467587,Asda,5,5,5,5,2013-11-05,53.284335,-3.812779
467588,Asda Customer Cafe,4,10,5,5,2014-12-01,53.318477,-3.824074
467589,Asda Stores,5,0,0,0,2014-06-28,53.311338,-3.521746
467590,Asda Stores Ltd,5,0,5,5,2013-12-11,53.318477,-3.824074
467591,Asha Balti House,5,5,5,0,2013-10-08,53.138973,-3.797396
467592,Ashfields,4,10,0,10,2014-06-26,53.32361,-3.833498
467593,Ashley Day Centre,1,5,10,20,2014-12-02,53.275655,-3.633995
467594,Ashmount,5,0,0,0,2014-07-11,53.313573,-3.742668
467595,Asia Indian Takeaway,5,5,5,5,2014-12-11,53.32565,-3.832354
467596,Astonwood Hotel,5,0,0,0,2014-03-13,53.324374,-3.832329
467597,Audley  Guest House,5,0,0,0,2013-10-28,53.325215,-3.834332
467598,Avalon,5,0,0,0,2014-03-10,53.312768,-3.517413
467599,Aydin's,5,5,5,5,2014-09-24,53.2936,-3.72514
467600,B J's Cafe,5,5,5,5,2014-10-29,53.30179,-3.54066
467601,Badgers Tea Rooms,5,0,0,0,2013-08-16,53.323415,-3.829195
467602,Baravellis,5,5,0,0,2014-11-04,53.281062,-3.831645
467603,Barcut Rose Veal,5,5,5,5,2014-04-29,,
467604,Barnacles Restaurant,5,nan,nan,nan,2014-02-04,53.322822,-3.825671
467605,Bartons Fish and Chips,5,0,5,5,2014-10-23,53.29301,-3.723091
467606,Bashar Fine Foods LTD,5,5,5,5,2013-11-04,53.31793,-3.813407
467607,Bay Court,4,5,0,10,2014-09-02,53.311319,-3.520409
467608,Bay Grill,4,10,0,10,2014-12-08,53.295245,-3.725822
467609,Bay Grill 2,2,15,10,10,2014-05-30,53.320273,-3.810654
467610,Bay Grill II,4,nan,nan,nan,2014-05-13,53.283711,-3.804712
467611,Baytree,4,10,0,10,2014-10-23,53.326995,-3.831405
467612,Beach Cafe,5,5,5,0,2014-08-15,53.270519,-3.920574
467613,Beach Comber Club (Thornley Leisure Ltd),5,5,5,5,2014-10-27,53.292065,-3.640938
467614,Beach Cove Guest House,5,0,0,0,2014-03-13,53.327629,-3.832289
467615,Beach House Hotel,3,10,10,10,2013-08-16,53.327629,-3.832289
467616,Beach Restaurant,4,10,5,5,2013-08-08,53.317765,-3.762641
467617,Becci's Tasty Treats,5,5,5,0,2014-09-12,,
467618,Becws Alun,5,0,5,0,2014-12-03,53.268357,-3.921392
467619,Beechwood Court,5,0,0,5,2014-02-10,53.28375,-3.840356
467620,Bella Torta,5,0,0,0,2013-12-21,,
467621,Bella Vista,5,0,5,0,2013-08-15,53.327629,-3.832289
467622,Beloved Bakery,4,5,5,10,2013-06-10,,
467623,Bengal Dynasty,4,5,10,5,2014-09-10,53.326995,-3.831405
467624,Bernina,5,0,0,0,2013-09-12,53.254589,-3.976077
467625,Bespoke Cakes,5,0,5,5,2015-01-07,53.286577,-3.731473
467626,Best End Butchers,5,5,0,5,2014-09-30,53.292451,-3.723158
467627,Best One,3,5,10,10,2013-09-16,53.291668,-3.725738
467628,Best One,4,5,0,10,2014-12-05,53.284535,-3.582821
467629,Beth Eden Guest House & Tea Room,4,nan,nan,nan,2014-04-15,53.32092,-3.844673
467630,Bettys Cafe,5,5,5,5,2014-09-25,53.265871,-3.912809
467631,Betws Bakes & Cakes,5,0,5,0,2014-08-13,53.248313,-3.637584
467632,Betws y Coed Golf Club,4,10,5,0,2014-07-01,53.09423,-3.798487
467633,Bev's Cakes,4,5,5,10,2014-08-18,,
467634,Big Rock Cafe,4,10,5,5,2013-04-15,53.268089,-3.922429
467635,Billy Macs Store,5,0,0,0,2014-03-17,53.321119,-3.827685
467636,Birchwood Residental Care Home,5,0,0,5,2011-11-22,53.29162,-3.819074
467637,Birds Shop & Taxi Office,Exempt,nan,nan,nan,2014-05-07,53.308454,-3.525801
467638,Bish Pots Pantri,4,5,5,10,2014-06-04,53.324701,-3.829791
467639,Bistro Betws Y Coed,4,10,0,5,2014-02-07,53.092985,-3.804708
467640,Black Cat Garage,5,0,0,0,2014-02-11,53.278017,-3.791198
467641,Black Cat Kiosk,5,0,0,0,2012-07-26,53.30341,-3.541919
467642,Blas Ar Fwyd,4,10,5,5,2014-09-26,53.138668,-3.799177
467643,Blas o'r Wlad,5,0,0,0,2013-03-28,,
467644,Blind Veterans Uk,5,0,0,0,2014-11-21,53.314644,-3.807173
467645,Blockbuster Video Express,Exempt,nan,nan,nan,2012-10-26,53.29663,-3.727618
467646,Blue Bell,4,0,10,10,2014-12-18,53.281163,-3.827944
467647,Bobol Bach Day Nursery,2,15,10,10,2013-10-23,53.154623,-3.558311
467648,Bobs Dairy,5,5,5,5,2013-08-16,53.138208,-3.796273
467649,Bodafon Farm Park,3,10,10,10,2014-09-29,53.318567,-3.796829
467650,Bodlondeb Youth & Community Centre,5,0,0,0,2014-09-10,53.281752,-3.831795
467651,Bodnant Convenience Store,Exempt,nan,nan,nan,2014-06-28,53.303537,-3.537646
467652,Bodnant Farm Shop,5,0,0,0,2013-03-24,53.234556,-3.799196
467653,Bodnant Guest House,5,5,5,5,2012-05-17,53.321067,-3.830491
467654,Bodnant Welsh Food Farm Shop,4,5,5,10,2013-12-12,53.233881,-3.804592
467655,Bodnant Welsh Food Restaurant,4,5,10,5,2014-10-31,53.233881,-3.804592
467656,Bodnant Welsh Food Tea Room,4,5,0,10,2014-01-23,53.233881,-3.804592
467657,Bodysgallen Hall,5,nan,nan,nan,2014-08-20,53.298471,-3.80661
467658,Bombay Buffet,5,0,5,5,2013-10-17,53.308454,-3.525801
467659,Bon Appetit,4,5,10,0,2013-09-21,53.294811,-3.726599
467660,Bonkerz,5,5,0,0,2014-11-26,53.326224,-3.83361
467661,Boots the Chemist,Exempt,nan,nan,nan,2013-07-05,53.283711,-3.804712
467662,Brambles,4,5,5,10,2013-09-25,53.309658,-3.740453
467663,Branstone Guest House,5,0,0,0,2014-02-01,53.326224,-3.83361
467664,Bridge Pub,5,5,5,5,2013-12-19,53.280262,-3.827531
467665,Bridge View Bed & Breakfast,4,0,0,10,2012-11-09,53.09423,-3.798487
467666,Brig y Don Hotel,4,10,0,5,2013-10-18,53.323467,-3.825233
467667,Brigadoon Care Home,5,5,5,5,2014-11-20,53.316815,-3.838626
467668,Brigstock House,5,0,5,5,2014-03-05,53.320764,-3.832099
467669,Britannia Hotel,5,5,0,0,2014-03-12,53.321863,-3.809565
467670,British Home Stores,5,5,5,5,2014-08-13,53.318477,-3.824074
467671,Broadway Hotel,4,10,5,5,2014-03-13,53.322254,-3.822824
467672,Brompton Lodge Res. Home,5,5,5,5,2014-03-25,53.307702,-3.746347
467673,Bromwell Court Hotel,4,5,0,10,2014-03-10,53.321863,-3.809565
467674,Bron Celyn Guest House,5,0,0,0,2013-04-24,53.092842,-3.792769
467675,Bron Eryri Guest House,5,0,0,5,2013-04-13,53.098712,-3.894343
467676,Bron Eryri Hotel,5,0,0,5,2013-04-13,53.268376,-3.923552
467677,Bron Orme Hotel,5,0,0,0,2014-03-13,53.325646,-3.838465
467678,Bronafallen Residential Home,4,10,5,5,2014-10-21,53.032458,-3.585592
467679,Brown's Camp Club,5,0,0,0,2014-07-10,53.30179,-3.54066
467680,Bryn Aber Care Home,4,5,0,10,2014-06-13,53.277989,-3.584979
467681,Bryn Afon,5,5,5,5,2012-04-17,53.094289,-3.804732
467682,Bryn Arthur,5,0,0,0,2014-03-15,53.328443,-3.837264
467683,Bryn Bella Guest House,5,5,5,5,2013-02-13,53.092842,-3.792769
467684,Bryn Castell Day Care Centre,Exempt,nan,nan,nan,2013-04-22,53.251882,-3.97829
467685,Bryn Cocyn Organic Farm,5,0,0,0,2014-03-11,53.205135,-3.515314
467686,Bryn Derwen Guest House,5,0,0,0,2014-03-13,53.32462,-3.837355
467687,Bryn Eithin Hall,5,0,0,5,2014-11-24,53.297788,-3.749303
467688,Bryn Glo Cafe,5,5,5,5,2014-08-08,53.095982,-3.888533
467689,Bryn Guesthouse,5,0,0,0,2014-04-10,53.279879,-3.834895
467690,Bryn Hesketh EMI Unit,4,0,10,10,2014-02-18,53.288247,-3.710477
467691,Bryn Holcombe,5,0,0,0,2013-04-11,53.298585,-3.739102
467692,Bryn Llewelyn Guest House,5,0,0,0,2014-10-23,53.09338,-3.810071
467693,Bryn Marl Nursing Home,4,5,5,10,2014-03-07,53.287136,-3.802921
467694,Bryn Morfa Caravan Park,5,5,5,5,2013-09-27,53.286013,-3.849229
467695,Bryn Rosa Guest House,5,5,5,5,2013-01-18,53.325461,-3.835334
467696,Bryn Tyrch Inn,5,5,5,5,2014-04-03,53.103052,-3.908591
467697,Bryn Woodlands House,4,10,0,10,2014-08-28,53.293814,-3.72836
467698,Bryn Y Mor Hotel,4,5,5,10,2013-09-30,53.326995,-3.831405
467699,Bryn Y Neuadd Hospital (BCUHB),4,10,5,5,2013-10-24,53.251876,-3.985156
467700,Brynaber Post Office and Stores,Exempt,nan,nan,nan,2013-05-07,53.023467,-3.560496
467701,Buffet Coach Cafe,5,5,5,5,2013-10-25,53.09423,-3.798487
467702,Bunkers Bistro,5,5,5,5,2013-08-15,53.271505,-3.888674
467703,Burleigh House Hotel,5,0,0,0,2011-11-23,53.327629,-3.832289
467704,Butterflies,4,10,0,5,2014-10-31,53.294375,-3.814044
467705,Butterfly Cakes,5,0,0,0,2012-01-19,,
467706,Butterfly's Tea Room,5,0,0,5,2014-04-22,53.296121,-3.515143
467707,Buxton House,5,nan,nan,nan,2014-03-06,53.319818,-3.809824
467708,Caban Y Pair,4,5,5,10,2014-09-22,53.091077,-3.801327
467709,Cadnant Guest House,4,0,0,10,2013-10-28,53.322398,-3.833971
467710,Cadwaladers Ice Cream,5,5,5,5,2011-11-25,53.091077,-3.801327
467711,Cadwgan Bakery,4,5,0,10,2014-02-28,53.288842,-3.697119
467712,Cae Mor Hotel,5,5,0,5,2015-01-23,53.322113,-3.818509
467713,Caer Rhun Hall,5,5,5,5,2014-11-14,,
467714,Caerlyr Hall,5,0,0,0,2013-11-29,53.271963,-3.893839
467715,Cafe Culture,4,10,5,5,2014-03-19,53.280569,-3.830949
467716,Cafe Culture,3,10,10,10,2013-09-18,53.323943,-3.828812
467717,Cafe Express,5,5,0,5,2014-09-26,53.323415,-3.829195
467718,Cafe Orient Express,2,10,15,10,2014-03-24,53.32565,-3.832354
467719,Cafe W,5,5,5,5,2013-03-04,53.323415,-3.829195
467720,Caffe Nero,5,5,0,5,2015-01-24,53.324977,-3.830523
467721,Caffi Cais,3,10,10,10,2014-07-29,53.322254,-3.822824
467722,Caffi Coed,4,10,5,5,2014-10-21,53.093,-3.794822
467723,Caffi Contessa,1,10,10,20,2014-09-22,53.138049,-3.797881
467724,Caffi Cristobal,5,5,0,5,2014-07-01,53.091077,-3.801327
467725,Caffi Ty Tan Llan,5,0,0,5,2015-01-13,53.024757,-3.561587
467726,Cake Stall,4,10,0,10,2014-10-10,53.303124,-3.536896
467727,Cakemonsterrr,5,5,5,5,2013-11-13,,
467728,Cakes by Clair,4,5,10,5,2014-02-14,53.292451,-3.723158
467729,Cakes for Precious Moments,5,0,0,0,2013-11-16,,
467730,Cambria Club,5,0,5,0,2014-06-25,53.300508,-3.550803
467731,Cambridge Mostyn,5,5,0,5,2015-01-23,53.324977,-3.830523
467732,Candles,5,5,0,5,2014-01-17,53.323342,-3.83221
467733,Canolfan Dewi Sant Centre,Exempt,nan,nan,nan,2011-03-24,53.293344,-3.580221
467734,Canolfan Maen Alaw,Exempt,nan,nan,nan,2013-04-22,53.267678,-3.927854
467735,Canteen,5,0,5,0,2013-02-15,53.295524,-3.730139
467736,Can-y-Bae,5,0,0,0,2013-03-21,53.322758,-3.8222
467737,Capel Curig Community Centre,Exempt,nan,nan,nan,2011-08-11,53.098712,-3.894343
467738,Capel Curig Training Camp,5,0,5,0,2014-06-05,53.101233,-3.86912
467739,Capri Guest House,5,0,0,0,2014-06-27,53.327103,-3.834924
467740,Caramels Cupcakes,4,5,5,10,2013-04-30,,
467741,Cariad Bach Cupcakes,5,5,5,5,2013-11-19,,
467742,Carlo's,5,5,0,5,2014-01-22,53.321201,-3.812284
467743,Carmel Hotel,5,0,5,5,2014-03-20,53.321863,-3.809565
467744,Carmens Asian Mini Market,5,0,5,5,2014-01-20,53.320581,-3.810516
467745,Cartref Y Borth Nursing Home,5,5,0,0,2014-02-11,53.136023,-3.795105
467746,Cartrefle Care Home,5,0,5,0,2014-08-05,53.13412,-3.791363
467747,Casablanca Takeaway,4,5,5,10,2014-09-25,53.268089,-3.922429
467748,Casanova Italian Restaurant Ltd,5,5,0,0,2014-06-26,53.324374,-3.832329
467749,Castle Bank Hotel,3,5,10,10,2014-09-19,53.28051,-3.833647
467750,Castle Cove,5,0,0,0,2014-03-28,53.2941,-3.58625
467751,Castle Gallery Tea Rooms & Gift Shop,4,0,0,10,2013-12-17,53.280262,-3.827531
467752,Castle Hotel,5,5,0,0,2014-01-31,53.281467,-3.828692
467753,Castle Tea Gardens,5,0,0,0,2013-03-22,53.281163,-3.827944
467754,Castle View,5,0,5,5,2014-10-28,53.281128,-3.596285
467755,Castle View,5,0,0,0,2014-04-10,53.290399,-3.822473
467756,Cayley Arms Public House,3,10,5,10,2014-07-29,53.308062,-3.739607
467757,Cegin Minfordd,5,0,0,0,2013-05-03,,
467758,Celtalan,5,0,0,0,2012-03-23,,
467759,Celtic Catering,5,0,5,0,2013-07-05,,
467760,Central Hotel,4,5,10,5,2013-06-27,53.2958,-3.727195
467761,Centre Kiosk-Kiosk No 1,5,0,0,0,2014-09-27,53.2941,-3.58625
467762,Chandlers Brasserie Ltd,5,5,5,5,2014-09-25,53.151879,-3.824241
467763,Chang Lung,5,5,0,5,2015-01-20,53.283382,-3.800933
467764,Characters Tea House and Restaurant,5,0,5,5,2014-03-03,53.326224,-3.83361
467765,Chaseley House Rest Home,5,5,0,0,2014-01-31,53.303953,-3.742697
467766,Chatsworth House Hotel,1,10,10,20,2014-11-28,53.323467,-3.825233
467767,Cheeky Pizza,4,5,5,10,2013-09-03,53.309658,-3.740453
467768,Chelsea Hotel,5,0,0,0,2013-10-19,53.327103,-3.834924
467769,Chez illy,5,0,5,5,2014-11-04,53.281859,-3.828304
467770,Chiccadees Childminding,Exempt,nan,nan,nan,2014-09-22,,
467771,Child Adolescent Unit Catering,5,5,5,5,2014-07-29,53.266249,-3.579551
467772,Chilterns,5,0,0,0,2014-03-12,53.32361,-3.833498
467773,China Club and Kwong Chow,4,nan,nan,nan,2014-01-06,53.299986,-3.739804
467774,China Garden Restaurant,5,5,0,0,2013-10-24,53.296199,-3.728216
467775,Chips Ahoy,3,10,10,10,2013-11-12,53.299986,-3.739804
467776,Chish N Fips,5,5,5,5,2014-12-17,53.321537,-3.812103
467777,Chloe Hughes,5,0,0,0,2014-03-11,,
467778,Choc o Art,5,0,0,0,2013-10-18,,
467779,Chris's News,4,10,5,5,2014-10-23,53.29194,-3.721833
467780,Chrissy Corner,5,0,0,5,2013-09-25,,
467781,Christleton Hotel,5,0,0,0,2013-10-29,53.326224,-3.83361
467782,Church Manor Care Home,5,nan,nan,nan,2014-05-20,53.302089,-3.541916
467783,Churchill House,5,0,0,0,2014-08-07,53.090685,-3.802267
467784,Chwarae Teg,5,5,0,5,2014-01-31,53.293997,-3.577064
467785,Cineworld Cinemas Plc,5,5,0,5,2015-01-20,53.282279,-3.808431
467786,Cinnamon,5,nan,nan,nan,2014-03-12,53.254324,-3.979048
467787,Clares Cafe,5,5,0,5,2014-09-11,53.298084,-3.53667
467788,Clares Department Store,5,5,5,5,2014-07-30,53.324977,-3.830523
467789,Clare's Health Shop Ltd,4,5,0,10,2013-07-05,53.138973,-3.797396
467790,Classy Creations,5,5,5,5,2013-12-10,,
467791,Claudia Bryan,5,5,5,5,2013-07-30,53.207232,-3.845819
467792,Cleave Court Guest House,5,5,5,5,2014-06-13,53.319621,-3.833312
467793,Clebran Day Nursery,4,5,10,5,2015-01-05,53.31094,-3.814897
467794,Clement House,4,0,0,10,2013-02-14,53.324688,-3.835856
467795,Cliffbury Guest House,5,0,0,0,2013-10-19,53.319941,-3.832379
467796,Clifton Villa Guest House,5,0,0,0,2014-07-12,53.324374,-3.832329
467797,Clontarf Hotel,5,0,0,0,2014-11-06,53.32118,-3.844189
467798,Clwb Enfys,4,10,0,5,2014-05-15,53.285215,-3.80926
467799,Clwb Enfys Penmaenmawr,5,0,0,0,2014-03-10,53.268863,-3.914516
467800,Clwb Llanrwst,4,5,10,5,2014-12-30,53.138642,-3.798488
467801,Clwb Plant Nant Y Coed,Exempt,nan,nan,nan,2013-07-18,53.286584,-3.800812
467802,Clwb San Sior,5,0,0,0,2014-03-13,53.325646,-3.838465
467803,Clwb y Morfa,5,0,0,0,2014-03-10,53.287824,-3.576852
467804,Clwb Yr Efail,5,0,0,0,2013-01-24,53.281981,-3.829149
467805,Clwyd Community Care,4,10,5,5,2013-02-28,53.302185,-3.74252
467806,Co op,5,5,5,5,2014-08-26,53.139441,-3.796803
467807,Co op,5,5,0,5,2013-10-18,53.317367,-3.774905
467808,Co op,4,10,5,5,2013-11-18,53.310181,-3.74163
467809,Co op Local,4,10,0,0,2011-11-22,53.283893,-3.803954
467810,Cobdens Hotel Restaurant and Bar,4,5,5,10,2013-10-04,53.098712,-3.894343
467811,Coed Craig Residential Home,5,5,5,5,2014-06-17,53.30256,-3.750039
467812,Coed Isaf Nursing Home Ltd,4,5,5,10,2014-03-07,53.303034,-3.817473
467813,Coed Mor Residential Home,5,0,0,0,2014-10-23,53.286714,-3.585302
467814,Coed Y Fron,5,0,0,0,2012-11-09,53.090685,-3.802267
467815,Coffee Bean,5,5,5,5,2012-06-13,53.326995,-3.831405
467816,Coffee Corner,5,5,0,5,2013-12-20,53.2936,-3.72514
467817,Coffee Junction,5,0,0,0,2014-08-08,53.283382,-3.800933
467818,Coffee Lodge,5,0,0,5,2014-08-07,53.3276,-3.835966
467819,Coffee Shop,3,10,10,10,2013-11-26,53.295245,-3.725822
467820,Coffee V,4,10,0,10,2014-10-23,53.320554,-3.812287
467821,Colbourn Hotel,5,5,5,5,2013-05-10,53.300059,-3.732904
467822,Colwyn Bay Cricket Club,5,0,0,0,2013-03-28,53.311747,-3.74456
467823,Colwyn Bay Football Club,5,5,0,0,2013-10-19,53.281452,-3.698401
467824,Colwyn Bay Hospital,4,0,5,10,2015-01-07,53.288247,-3.710477
467825,Colwyn Bay Rugby Club,5,5,0,0,2013-03-21,53.304172,-3.762666
467826,Colwyn Service Station,4,0,0,10,2012-08-11,53.289865,-3.70358
467827,Concord House,4,0,0,10,2013-02-13,53.323034,-3.839374
467828,Conifers Care Home,5,5,0,0,2013-12-21,53.312437,-3.748987
467829,Conservative Club,5,0,5,0,2011-11-02,53.326103,-3.832764
467830,Convent of Mercy Nursing Home,5,0,5,5,2014-03-05,53.296722,-3.737961
467831,Conwy (Caernarvonshire) Golf Club,5,0,0,0,2014-09-11,53.290622,-3.843622
467832,Conwy Bakery,4,10,0,5,2013-12-10,53.281163,-3.827944
467833,Conwy County Sea Cadets,5,5,0,0,2014-09-11,53.293798,-3.827719
467834,Conwy Falls Cafe,4,5,10,0,2014-03-14,53.065568,-3.776472
467835,Conwy Goat Products,5,5,0,5,2014-07-16,53.299727,-3.785278
467836,Conwy Golf Club Catering,5,5,5,5,2014-09-11,53.290622,-3.843622
467837,Conwy Ice Cream,4,5,5,10,2014-05-08,53.281163,-3.827944
467838,Conwy Kebab Burger and Pizza House,4,5,5,10,2013-10-08,53.281981,-3.829149
467839,Conwy Mussels,Exempt,nan,nan,nan,2014-11-19,53.280838,-3.826326
467840,Conwy Mussels - Fish Sales,5,5,5,5,2013-07-18,53.280838,-3.826326
467841,Conwy Pantry,5,5,5,5,2014-07-24,53.281077,-3.830056
467842,Conwy United Football Club,Exempt,nan,nan,nan,2012-03-23,53.287076,-3.846785
467843,Conwy Valley Rotary Club,5,5,5,5,2014-06-23,53.135178,-3.793306
467844,Conwy Visitor Centre Ltd,1,5,10,20,2013-06-25,53.280262,-3.827531
467845,Conwy YHA,5,5,5,5,2014-03-26,53.278591,-3.839159
467846,Cooneys Irish Bar,3,10,10,5,2014-09-16,53.313061,-3.817967
467847,Co-Operative Group Ltd,5,5,0,5,2014-01-30,53.253244,-3.976434
467848,Copper Kettle,5,0,5,0,2012-11-29,53.309658,-3.740453
467849,Cordonbleu Catering,5,0,0,0,2012-02-27,,
467850,Corner Cupboard / Ate Days a Week Ltd,1,10,10,20,2014-04-17,53.296665,-3.729555
467851,Corner Stores,4,5,5,10,2013-08-19,53.312604,-3.828973
467852,Cornerways House,5,5,0,0,2013-10-19,53.320764,-3.832099
467853,Cost Cutter,1,0,15,20,2014-06-28,53.294444,-3.578581
467854,Costa Coffee,5,5,0,5,2014-12-23,53.281163,-3.827944
467855,Costa Coffee,5,5,0,0,2013-11-13,53.295245,-3.725822
467856,Costa Coffee,5,5,0,5,2014-08-08,53.321311,-3.821628
467857,Cottage Loaf,5,5,5,5,2014-06-23,53.324761,-3.832316
467858,Country Cooks,5,0,0,0,2014-03-14,52.997668,-3.517962
467859,County Hotel,5,0,0,0,2014-03-28,53.32171,-3.811345
467860,Crafnant Guest House,5,0,0,0,2013-04-13,53.151879,-3.824241
467861,Craig Ard Hotel,5,5,0,5,2014-06-11,53.325347,-3.834533
467862,Craig Y Dderwen Riverside Hotel,5,0,0,0,2014-02-11,53.084457,-3.796766
467863,Craig y Don Out of School Club,5,5,0,0,2014-09-23,53.31799,-3.814205
467864,Craig y Don Playschool,5,0,0,5,2014-03-12,53.320273,-3.810654
467865,Craiglands Guest House,5,0,0,0,2013-10-30,53.321793,-3.808226
467866,Craigside Brewers Fayre,4,10,0,5,2014-03-31,53.323582,-3.788001
467867,Cranberry Guest House,5,0,0,0,2014-06-27,53.325461,-3.835334
467868,Crickleigh House,4,0,0,10,2014-03-12,53.322398,-3.833971
467869,Cross Keys,5,5,5,5,2013-03-26,53.323019,-3.830439
467870,Cross Keys Inn,5,0,0,5,2012-03-01,53.317724,-3.781766
467871,Crossroads Cafe,5,0,5,0,2014-07-10,53.309836,-3.521047
467872,Crosville Social Club,4,10,0,5,2014-09-25,53.284772,-3.817162
467873,Cues Snooker Club,5,0,5,0,2013-05-06,53.303537,-3.537646
467874,Cumberland House Bakery,3,5,10,10,2014-09-29,53.284239,-3.58215
467875,Cups N Cakes,5,5,0,0,2014-05-02,53.324977,-3.830523
467876,Cwmni Cacen Gri Cyf,5,5,5,5,2014-06-23,53.092344,-3.800753
467877,Cwrt Sant Tudno,5,5,5,5,2014-03-27,53.321224,-3.813141
467878,Cylch Meithrin,5,0,0,0,2014-03-10,53.268863,-3.914516
467879,Cylch Meithrin Llanfairfechan,5,0,0,0,2014-11-21,53.252789,-3.975124
467880,Cymru Ices,5,5,0,0,2014-04-11,,
467881,D Company 3rd Battalion The Royal Welsh,5,0,0,0,2014-06-26,53.287921,-3.7175
467882,Daffodil Day Centre,5,5,0,5,2014-07-10,53.290199,-3.726623
467883,Daffodil Fudge,5,0,0,5,2011-04-27,,
467884,Dan's Den Cafe,4,5,5,10,2013-10-29,53.29096,-3.717457
467885,Darbey Fish Restaurant,5,5,0,5,2014-11-21,53.2958,-3.727195
467886,David Windsor,Exempt,nan,nan,nan,2013-09-14,,
467887,Debenhams,5,0,0,0,2015-01-24,53.321311,-3.821628
467888,Deganwy News & General Store,Exempt,nan,nan,nan,2013-01-26,53.290008,-3.822756
467889,Deganwy Village Stores,3,10,10,10,2013-08-19,53.295263,-3.834159
467890,Delights of the Sea (Kiosk No 4),4,10,0,10,2014-04-24,53.326995,-3.831405
467891,Delish Ices,5,5,5,5,2014-04-12,,
467892,Delmar,5,0,0,0,2011-09-16,53.32361,-3.833498
467893,Devine,5,5,5,5,2014-02-27,53.323515,-3.830896
467894,Diane's Deli,5,0,0,0,2014-03-31,53.30341,-3.541919
467895,Dino's,3,10,10,10,2014-06-18,53.268132,-3.920872
467896,Dol Awel Residential Home,5,5,5,5,2014-07-22,53.297105,-3.566345
467897,Dol Gethin,5,0,5,0,2014-09-25,53.09338,-3.810071
467898,Dolwen Farm Shop,5,5,0,0,2011-09-21,53.26173,-3.653539
467899,Dolwen Guest House,5,0,0,0,2013-10-28,53.321776,-3.831737
467900,Dolweunydd Guest House,5,0,0,5,2013-04-13,53.09349,-3.819977
467901,Dominos Pizza,5,5,0,5,2014-08-14,53.295574,-3.726675
467902,Donut Stall,4,10,0,10,2013-02-12,,
467903,Donuts,5,0,0,0,2014-05-08,53.326995,-3.831405
467904,Dragon City Chinese Take Away,3,10,10,10,2013-10-23,53.309658,-3.740453
467905,Dragon Hotel and Restaurant,1,15,15,20,2014-01-08,53.09338,-3.810071
467906,Dragonfly Cafe,4,0,10,5,2014-04-03,53.032458,-3.585592
467907,Dragons Kitchen,5,5,5,5,2014-06-23,53.292451,-3.723158
467908,Dunoon Hotel,5,5,5,5,2014-09-12,53.324715,-3.834731
467909,Dutch Pancake House,4,10,5,5,2014-05-29,53.235014,-3.854926
467910,Dwygyfylchi Convenience Store,4,0,0,10,2011-12-19,53.277016,-3.899417
467911,Eagles Hotel,5,nan,nan,nan,2014-01-03,53.138049,-3.797881
467912,East,4,5,10,5,2013-11-04,53.321119,-3.827685
467913,Eateasy,4,5,5,10,2013-10-07,53.2958,-3.727195
467914,Edwards of Conwy,5,5,5,5,2014-05-28,53.281077,-3.830056
467915,Efes Junction,4,nan,nan,nan,2014-05-14,53.283711,-3.804712
467916,Efes Kebab House,3,10,10,10,2014-06-16,53.294811,-3.726599
467917,Eirias Events Centre Barn,5,0,0,5,2014-10-24,53.290165,-3.698266
467918,Eirias Events Centre Kiosk,5,0,0,5,2014-10-24,53.290165,-3.698266
467919,Eirias High School,4,5,0,10,2014-09-08,53.29096,-3.717457
467920,Eithinog Home,4,10,5,5,2014-09-25,53.292091,-3.74853
467921,Elderly Peoples Centre,Exempt,nan,nan,nan,2012-02-27,53.319283,-3.833117
467922,Elen's Castle Hotel,3,10,5,10,2013-06-07,53.054624,-3.886962
467923,Elior UK,4,0,10,5,2015-01-12,53.288193,-3.583541
467924,Elm Tree Hotel,5,5,5,5,2013-02-28,53.326995,-3.831405
467925,Elpiniki Guest House,5,0,0,0,2012-08-11,53.324147,-3.834256
467926,Elsinore Hotel,4,5,5,10,2014-01-30,53.324414,-3.827946
467927,emergency gift boxes.co.uk,4,5,5,10,2013-09-10,,
467928,Emma James,4,10,0,10,2014-01-07,,
467929,Emmanuel Christian Centre,Exempt,nan,nan,nan,2014-03-28,53.323342,-3.83221
467930,Emmazing Bakes,5,5,5,5,2013-05-03,,
467931,Emperor Chinese Restaurant,4,5,5,10,2014-09-18,53.326103,-3.832764
467932,Emperor's Kitchen,5,5,5,0,2014-09-11,53.308076,-3.740493
467933,Empire Hotel,4,5,0,10,2014-11-21,53.327604,-3.833339
467934,Enochs Fish & Chips,5,nan,nan,nan,2014-06-04,53.283711,-3.804712
467935,Epperstone Hotel,5,5,5,5,2013-05-23,53.324528,-3.837501
467936,Eryl Fryn Care Home,5,5,5,5,2014-03-30,53.318745,-3.791012
467937,Escape Boutique B&B,5,5,0,0,2013-10-29,53.325646,-3.838465
467938,Eurest Services,5,0,0,0,2014-06-05,53.101233,-3.86912
467939,Evans' Hotel Ltd,4,5,5,10,2013-06-28,53.32156,-3.826488
467940,Fairhaven Bed and Breakfast,5,0,0,5,2014-05-07,53.092985,-3.804708
467941,Fairhaven Care Home,4,10,0,10,2014-07-01,53.298225,-3.73355
467942,Fairhaven Hotel,5,5,5,0,2014-03-17,53.321863,-3.809565
467943,Fairview Inn,2,10,15,10,2014-02-27,53.290022,-3.64242
467944,Fairy Falls Hotel,5,5,5,5,2014-10-15,53.151879,-3.824241
467945,Fairy Glen Hotel,5,0,5,5,2014-09-18,53.271589,-3.887373
467946,Farm And Dairy Produce,5,0,0,0,2013-02-12,53.138208,-3.796273
467947,Farmhouse Cafe,5,5,0,0,2013-12-09,53.283779,-3.582928
467948,Fat Cat Cafe,5,5,5,5,2014-04-24,53.303537,-3.537646
467949,Ffarm Country House,5,5,5,5,2013-05-14,53.246417,-3.642772
467950,Ffarm Vintners Ltd,Exempt,nan,nan,nan,2014-03-10,53.248063,-3.640062
467951,Ffin y Parc Gallery,5,5,5,5,2014-05-13,53.122371,-3.77986
467952,Ffordd Dyffryn Playgroup,5,0,0,5,2014-09-16,53.316146,-3.835399
467953,Firs Cottage B & B,5,0,0,5,2012-11-30,53.186268,-3.817663
467954,First Steps Day Nursery,5,0,0,0,2013-12-09,53.307742,-3.7498
467955,Fish Tram Chips,5,5,0,5,2014-09-29,53.3276,-3.835966
467956,Fishermans Cafe,5,5,0,5,2014-08-28,53.281163,-3.827944
467957,Five Acres Market Garden,5,5,5,5,2013-02-04,53.207232,-3.845819
467958,Flat White Cafe,5,0,0,5,2014-08-20,53.296199,-3.728216
467959,Flockton Villa,5,0,0,0,2013-10-18,53.324147,-3.834256
467960,Flo's Diner @ Junction 23 A55 West Bound,5,5,5,5,2014-02-07,,
467961,Foelas Arms,3,10,10,10,2014-12-12,53.04893,-3.684154
467962,Food For Thought Conwy,5,0,0,0,2014-04-01,53.320268,-3.835126
467963,Food Hampers Direct Ltd,4,10,5,5,2013-07-26,,
467964,Fortes,5,5,0,0,2014-07-28,53.323943,-3.828812
467965,Fortes (Wales) Ltd,5,0,5,5,2014-01-30,53.309891,-3.739306
467966,Fortune House,5,5,5,5,2013-12-09,53.30848,-3.74177
467967,Fountains Bar Cafe,3,5,10,10,2013-10-23,53.326103,-3.832764
467968,Four Oaks Hotel,5,5,5,5,2014-09-12,53.322258,-3.819056
467969,Fourways Stores,Exempt,nan,nan,nan,2011-09-19,53.302527,-3.540041
467970,Foxy Feasts,5,5,0,5,2014-03-13,,
467971,Fron Farm Community Centre,Exempt,nan,nan,nan,2014-07-11,53.285558,-3.71364
467972,Fruits and Shoots,5,5,0,5,2014-07-23,53.281163,-3.827944
467973,Frydays,4,5,5,10,2014-12-17,53.315352,-3.770798
467974,Fryz,4,5,5,10,2014-06-25,53.305602,-3.533023
467975,Full House,4,10,5,5,2013-12-09,53.320554,-3.812287
467976,Funkadory Cakes,1,5,10,20,2014-08-28,53.30971,-3.740034
467977,Furzemount Res. Home,4,5,5,10,2014-09-30,53.287888,-3.745178
467978,Futchers Convenience Store,4,10,0,5,2012-03-14,53.295907,-3.73098
467979,G & P Stores,5,5,5,5,2012-12-05,53.315082,-3.834438
467980,G I Joes,5,0,0,0,2014-03-29,53.30341,-3.541919
467981,Gallery Cafe,4,5,5,10,2014-03-11,53.321024,-3.825669
467982,Garfield Residential Care Home,5,0,5,0,2011-11-23,53.288314,-3.777766
467983,Garth Dderwen Guest House,5,0,0,0,2014-05-07,53.090685,-3.802267
467984,Garys Coastal Cakes,5,0,0,5,2015-01-15,,
467985,George & Dragon,5,0,0,5,2013-10-08,53.284483,-3.584034
467986,Gerrards Cafe,5,5,0,5,2014-09-26,53.323415,-3.829195
467987,Giler Arms Hotel,4,10,5,5,2014-09-25,53.043187,-3.653932
467988,Gillians Kitchen,4,0,10,10,2013-10-23,53.289018,-3.698671
467989,Glan Aber Hotel,5,5,0,5,2014-02-11,53.091077,-3.801327
467990,Glan Conwy General Store,5,0,5,0,2014-02-12,53.268284,-3.795769
467991,Glan Heulog Guest House,5,0,0,0,2013-04-23,53.277181,-3.832049
467992,Glan Llugwy,5,0,0,0,2012-11-09,53.09338,-3.810071
467993,Glan Y Mor Hotel,5,0,0,5,2014-12-12,53.321863,-3.809565
467994,Glanafon Cafe,5,5,5,5,2014-09-30,53.138668,-3.799177
467995,Glanarvon House,5,0,0,0,2014-10-08,53.257788,-3.97453
467996,Glascoed Guest House,5,5,0,5,2011-11-03,53.324374,-3.832329
467997,Glascoed Registered Home,5,0,0,0,2014-10-24,53.299353,-3.745
467998,Glenhaven Residential Home,4,5,0,10,2014-04-11,53.321224,-3.813141
467999,Glenn's Ices,5,0,0,0,2014-07-04,53.154803,-3.835253
468000,Glenthorne Hotel,5,0,0,0,2014-07-22,53.324271,-3.836109
468001,Glyn Farm Cider,4,10,0,5,2014-09-24,53.150537,-3.823242
468002,GM + JM Jackson,5,0,0,0,2013-05-07,52.990306,-3.471429
468003,Godfather,3,10,10,10,2014-06-26,53.321119,-3.827685
468004,Golden Bay,4,nan,nan,nan,2014-01-23,53.310844,-3.518171
468005,Golden Bowl,3,10,10,5,2014-06-25,53.28255,-3.653548
468006,Golden City,3,10,5,10,2014-09-24,53.29194,-3.721833
468007,Golden City,3,10,10,10,2014-09-18,53.285661,-3.807149
468008,Golden Gate Chippy,5,0,0,5,2014-09-13,53.301142,-3.554622
468009,Golden Gate Diner,5,5,0,0,2014-05-19,53.301142,-3.554622
468010,Golden Sands Supermarket,Exempt,nan,nan,nan,2014-06-28,53.308605,-3.530144
468011,Good Taste Bistro,5,5,0,5,2014-09-23,53.295245,-3.725822
468012,Gorlan Fwyta,5,0,0,5,2014-02-11,53.140931,-3.798704
468013,Graham Paul Nosworthy,3,10,10,10,2013-10-03,,
468014,Granby House,5,0,0,0,2012-10-05,53.32361,-3.833498
468015,Grand Ash Hotel,2,15,10,10,2014-03-17,53.324841,-3.834136
468016,Grand Hotel,4,10,5,5,2014-09-03,53.328418,-3.828914
468017,Great Orme Brewery (Retail),Exempt,nan,nan,nan,2014-06-04,53.248258,-3.781755
468018,Great Orme Summit Complex,4,0,10,10,2014-06-04,53.334567,-3.853387
468019,Great Wall,3,10,10,5,2014-12-08,53.284239,-3.58215
468020,Greenfield Road Chippy,5,5,0,5,2014-05-13,53.293515,-3.722946
468021,Greggs,5,0,0,0,2014-03-15,53.323943,-3.828812
468022,Griffiths Bakery,3,10,10,5,2014-03-24,53.139052,-3.79577
468023,Groesffordd Post Office & Shop,3,10,10,5,2013-01-10,53.230083,-3.856391
468024,Grove House,5,0,0,5,2012-11-09,53.089883,-3.800576
468025,Grumpys Sweet Shop,Exempt,nan,nan,nan,2013-10-28,53.326103,-3.832764
468026,Guy's Cliffe Rest Home,5,5,5,0,2014-11-26,53.298528,-3.737464
468027,Gwalia House Ltd,5,5,5,5,2014-03-11,53.284535,-3.582821
468028,Gwern Borter Manor,5,0,0,0,2014-09-10,53.241077,-3.856447
468029,Gwesty Glyndwr,5,5,5,5,2014-01-24,53.294099,-3.580204
468030,Gwydir Day Centre,4,10,5,5,2014-01-29,53.138208,-3.796273
468031,Gwydyr Hotel,5,5,5,5,2013-10-25,53.091077,-3.801327
468032,Gwynfryn Bed & Breakfast,5,0,0,0,2012-07-20,53.281046,-3.830924
468033,Gyffin Education Centre,Exempt,nan,nan,nan,2014-03-14,53.273669,-3.836533
468034,H & S Chippy,4,5,10,5,2014-09-30,53.324374,-3.832329
468035,Habit Tea Rooms,5,0,0,0,2013-02-14,53.322133,-3.825492
468036,Hafan Gwydir Coffee Shop,5,5,0,0,2013-10-22,53.13705,-3.759984
468037,Hafan Y Mor,5,0,5,5,2011-05-25,53.324374,-3.832329
468038,Halewood Residential Home,5,5,5,5,2014-02-28,53.3006,-3.747002
468039,Ham Bone Food Hall,5,0,5,0,2013-12-10,53.324251,-3.830372
468040,Happy House,5,0,5,5,2013-10-29,53.268677,-3.922726
468041,Happy Valley Cafe,5,5,5,5,2014-05-27,,
468042,Harbour Cafe,5,0,5,5,2014-02-28,53.309203,-3.739623
468043,Harbour View Fish And Chip Shop,5,0,0,0,2014-08-08,53.290399,-3.822473
468044,Harp Stores,4,10,0,5,2013-12-16,53.138973,-3.797396
468045,Harvest Moon,3,10,10,5,2014-12-11,53.255017,-3.979005
468046,Harvey's New York Bar & Grill,5,5,0,5,2014-05-27,53.324752,-3.831159
468047,Hatfield House Hotel,5,0,0,0,2014-07-12,53.321263,-3.833547
468048,Haulfre Garden Cafe,5,5,5,5,2013-09-17,53.325913,-3.839212
468049,Haversham House,5,0,0,0,2014-09-02,53.325347,-3.834533
468050,Hawke And Buckle Inn,5,0,0,5,2013-10-14,53.222442,-3.525032
468051,Headlands Hotel,5,0,0,0,2014-08-07,53.328226,-3.831473
468052,Heart of Wales Holidays,5,0,5,5,2013-10-29,53.28299,-3.798891
468053,Hen-dy Hotel,5,5,5,5,2013-06-27,53.326995,-3.831405
468054,Hickory Smokehouse,5,5,5,5,2014-03-25,53.307742,-3.7498
468055,High Pastures Nursing Home,5,5,5,5,2014-02-28,53.296821,-3.815768
468056,HMV,Exempt,nan,nan,nan,2013-06-28,53.324752,-3.831159
468057,Holcombe House,5,0,0,0,2012-07-20,53.325461,-3.835334
468058,Hollybank Guest House,4,0,5,10,2011-05-11,53.320764,-3.832099
468059,Holme's Place,5,nan,nan,nan,2014-04-09,53.325819,-3.830739
468060,Holy Trinity Church,Exempt,nan,nan,nan,2011-09-21,53.322822,-3.825671
468061,Home Cookin,5,0,0,0,2014-09-25,53.326541,-3.832332
468062,Home from Home,5,5,5,5,2014-09-29,53.317633,-3.776973
468063,Homemade & Hand Delivered Meals Ltd,5,0,5,5,2015-01-12,,
468064,Hong Kong City,4,nan,nan,nan,2014-04-02,53.297873,-3.563327
468065,Humphreys of Rhos on Sea,1,5,15,20,2015-01-12,53.308076,-3.740493
468066,Hungrys,2,15,15,10,2014-03-05,53.292355,-3.762345
468067,Hydro Hotel,5,0,0,0,2014-02-10,53.322342,-3.820005
468068,Ian Wells,5,0,0,0,2011-08-03,,
468069,Ice Cream Kiosk,4,5,0,10,2014-05-30,53.334567,-3.853387
468070,Iceland Frozen Foods Plc,5,0,0,0,2012-10-24,53.295245,-3.725822
468071,Iceland Frozen Foods PLC,5,0,5,5,2013-01-24,53.284335,-3.812779
468072,Iceland Frozen Foods Plc,5,5,0,0,2012-08-11,53.318941,-3.817263
468073,Iechyd Da Delicatessen,4,5,10,5,2013-07-02,53.092344,-3.800753
468074,Imperial Hotel,5,0,5,5,2014-09-30,53.322971,-3.824131
468075,Indulgence,5,5,5,5,2014-05-12,53.323536,-3.827203
468076,Inglenook,5,5,5,5,2014-04-28,53.321024,-3.825669
468077,Iris Hotel,3,5,10,10,2014-11-21,53.323263,-3.824489
468078,Itaca,4,0,0,10,2013-02-11,53.284406,-3.580371
468079,J & D Ices,5,0,0,5,2013-04-22,,
468080,J D Wetherspoon Plc,5,5,5,0,2014-03-20,53.324945,-3.832624
468081,J R Davies,4,5,5,10,2012-06-27,,
468082,J Williams Butchers,5,5,5,5,2014-03-20,53.255017,-3.979005
468083,Jaap's Catch,2,15,10,10,2013-10-29,53.295245,-3.725822
468084,Jackies,5,5,5,5,2014-09-04,53.290072,-3.701068
468085,Jacks,5,5,5,5,2011-06-21,53.324945,-3.832624
468086,Jade 2,1,nan,nan,nan,2014-05-19,53.138668,-3.799177
468087,Jade Garden,1,10,20,20,2014-01-15,53.28415,-3.806575
468088,Jai-Ho Restaurant,5,0,5,5,2014-09-25,53.295549,-3.834861
468089,James Fish Bar,4,0,5,10,2014-07-10,53.29194,-3.721833
468090,Jasmine House,3,10,10,10,2014-06-27,53.322822,-3.825671
468091,Jims Ices,5,5,5,5,2012-03-29,,
468092,John Nike Leisure Sport Llandudno Ski Centre,4,10,5,5,2014-08-06,53.329314,-3.836731
468093,Joint School For Adventurous Training Instructors,5,0,5,0,2013-04-10,53.142132,-3.795973
468094,Jolly Fryer,4,0,0,10,2013-09-12,53.255017,-3.979005
468095,Judith Bond Cakes,5,0,0,0,2014-06-02,,
468096,Jumping Jacks Day Nursery,5,0,0,0,2014-09-02,53.296121,-3.515143
468097,Junction Chinese Take Away,4,10,5,5,2014-12-04,53.28415,-3.806575
468098,Just a Snack,5,5,5,5,2015-01-30,53.295371,-3.728888
468099,K & C Takeaway,5,0,0,0,2014-08-08,53.294099,-3.580204
468100,K J Cupcakes,Exempt,nan,nan,nan,2011-08-12,,
468101,Karden House Hotel,5,0,0,0,2014-11-21,53.32156,-3.826488
468102,Kava Cafe,5,5,5,0,2014-07-10,53.326103,-3.832764
468103,Kelly's Ices/Sweets,5,5,5,5,2012-06-13,53.326995,-3.831405
468104,Kenmore Hotel,5,0,0,5,2013-08-16,53.320333,-3.830294
468105,Ken's Kitchen,5,0,0,0,2014-12-18,53.288841,-3.697179
468106,Kensington Hotel,4,0,10,10,2014-09-12,53.322686,-3.821626
468107,KFC,5,0,5,0,2014-12-01,53.322822,-3.825671
468108,KFC,5,0,0,0,2014-06-12,53.294835,-3.727441
468109,KFC,4,10,5,5,2014-03-31,53.282972,-3.807231
468110,Kiddies Corner Day Nursery,5,5,5,5,2014-08-18,53.316815,-3.838626
468111,Kidz Zone,4,10,0,10,2014-07-22,53.292264,-3.726797
468112,King's,3,10,5,10,2013-09-30,53.323019,-3.830439
468113,Kings House,3,10,5,10,2014-08-27,53.326541,-3.832332
468114,Kinmel Arms,5,5,0,0,2013-02-11,53.268852,-3.54
468115,Kinmel Bay Church,5,0,0,0,2014-03-19,,
468116,Kinmel Bay Members Club,5,0,5,0,2014-12-01,53.312115,-3.518606
468117,Kinmel Hotel,4,10,0,10,2014-09-25,53.322775,-3.822291
468118,Kinmel Lodge Residential Home,5,5,0,5,2014-12-02,53.312768,-3.517413
468119,Kinmel Manor Hotel Ltd,4,10,5,5,2014-06-24,53.279637,-3.567086
468120,Kiosk 1,5,5,5,5,2012-08-22,,
468121,Kiosk Ali @ Eirias Park,1,15,0,20,2013-06-18,53.2999,-3.732132
468122,Kiosk No 1 (Cayley Kiosk),5,5,5,0,2013-08-23,53.306295,-3.739895
468123,Kiosk No 2,5,0,5,0,2013-09-14,53.2999,-3.732132
468124,Kiosk No 4,5,0,0,0,2014-09-10,53.2941,-3.58625
468125,Kiosk No. 6,3,10,10,5,2013-06-19,53.297222,-3.722765
468126,KK and K Asian Foods,5,0,0,5,2012-01-19,53.2936,-3.72514
468127,Knights Donuts,5,0,0,0,2014-06-13,,
468128,L J Stores,4,0,5,10,2014-12-05,53.286109,-3.678063
468129,La Barrica,3,5,10,10,2014-07-10,53.138257,-3.798368
468130,La Dolce Vita,5,5,0,5,2013-10-29,53.30971,-3.740034
468131,La Parisienne,4,10,10,0,2014-08-07,53.299317,-3.738846
468132,La Reina Arts Cafe,4,10,5,5,2013-10-28,53.308062,-3.739607
468133,La Taverna,5,5,0,5,2014-03-28,53.327629,-3.832289
468134,Lakelands Guest House,5,0,0,0,2012-10-05,53.322398,-3.833971
468135,Lakeside cafe,5,0,0,5,2014-08-14,53.143562,-3.85167
468136,Lansdowne Hotel,5,0,0,0,2014-08-09,53.324528,-3.837501
468137,Larkfield Residential Home,3,5,10,10,2014-02-24,53.30848,-3.74177
468138,Lauriston Court,5,5,0,5,2013-11-29,53.326995,-3.831405
468139,Lawton Court Hotel,5,0,0,5,2014-05-08,53.326995,-3.831405
468140,Le Gallois Restaurant,5,5,0,5,2014-07-31,53.268514,-3.920604
468141,Le Gatte,3,10,10,10,2013-09-25,53.320581,-3.809886
468142,Le Sport Health & Fitness,1,10,15,20,2014-06-26,53.310863,-3.741102
468143,Leopolds Cafe,4,5,5,10,2013-11-27,53.322822,-3.825671
468144,Let Them Eat Cake,5,0,0,0,2014-10-01,53.323019,-3.830439
468145,Lifestyle Convenience Store,4,10,5,0,2013-09-21,53.28255,-3.653548
468146,Liftestyle Express,Exempt,nan,nan,nan,2013-01-02,53.248063,-3.640062
468147,Links Hotel,3,10,10,10,2013-06-28,53.316991,-3.818997
468148,Little Angels Day Nursery,5,5,0,5,2014-03-05,53.321299,-3.832948
468149,Little Home Bakery,5,0,5,5,2014-09-17,,
468150,Little Lambs Day Nursery,5,5,5,0,2013-10-07,53.309009,-3.518961
468151,Llaeth Y Llan,5,5,0,0,2014-03-19,53.223738,-3.502265
468152,Llandrillo College,5,5,0,5,2014-09-11,53.286184,-3.576446
468153,Llandrillo College,5,5,5,5,2015-01-06,53.311116,-3.75872
468154,Llandudno Cricket Club,5,0,0,0,2014-03-13,53.320919,-3.840124
468155,Llandudno FC Club House,5,5,0,0,2014-03-15,53.316492,-3.831601
468156,Llandudno Hospital,4,5,5,10,2014-05-07,53.311444,-3.828413
468157,"Llandudno Hostel, Llys Madoc",5,0,0,0,2014-09-12,53.32156,-3.826488
468158,Llandudno Junction Community Club,5,5,5,5,2013-10-01,53.291132,-3.810951
468159,Llandudno Junction Football Club,5,5,0,0,2014-10-13,53.285118,-3.812137
468160,Llandudno Junction Labour Club,5,0,0,5,2010-10-01,53.284617,-3.808995
468161,Llandudno Junction Labour Club Canteen,5,0,5,5,2010-10-01,53.284617,-3.808995
468162,Llandudno Junction Youth Centre,5,0,0,5,2014-07-10,53.285894,-3.806034
468163,Llandudno Rugby Club,5,5,0,0,2014-12-01,53.312205,-3.822126
468164,Llandudno Superbowl Ltd,5,5,5,0,2011-11-03,53.318941,-3.817263
468165,Llanfair Arms,5,0,0,0,2014-03-11,53.252015,-3.974084
468166,Llanfairfechan Golf Club,5,0,0,0,2014-03-11,53.24825,-3.97556
468167,Llanfairfechan Play Group,5,0,0,0,2014-10-08,53.252789,-3.975124
468168,Llanfairfechan Sailing Club,5,0,0,0,2014-04-10,53.259096,-3.980258
468169,Llanfairtalhaiarn Post Office and Stores,5,0,0,0,2014-12-09,53.218177,-3.607347
468170,Llannefydd Hall,Exempt,nan,nan,nan,2014-03-11,,
468171,Llanrhos Old School,Exempt,nan,nan,nan,2012-09-12,53.303948,-3.812409
468172,Llanrhos Post Office & Corner Store,5,0,0,5,2013-01-26,53.301269,-3.825352
468173,Llanrwst Kebab,3,10,10,5,2014-03-04,53.137767,-3.797525
468174,Lledr Hall Outdoor Education Centre,5,5,0,0,2014-07-17,53.065076,-3.862688
468175,Llewelyn's,4,0,10,5,2012-03-03,53.138973,-3.797396
468176,Llyn Brenig Cafe,3,10,10,10,2013-10-25,53.065513,-3.557106
468177,Llyn Brenig Sailing Club,4,10,0,5,2014-09-21,53.065513,-3.557106
468178,Llys Elian Home For Elderly,5,5,0,0,2014-07-09,53.272719,-3.697618
468179,Llys Llewelyn Hotel,5,0,0,0,2012-03-23,53.28051,-3.833647
468180,Llys y Coed,5,0,5,5,2013-10-07,53.251501,-3.977988
468181,Llysfaen Community Centre,Exempt,nan,nan,nan,2014-07-11,53.281395,-3.658424
468182,Londis,5,5,5,5,2015-01-08,53.290072,-3.701068
468183,Londis,4,0,0,10,2012-11-30,53.323019,-3.830439
468184,Londis,5,0,5,0,2010-12-30,53.313648,-3.749171
468185,Londis,4,5,10,5,2013-07-03,53.091337,-3.801951
468186,London Hotel,5,5,0,5,2014-05-09,53.326541,-3.832332
468187,Long Bar Restaurant,5,5,0,5,2013-06-29,53.304378,-3.544265
468188,Loretto Centre,5,0,0,0,2014-02-10,53.322718,-3.843519
468189,Louises Kiosk (Knightly's),1,0,0,20,2014-08-07,53.303692,-3.54517
468190,Low House Products,4,0,5,10,2013-07-23,,
468191,Lowthers,5,0,0,5,2013-10-02,53.284535,-3.582821
468192,L's Coffee & Book Shop,4,10,5,5,2014-02-26,53.281467,-3.828692
468193,Lucky House,4,10,5,0,2014-02-10,53.316355,-3.837015
468194,Lymehurst Bed and Breakfast,5,0,0,0,2014-10-23,53.32189,-3.836006
468195,Lyndale Hotel & Tamarind Thai Restaurant,4,5,5,10,2014-01-22,53.288929,-3.689771
468196,Lynton House Hotel,5,0,0,0,2014-06-28,53.327629,-3.832289
468197,Maelgwyn Public House,4,10,5,0,2014-04-10,53.283054,-3.803559
468198,Maenan Abbey Hotel,5,0,0,5,2014-08-07,53.175156,-3.812375
468199,Maesdu Catering,5,5,5,5,2014-01-30,53.312758,-3.830075
468200,Maesdu Golf Club Bar,5,5,0,5,2014-01-30,53.312758,-3.830075
468201,Magnolia Tea Room,5,0,0,0,2012-03-23,53.234556,-3.799196
468202,Magpie and Stump,5,0,0,0,2014-06-26,53.305842,-3.524792
468203,Maine St (4) Ltd,5,5,0,5,2014-11-22,53.303124,-3.536896
468204,Mairlys Guest House,5,0,0,0,2012-11-09,53.089883,-3.800576
468205,Maisie Cakes,5,0,0,0,2014-05-20,53.241769,-3.702299
468206,Maisie's,5,0,0,0,2013-11-29,53.323019,-3.830439
468207,Mama Basu's,5,0,0,0,2014-08-08,53.276864,-3.591806
468208,Mamma Rosa,5,5,5,5,2013-10-10,53.320554,-3.812287
468209,Manha Spice,2,15,10,10,2014-06-18,53.268103,-3.92096
468210,Manor Hotel,5,5,0,5,2014-03-11,53.321863,-3.809565
468211,Maries kitchen,4,5,0,10,2014-08-08,,
468212,Marine Court Care Home,5,nan,nan,nan,2013-12-12,53.297922,-3.732772
468213,Marine Hotel,5,0,5,0,2014-06-27,53.289888,-3.705082
468214,Market Cafe & Bar,5,0,5,5,2014-11-22,53.303124,-3.536896
468215,Marks & Spencer,5,0,0,0,2013-10-28,53.323901,-3.8286
468216,Marks & Spencer Catering Unit,Exempt,nan,nan,nan,2013-10-28,53.323901,-3.8286
468217,Marks and Spencer Cafe,5,0,0,0,2013-10-28,53.323901,-3.8286
468218,Marlborough Hotel,5,5,0,5,2014-08-08,53.325819,-3.830739
468219,Marle Hall,5,5,5,5,2013-12-05,53.291905,-3.805042
468220,Marmalade,4,nan,nan,nan,2014-03-06,53.309146,-3.739861
468221,Mayfair Guest House,5,0,0,0,2012-06-30,53.32361,-3.833498
468222,McDonalds,5,0,5,5,2014-12-04,53.282972,-3.807231
468223,McDonalds Restaurant,5,5,0,5,2014-09-10,53.284216,-3.568183
468224,Mcdonalds Restaurant,5,0,5,5,2015-01-24,53.318941,-3.817263
468225,Meadow Vale UK Fuel,2,15,0,10,2014-03-14,53.128795,-3.786135
468226,Meat on the Corner,3,5,10,10,2014-10-03,53.292355,-3.762345
468227,Mega Bite,5,5,5,5,2014-06-26,53.295245,-3.725822
468228,Meirion Village Stores,5,0,0,5,2012-11-30,53.194384,-3.685211
468229,Meithrinfa Chwarae Teg,4,0,5,10,2014-09-16,53.317254,-3.770442
468230,Meithrinfa Traed Bach,5,0,5,0,2014-09-29,53.139441,-3.796803
468231,Meithrinfa Twt Lol,5,5,0,5,2011-05-18,53.049281,-3.6829
468232,Meithrinfa Ty Bryn,5,5,5,5,2014-05-02,53.251876,-3.985156
468233,Menai Wines,5,0,0,0,2013-04-22,53.252789,-3.975124
468234,Mermaid Seafoods,3,10,10,10,2014-01-21,53.318331,-3.828947
468235,Merrion Hotel,5,0,0,0,2014-08-08,53.325332,-3.829637
468236,Merrydale,5,5,5,5,2013-04-24,53.324374,-3.832329
468237,Merton Place,5,0,0,0,2014-06-26,53.296387,-3.734451
468238,Metcalfe Butchers,4,0,5,10,2014-03-24,53.138208,-3.796273
468239,Mikes Eggs,Exempt,nan,nan,nan,2014-06-19,,
468240,Milk Bar,5,5,0,5,2013-10-08,53.138668,-3.799177
468241,Millers Cottage Club Snack Bar,4,0,5,10,2014-08-09,53.302902,-3.551265
468242,Millers Cottage Country Club,4,10,0,0,2014-12-01,53.302902,-3.551265
468243,Milverton House,5,5,0,0,2014-05-29,53.326995,-3.831405
468244,Min y Don Bed Guest House,5,0,0,5,2014-03-11,53.258868,-3.979872
468245,Min Y Don Hotel,5,0,5,5,2014-04-17,53.326995,-3.831405
468246,Minion Hotel,5,0,0,0,2014-06-27,53.320001,-3.807834
468247,Mitchells Butchers,3,5,10,10,2014-06-30,53.295402,-3.728019
468248,Mobile Chef,5,5,5,5,2014-10-23,53.281241,-3.803363
468249,Mocha Express,5,5,0,5,2013-08-15,,
468250,Mochdre Cafe,4,nan,nan,nan,2014-04-15,53.292355,-3.762345
468251,Mochdre Village Centre,5,0,0,0,2014-07-10,53.289874,-3.763548
468252,Molly's Cafe,4,10,5,5,2014-09-02,53.321119,-3.827685
468253,Montclare & Cumberland Hotel,5,0,0,5,2014-06-13,53.326995,-3.831405
468254,Moorcroft Residential Home,5,5,0,5,2014-03-20,53.315579,-3.809554
468255,Moorfield Hotel,5,0,0,0,2012-10-05,53.324374,-3.832329
468256,Morfa Bach Kiosk,5,0,5,5,2014-07-23,,
468257,Morlea Guest House,4,5,0,10,2014-06-17,53.32361,-3.833498
468258,Morrisons,5,5,5,5,2014-11-03,53.295245,-3.725822
468259,Morton Arms,5,0,0,0,2014-12-01,53.30341,-3.541919
468260,Moss Bank Guest House,5,0,0,0,2012-11-10,53.321334,-3.80711
468261,Mostyn House Guest House,1,0,5,20,2013-02-13,53.327629,-3.832289
468262,Mostyn's Cafe Bar,4,5,10,5,2014-10-31,53.324752,-3.831159
468263,Mount Stewart Hotel,5,5,5,0,2014-06-26,53.306295,-3.739895
468264,Mountain View Hotel,4,10,0,5,2014-03-21,53.290091,-3.762251
468265,Mr W J N Tilley,5,5,0,5,2014-10-22,53.181949,-3.532993
468266,Mrs Buffet,5,0,0,0,2014-04-11,,
468267,Mrs D A Royle,Exempt,nan,nan,nan,2013-12-16,53.179859,-3.785547
468268,Mrs Maureen Shaw,5,0,5,5,2013-08-06,,
468269,Ms Christine Daniels,5,0,0,0,2012-07-27,,
468270,Muffins,3,5,10,10,2013-10-07,53.296199,-3.728216
468271,Muffins,5,5,5,5,2014-11-20,53.321024,-3.825669
468272,Munchies,5,5,5,5,2014-08-27,53.304378,-3.544265
468273,Nant B H,5,5,5,5,2013-10-07,53.118523,-3.826175
468274,Nant Conwy Rugby Club,5,0,0,0,2013-09-21,53.137917,-3.81429
468275,Nant y Foel Cyf,5,nan,nan,nan,2014-04-01,53.049281,-3.6829
468276,Nant Y Glyn Methodist Church,Exempt,nan,nan,nan,2013-04-12,53.289737,-3.721279
468277,Neville Public House,5,0,0,0,2014-04-10,53.321024,-3.825669
468278,New Hong Kong Takeaway,3,10,10,10,2013-10-25,53.321119,-3.827685
468279,New Inn,5,0,0,0,2014-06-04,53.138973,-3.797396
468280,New Loretta Hotel,5,0,5,5,2013-10-18,53.32361,-3.833498
468281,New Scout Hall,Exempt,nan,nan,nan,2014-07-12,53.310223,-3.751628
468282,New Spice of India,3,10,10,10,2013-11-19,53.303537,-3.537646
468283,Newlyn,4,10,5,5,2013-05-09,53.29337,-3.581632
468284,Nigel Roberts Newsagents,Exempt,nan,nan,nan,2012-10-25,53.32565,-3.832354
468285,Nikki Ips Restaurant,5,5,0,5,2014-12-04,53.295549,-3.834861
468286,Nino's Ice Cream Parlour,5,0,5,5,2014-12-09,53.309362,-3.739195
468287,No. 9,5,5,5,5,2013-07-04,53.324374,-3.832329
468288,Noddfa,4,5,10,5,2015-01-09,53.270901,-3.915267
468289,North Wales Brewery,4,10,0,10,2013-07-11,53.256496,-3.569957
468290,North Wales Cruising Club,5,5,0,5,2014-01-23,53.281859,-3.828304
468291,North Wales Golf Club,5,5,0,0,2014-02-10,53.315437,-3.83651
468292,North Wales Training Ltd,5,0,0,0,2013-11-26,53.289401,-3.766364
468293,Nuneham House Hotel Ltd,5,5,5,5,2014-07-04,53.325819,-3.830739
468294,Nuts End Bed and Breakfast,5,0,0,0,2014-03-10,53.300366,-3.516418
468295,Oak Alyn,5,5,0,0,2014-09-24,53.32361,-3.833498
468296,Oakfield B&B,5,0,0,0,2013-04-13,53.093483,-3.819872
468297,Oakfield Park Main Social Club,5,0,0,0,2014-03-28,53.305944,-3.527362
468298,Oakfield Park Small Social Club,5,5,0,0,2014-03-28,53.305944,-3.527362
468299,Oaklands Outdoor Education Centre,5,0,0,5,2014-09-15,53.1084136963,-3.77662444115
468300,Oasis Hotel,5,0,0,0,2014-09-02,53.322686,-3.821626
468301,Ocean View Cafe,3,5,10,10,2014-08-09,53.326995,-3.831405
468302,Oinky's Ltd,4,10,0,10,2013-10-08,53.290022,-3.64242
468303,Old Colwyn Chip Shop,5,0,0,5,2015-01-19,53.289112,-3.697144
468304,Old Colwyn Golf Club,4,5,5,10,2013-10-24,53.286767,-3.695761
468305,Old Colwyn Methodist Church,Exempt,nan,nan,nan,2014-06-27,53.290352,-3.695273
468306,Old Mill Fish And Chip Shop,3,nan,nan,nan,2014-03-11,53.275644,-3.834938
468307,Old Station Hotel,4,10,5,5,2014-06-04,53.284617,-3.808995
468308,Oldhams (4) Ltd,5,0,0,5,2014-06-25,53.303537,-3.537646
468309,One Six Nine,5,0,0,5,2014-03-04,53.283893,-3.803954
468310,One Stop,5,0,0,5,2012-08-10,53.319594,-3.842649
468311,One Stop Stores,5,5,5,5,2013-10-24,53.292355,-3.762345
468312,One to One,5,5,5,5,2013-08-21,53.326541,-3.832332
468313,Orchard House Restaurant,5,5,5,5,2014-01-31,53.284535,-3.582821
468314,Orme Court Hotel,5,0,0,0,2011-11-23,53.326097,-3.835466
468315,Orme House Residential Home,5,0,0,0,2013-10-29,53.328686,-3.837214
468316,Orme View Care Home,5,0,0,0,2014-03-28,53.32118,-3.844189
468317,Orme View Fish & Chip Shop,4,nan,nan,nan,2014-08-20,53.319594,-3.842649
468318,Osborne House Hotel,4,5,10,5,2014-03-21,53.326995,-3.831405
468319,Outside,5,0,0,5,2013-03-28,53.316492,-3.831601
468320,Pages,5,0,0,0,2014-01-07,53.322822,-3.825671
468321,Palace Bingo,5,0,0,0,2012-08-10,53.303537,-3.537646
468322,Palins Country Club,5,0,0,0,2014-06-25,53.305842,-3.524792
468323,Palins Fish & Chip Shop,4,10,0,10,2014-06-27,53.305842,-3.524792
468324,Palins Supermarket/Camp Shop,5,0,0,0,2014-04-23,53.305842,-3.524792
468325,Pant y Rhedyn Guest House,5,0,0,0,2013-04-22,53.224745,-3.731449
468326,Pantri Bach Cafe,5,0,0,0,2014-06-25,53.2941,-3.58625
468327,Papa's BBQ,4,5,5,10,2014-07-04,,
468328,Parade,5,5,5,5,2013-08-06,53.327629,-3.832289
468329,Parisellas,5,5,5,5,2014-11-04,53.280569,-3.830949
468330,Parisellas Ice Cream Parlour Ltd,5,0,5,5,2014-08-28,53.281077,-3.830056
468331,Parisellas Kiosk,5,5,0,0,2014-09-11,,
468332,Park Hall Hotel,1,5,5,20,2014-11-28,53.284907,-3.842911
468333,Park Hill Hotel,5,5,0,0,2013-09-21,53.092842,-3.792769
468334,Park Hotel,4,10,0,10,2012-12-11,53.290993,-3.721419
468335,Park Hotel,4,10,0,5,2014-03-18,53.294099,-3.580204
468336,Parkway Luncheon Club,5,0,0,0,2013-01-25,53.309659,-3.743515
468337,Pavillion Cafe,4,10,5,5,2014-09-15,53.258868,-3.979872
468338,Pavillion Restaurant,5,5,5,5,2014-10-16,53.234556,-3.799196
468339,Paysanne Restaurant,5,5,5,5,2014-06-17,53.294973,-3.833141
468340,Pebble Beach,4,5,5,10,2014-08-15,53.302527,-3.540041
468341,Pembroke House Nursing Home,5,0,5,5,2014-02-01,53.292128,-3.731803
468342,Pembroke Lodge Nursing Home,5,0,0,0,2014-09-26,53.296493,-3.73393
468343,Pen y Bryn,2,15,10,5,2014-10-31,53.289152,-3.739859
468344,Pen Y Bryn Hotel,5,5,0,0,2014-04-10,53.251417,-3.974896
468345,Pen Y Bryn Hotel,4,10,0,0,2014-12-30,53.138431,-3.797553
468346,Pen Y Bryn Tearooms,5,5,5,0,2014-01-31,53.281077,-3.830056
468347,Pendyffryn Hall Bar,5,5,5,0,2013-04-11,53.280564,-3.889479
468348,Pendyffryn Stores,3,10,10,10,2013-07-02,53.089883,-3.800576
468349,Pengwern Guest House,5,0,0,0,2013-04-24,53.068348,-3.782303
468350,Pen-Llan,5,5,0,5,2014-12-23,53.254324,-3.979048
468351,Penmaenmawr Golf Club,5,5,0,5,2014-06-12,53.273224,-3.902113
468352,Pennant Hall,5,0,5,0,2014-02-11,53.270519,-3.920574
468353,Penrhyn Bakes,5,0,0,0,2013-11-16,,
468354,Penrhyn Bay Stores,5,5,0,5,2012-03-22,53.315352,-3.770798
468355,Penrhyn Old Hall,5,5,0,5,2014-01-16,53.317661,-3.778115
468356,Penrhyn Stores,4,10,0,0,2012-12-01,53.317724,-3.781766
468357,Pens 19th Hole,5,0,0,0,2014-06-12,53.273224,-3.902113
468358,Pensarn Takeaway,4,10,5,5,2013-12-09,53.294099,-3.580204
468359,Pentre Felin Bed & Breakfast,5,5,0,0,2013-12-09,53.198438,-3.779792
468360,Pentrellyncymer Centre,5,0,0,0,2014-09-22,53.062559,-3.525645
468361,Peter Pan Fun Club,4,10,5,5,2013-10-02,53.305842,-3.524792
468362,Phat Sids,4,0,0,10,2013-06-10,,
468363,Pickwicks Tea Room,5,5,0,5,2014-11-03,53.137767,-3.797525
468364,Pier Gate Ices,5,5,5,5,2012-06-13,53.326995,-3.831405
468365,Pier Grill,4,5,10,5,2013-07-25,53.326995,-3.831405
468366,Pier Head Bar,5,5,5,5,2012-05-28,53.32591667,-3.83130084
468367,Pier Head Ices,5,0,0,0,2013-10-08,53.326995,-3.831405
468368,Pigging Good Pork,5,0,0,5,2014-03-20,53.265732,-3.695648
468369,Pilgrims Rest Cafe,5,0,0,0,2014-12-16,,
468370,Pinnacle Cafe,5,5,5,5,2014-09-19,53.105523,-3.912599
468371,Pizza Hut,4,10,5,5,2013-12-02,53.282279,-3.808431
468372,Planet Latte,5,0,0,5,2014-03-11,,
468373,Planters,5,5,0,0,2014-02-14,53.252478,-3.791134
468374,Plas Celyn,5,5,5,5,2012-12-07,53.149623,-3.824205
468375,Plas Derwen,4,5,0,10,2014-10-08,53.092985,-3.804708
468376,Plas Gwynfa Nursing Home,5,0,0,0,2013-02-05,53.298209,-3.541641
468377,Plas Hall Hotel,1,10,15,20,2014-08-07,53.065076,-3.862688
468378,Plas Isaf Care Home,4,5,5,10,2014-03-26,53.3006,-3.747002
468379,Plas Llwyd,5,0,0,0,2014-02-01,53.322398,-3.833971
468380,Plas Madoc Guest House,5,0,0,5,2012-10-25,53.325646,-3.838465
468381,Plas Maenan Country House Hotel,5,0,0,0,2014-08-07,53.186268,-3.817663
468382,Plas Rhos House,5,0,0,0,2014-07-11,53.306295,-3.739895
468383,Plas Tirion Guest House,5,5,0,5,2013-04-22,53.289254,-3.64071
468384,Plas Y Brenin,4,0,10,5,2014-06-05,53.102192,-3.918427
468385,Plas Y Bryn Care Home,4,5,10,5,2014-11-21,53.30256,-3.750039
468386,Playdays Out of School Club,5,0,0,5,2012-02-28,53.278297,-3.833102
468387,Police  Headquarters,5,5,0,0,2014-06-26,53.290745,-3.708056
468388,Polski Sklep,5,5,5,5,2011-09-26,53.320554,-3.812287
468389,Pont Y Pair Inn,5,5,0,0,2013-11-28,53.09338,-3.810071
468390,Popty Pen Uchaf,5,5,5,5,2011-12-02,53.03427,-3.701644
468391,Popty Penrhos,5,0,0,0,2014-09-23,53.248063,-3.640062
468392,Porters Coffee Shop,5,5,5,5,2014-03-13,53.2958,-3.727195
468393,Pound Bakery,4,10,5,0,2014-08-05,53.323415,-3.829195
468394,Pound World,5,0,0,0,2014-12-05,53.295245,-3.725822
468395,Poundland,4,10,0,10,2013-06-28,53.324977,-3.830523
468396,Poundstretcher,Exempt,nan,nan,nan,2013-10-07,53.318941,-3.817263
468397,Poyntons Butchers,5,5,0,5,2014-03-25,53.289112,-3.697144
468398,Poyntons Butchers,4,5,5,10,2014-03-21,53.32565,-3.832354
468399,Premier,Exempt,nan,nan,nan,2012-11-08,53.288442,-3.737985
468400,Premier M C Stores,5,5,0,5,2014-09-30,53.288793,-3.576962
468401,Premier News Food and Wine,5,0,0,0,2014-12-04,53.316579,-3.821832
468402,Premier Pizza and Kebab,5,5,5,5,2014-03-20,53.30341,-3.541919
468403,Prestwood Homes,4,0,5,10,2011-09-30,53.319283,-3.833117
468404,Prince Madoc,3,5,10,10,2014-02-10,53.295637,-3.726678
468405,Princes Arms Country Hotel,5,0,5,5,2014-08-14,53.159468,-3.825326
468406,Princess Road Nursery,5,0,0,0,2013-10-29,53.289841,-3.697083
468407,Priory Grange,5,0,0,0,2014-01-31,53.302338,-3.739404
468408,Procare Wales Ltd,5,5,5,0,2014-10-29,53.288872,-3.64104
468409,Promenad,5,5,5,5,2014-03-13,53.322775,-3.822291
468410,Prospects Day Opportunities,5,5,0,0,2013-04-23,53.280668,-3.832093
468411,Prospects Day Opportunities,5,0,0,0,2014-04-11,53.319804,-3.826683
468412,Providero,5,0,0,0,2014-05-01,,
468413,Providero (Cafe),5,0,0,0,2014-01-30,53.283711,-3.804712
468414,Puffin,1,10,10,20,2015-01-08,53.280496,-3.899361
468415,Queen Elizabeth Court,5,5,0,5,2014-09-25,53.31799,-3.814205
468416,Queen Victoria,5,5,0,5,2014-12-03,53.327629,-3.832289
468417,Queens Court,5,5,0,5,2014-07-22,53.289778,-3.688229
468418,Queens Head,5,nan,nan,nan,2014-10-28,53.307301,-3.777144
468419,Queens Hotel,5,5,5,0,2013-10-08,53.323536,-3.827203
468420,R Evans Butcher,5,0,0,5,2013-10-28,53.324761,-3.832316
468421,Rafi Balti House and Indian Takeaway,4,5,0,10,2013-10-18,53.289675,-3.699852
468422,Rainbow Cakes,5,0,0,0,2013-01-04,,
468423,Rambler Guest House,5,0,0,0,2013-04-23,53.32361,-3.833498
468424,Randles,3,10,5,10,2013-10-15,53.289535,-3.698376
468425,RAOB Club,5,0,0,0,2014-09-22,53.322344,-3.829855
468426,Ray's Whippy,5,5,5,5,2013-05-21,,
468427,Red 16,5,0,0,5,2014-12-05,53.309658,-3.740453
468428,Red Chilli,5,0,0,0,2013-07-03,53.284406,-3.580371
468429,Red Daffodils,5,0,0,0,2012-09-11,,
468430,Red Lion Hotel,5,0,5,0,2013-11-16,53.289683,-3.699958
468431,Red Sun,5,5,0,0,2013-08-15,53.292355,-3.762345
468432,Redcroft Elderly Persons Home,5,5,0,5,2013-09-24,53.297829,-3.737255
468433,Regency Royal Hotel,1,10,10,20,2013-10-31,53.321876,-3.812853
468434,Rest And Be Thankful,5,5,0,0,2014-02-26,53.342264,-3.868833
468435,Reverb,5,0,0,0,2013-04-24,53.323019,-3.830439
468436,Rhiwiau Isaf,5,5,5,5,2013-06-19,53.23924,-3.985949
468437,Rhos Fynach,3,10,10,10,2014-07-24,53.310377,-3.739266
468438,Rhos Golf Course,4,10,5,5,2014-11-24,53.31674,-3.759026
468439,Rhos Newsagents,Exempt,nan,nan,nan,2013-09-14,53.309146,-3.739861
468440,Rhos On Sea Bowling & Tennis,Exempt,nan,nan,nan,2013-05-21,53.304648,-3.744346
468441,Rhos Point Sea Fishing,5,5,5,5,2014-08-01,53.312377,-3.739617
468442,Rhos Tandoori,4,10,5,5,2014-03-25,53.308076,-3.740493
468443,Rhoslan Residential Care Home,5,0,0,0,2014-11-21,53.306466,-3.741133
468444,Rhyd y Creuau,5,5,5,5,2014-08-29,53.097573,-3.790277
468445,Rhyl Yacht Club,Exempt,nan,nan,nan,2013-10-21,53.313342,-3.513291
468446,Rice Bowl,3,10,10,10,2014-01-08,53.31277,-3.747124
468447,Risboro Hotel,3,10,5,10,2014-03-28,53.324688,-3.835856
468448,Ristorante Romeo's,5,5,0,0,2014-12-04,53.323616,-3.830735
468449,Riverside Chocolate House,5,5,5,5,2014-04-03,53.046385,-3.679788
468450,Riverside Pantry,5,0,0,5,2014-03-18,53.253745,-3.978736
468451,Riviera Guest House,5,0,0,0,2014-06-27,53.325347,-3.834533
468452,Robertsons Research (Dine Ltd),5,5,0,5,2013-09-13,53.300141,-3.816179
468453,Robs Chip Shop,5,0,0,0,2014-06-25,53.294099,-3.580204
468454,Rosaire Private Hotel,4,5,5,10,2013-06-28,53.319621,-3.833312
468455,Rose Tor Hotel,5,0,0,0,2014-09-12,53.326103,-3.832764
468456,Route 66 Diner,4,10,5,5,2013-09-27,53.303537,-3.537646
468457,Royal British Legion,5,5,0,0,2014-09-23,53.289254,-3.64071
468458,Royal British Legion,3,10,5,10,2014-12-04,53.280445,-3.829669
468459,Royal British Legion Club,4,0,10,10,2014-09-15,53.290747,-3.732227
468460,Royal Oak Hotel,5,0,5,5,2014-02-11,53.092985,-3.804708
468461,Royal Public House,5,0,0,0,2014-06-26,53.294811,-3.726599
468462,Rozi's Tandoori House,2,10,15,10,2013-10-18,53.299317,-3.738846
468463,Rozi's Tandoori Takeaway,5,nan,nan,nan,2014-09-18,53.294973,-3.833141
468464,RSPB Nature Reserve Cafe,5,5,5,0,2014-06-17,53.279365,-3.805563
468465,Rydal Penrhos Preparatory School,4,10,5,5,2014-09-09,53.293179,-3.738702
468466,Rydal School (Senior),4,10,0,5,2014-09-09,53.295412,-3.733496
468467,"S & S Enterprise, The Long Bar",4,10,0,10,2014-03-28,53.304378,-3.544265
468468,Sainsburys,5,0,5,5,2013-12-09,53.313061,-3.817967
468469,Sanctuary Trust,4,5,0,10,2014-07-11,,
468470,Sandbank Bakery,4,5,5,10,2014-02-21,53.30341,-3.541919
468471,Sandpiper at Golden Sands,5,0,0,0,2014-06-28,53.308605,-3.530144
468472,Sandy Bay Kitchen,4,10,0,10,2014-08-07,53.30341,-3.541919
468473,Sandy Cove Social Club,5,0,0,0,2014-09-10,53.308399,-3.524493
468474,Sarah Williams Childminding,Exempt,nan,nan,nan,2014-11-24,,
468475,Sarah's Cafe & Bakers Shop,5,0,5,0,2013-02-13,53.283893,-3.803954
468476,School Lane Playgroup,4,10,0,10,2011-09-26,53.325646,-3.838465
468477,Scoops,5,0,0,0,2012-07-11,53.302527,-3.540041
468478,Seaclyffe Hotel,5,5,0,0,2013-08-15,53.327103,-3.834924
468479,Seagull Inn,4,10,0,5,2014-03-28,53.303537,-3.537646
468480,Sefton Court,4,0,5,10,2014-06-02,53.325646,-3.838465
468481,Sefton House Residential Home,4,5,5,10,2014-10-01,53.258651,-3.980492
468482,Select & Save - Hethersons,5,5,0,5,2014-05-28,53.326541,-3.832332
468483,Senarth Guest House,5,nan,nan,nan,2014-02-26,53.32361,-3.833498
468484,Shapla Indian Takeaway,3,10,10,10,2014-06-19,53.320554,-3.812287
468485,Shelbourne Hotel,5,5,0,5,2014-09-12,53.322775,-3.822291
468486,Shell,Exempt,nan,nan,nan,2012-11-01,53.08758,-3.798912
468487,Sherwood Hotel,5,0,0,0,2014-03-12,53.321863,-3.809565
468488,Signatures Restaurant,4,10,5,5,2014-10-07,53.289107,-3.856684
468489,Silver Fountain Inn,2,15,0,10,2014-09-25,53.068348,-3.782303
468490,Siop Fferm Dolwen,5,0,0,0,2012-10-25,53.295245,-3.725822
468491,Siop Ganol,Exempt,nan,nan,nan,2012-06-29,53.289254,-3.64071
468492,Siop Pentrefoelas,5,5,0,5,2013-03-22,53.048928,-3.682379
468493,Siop Porthllwyd,5,0,5,5,2013-09-13,53.189468,-3.843484
468494,Siop y Llan,5,0,0,5,2012-11-30,53.217135,-3.793119
468495,Siop Y Llan,4,0,0,10,2012-03-02,53.17901,-3.596545
468496,Sizzlers,5,5,5,5,2012-08-20,53.303537,-3.537646
468497,Sno Shack,5,0,0,0,2013-08-23,,
468498,Snooker 147 Ltd,5,0,5,0,2012-11-30,53.326541,-3.832332
468499,Snowdon,5,0,0,0,2013-10-29,53.326833,-3.833771
468500,Snowdonia Cheese Company,5,0,0,0,2014-05-28,53.326995,-3.831405
468501,Snowdonia Nursery,5,5,0,5,2014-06-17,53.270727,-3.794777
468502,Snowdonia Range,4,5,5,10,2014-01-17,53.049281,-3.6829
468503,Softees,Exempt,nan,nan,nan,2013-06-27,53.30341,-3.541919
468504,Somerset Hotel,4,5,5,10,2014-03-28,53.324414,-3.827946
468505,Southbourne Guest House,5,0,0,0,2014-03-13,53.321263,-3.833547
468506,Southern House Care Home,5,5,5,5,2014-07-31,53.284925,-3.581875
468507,Space Boutique B & B & Jaya Restaurant,5,5,5,5,2014-08-26,53.324291,-3.838887
468508,Spar,4,10,0,0,2012-07-21,53.308597,-3.756425
468509,Spar,4,5,10,5,2014-01-08,53.281077,-3.830056
468510,Spar,3,10,10,5,2014-03-25,53.309658,-3.740453
468511,Spar,5,5,0,0,2011-11-04,53.053571,-3.889288
468512,Spar,3,5,10,10,2013-10-07,53.138431,-3.797553
468513,Spar,5,5,5,5,2014-11-27,53.253244,-3.976434
468514,Spar,2,0,15,10,2014-07-10,53.268089,-3.922429
468515,Spar,5,5,0,0,2014-07-09,53.300975,-3.542521
468516,Spar Siop Tandderwen Ltd,5,5,5,5,2015-01-08,53.092985,-3.804707
468517,Spice City Indian Takeaway,2,15,15,10,2014-10-30,53.293717,-3.724545
468518,Spice Grill,5,5,5,5,2013-07-10,53.137767,-3.797525
468519,Spice Merchant,1,20,10,20,2014-11-05,53.283779,-3.582928
468520,Spinnaker Cafe,5,5,5,0,2014-03-24,53.092344,-3.800753
468521,Splashes Cafe,5,0,5,5,2014-10-24,53.272719,-3.697618
468522,Split Willow,5,5,0,0,2014-09-16,53.257788,-3.97453
468523,Springfield @ Conwy,5,0,0,0,2014-08-13,53.287555,-3.846625
468524,Springfield at Llandudno,4,0,0,10,2014-03-05,53.31793,-3.813407
468525,Springfield Day Nursery,5,0,0,5,2014-09-30,53.298634,-3.735067
468526,Springfield Day Nursery Ltd,5,0,0,5,2014-01-10,53.293814,-3.72836
468527,Squires,5,5,5,5,2014-06-03,53.317406,-3.776513
468528,St Curigs Church B & B,5,0,0,0,2014-03-14,53.102806,-3.907116
468529,St David's Church Hall,Exempt,nan,nan,nan,2014-03-26,53.320581,-3.809886
468530,St Davids College,3,10,10,10,2014-02-19,53.309536,-3.798986
468531,St Davids Hospice,5,5,5,5,2014-11-26,53.322367,-3.844705
468532,St George Controlled School,5,5,0,0,2013-04-22,53.270716,-3.538387
468533,St George Day Nursery,5,0,0,0,2014-02-06,53.274627,-3.566603
468534,St George Village Hall,5,5,0,0,2014-09-11,53.268852,-3.54
468535,St Georges Hotel,5,5,5,0,2014-02-01,53.324762,-3.828727
468536,St Georges Plaice,3,10,10,10,2013-09-18,53.324701,-3.829791
468537,St Gwynan's Playgroup,5,5,0,5,2011-03-23,53.274266,-3.903914
468538,St Hilary Guest House,5,0,0,0,2014-06-28,53.321863,-3.809565
468539,St Johns Tea Room,Exempt,nan,nan,nan,2013-02-13,53.323943,-3.828812
468540,St Kilda Hotel,5,0,5,0,2013-12-21,53.323467,-3.825233
468541,St Michaels Care Home,5,0,0,5,2014-12-05,53.313268,-3.740735
468542,St Tudno Hotel,3,10,10,10,2013-06-19,53.326995,-3.831405
468543,St. Davids Hotel,5,0,0,0,2015-01-24,53.324374,-3.832329
468544,Staffordshire Oatcake Shop,5,nan,nan,nan,2014-07-04,53.326103,-3.832764
468545,Starbucks,4,10,5,5,2014-12-04,53.322822,-3.825671
468546,Station Stores,5,0,5,0,2013-12-11,53.284617,-3.808995
468547,Staveley House,5,0,0,5,2013-04-12,53.305961,-3.748017
468548,Stella Guest House,5,0,0,0,2014-03-13,53.327103,-3.834924
468549,Stella House Chip Shop,5,5,0,5,2014-09-25,53.268376,-3.923552
468550,Steven Griffith Quality Foods,Exempt,nan,nan,nan,2014-04-25,53.281811,-3.787651
468551,Stilwells,Exempt,nan,nan,nan,2011-11-09,53.281077,-3.830056
468552,Stoneleigh Guest House,5,0,0,0,2013-10-28,53.321263,-3.833547
468553,Stones Social Club,5,0,0,0,2014-08-08,53.304516,-3.546086
468554,Subway,5,0,0,0,2014-02-28,53.294835,-3.727441
468555,Subway,5,0,0,0,2014-03-15,53.322133,-3.825492
468556,Summerhill House,5,0,0,0,2013-11-28,53.095103,-3.809098
468557,Sunnybank Guest House,4,0,0,10,2012-10-05,53.32361,-3.833498
468558,Sunnycroft Hotel,5,5,0,0,2012-07-20,53.321299,-3.832948
468559,Sunnyvale Camp Club,5,5,0,5,2014-09-27,53.314623,-3.513636
468560,Sunnyvale Caravan Park Fish & Chip Shop,5,5,0,5,2014-09-27,53.314623,-3.513636
468561,Sunseekers,5,0,0,0,2014-09-11,53.296199,-3.728216
468562,Sunshine House,5,5,0,5,2014-09-26,53.284925,-3.581875
468563,Surfside Amusement Arcade,5,0,0,0,2014-08-08,53.2941,-3.58625
468564,Swallow Falls Hotel,4,10,5,5,2014-12-08,53.09784,-3.827659
468565,Sweet Treat,5,5,5,5,2013-07-01,,
468566,Sweets & Treats,3,10,5,10,2013-05-08,53.322501,-3.823736
468567,Swn Y Mor Hotel,5,5,0,0,2014-03-13,53.322686,-3.821626
468568,Sychnant Pass House,3,10,10,10,2013-08-12,53.277931,-3.869399
468569,T J Discounts,Exempt,nan,nan,nan,2011-03-24,53.303537,-3.537646
468570,T J Parry Jones,4,5,5,10,2014-09-15,53.153302,-3.824107
468571,T J Parry-Jones Butchers,4,10,5,5,2014-03-26,53.204581,-3.846349
468572,Take a Break,5,0,0,0,2014-03-15,53.32565,-3.832354
468573,Take it Bake it,5,5,5,5,2012-10-05,,
468574,Tal Y Bont Stores,3,10,5,10,2013-05-20,53.200025,-3.846812
468575,Tal y Bryn Guest House,5,0,0,0,2014-03-11,53.223738,-3.502265
468576,Tan Dinas Country House,5,0,5,5,2012-08-31,53.095103,-3.809098
468577,Tan Lan Bakery,5,5,5,5,2014-08-19,53.309658,-3.740453
468578,Tan Lan Bakery,5,0,5,0,2014-09-15,53.281859,-3.828304
468579,Tan Y Bryn Residential Home,5,0,5,5,2014-07-29,53.317584,-3.80479
468580,Tan Y Foel B & B,5,0,0,0,2014-05-15,53.093493,-3.774561
468581,Tan Y Fron,4,5,5,10,2014-03-13,53.314036,-3.832907
468582,Tannery Court,5,0,0,0,2015-01-23,53.285021,-3.581444
468583,Tasty Bake,3,10,10,10,2014-03-12,53.254324,-3.979048
468584,Tesco,5,5,5,5,2014-09-24,53.284535,-3.582821
468585,Tesco,5,5,5,5,2014-08-27,53.283249,-3.813273
468586,Tesco Customer Cafe,5,5,0,0,2014-12-08,53.283249,-3.813273
468587,The Afon Conwy,4,10,5,5,2014-03-31,53.279528,-3.789986
468588,The Archway,5,5,5,5,2013-10-22,53.281173,-3.831395
468589,The Austrian Restaurant,5,5,0,0,2014-03-19,53.271589,-3.887373
468590,The Beach Cafe And Shop,5,5,5,5,2013-10-29,53.2941,-3.58625
468591,The Beach Hut,5,5,5,5,2014-12-11,53.259096,-3.980258
468592,The Bee Hotel,1,15,10,20,2014-12-10,53.284535,-3.582821
468593,The Bee Inn,5,5,5,0,2014-06-30,53.217135,-3.793119
468594,The Beehive at Ty Hyll,5,5,5,5,2014-03-24,53.101233,-3.86912
468595,The Black Lion,5,0,0,0,2014-03-11,53.218177,-3.607347
468596,The Boathouse,Exempt,nan,nan,nan,2013-04-11,53.308076,-3.740493
468597,The Bull Hotel,5,5,5,0,2014-03-10,53.283779,-3.582928
468598,The Butty Box,5,5,5,5,2014-09-22,53.284406,-3.580371
468599,The Carlton,5,5,0,0,2014-02-24,53.324977,-3.830523
468600,The Carmen,5,5,5,5,2012-11-12,53.321793,-3.808226
468601,The Chippy,5,0,0,0,2013-10-17,53.308605,-3.530144
468602,The Chocolate Box,3,10,10,10,2013-12-11,53.320635,-3.806975
468603,The Cliff,5,5,5,5,2014-09-17,53.268418,-3.628096
468604,The Clovelly,5,0,0,0,2014-03-12,53.325819,-3.830739
468605,The Coach House,3,10,10,5,2014-06-25,53.284406,-3.580371
468606,The Cocoa House,5,5,5,5,2013-10-31,53.324328,-3.83063
468607,The Coffee Centre,5,5,5,5,2014-07-30,53.323943,-3.828812
468608,The Co-operative,5,5,5,0,2014-05-09,53.289535,-3.698376
468609,The Corner Cafe,4,5,5,10,2014-02-24,53.30848,-3.74177
468610,The Courthouse,5,0,0,5,2014-10-23,53.09423,-3.798487
468611,"The Crossbar, Llandudno Football Club",5,5,0,5,2015-01-24,53.316492,-3.831601
468612,The Crown,3,10,10,10,2014-03-16,53.028549,-3.497424
468613,The Cuckoo,4,10,5,0,2011-11-01,53.290317,-3.702788
468614,The Ferns,5,0,0,0,2012-06-30,53.089883,-3.800576
468615,The First Chinese Takeaway,4,10,5,5,2014-11-26,53.277016,-3.899417
468616,The Flames,1,10,10,20,2014-09-24,53.319883,-3.825621
468617,The Gables,5,5,5,0,2013-09-12,53.269734,-3.917944
468618,The Galleon,4,5,0,10,2014-09-29,53.309658,-3.740453
468619,The Galleon Fish And Chip Shop,5,nan,nan,nan,2014-06-20,53.281467,-3.828692
468620,The Gladstone,5,5,0,0,2014-04-10,53.276422,-3.90683
468621,The Glass Lounge,5,5,0,0,2014-09-16,53.296199,-3.728216
468622,The Goat Inn,4,10,0,10,2014-03-16,52.988196,-3.464653
468623,The Grafton,5,0,5,0,2011-03-08,53.321863,-3.809565
468624,The Green Room,3,10,5,10,2013-11-29,53.292451,-3.723158
468625,The Greenery,5,5,5,0,2014-07-11,53.323515,-3.830896
468626,The Gresham,5,0,0,0,2014-09-12,53.326541,-3.832332
468627,The Groes Inn,5,nan,nan,nan,2014-03-21,53.245966,-3.839123
468628,The Ham Bone,4,5,10,5,2014-03-26,53.321271,-3.811266
468629,The Ham Bone,5,5,0,0,2013-12-10,53.323415,-3.829195
468630,The Harbour Hungry Horse,5,5,0,5,2013-12-16,53.312022,-3.515315
468631,The Harp,4,10,5,5,2014-03-11,53.284483,-3.584034
468632,The Hilary Guest House,5,0,0,5,2012-07-19,53.321263,-3.833547
468633,The Holland Arms,5,0,5,5,2013-12-13,53.221772,-3.739268
468634,The Ice Cream Dream,5,0,0,5,2014-03-10,,
468635,The Icing on the Cake,5,5,5,5,2013-09-24,53.254324,-3.979048
468636,The Interchange Coffee Lounge,4,10,0,5,2015-01-12,53.290171,-3.706038
468637,The Jade Leaf Cafe,4,10,0,10,2013-09-20,53.283779,-3.582928
468638,The Kendrick,5,5,5,0,2014-12-04,53.321863,-3.809565
468639,The Kingfisher Chip Shop,4,0,5,10,2014-06-26,53.317367,-3.774905
468640,The Kings Arms,5,5,5,5,2013-10-08,53.322822,-3.825671
468641,The Kings Head,3,10,10,10,2014-03-27,53.3276,-3.835966
468642,The Lazy Dollar,5,0,5,5,2011-03-10,53.268104,-3.925969
468643,The Lighthouse,5,5,5,5,2012-11-23,53.342264,-3.868833
468644,The Lilly,3,10,10,5,2014-09-04,53.318167,-3.842497
468645,The Lilly Bar & Grill,0,20,20,30,2014-12-10,53.326541,-3.832332
468646,The Lindens Hotel & Hungary 4 Hungarian,5,5,5,0,2013-06-24,53.327103,-3.834924
468647,The Lion Inn,5,0,0,0,2013-03-20,53.13912,-3.680923
468648,The Lodge Hotel,5,0,5,5,2014-08-26,53.207232,-3.845819
468649,The Log Cabin,Exempt,nan,nan,nan,2012-11-09,53.092344,-3.800753
468650,The Looking Glass,5,5,0,0,2014-04-09,53.326103,-3.832764
468651,The Manor @ Gorse HIll,5,0,5,5,2014-06-12,53.260813,-3.833583
468652,The Marine Hotel,5,0,0,0,2014-09-12,53.322924,-3.823153
468653,The Masala,5,0,5,5,2014-12-11,53.294811,-3.726599
468654,The May Quay,5,5,5,5,2014-09-26,53.313342,-3.513291
468655,The Meadowsweet Hotel,4,5,10,5,2014-10-08,53.141564,-3.800868
468656,The Moel Siabod Cafe Ltd,5,5,0,5,2013-12-19,53.103052,-3.908591
468657,The Mulberry,5,5,0,5,2013-12-12,53.29004,-3.839996
468658,The Mulberry Stores,5,5,5,5,2012-11-23,53.29004,-3.839996
468659,The Natural Health Shop,Exempt,nan,nan,nan,2011-09-21,53.280262,-3.827531
468660,The New Cranford EMI Home,5,5,0,0,2013-10-18,53.321793,-3.808226
468661,The New Mediterranean Restaurant,5,5,5,0,2014-01-24,53.326541,-3.832332
468662,The Northwood,5,0,0,0,2012-11-29,53.30848,-3.74177
468663,The Oasis Christian Centre,5,5,0,0,2012-07-20,53.276422,-3.90683
468664,The Old Ship,5,5,5,5,2014-08-12,53.151879,-3.824241
468665,The Old Vicarage Nursing Home,4,10,5,5,2014-06-12,53.167549,-3.703503
468666,The Old White House,3,5,10,10,2014-09-25,53.284907,-3.842911
468667,The Olive Tree,5,5,0,5,2013-11-28,53.295549,-3.834861
468668,The Olives,5,0,5,5,2015-01-30,53.293969,-3.728216
468669,The Original Factory Shop,Exempt,nan,nan,nan,2013-06-27,53.294099,-3.580204
468670,The Orme Fish & Chips,5,0,5,5,2015-01-23,53.326541,-3.832332
468671,The Pantry,4,5,5,10,2013-10-07,53.295245,-3.725822
468672,The Pebble Restaurant,4,5,5,10,2013-10-07,53.322822,-3.825671
468673,The Plough,5,5,5,5,2014-06-13,53.289714,-3.700904
468674,The Pod,5,5,5,5,2012-02-24,53.29096,-3.717457
468675,"The Pool Kiosk, Craig Y Don Paddling Pool",5,5,5,5,2013-09-05,,
468676,The Press Room Cafe,3,10,5,10,2014-10-06,53.280262,-3.827531
468677,The Quay Hotel and Spa,5,5,5,5,2014-03-21,53.291243,-3.829035
468678,The Rabbit Hole,4,10,0,10,2014-09-01,53.32213,-3.826257
468679,The Raj,5,5,5,5,2014-10-27,53.280569,-3.830949
468680,The Red Lion,5,0,0,0,2014-12-30,53.138973,-3.797396
468681,The Red Lion,1,10,0,20,2012-03-02,53.178973,-3.59596
468682,The Red Lion Inn,5,5,0,5,2013-12-19,53.226826,-3.837988
468683,The Royal British Legion,5,5,5,5,2014-05-29,53.321024,-3.825669
468684,The Seahorse,5,5,0,5,2014-06-23,53.327629,-3.832289
468685,The Semaphore,4,5,10,5,2014-01-10,53.282757,-3.663292
468686,The Stag Hotel,3,10,10,5,2014-09-30,53.194384,-3.685211
468687,The Stratford House,5,0,0,0,2013-10-30,53.321863,-3.809565
468688,The Sun Inn,5,0,5,0,2013-12-11,53.289675,-3.699852
468689,The Sunnyside,5,5,0,0,2014-06-05,53.326224,-3.83361
468690,The Swallows Nest,5,5,5,5,2013-05-30,53.260967,-3.838193
468691,The Sweet Emporium,5,0,0,0,2014-05-06,53.323415,-3.829195
468692,The Tannery Bistro,5,5,0,0,2014-01-03,53.138348,-3.799478
468693,The Tea Station,5,0,5,5,2014-02-03,53.294973,-3.833141
468694,The Toad,4,10,5,5,2014-11-04,53.299979,-3.73224
468695,The Town House,5,5,5,5,2013-10-07,53.280262,-3.827531
468696,The Town Inn (J & L Enterprise),5,5,5,5,2014-03-18,53.303345,-3.540686
468697,The View,4,0,10,10,2014-09-12,53.326995,-3.831405
468698,The Village Bistro,5,5,5,5,2013-11-13,53.268103,-3.92096
468699,The Village Deli,4,5,10,5,2014-02-03,53.289535,-3.698376
468700,The Village Farm Shop,5,5,5,5,2014-08-26,53.309658,-3.740453
468701,The Village Inn,5,5,5,5,2014-05-09,53.255085,-3.977584
468702,The Village Shop,4,0,0,10,2013-04-23,53.275227,-3.834575
468703,The Village Stores,5,0,0,0,2014-10-08,53.268132,-3.920872
468704,The Wellington Hotel,5,5,5,5,2013-10-14,53.326995,-3.831405
468705,The Wendover,4,nan,nan,nan,2014-05-09,53.299853,-3.542391
468706,The West Shore,5,5,5,0,2014-06-18,53.32092,-3.844673
468707,The White Lion,5,5,5,5,2014-08-22,53.271892,-3.70564
468708,The Whitehall,5,5,5,0,2014-08-22,53.306295,-3.739895
468709,The Yacht Public House,3,10,10,10,2014-08-04,53.294099,-3.580204
468710,Theatr Colwyn,5,0,0,0,2014-12-01,53.293717,-3.724545
468711,Threeways Garage,5,0,0,5,2014-09-26,53.286184,-3.576446
468712,Tides Bistro,5,0,5,5,2014-10-22,53.292198,-3.643013
468713,Tiffanys,5,5,5,5,2013-11-22,53.324945,-3.832624
468714,Tilstone Guest House,5,5,0,0,2013-10-30,53.320001,-3.807834
468715,Time Cafe Bar,5,nan,nan,nan,2014-07-16,53.281163,-3.827944
468716,Time2dine,4,5,5,10,2014-06-17,,
468717,Tina's Cakes,5,0,0,5,2013-12-19,,
468718,Tir a Mor,5,5,0,5,2014-08-26,53.138973,-3.797396
468719,Tir Na Nog,4,5,5,10,2011-02-16,53.304952,-3.51424
468720,Tir Prince Amusement Burger Bar,5,0,0,0,2014-03-19,53.303124,-3.536896
468721,Tir Prince Amusement Donuts & Coffee,5,5,0,0,2014-03-19,53.303124,-3.536896
468722,Tir Prince Amusement Healthy Options,5,0,0,0,2014-03-19,53.303124,-3.536896
468723,Tir Prince Amusement Ice Cream Unit,5,0,0,0,2014-03-19,53.303124,-3.536896
468724,Tir Y Coed Country House Hotel,5,0,0,5,2014-11-18,53.235014,-3.854926
468725,Toffee World,Exempt,nan,nan,nan,2011-08-19,53.2936,-3.72514
468726,Tony's Chippy,4,10,5,5,2014-09-16,53.316579,-3.821832
468727,Tony's Meats Limited,4,5,0,10,2013-10-01,53.294777,-3.516955
468728,Tonys Meats Ltd,1,10,10,20,2015-01-09,53.315082,-3.834438
468729,Top Chippy,4,5,5,10,2013-08-30,53.139052,-3.79577
468730,Top Wok,3,nan,nan,nan,2014-05-12,53.284079,-3.577899
468731,Topolino Town,4,5,0,10,2014-09-25,53.326541,-3.832332
468732,Tops Chinese Restaurant,5,0,5,5,2015-01-23,53.320581,-3.809886
468733,Touchstones 12 Norfolk House,5,0,5,5,2014-10-24,53.297851,-3.731479
468734,Tower Coffee House,5,0,0,0,2014-03-28,53.281163,-3.827944
468735,Towers Outdoor Pursuit Centre,5,0,5,0,2013-09-21,53.10101,-3.857504
468736,Town House,5,5,5,5,2013-08-05,53.324752,-3.831159
468737,Towyn Pizza & Kebab House,4,10,0,10,2014-10-23,53.301717,-3.540747
468738,Towyn Under 5's Playgroup,5,0,0,5,2014-12-04,53.301705,-3.539651
468739,Travelodge,5,0,0,0,2014-09-12,53.272719,-3.697618
468740,Trawlers Fish and Chip Shop,5,0,0,0,2014-02-12,53.284406,-3.580371
468741,Treflys Nursing Home,3,5,10,10,2014-06-24,53.323006,-3.838291
468742,Trefriw Baking,5,5,0,0,2014-10-13,,
468743,Trefriw Woollen Mills Ltd,4,5,5,10,2014-06-05,53.150512,-3.826022
468744,Trevone Hotel,5,5,5,5,2013-06-11,53.324414,-3.827946
468745,Trev's Food Glorious Food,5,5,0,0,2014-03-19,53.294099,-3.580204
468746,Tribells,5,5,0,5,2014-10-22,53.323342,-3.83221
468747,Tu Hwnt i'r Bont,5,5,5,5,2013-06-20,,
468748,Tu Hwnt I'r Bont Tea Room,5,0,0,0,2013-09-21,53.136761,-3.798036
468749,Tudor Lodge Residential Home,3,10,5,10,2014-02-11,53.268689,-3.92532
468750,Ty Abbeyfield,5,0,0,0,2014-12-30,53.139282,-3.79418
468751,Ty Gobaith Children's Hospice,5,5,5,5,2013-10-04,53.245183,-3.828688
468752,Ty Gwyn Hotel,5,5,5,5,2014-02-06,53.08472,-3.794253
468753,Ty Gwyn Hotel,4,5,0,10,2013-09-13,53.230395,-3.859985
468754,Ty Gwynn Jones,5,0,5,5,2014-02-10,53.28369,-3.577419
468755,Ty Llywelyn Community Centre,4,5,5,10,2014-08-11,53.312604,-3.828973
468756,Ty Newydd Guest House,5,0,0,0,2013-02-12,53.151879,-3.824241
468757,Ty Pennant,5,0,0,0,2013-09-14,53.297028,-3.730545
468758,Tybwyta,4,10,5,5,2013-11-14,,
468759,Tyddyn Bychan,5,0,0,0,2013-05-07,53.042115,-3.59421
468760,Tyn Y Bryn Guest House,5,0,0,0,2012-11-09,53.0952,-3.808654
468761,Tyn Y Coed Hotel,5,5,0,0,2014-10-10,53.098712,-3.894343
468762,Tynedale Hotel,5,0,0,0,2014-02-10,53.323467,-3.825233
468763,Upper Colwyn Bay Playgroup,5,0,0,0,2014-07-11,53.291027,-3.745036
468764,Upper Crust,4,5,10,5,2014-07-01,53.322062,-3.829497
468765,Vale Stores,4,0,0,10,2014-04-12,53.303167,-3.520269
468766,Valentine,5,5,0,0,2014-12-01,53.288827,-3.638443
468767,Valentinos,5,0,0,0,2014-09-10,53.324945,-3.832624
468768,Valley Cafe,5,5,5,5,2014-09-17,53.151216,-3.824691
468769,Valley Grill,5,5,5,5,2014-02-28,53.189468,-3.843484
468770,Vaughan Lodge,4,10,0,10,2013-12-10,53.321024,-3.825669
468771,Venue @ the Clock House,3,10,10,10,2014-03-20,53.293717,-3.724545
468772,Venue Cymru,5,5,5,5,2013-11-01,53.321852,-3.816771
468773,Victoria Business Mens Club,5,5,5,0,2014-12-01,53.288929,-3.689771
468774,Victoria Club,5,0,0,0,2014-10-08,53.318809,-3.811162
468775,Victoria Town House,4,0,0,10,2013-02-14,53.327629,-3.832289
468776,Village Chippy,5,5,0,0,2014-03-11,53.289254,-3.64071
468777,Vinomondo,Exempt,nan,nan,nan,2013-12-02,53.281077,-3.830056
468778,Virgilio's,5,5,0,5,2014-09-25,53.296199,-3.728216
468779,Warwick House,5,0,0,0,2013-08-15,53.325646,-3.838465
468780,Waterloo Hotel,4,10,5,5,2014-02-26,53.08758,-3.798912
468781,Watson's Bistro,5,5,5,5,2014-06-11,53.281463,-3.830672
468782,Wedgewood Hotel,5,0,0,0,2013-08-16,53.32361,-3.833498
468783,Welsh Assembly Building,5,5,5,0,2014-02-17,53.283766,-3.793358
468784,West End Stores,4,10,5,5,2014-05-27,53.299986,-3.739804
468785,West Haven Nursing Home,4,10,5,5,2014-03-05,53.302857,-3.741451
468786,West Point Hotel,5,0,5,5,2014-11-26,53.297406,-3.733022
468787,West Shore Beach Cafe,5,5,0,5,2014-06-16,53.316521,-3.841991
468788,West Shore Social Club,5,0,0,0,2012-03-23,53.315437,-3.83651
468789,Westbourne Guest House,5,0,0,5,2012-11-28,53.325347,-3.834533
468790,Westpoint,1,0,0,20,2013-02-14,53.321263,-3.833547
468791,Wetherspoon,5,5,5,5,2013-10-17,53.29663,-3.727618
468792,White Court Hotel,5,5,0,0,2013-08-15,53.326995,-3.831405
468793,White Heather Hotel,5,0,5,5,2014-11-06,53.324701,-3.829791
468794,White House Hotel,4,10,0,10,2014-03-28,53.324414,-3.827946
468795,White Lion,5,0,0,0,2013-02-19,53.026499,-3.561038
468796,Whitefriars Hotel,5,0,0,0,2014-03-13,53.325786,-3.835813
468797,Wild at Heart,5,0,0,0,2012-04-04,,
468798,Williams Leisure Cafe,3,10,10,10,2014-06-25,53.2941,-3.58625
468799,Wilton Hotel (Llandudno) Ltd,4,5,5,10,2014-05-29,53.325819,-3.830739
468800,Wimsley Residential Home,5,0,0,0,2013-08-16,53.321263,-3.833547
468801,Winchmore Hotel,1,5,10,20,2013-10-07,53.322775,-3.822291
468802,Windsor Fish & Chip Shop,3,10,10,10,2014-09-10,53.300975,-3.542521
468803,Winkups Cabaret Club,4,10,0,5,2014-04-25,53.305602,-3.533023
468804,Winkups Coffee Shop,4,10,0,10,2014-04-25,53.305602,-3.533023
468805,Winkups Convenience Store,5,5,0,0,2014-03-29,53.305602,-3.533023
468806,Wo Foong,5,0,0,0,2014-06-26,53.289878,-3.705201
468807,Wok U Like,4,5,5,10,2014-06-30,53.269025,-3.79616
468808,Woodcroft Care Home,5,0,0,0,2014-09-26,53.289291,-3.709109
468809,Woodside Grange  Care Home,4,10,5,5,2014-03-25,53.30256,-3.750039
468810,Wraps and Baps,5,5,0,5,2014-11-03,,
468811,Wyngarth @ Glanwydden After School Club,4,0,0,10,2014-03-13,53.31159,-3.778898
468812,Wyngarth Day Nursery,3,10,5,10,2014-02-07,53.296906,-3.742035
468813,Wyngarth Nursery,5,0,5,0,2013-09-25,53.286237,-3.805913
468814,Wynne Crest Residential Home,5,0,0,0,2013-07-12,53.289591,-3.694418
468815,Y Bedol Inn,5,5,5,0,2014-01-23,53.202906,-3.848283
468816,Y Gegin Fach,5,5,0,0,2014-01-06,53.294955,-3.725975
468817,Y Gelli Bed and Breakfast,5,0,0,0,2013-04-22,53.246161,-3.990901
468818,Y Gwindy,5,5,5,5,2012-11-07,53.284239,-3.58215
468819,Y Gwydyr,4,10,5,0,2014-01-08,53.054624,-3.886962
468820,Y Siop Flodau,5,0,0,0,2014-07-10,53.138668,-3.799177
468821,Ye Olde Bull,5,nan,nan,nan,2014-10-09,53.207359,-3.853836
468822,Ye Olde Mail Coach,5,5,5,5,2014-10-24,53.281077,-3.830056
468823,Yeung Sing,4,10,5,5,2013-10-28,53.316649,-3.77486
468824,Yr Hafod,5,0,5,0,2014-06-09,53.149623,-3.824205
468825,Yr Hen Siop,5,5,5,5,2014-07-31,53.093915,-3.807435
468826,Ysgol  Babanod Mochdre,5,0,0,0,2013-04-22,53.291611,-3.76587
468827,Ysgol Aberconwy,5,5,5,0,2014-07-16,53.285479,-3.83668
468828,Ysgol Babanod Glan Gele,5,0,0,0,2013-10-09,53.287824,-3.576852
468829,Ysgol Babanod Glan y Mor,5,0,0,0,2014-01-31,53.293673,-3.718211
468830,Ysgol Babanod Glan y Mor Nursery and Playgroup,5,0,0,0,2012-10-26,53.293673,-3.718211
468831,Ysgol Babanod Llandrillo yn Rhos,5,5,5,5,2014-01-30,53.310425,-3.748259
468832,Ysgol Babanod Llanfairfechan,5,5,5,5,2014-06-12,53.252789,-3.975124
468833,Ysgol Babanod Penmaenrhos,5,5,0,0,2015-01-16,53.288084,-3.685312
468834,Ysgol Babanod Y Foryd,5,5,0,0,2013-10-09,53.305842,-3.524792
468835,Ysgol Bendigaid William Davies,5,5,0,5,2013-06-06,53.312099,-3.821401
468836,Ysgol Betws y Coed,5,5,0,0,2014-01-17,53.091712,-3.819275
468837,Ysgol Betws yn Rhos,5,0,0,5,2014-09-17,53.248063,-3.640062
468838,Ysgol Bod Alaw,5,0,0,0,2013-10-03,53.289904,-3.720265
468839,Ysgol Bodafon,4,5,5,10,2013-07-19,53.318745,-3.791012
468840,Ysgol Bro Aled,5,5,5,0,2014-12-09,53.178294,-3.598329
468841,Ysgol Bro Cernyw,5,0,0,0,2013-06-21,53.194384,-3.685211
468842,Ysgol Bro Gwydir,5,0,5,5,2015-01-08,53.137256,-3.796218
468843,Ysgol Bryn Elian,5,5,0,5,2013-09-25,53.285481,-3.704636
468844,Ysgol Capel Garmon,5,0,0,0,2013-04-24,53.084932,-3.770491
468845,Ysgol Capelulo,4,5,5,10,2014-01-28,53.274266,-3.903914
468846,Ysgol Cerrigydrudion,5,0,0,0,2015-01-13,53.026499,-3.561038
468847,Ysgol Craig Y Don,5,0,0,0,2013-04-12,53.31799,-3.814205
468848,Ysgol Cynfran,5,5,0,5,2015-01-07,53.281395,-3.658424
468849,Ysgol Cystennin,5,0,0,0,2014-02-12,53.290485,-3.760527
468850,Ysgol Deganwy,5,5,0,5,2014-01-28,53.293149,-3.821374
468851,Ysgol Dolgarrog,5,5,5,5,2013-10-24,53.191171,-3.842629
468852,Ysgol Dolwyddelan,5,5,0,0,2015-01-08,53.052907,-3.884126
468853,Ysgol Dyffryn Conwy,5,5,5,5,2013-07-09,53.133194,-3.786556
468854,Ysgol Eglwysbach,5,5,0,0,2014-07-11,53.217135,-3.793119
468855,Ysgol Emrys Ap Iwan - Grant Ma,5,5,0,0,2013-07-09,53.285379,-3.577467
468856,Ysgol Feithrin Glan Conwy,5,0,0,0,2014-09-26,53.266868,-3.797284
468857,Ysgol Ffordd Dyffryn,5,0,0,0,2014-06-27,53.316146,-3.835399
468858,Ysgol Glan Conwy,5,5,0,0,2013-04-23,53.267658,-3.794378
468859,Ysgol Glanwydden,5,0,0,0,2015-01-08,53.31159,-3.778898
468860,Ysgol Gogarth,5,5,5,5,2014-01-27,53.319457,-3.803998
468861,Ysgol Gynradd,5,0,0,0,2014-12-08,53.156446,-3.785114
468862,Ysgol Iau Hen Golwyn,5,0,0,0,2013-03-21,53.289289,-3.702342
468863,Ysgol Iau Llandrillo yn Rhos,5,5,5,5,2014-01-30,53.310425,-3.748259
468864,Ysgol Iau Pendorlan,5,5,0,0,2014-01-31,53.293673,-3.718211
468865,Ysgol Iau St Elfod,5,0,0,0,2013-10-09,53.287824,-3.576852
468866,Ysgol Iau Tan Y Marian,5,0,0,0,2013-10-09,53.287708,-3.679476
468867,Ysgol John Bright,5,5,5,5,2013-10-23,53.314401,-3.824906
468868,Ysgol Latymer,5,0,0,0,2014-03-14,53.011889,-3.852853
468869,Ysgol Llanddulas,5,5,0,0,2014-09-11,53.288709,-3.643765
468870,Ysgol Llanddulas After School Club,Exempt,nan,nan,nan,2014-06-25,53.288709,-3.643765
468871,Ysgol Llanddulas Play Group,Exempt,nan,nan,nan,2011-05-17,53.288709,-3.643765
468872,Ysgol Llangelynnin,5,5,0,0,2014-02-11,53.255206,-3.846221
468873,Ysgol Llangwm,5,0,0,0,2014-03-14,52.989455,-3.541407
468874,Ysgol Llannefydd,5,0,5,0,2013-06-17,53.223335,-3.527566
468875,Ysgol Maelgwyn,5,5,0,5,2013-10-22,53.285215,-3.80926
468876,Ysgol Maes Owen,5,0,0,0,2013-10-09,53.305842,-3.524792
468877,Ysgol Meithrin Tudno c/o,5,5,0,0,2014-10-08,53.320333,-3.830294
468878,Ysgol Morfa Rhiannedd,5,0,0,0,2014-02-10,53.31689,-3.825613
468879,Ysgol Nant Y Coed,5,0,5,5,2014-07-01,53.286584,-3.800812
468880,Ysgol Pant y Rhedyn,5,0,0,5,2014-06-12,53.257788,-3.97453
468881,Ysgol Pen Y Bryn,5,0,0,0,2014-09-12,53.288442,-3.737985
468882,Ysgol Pencae,5,0,5,5,2013-11-11,53.268863,-3.914516
468883,Ysgol Penmachno,3,10,10,10,2013-06-25,53.041966,-3.800547
468884,Ysgol Pentrefoelas,5,0,0,0,2011-05-18,53.046385,-3.679788
468885,Ysgol Porth y Felin,5,0,5,5,2013-10-24,53.278297,-3.833102
468886,Ysgol Rhydgaled,5,0,0,0,2013-07-09,53.170478,-3.506896
468887,Ysgol San Sior (Egg Packing),Exempt,nan,nan,nan,2013-05-14,53.325646,-3.838465
468888,Ysgol Sant Joseff,5,0,0,0,2013-10-09,53.296226,-3.736275
468889,Ysgol Sant Sior,5,0,0,0,2013-04-12,53.325646,-3.838465
468890,Ysgol T Gwynn Jones,5,0,0,5,2013-03-21,53.287812,-3.703154
468891,Ysgol Tal Y Bont,5,5,0,5,2014-09-19,53.202906,-3.848283
468892,Ysgol Talhaiarn,5,5,0,0,2014-03-11,53.217039,-3.608383
468893,Ysgol Trefriw,5,5,0,5,2014-07-02,53.150432,-3.824853
468894,Ysgol Tudno,5,5,0,0,2013-04-12,53.320333,-3.830294
468895,Ysgol Wyddfid,Exempt,nan,nan,nan,2011-07-15,53.328015,-3.84109
468896,Ysgol Y Creuddyn,5,5,5,5,2013-07-15,53.31159,-3.778898
468897,Ysgol y Plas,5,5,0,0,2015-01-16,53.264701,-3.682803
468898,Ysgol Ysbyty Ifan,5,0,0,0,2013-04-24,53.019025,-3.736914
468899,Zak's Kebab,4,10,0,10,2014-02-13,53.326541,-3.832332
