,addressline1,addressline2,addressline3,addressline4,businessname,businesstype,businesstypeid,confidenceinmanagement,extractdate,fhrsid,hygiene,itemcount,latitude,localauthoritybusinessid,localauthoritycode,localauthorityemailaddress,localauthorityname,localauthoritywebsite,longitude,postcode,ratingdate,ratingkey,ratingvalue,returncode,schemetype,structural
465338,,5 The Arcade,Llanelli,Carmarthenshire,A Taste Of Heaven,Manufacturers/packers,7839,0,,686839,0,,51.68207200000000,82065,558,PublicProtection@carmarthenshire.gov.uk,Carmarthenshire,http://www.carmarthenshire.gov.uk,-4.16240100000000,SA15 3TW,2014-07-02,fhrs_4_en-GB,4,,FHRS,10
465339,,110 College Street,Ammanford,Carmarthenshire,A to Z CONVENIENCE STORE,Retailers - supermarkets/hypermarkets,7840,5,,103301,0,,51.79945000000000,34674,558,PublicProtection@carmarthenshire.gov.uk,Carmarthenshire,http://www.carmarthenshire.gov.uk,-3.94716700000000,SA18 2BS,2014-10-23,fhrs_5_en-GB,5,,FHRS,0
465340,,69 Felinfoel Road,Llanelli,Carmarthenshire,A&M Ice Cream Van,Mobile caterer,7846,10,,558955,5,,51.68737800000000,6094,558,PublicProtection@carmarthenshire.gov.uk,Carmarthenshire,http://www.carmarthenshire.gov.uk,-4.15990500000000,SA15 3JQ,2013-03-25,fhrs_4_en-GB,4,,FHRS,5
465341,,6 Lammas Street,Carmarthen,Carmarthenshire,Aardvark Alternatives,Retailers - other,4613,5,,623207,5,,51.85663200000000,78973,558,PublicProtection@carmarthenshire.gov.uk,Carmarthenshire,http://www.carmarthenshire.gov.uk,-4.30916200000000,SA31 3AD,2013-11-25,fhrs_4_en-GB,4,,FHRS,10
465342,,,Porthyrhyd,"Carmarthen, Carmarthenshire",ABADAM ARMS,Pub/bar/nightclub,7843,10,,129931,5,,51.82258224487305,60942,558,PublicProtection@carmarthenshire.gov.uk,Carmarthenshire,http://www.carmarthenshire.gov.uk,-4.15060949325562,SA32 8PL,2015-01-08,fhrs_4_en-GB,4,,FHRS,5
465343,Abbeyfield House,1 George Street,Llandeilo,Carmarthenshire,ABBEYFIELD LLANDEILO SOCIETY LTD,Hospitals/Childcare/Caring Premises,5,5,,42608,5,,51.88261100000000,10504,558,PublicProtection@carmarthenshire.gov.uk,Carmarthenshire,http://www.carmarthenshire.gov.uk,-3.99470100000000,SA19 6AS,2014-02-12,fhrs_5_en-GB,5,,FHRS,5
465344,,Aberglasney,Llangathen,"Carmarthen, Carmarthenshire",ABERGLASNEY HOUSE AND GARDENS,Restaurant/Cafe/Canteen,1,0,,42356,0,,51.87940979003906,10446,558,PublicProtection@carmarthenshire.gov.uk,Carmarthenshire,http://www.carmarthenshire.gov.uk,-4.06458997726440,SA32 8QH,2014-04-09,fhrs_5_en-GB,5,,FHRS,5
465345,,Abergwili,Carmarthen,,ABERGWILI PRIMARY SCHOOL,School/college/university,7845,0,,128001,0,,51.86665725708008,577,558,PublicProtection@carmarthenshire.gov.uk,Carmarthenshire,http://www.carmarthenshire.gov.uk,-4.26993322372437,SA31 2JD,2013-05-02,fhrs_5_en-GB,5,,FHRS,5
465346,,,Abernant,"Carmarthen, Carmarthenshire",ABERNANT SCHOOL,School/college/university,7845,0,,55055,0,,51.88274383544922,12418,558,PublicProtection@carmarthenshire.gov.uk,Carmarthenshire,http://www.carmarthenshire.gov.uk,-4.41323518753052,SA33 5RR,2013-11-25,fhrs_5_en-GB,5,,FHRS,0
465347,Ricadene,Margaret Road,Llandybie,"Ammanford, Carmarthenshire",ABRAHAMS AND FAMILY,Manufacturers/packers,7839,0,,730425,0,,51.81684400000000,9986,558,PublicProtection@carmarthenshire.gov.uk,Carmarthenshire,http://www.carmarthenshire.gov.uk,-4.00405400000000,SA18 3YB,2014-12-04,fhrs_5_en-GB,5,,FHRS,5
465348,,5 Randell Square,Pembrey,"Burry Port, Carmarthenshire",ADELINE GUEST HOUSE,Hotel/bed & breakfast/guest house,7842,5,,623193,5,,51.68758400000000,61058,558,PublicProtection@carmarthenshire.gov.uk,Carmarthenshire,http://www.carmarthenshire.gov.uk,-4.27657100000000,SA16 0TY,2014-01-09,fhrs_5_en-GB,5,,FHRS,5
465349,,3 Church Street,Llandybie,"Ammanford, Carmarthenshire",Ahmed Cuisine/Llandybie Chinese & Indian,Restaurant/Cafe/Canteen,1,10,,200938,10,,51.82085900000000,9988,558,PublicProtection@carmarthenshire.gov.uk,Carmarthenshire,http://www.carmarthenshire.gov.uk,-4.00590100000000,SA18 3HZ,2014-11-04,fhrs_3_en-GB,3,,FHRS,10
465350,,44 Rhosmaen Street,Llandeilo,Carmarthenshire,AJ Diner,Restaurant/Cafe/Canteen,1,5,,137994,5,,51.88423000000000,73143,558,PublicProtection@carmarthenshire.gov.uk,Carmarthenshire,http://www.carmarthenshire.gov.uk,-3.99147400000000,SA19 6HD,2013-11-04,fhrs_5_en-GB,5,,FHRS,5
465351,,46 Rhodfa Brynrhos,Glanamman,"Ammanford, Carmarthenshire",AJ Donuts,Mobile caterer,7846,10,,623186,10,,51.80335800000000,47347,558,PublicProtection@carmarthenshire.gov.uk,Carmarthenshire,http://www.carmarthenshire.gov.uk,-3.92922100000000,SA18 1JF,2013-11-27,fhrs_3_en-GB,3,,FHRS,10
465352,,"H1 - H5 Market Hall, Market Precinct",Llanelli,Carmarthenshire,AJ MEATS,Retailers - other,4613,0,,93095,5,,51.68162700000000,26546,558,PublicProtection@carmarthenshire.gov.uk,Carmarthenshire,http://www.carmarthenshire.gov.uk,-4.16067300000000,SA15 1YF,2014-01-21,fhrs_5_en-GB,5,,FHRS,0
465353,Felinfoel Rugby Club,1-3 Dafen Road,Felinfoel,"Llanelli, Carmarthenshire",Akash Indian Takeaway,Takeaway/sandwich shop,7844,10,,140743,10,,51.69656200000000,76785,558,PublicProtection@carmarthenshire.gov.uk,Carmarthenshire,http://www.carmarthenshire.gov.uk,-4.14260100000000,SA14 8BE,2013-03-12,fhrs_2_en-GB,2,,FHRS,15
465354,,67 Penyfan Road,Llanelli,Carmarthenshire,AKRAM'S,Retailers - other,4613,10,,130388,10,,51.67655500000000,61551,558,PublicProtection@carmarthenshire.gov.uk,Carmarthenshire,http://www.carmarthenshire.gov.uk,-4.14501200000000,SA15 1JG,2014-01-14,fhrs_3_en-GB,3,,FHRS,10
465355,,6 Carmarthen Market,Carmarthen,Carmarthenshire,ALBERT REES,Retailers - other,4613,0,,50659,0,,51.85769400000000,113,558,PublicProtection@carmarthenshire.gov.uk,Carmarthenshire,http://www.carmarthenshire.gov.uk,-4.30910000000000,SA31 1QY,2014-01-07,fhrs_5_en-GB,5,,FHRS,5
465356,,,Llanybydder,Carmarthenshire,ALBION ARMS,Pub/bar/nightclub,7843,10,,595834,10,,52.07311700000000,61864,558,PublicProtection@carmarthenshire.gov.uk,Carmarthenshire,http://www.carmarthenshire.gov.uk,-4.14954400000000,SA40 9RN,2013-10-18,fhrs_3_en-GB,3,,FHRS,10
465357,Stephens Way,Myrtle Hill,Pensarn,"Carmarthen, Carmarthenshire",Aldi GMBH,Retailers - supermarkets/hypermarkets,7840,0,,686832,0,,51.84994700000000,66605,558,PublicProtection@carmarthenshire.gov.uk,Carmarthenshire,http://www.carmarthenshire.gov.uk,-4.30752700000000,SA31 2BG,2014-07-02,fhrs_5_en-GB,5,,FHRS,5
465358,Llandeilo Road,Meadows Road,Cross Hands,"Llanelli, Carmarthenshire",ALDI STORES LIMITED,Retailers - supermarkets/hypermarkets,7840,0,,623189,5,,51.79673100000000,608,558,PublicProtection@carmarthenshire.gov.uk,Carmarthenshire,http://www.carmarthenshire.gov.uk,-4.08456600000000,SA14 6RD,2013-11-06,fhrs_5_en-GB,5,,FHRS,0
465359,4 The Arcade,College Street,Ammanford,Carmarthenshire,Alfie's,Restaurant/Cafe/Canteen,1,0,,446387,0,,51.79340700000000,78829,558,PublicProtection@carmarthenshire.gov.uk,Carmarthenshire,http://www.carmarthenshire.gov.uk,-3.98838300000000,SA18 2LN,2014-01-15,fhrs_5_en-GB,5,,FHRS,0
465360,,Trinity Road,Llanelli,Carmarthenshire,ALI RAJ,Restaurant/Cafe/Canteen,1,5,,94144,5,,51.67267000000000,27334,558,PublicProtection@carmarthenshire.gov.uk,Carmarthenshire,http://www.carmarthenshire.gov.uk,-4.15631200000000,SA15 2AB,2014-07-23,fhrs_5_en-GB,5,,FHRS,5
465361,,25 Blue Street,Carmarthen,Carmarthenshire,Alicja,Retailers - other,4613,10,,623213,5,,51.85567600000000,80192,558,PublicProtection@carmarthenshire.gov.uk,Carmarthenshire,http://www.carmarthenshire.gov.uk,-4.30795100000000,SA31 3LE,2013-12-18,fhrs_4_en-GB,4,,FHRS,5
465362,,Layby on A483,Between Pont Abraham,and Tycroes,Ali's Cafe,Mobile caterer,7846,5,,131198,10,,,62528,558,PublicProtection@carmarthenshire.gov.uk,Carmarthenshire,http://www.carmarthenshire.gov.uk,,,2013-11-07,fhrs_4_en-GB,4,,FHRS,5
465363,,34 Murray Street,Llanelli,Carmarthenshire,ALL IN ONE TAKEAWAY,Takeaway/sandwich shop,7844,5,,102665,5,,51.68051900000000,34154,558,PublicProtection@carmarthenshire.gov.uk,Carmarthenshire,http://www.carmarthenshire.gov.uk,-4.16076500000000,SA15 1DJ,2014-01-14,fhrs_4_en-GB,4,,FHRS,10
465364,,Pentre Road,St. Clears,"Carmarthen, Carmarthenshire",ALLSORTS,Retailers - other,4613,0,,631915,5,,51.81986900000000,40720,558,PublicProtection@carmarthenshire.gov.uk,Carmarthenshire,http://www.carmarthenshire.gov.uk,-4.49573500000000,SA33 4AA,2014-01-14,fhrs_5_en-GB,5,,FHRS,0
465365,Alltymynydd Nursing Home,Ty Mawr To Caermalwas,Ty Mawr,"Llanybydder, Carmarthenshire",ALLTYMYNYDD NURSING HOME,Hospitals/Childcare/Caring Premises,5,5,,145146,0,,52.05465100000000,8523,558,PublicProtection@carmarthenshire.gov.uk,Carmarthenshire,http://www.carmarthenshire.gov.uk,-4.10901200000000,SA40 9RF,2014-10-15,fhrs_5_en-GB,5,,FHRS,0
465366,,2 Stepney Street,Llanelli,Carmarthenshire,ALTALIA,Restaurant/Cafe/Canteen,1,5,,338913,5,,51.68275000000000,27924,558,PublicProtection@carmarthenshire.gov.uk,Carmarthenshire,http://www.carmarthenshire.gov.uk,-4.16022000000000,SA15 3UP,2013-12-10,fhrs_5_en-GB,5,,FHRS,5
465367,Carmarthen Indoor Market,unit 2 Market Way,Carmarthen,Carmarthenshire,Alun Ap Fychan,Other catering premises,7841,5,,139565,5,,51.85769400000000,75258,558,PublicProtection@carmarthenshire.gov.uk,Carmarthenshire,http://www.carmarthenshire.gov.uk,-4.30910000000000,SA31 1QY,2014-07-14,fhrs_5_en-GB,5,,FHRS,5
465368,PEMBREY WEST WALES AIRPORT,,Pembrey,Carmarthenshire,Amelia's Diner @ Pembrey Airport,Restaurant/Cafe/Canteen,1,0,,122102,5,,51.71185800000000,50656,558,PublicProtection@carmarthenshire.gov.uk,Carmarthenshire,http://www.carmarthenshire.gov.uk,-4.30043100000000,SA16 0HZ,2014-02-20,fhrs_5_en-GB,5,,FHRS,5
465369,,31 Station Road,Ammanford,Carmarthenshire,Amma Convenience Store,Retailers - other,4613,0,,446374,0,,51.79640500000000,60752,558,PublicProtection@carmarthenshire.gov.uk,Carmarthenshire,http://www.carmarthenshire.gov.uk,-3.99505500000000,SA18 2DB,2014-01-21,fhrs_5_en-GB,5,,FHRS,5
465370,,Margaret Street,Ammanford,Carmarthenshire,AMMAN  CENTRE,Restaurant/Cafe/Canteen,1,0,,129811,0,,51.79451200000000,60785,558,PublicProtection@carmarthenshire.gov.uk,Carmarthenshire,http://www.carmarthenshire.gov.uk,-3.98686500000000,SA18 2NP,2014-09-04,fhrs_5_en-GB,5,,FHRS,0
465371,,Cwmamman Road,Glanamman,"Ammanford, Carmarthenshire",AMMAN UNITED RUGBY FOOTBALL CLUB,Pub/bar/nightclub,7843,5,,721808,10,,51.80468500000000,60482,558,PublicProtection@carmarthenshire.gov.uk,Carmarthenshire,http://www.carmarthenshire.gov.uk,-3.91517900000000,SA18 1DQ,2014-03-21,fhrs_3_en-GB,3,,FHRS,10
465372,Amman Valley Comprehensive Sch,Margaret Street,Ammanford,Carmarthenshire,AMMAN VALLEY COMPREHENSIVE SCHOOL,School/college/university,7845,0,,129810,0,,51.79598600000000,60784,558,PublicProtection@carmarthenshire.gov.uk,Carmarthenshire,http://www.carmarthenshire.gov.uk,-3.98579900000000,SA18 2NW,2014-06-24,fhrs_5_en-GB,5,,FHRS,5
465373,Amman Valley Hospital,Folland Road,Glanamman,"Ammanford, Carmarthenshire",AMMAN VALLEY HOSPITAL,Hospitals/Childcare/Caring Premises,5,0,,434352,0,,51.80904400000000,29921,558,PublicProtection@carmarthenshire.gov.uk,Carmarthenshire,http://www.carmarthenshire.gov.uk,-3.92412600000000,SA18 2BQ,2014-04-16,fhrs_5_en-GB,5,,FHRS,5
465374,,13 Wind Street,Ammanford,Carmarthenshire,AMMANFORD AND DISTRICT MINERS WELFARE ASSOCIATION SOCIAL CLUB LTD,Restaurant/Cafe/Canteen,1,0,,338940,0,,51.79201700000000,60791,558,PublicProtection@carmarthenshire.gov.uk,Carmarthenshire,http://www.carmarthenshire.gov.uk,-3.98920600000000,SA18 3DN,2014-03-24,fhrs_4_en-GB,4,,FHRS,10
465375,Ammanford Cp School,High Street,Ammanford,Carmarthenshire,AMMANFORD CENTRAL KITCHEN,School/college/university,7845,0,,129854,0,,51.79330400000000,60847,558,PublicProtection@carmarthenshire.gov.uk,Carmarthenshire,http://www.carmarthenshire.gov.uk,-3.98592700000000,SA18 2NS,2014-11-19,fhrs_5_en-GB,5,,FHRS,0
465376,,High Street,Ammanford,,Ammanford Fire Station,Other catering premises,7841,5,,129898,5,,51.79333600000000,60892,558,PublicProtection@carmarthenshire.gov.uk,Carmarthenshire,http://www.carmarthenshire.gov.uk,-3.98355100000000,SA18 2NB,2013-10-08,fhrs_5_en-GB,5,,FHRS,5
465377,,18 College Street,Ammanford,Carmarthenshire,Ammanford Fish Bar,Takeaway/sandwich shop,7844,5,,654590,5,,51.79349100000000,81793,558,PublicProtection@carmarthenshire.gov.uk,Carmarthenshire,http://www.carmarthenshire.gov.uk,-3.98980700000000,SA18 3AF,2014-03-17,fhrs_5_en-GB,5,,FHRS,5
465378,,65 Wind Street,Ammanford,Carmarthenshire,AMMANFORD SOCIAL CLUB AND INSTITUTE,Pub/bar/nightclub,7843,0,,654553,0,,51.79075400000000,60800,558,PublicProtection@carmarthenshire.gov.uk,Carmarthenshire,http://www.carmarthenshire.gov.uk,-3.99155800000000,SA18 3DT,2014-02-13,fhrs_5_en-GB,5,,FHRS,5
465379,Compton House,12 St Johns Court,Carmarthen,Carmarthenshire,Amser Te,Restaurant/Cafe/Canteen,1,5,,623184,5,,51.85750600000000,41966,558,PublicProtection@carmarthenshire.gov.uk,Carmarthenshire,http://www.carmarthenshire.gov.uk,-4.30174200000000,SA31 1ET,2013-11-20,fhrs_5_en-GB,5,,FHRS,5
465380,,17 Station Road,Ammanford,Carmarthenshire,ANDI PANDIES DAY NURSERY,Hospitals/Childcare/Caring Premises,5,5,,200858,0,,51.79644300000000,41409,558,PublicProtection@carmarthenshire.gov.uk,Carmarthenshire,http://www.carmarthenshire.gov.uk,-3.99495500000000,SA18 2DB,2013-12-03,fhrs_5_en-GB,5,,FHRS,5
465381,TY GWYN,Llanwrda,Carms,,Andrew & E Barker,Restaurant/Cafe/Canteen,1,20,,721806,10,,51.98830600000000,58344,558,PublicProtection@carmarthenshire.gov.uk,Carmarthenshire,http://www.carmarthenshire.gov.uk,-3.89106600000000,SA19 8AY,2014-11-26,fhrs_1_en-GB,1,,FHRS,15
465382,,62 Rhosmaen Street,Llandeilo,Carmarthenshire,ANGEL HOTEL,Pub/bar/nightclub,7843,5,,338973,10,,51.88303500000000,62315,558,PublicProtection@carmarthenshire.gov.uk,Carmarthenshire,http://www.carmarthenshire.gov.uk,-3.99249700000000,SA19 6EN,2013-09-17,fhrs_3_en-GB,3,,FHRS,10
465383,,,Llansawel,"Llandeilo, Carmarthenshire",ANGEL INN,Restaurant/Cafe/Canteen,1,10,,200848,5,,52.00746917724610,61840,558,PublicProtection@carmarthenshire.gov.uk,Carmarthenshire,http://www.carmarthenshire.gov.uk,-4.01250410079956,SA19 7JG,2012-02-16,fhrs_4_en-GB,4,,FHRS,5
465384,Angel Inn,,Salem,"Llandeilo, Carmarthenshire",ANGEL INN,Pub/bar/nightclub,7843,5,,631931,0,,51.92027800000000,62246,558,PublicProtection@carmarthenshire.gov.uk,Carmarthenshire,http://www.carmarthenshire.gov.uk,-4.00374400000000,SA19 7LY,2014-01-30,fhrs_5_en-GB,5,,FHRS,5
465385,,,Laugharne,"Carmarthen, Carmarthenshire",ANTS HILL CARAVAN PARK,Restaurant/Cafe/Canteen,1,10,,587258,10,,51.77830600000000,60653,558,PublicProtection@carmarthenshire.gov.uk,Carmarthenshire,http://www.carmarthenshire.gov.uk,-4.46664700000000,SA33 4QN,2013-08-16,fhrs_3_en-GB,3,,FHRS,10
465386,,23/25 Market Street,Llanelli,Carmarthenshire,ARGOS BINGO CLUB,Pub/bar/nightclub,7843,10,,338958,5,,51.68248400000000,615,558,PublicProtection@carmarthenshire.gov.uk,Carmarthenshire,http://www.carmarthenshire.gov.uk,-4.15957100000000,SA15 3UW,2013-12-10,fhrs_4_en-GB,4,,FHRS,5
465387,,101a Rhosmaen Street,Llandeilo,Carmarthenshire,Artwerks,Restaurant/Cafe/Canteen,1,5,,730420,5,,51.88380800000000,82782,558,PublicProtection@carmarthenshire.gov.uk,Carmarthenshire,http://www.carmarthenshire.gov.uk,-3.99194900000000,SA19 6HA,2015-01-08,fhrs_5_en-GB,5,,FHRS,5
465388,,Trostre Retail Park,Llanelli,Carmarthenshire,Asda Living Cafe,Restaurant/Cafe/Canteen,1,5,,136937,5,,51.88103485107422,71516,558,PublicProtection@carmarthenshire.gov.uk,Carmarthenshire,http://www.carmarthenshire.gov.uk,-4.21432495117188,SA14 9UY,2014-07-18,fhrs_5_en-GB,5,,FHRS,5
465389,,21-22 St Elli Centre,Llanelli,Carmarthenshire,ASDA STORES LTD (SUPERMARKET),Retailers - supermarkets/hypermarkets,7840,0,,131173,0,,51.68187400000000,62498,558,PublicProtection@carmarthenshire.gov.uk,Carmarthenshire,http://www.carmarthenshire.gov.uk,-4.15947000000000,SA15 1SH,2014-06-24,fhrs_5_en-GB,5,,FHRS,5
465390,The Clubhouse,Cliffe Terrace,Burry Port,Carmarthenshire,ASHBURNHAM GOLF CLUB,Pub/bar/nightclub,7843,5,,130035,0,,51.68305900000000,61050,558,PublicProtection@carmarthenshire.gov.uk,Carmarthenshire,http://www.carmarthenshire.gov.uk,-4.26131300000000,SA16 0HN,2014-08-26,fhrs_5_en-GB,5,,FHRS,5
465391,Ashburnham Hotel,Ashburnham Road,Pembrey,"Burry Port, Carmarthenshire",ASHBURNHAM HOTEL,Hotel/bed & breakfast/guest house,7842,5,,130039,5,,51.68489500000000,61053,558,PublicProtection@carmarthenshire.gov.uk,Carmarthenshire,http://www.carmarthenshire.gov.uk,-4.26589000000000,SA16 0TH,2014-04-24,fhrs_5_en-GB,5,,FHRS,5
465392,,Station Road,Carmarthen,Carmarthenshire,AT SEAT CATERING,Other catering premises,7841,0,,79301,0,,51.85324800000000,19020,558,PublicProtection@carmarthenshire.gov.uk,Carmarthenshire,http://www.carmarthenshire.gov.uk,-4.30609900000000,SA31 2BE,2014-01-08,fhrs_5_en-GB,5,,FHRS,5
465393,,4-6 The Avenue,Llwynhendy,"Llanelli, Carmarthenshire",AVENUE FISH BAR,Takeaway/sandwich shop,7844,5,,200846,5,,51.68061000000000,61378,558,PublicProtection@carmarthenshire.gov.uk,Carmarthenshire,http://www.carmarthenshire.gov.uk,-4.12177000000000,SA14 9DW,2013-11-25,fhrs_5_en-GB,5,,FHRS,0
465394,,26-28 Market Street,Llanelli,Carmarthenshire,AVO Cafe Bar,Restaurant/Cafe/Canteen,1,5,,136592,5,,51.68261000000000,70929,558,PublicProtection@carmarthenshire.gov.uk,Carmarthenshire,http://www.carmarthenshire.gov.uk,-4.15905600000000,SA15 1YD,2013-11-13,fhrs_5_en-GB,5,,FHRS,5
465395,Bethlehem Road,Parc Cawdor,Ffairfach,"Llandeilo, Carmarthenshire",AWEL TYWI RESIDENTIAL HOME,Hospitals/Childcare/Caring Premises,5,5,,200964,0,,51.87532000000000,9985,558,PublicProtection@carmarthenshire.gov.uk,Carmarthenshire,http://www.carmarthenshire.gov.uk,-3.99195200000000,SA19 6SY,2014-10-21,fhrs_5_en-GB,5,,FHRS,5
465396,,9 Cowell Street,Llanelli,Carmarthenshire,B J'S CAFE BAR,Restaurant/Cafe/Canteen,1,10,,130499,10,,51.68114100000000,61729,558,PublicProtection@carmarthenshire.gov.uk,Carmarthenshire,http://www.carmarthenshire.gov.uk,-4.16166200000000,SA15 1UU,2014-09-30,fhrs_3_en-GB,3,,FHRS,10
465397,,19 Station Road,Llanelli,Carmarthenshire,BAHN MAI THAI RESTAURANT,Restaurant/Cafe/Canteen,1,5,,122653,5,,51.67850200000000,51106,558,PublicProtection@carmarthenshire.gov.uk,Carmarthenshire,http://www.carmarthenshire.gov.uk,-4.16236100000000,SA15 1AW,2014-03-12,fhrs_4_en-GB,4,,FHRS,10
465398,,Carmarthen Road,Cross Hands,Llanelli,Balcony Cafe-Wynnstay Town and Country Stores,Restaurant/Cafe/Canteen,1,5,,654589,5,,51.79512900000000,81680,558,PublicProtection@carmarthenshire.gov.uk,Carmarthenshire,http://www.carmarthenshire.gov.uk,-4.07550000000000,SA14 6RE,2014-02-17,fhrs_5_en-GB,5,,FHRS,5
465399,,Heol Y Pentre,Ponthenry,"Llanelli, Carmarthenshire",BALTIC INN & RESTAURANT,Pub/bar/nightclub,7843,0,,126396,5,,51.76390200000000,554,558,PublicProtection@carmarthenshire.gov.uk,Carmarthenshire,http://www.carmarthenshire.gov.uk,-4.21087500000000,SA15 5RE,2014-07-03,fhrs_5_en-GB,5,,FHRS,5
465400,Bancffosfelen Cp School,,Bancffosfelen,"Llanelli, Carmarthenshire",BANCFFOSFELEN CP SCHOOL,School/college/university,7845,0,,338996,0,,51.78806100000000,9108,558,PublicProtection@carmarthenshire.gov.uk,Carmarthenshire,http://www.carmarthenshire.gov.uk,-4.19572900000000,SA15 5DR,2013-10-15,fhrs_5_en-GB,5,,FHRS,0
465401,,High Street,Bancyfelin,"Carmarthen, Carmarthenshire",BANCYFELIN CP SCHOOL,School/college/university,7845,0,,128653,0,,51.83568600000000,588,558,PublicProtection@carmarthenshire.gov.uk,Carmarthenshire,http://www.carmarthenshire.gov.uk,-4.43408800000000,SA33 5ND,2014-04-30,fhrs_5_en-GB,5,,FHRS,5
465402,,St. Johns Street,Whitland,Carmarthenshire,BAR BUCCI,Takeaway/sandwich shop,7844,10,,55764,0,,51.81844100000000,12591,558,PublicProtection@carmarthenshire.gov.uk,Carmarthenshire,http://www.carmarthenshire.gov.uk,-4.61394800000000,SA34 0AP,2014-07-08,fhrs_4_en-GB,4,,FHRS,10
465403,,Market Square,Llanybydder,Carmarthenshire,BARA GWALIA BAKERY,Retailers - other,4613,10,,130574,10,,52.07461600000000,61857,558,PublicProtection@carmarthenshire.gov.uk,Carmarthenshire,http://www.carmarthenshire.gov.uk,-4.16101300000000,SA40 9UE,2014-09-24,fhrs_3_en-GB,3,,FHRS,10
465404,Bargoed Garage,Saron To Rhos,Saron,"Llandysul, Carmarthenshire",BARGOED STORES,Retailers - other,4613,5,,446377,10,,52.00611600000000,61441,558,PublicProtection@carmarthenshire.gov.uk,Carmarthenshire,http://www.carmarthenshire.gov.uk,-4.36350900000000,SA44 5EB,2013-11-21,fhrs_4_en-GB,4,,FHRS,5
465405,,Marsh Road,Pendine,Carmarthenshire,Barnacles Cafe,Restaurant/Cafe/Canteen,1,0,,119655,5,,51.74349400000000,488,558,PublicProtection@carmarthenshire.gov.uk,Carmarthenshire,http://www.carmarthenshire.gov.uk,-4.55913100000000,SA33 4NZ,2014-08-26,fhrs_5_en-GB,5,,FHRS,0
465406,,7 Stepney Road,Burry Port,Carmarthenshire,BARRIES PLAICE,Takeaway/sandwich shop,7844,5,,129956,5,,51.68465400000000,60987,558,PublicProtection@carmarthenshire.gov.uk,Carmarthenshire,http://www.carmarthenshire.gov.uk,-4.24895100000000,SA16 0BH,2013-11-07,fhrs_5_en-GB,5,,FHRS,5
465407,ALLTYGAER,Alltygaer Farm,Dryslwyn,"Carmarthen, Carmarthenshire",BARRY WALTERS & SON,Mobile caterer,7846,5,,623182,5,,51.86910400000000,229,558,PublicProtection@carmarthenshire.gov.uk,Carmarthenshire,http://www.carmarthenshire.gov.uk,-4.07476600000000,SA32 8RP,2013-10-29,fhrs_5_en-GB,5,,FHRS,5
465408,UNIT 4,Pontardulais Road,Cross Hands,"Llanelli, Carmarthenshire",BASMATI,Takeaway/sandwich shop,7844,10,,94057,10,,51.79291300000000,27250,558,PublicProtection@carmarthenshire.gov.uk,Carmarthenshire,http://www.carmarthenshire.gov.uk,-4.08585400000000,SA14 6NT,2014-01-09,fhrs_3_en-GB,3,,FHRS,10
465409,Lyndale,High Street,Llansteffan,"Carmarthen, Carmarthenshire",BayTree b/b,Hotel/bed & breakfast/guest house,7842,0,,139926,0,,51.77250400000000,75898,558,PublicProtection@carmarthenshire.gov.uk,Carmarthenshire,http://www.carmarthenshire.gov.uk,-4.39017000000000,SA33 5JZ,2014-01-08,fhrs_5_en-GB,5,,FHRS,0
465410,,54 Bridge Street,Llangennech,"Llanelli, Carmarthenshire",BD WILLIAMS & SON,Retailers - other,4613,10,,130244,5,,51.69471200000000,61348,558,PublicProtection@carmarthenshire.gov.uk,Carmarthenshire,http://www.carmarthenshire.gov.uk,-4.08399700000000,SA14 8TN,2013-10-22,fhrs_4_en-GB,4,,FHRS,5
465411,Beach Shop & Tea Rooms,Llanstephan,,"Carmarthen, Carmarthenshire",BEACH SHOP & TEA ROOMS,Restaurant/Cafe/Canteen,1,5,,103330,5,,51.77026300000000,347,558,PublicProtection@carmarthenshire.gov.uk,Carmarthenshire,http://www.carmarthenshire.gov.uk,-4.38718100000000,SA33 5LW,2013-09-11,fhrs_5_en-GB,5,,FHRS,5
465412,Pembrey Country Park,Factory Road,Pembrey,"Burry Port, Carmarthenshire",Beachcomber Kiosk,Takeaway/sandwich shop,7844,5,,623204,5,,51.68848800000000,74227,558,PublicProtection@carmarthenshire.gov.uk,Carmarthenshire,http://www.carmarthenshire.gov.uk,-4.28651300000000,SA16 0DZ,2013-11-20,fhrs_5_en-GB,5,,FHRS,5
465413,,Market Square,Llandovery,Carmarthenshire,BEAR INN,Pub/bar/nightclub,7843,5,,464585,5,,51.99418600000000,61174,558,PublicProtection@carmarthenshire.gov.uk,Carmarthenshire,http://www.carmarthenshire.gov.uk,-3.79695600000000,SA20 0AB,2014-09-19,fhrs_5_en-GB,5,,FHRS,5
465414,Bryn Farm,C1317 From Llanpumsaint To Jun,Llanpumsaint,"Carmarthen, Carmarthenshire",BECKY'S FRUIT AND VEG,Retailers - other,4613,0,,636034,10,,51.93887500000000,770,558,PublicProtection@carmarthenshire.gov.uk,Carmarthenshire,http://www.carmarthenshire.gov.uk,-4.30062500000000,SA33 6BY,2014-02-21,fhrs_4_en-GB,4,,FHRS,5
465415,,,Llanllwni,"Pencader, Carmarthenshire",BELLE VUE INN,Pub/bar/nightclub,7843,0,,130559,0,,52.04681015014648,61834,558,PublicProtection@carmarthenshire.gov.uk,Carmarthenshire,http://www.carmarthenshire.gov.uk,-4.18446350097656,SA40 9SQ,2014-02-27,fhrs_5_en-GB,5,,FHRS,5
465416,Crown Buildings,Town Hall Square,Llanelli,Carmarthenshire,BENEFITS AGENCY CANTEEN,Restaurant/Cafe/Canteen,1,0,,41503,5,,51.68252400000000,10287,558,PublicProtection@carmarthenshire.gov.uk,Carmarthenshire,http://www.carmarthenshire.gov.uk,-4.16272600000000,SA15 3TH,2013-09-18,fhrs_5_en-GB,5,,FHRS,0
465417,,11 Bridge Street,Kidwelly,Carmarthenshire,Best Kebabs,Takeaway/sandwich shop,7844,5,,126896,10,,51.73740000000000,55988,558,PublicProtection@carmarthenshire.gov.uk,Carmarthenshire,http://www.carmarthenshire.gov.uk,-4.30813100000000,SA17 4UU,2014-07-30,fhrs_4_en-GB,4,,FHRS,5
465418,,60 Station Road,Llanelli,Carmarthenshire,Best Pizza and Kebab House,Takeaway/sandwich shop,7844,5,,338957,5,,51.67792400000000,61496,558,PublicProtection@carmarthenshire.gov.uk,Carmarthenshire,http://www.carmarthenshire.gov.uk,-4.16250700000000,SA15 1AN,2014-03-13,fhrs_4_en-GB,4,,FHRS,10
465419,,Carmarthen Market,Carmarthen,,BETHS CAFE,Restaurant/Cafe/Canteen,1,5,,142405,0,,51.85769400000000,791,558,PublicProtection@carmarthenshire.gov.uk,Carmarthenshire,http://www.carmarthenshire.gov.uk,-4.30910000000000,SA31 1QY,2014-12-04,fhrs_5_en-GB,5,,FHRS,0
465420,,31 Llandeilo Road,Cross Hands,Llanelli,Bettys Kitchen @ Skoops,Restaurant/Cafe/Canteen,1,0,,464600,5,,51.79513000000000,79017,558,PublicProtection@carmarthenshire.gov.uk,Carmarthenshire,http://www.carmarthenshire.gov.uk,-4.08611600000000,SA14 6NA,2014-01-16,fhrs_5_en-GB,5,,FHRS,5
465421,,Betws Road,Betws,"Ammanford, Carmarthenshire",BETWS COUNTY PRIMARY SCHOOL,School/college/university,7845,0,,129887,0,,51.78707400000000,60865,558,PublicProtection@carmarthenshire.gov.uk,Carmarthenshire,http://www.carmarthenshire.gov.uk,-3.98476900000000,SA18 2HE,2012-10-15,fhrs_5_en-GB,5,,FHRS,5
465422,,41 Llannon Road,Upper Tumble,Llanelli,Bev's Cupcakes,Other catering premises,7841,5,,686835,0,,51.78149100000000,81058,558,PublicProtection@carmarthenshire.gov.uk,Carmarthenshire,http://www.carmarthenshire.gov.uk,-4.11064000000000,SA14 6BW,2014-06-23,fhrs_5_en-GB,5,,FHRS,0
465423,,43 Pentrefelin Street,Carmarthen,Carmarthenshire,Bev's Fish,Mobile caterer,7846,5,,686826,5,,51.85944700000000,40567,558,PublicProtection@carmarthenshire.gov.uk,Carmarthenshire,http://www.carmarthenshire.gov.uk,-4.31232700000000,SA31 1RJ,2014-07-02,fhrs_4_en-GB,4,,FHRS,10
465424,,43 Iscoed Road,Pontarddulais,"Swansea, Carmarthenshire",Beynon's Chippy,Takeaway/sandwich shop,7844,5,,129634,5,,51.71377900000000,60515,558,PublicProtection@carmarthenshire.gov.uk,Carmarthenshire,http://www.carmarthenshire.gov.uk,-4.05479200000000,SA4 0UU,2014-02-05,fhrs_5_en-GB,5,,FHRS,5
465425,,2-3 Guildhall Square,Carmarthen,Carmarthenshire,BHS LIMITED,Restaurant/Cafe/Canteen,1,5,,200969,5,,51.85665200000000,52436,558,PublicProtection@carmarthenshire.gov.uk,Carmarthenshire,http://www.carmarthenshire.gov.uk,-4.30724600000000,SA31 1PN,2013-10-01,fhrs_4_en-GB,4,,FHRS,10
465426,UNIT 11,Trostre Retail Park,Llanelli,Carmarthenshire,BHS LIMITED,Restaurant/Cafe/Canteen,1,5,,123564,5,,51.67632400000000,51985,558,PublicProtection@carmarthenshire.gov.uk,Carmarthenshire,http://www.carmarthenshire.gov.uk,-4.13889700000000,SA14 9UY,2013-10-08,fhrs_5_en-GB,5,,FHRS,5
465427,,19 New Street,Llanelli,Carmarthenshire,BIDDULPH ARMS,Pub/bar/nightclub,7843,5,,623197,5,,51.66866300000000,61658,558,PublicProtection@carmarthenshire.gov.uk,Carmarthenshire,http://www.carmarthenshire.gov.uk,-4.15168200000000,SA15 2BS,2013-12-10,fhrs_2_en-GB,2,,FHRS,15
465428,,Myrtle Hill,Pensarn,Carmarthen,Big Bite,Mobile caterer,7846,0,,434410,10,,51.68733400000000,78205,558,PublicProtection@carmarthenshire.gov.uk,Carmarthenshire,http://www.carmarthenshire.gov.uk,-4.19980000000000,,2013-10-08,fhrs_4_en-GB,4,,FHRS,5
465429,,16A Guildhall Square,Carmarthen,Carmarthenshire,BIG BITE CARMARTHEN,Other catering premises,7841,0,,74465,10,,51.85617600000000,17172,558,PublicProtection@carmarthenshire.gov.uk,Carmarthenshire,http://www.carmarthenshire.gov.uk,-4.30764300000000,SA31 1PR,2014-09-22,fhrs_4_en-GB,4,,FHRS,10
465430,,Bigyn,Llanelli,Carmarthenshire,BIGYN COUNTY PRIMARY SCHOOL,School/college/university,7845,0,,130380,0,,51.88103485107422,61548,558,PublicProtection@carmarthenshire.gov.uk,Carmarthenshire,http://www.carmarthenshire.gov.uk,-4.21432495117188,SA15 1DH,2014-05-14,fhrs_5_en-GB,5,,FHRS,5
465431,,70 Heol Morlais,Trimsaran,"Kidwelly, Carmarthenshire",BIRD IN HAND,Restaurant/Cafe/Canteen,1,10,,129949,5,,51.72182000000000,60976,558,PublicProtection@carmarthenshire.gov.uk,Carmarthenshire,http://www.carmarthenshire.gov.uk,-4.24665500000000,SA17 4DG,2014-09-24,fhrs_3_en-GB,3,,FHRS,10
465432,,24 Carmarthen Road,Pontarddulais,"Swansea, Carmarthenshire",BIRD IN HAND,Pub/bar/nightclub,7843,10,,129638,0,,51.72366100000000,60522,558,PublicProtection@carmarthenshire.gov.uk,Carmarthenshire,http://www.carmarthenshire.gov.uk,-4.05839700000000,SA4 0TU,2015-01-13,fhrs_4_en-GB,4,,FHRS,10
465433,33 Shoppers World,18 Wind Street,Ammanford,Carmarthenshire,Black and White Cafe & Lollywood Sweets,Restaurant/Cafe/Canteen,1,0,,129897,0,,51.79201700000000,60891,558,PublicProtection@carmarthenshire.gov.uk,Carmarthenshire,http://www.carmarthenshire.gov.uk,-3.98920600000000,SA18 3DN,2014-07-22,fhrs_5_en-GB,5,,FHRS,5
465434,,161 Iscoed Road,Pontarddulais,"Swansea, Carmarthenshire",BLACK HORSE,Pub/bar/nightclub,7843,10,,338937,5,,51.71579800000000,60519,558,PublicProtection@carmarthenshire.gov.uk,Carmarthenshire,http://www.carmarthenshire.gov.uk,-4.04780400000000,SA4 0UN,2014-02-04,fhrs_3_en-GB,3,,FHRS,10
465435,,,Pentrecwrt,"Llandysul, Carmarthenshire",BLACK HORSE INN,Pub/bar/nightclub,7843,5,,338956,5,,52.02241516113281,61413,558,PublicProtection@carmarthenshire.gov.uk,Carmarthenshire,http://www.carmarthenshire.gov.uk,-4.35240125656128,SA44 5AX,2012-03-20,fhrs_4_en-GB,4,,FHRS,10
465436,,Pentre Road,St Clears,"Carmarthen, Carmarthenshire",BLACK LION,Pub/bar/nightclub,7843,5,,130856,5,,51.81986900000000,62188,558,PublicProtection@carmarthenshire.gov.uk,Carmarthenshire,http://www.carmarthenshire.gov.uk,-4.49573500000000,SA33 4AA,2013-12-12,fhrs_5_en-GB,5,,FHRS,5
465437,,,Abergorlech,"Carmarthen, Carmarthenshire",BLACK LION,Pub/bar/nightclub,7843,0,,130562,5,,51.98301696777344,61839,558,PublicProtection@carmarthenshire.gov.uk,Carmarthenshire,http://www.carmarthenshire.gov.uk,-4.06294536590576,SA32 7SN,2014-05-08,fhrs_5_en-GB,5,,FHRS,5
465438,,,Llansawel,"Llandeilo, Carmarthenshire",BLACK LION HOTEL,Restaurant/Cafe/Canteen,1,10,,130565,10,,52.00764465332031,61841,558,PublicProtection@carmarthenshire.gov.uk,Carmarthenshire,http://www.carmarthenshire.gov.uk,-4.01210403442383,SA19 7JQ,2014-06-20,fhrs_3_en-GB,3,,FHRS,10
465439,,,Llanybydder,Carmarthenshire,BLACK LION HOTEL,Pub/bar/nightclub,7843,10,,130576,10,,52.07461547851563,61865,558,PublicProtection@carmarthenshire.gov.uk,Carmarthenshire,http://www.carmarthenshire.gov.uk,-4.16101312637329,SA40 9UE,2014-10-30,fhrs_3_en-GB,3,,FHRS,10
465440,,,Cwmffrwd,"Carmarthen, Carmarthenshire",BLACK LION INN,Pub/bar/nightclub,7843,10,,129973,5,,51.82733154296880,60998,558,PublicProtection@carmarthenshire.gov.uk,Carmarthenshire,http://www.carmarthenshire.gov.uk,-4.28673458099365,SA31 2NB,2014-11-19,fhrs_3_en-GB,3,,FHRS,10
465441,,Cwmgarw Road,Upper Brynamman,Ammanford,Black Mountain Centre,Restaurant/Cafe/Canteen,1,5,,129582,0,,51.81261600000000,60443,558,PublicProtection@carmarthenshire.gov.uk,Carmarthenshire,http://www.carmarthenshire.gov.uk,-3.86428900000000,SA18 1BU,2014-06-18,fhrs_5_en-GB,5,,FHRS,0
465442,,Hafan Fach,Mountian Road,Brynamman,Black Mountain Turkeys,Retailers - other,4613,0,,730422,0,,51.81769400000000,83248,558,PublicProtection@carmarthenshire.gov.uk,Carmarthenshire,http://www.carmarthenshire.gov.uk,-3.86158200000000,SA18 1AN,2014-12-16,fhrs_5_en-GB,5,,FHRS,0
465443,,High Street,Abergwili,"Carmarthen, Carmarthenshire",BLACK OX,Pub/bar/nightclub,7843,0,,446360,5,,51.86609700000000,15557,558,PublicProtection@carmarthenshire.gov.uk,Carmarthenshire,http://www.carmarthenshire.gov.uk,-4.26968700000000,SA31 2JB,2014-07-04,fhrs_4_en-GB,4,,FHRS,10
465444,,Llandybie,,,BLAENAU COUNTY PRIMARY SCHOOL,School/college/university,7845,0,,200896,0,,51.81813812255859,60713,558,PublicProtection@carmarthenshire.gov.uk,Carmarthenshire,http://www.carmarthenshire.gov.uk,-4.00337982177734,SA18,2014-02-18,fhrs_5_en-GB,5,,FHRS,5
465445,,,Llandovery,Carmarthenshire,BLAENOS CARE HOME,Hospitals/Childcare/Caring Premises,5,5,,146205,0,,51.99503326416016,8860,558,PublicProtection@carmarthenshire.gov.uk,Carmarthenshire,http://www.carmarthenshire.gov.uk,-3.81384253501892,SA20 0EP,2014-11-03,fhrs_5_en-GB,5,,FHRS,0
465446,Midshire Catering,St Davids Park,Job's Well Road,Carmarthen,Blas Myrddin,Other catering premises,7841,0,,200928,5,,51.85656600000000,77711,558,PublicProtection@carmarthenshire.gov.uk,Carmarthenshire,http://www.carmarthenshire.gov.uk,-4.33345500000000,SA31 3HB,2014-09-05,fhrs_5_en-GB,5,,FHRS,5
465447,,58 King Street,Carmarthen,Carmarthenshire,Blasus Delicatessen,Other catering premises,7841,5,,136449,5,,51.85678300000000,70761,558,PublicProtection@carmarthenshire.gov.uk,Carmarthenshire,http://www.carmarthenshire.gov.uk,-4.30561200000000,SA31 1BD,2013-07-05,fhrs_5_en-GB,5,,FHRS,5
465448,Blossom Lodge,Gwyddgrug To New Inn,New Inn,"Pencader, Carmarthenshire",Blossom Lodge Inn Ltd,Mobile caterer,7846,0,,558958,5,,52.00680300000000,75867,558,PublicProtection@carmarthenshire.gov.uk,Carmarthenshire,http://www.carmarthenshire.gov.uk,-4.22912600000000,SA39 9AY,2013-05-30,fhrs_5_en-GB,5,,FHRS,0
465449,,29 Pwll Road,Pwll,"Llanelli, Carmarthen",BLUE ANCHOR,Pub/bar/nightclub,7843,5,,631928,5,,51.68700900000000,61136,558,PublicProtection@carmarthenshire.gov.uk,Carmarthenshire,http://www.carmarthenshire.gov.uk,-4.19918200000000,SA15 4BG,2014-01-21,fhrs_4_en-GB,4,,FHRS,10
465450,,19 High Street,Llandovery,Carmarthenshire,BLUE BELL INN,Pub/bar/nightclub,7843,5,,130092,10,,51.99391900000000,61113,558,PublicProtection@carmarthenshire.gov.uk,Carmarthenshire,http://www.carmarthenshire.gov.uk,-3.79441000000000,SA20 0PU,2014-08-08,fhrs_4_en-GB,4,,FHRS,5
465451,,3 Water Street,Carmarthen,Carmarthenshire,BLUE BOAR INN,Pub/bar/nightclub,7843,0,,338969,0,,51.85721300000000,62094,558,PublicProtection@carmarthenshire.gov.uk,Carmarthenshire,http://www.carmarthenshire.gov.uk,-4.31118100000000,SA31 1PY,2015-01-08,fhrs_5_en-GB,5,,FHRS,5
465452,,120 Lammas Street,Carmarthen,Carmarthenshire,BOARS HEAD HOTEL,Pub/bar/nightclub,7843,0,,130797,5,,51.85626200000000,62098,558,PublicProtection@carmarthenshire.gov.uk,Carmarthenshire,http://www.carmarthenshire.gov.uk,-4.30969500000000,SA31 3AE,2014-06-19,fhrs_4_en-GB,4,,FHRS,10
465453,,Carmarthen Bay Holiday Park,Kidwelly,Carmarthenshire,Boathouse Restaurant,Restaurant/Cafe/Canteen,1,0,,69404,5,,51.88103485107422,156,558,PublicProtection@carmarthenshire.gov.uk,Carmarthenshire,http://www.carmarthenshire.gov.uk,-4.21432495117188,SA17 5HQ,2013-03-12,fhrs_5_en-GB,5,,FHRS,5
465454,Central House,Pentre Road,St Clears,"Carmarthen, Carmarthenshire",Bombay Spice,Takeaway/sandwich shop,7844,10,,135823,15,,51.82002200000000,69722,558,PublicProtection@carmarthenshire.gov.uk,Carmarthenshire,http://www.carmarthenshire.gov.uk,-4.49317500000000,SA33 4LR,2014-05-14,fhrs_2_en-GB,2,,FHRS,5
465455,Booker Cash & Carry,Llansteffan Road,Johnstown,"Carmarthen, Carmarthenshire",BOOKER  LTD,Retailers - other,4613,0,,130649,0,,51.84937300000000,61957,558,PublicProtection@carmarthenshire.gov.uk,Carmarthenshire,http://www.carmarthenshire.gov.uk,-4.32522700000000,SA31 3NB,2014-02-10,fhrs_5_en-GB,5,,FHRS,0
465456,,1-3 Vaughan Street,Llanelli,Carmarthenshire,BOOTS CO PLC,Retailers - other,4613,0,,686828,0,,51.68273500000000,61762,558,PublicProtection@carmarthenshire.gov.uk,Carmarthenshire,http://www.carmarthenshire.gov.uk,-4.16104400000000,SA15 3TY,2014-07-17,fhrs_5_en-GB,5,,FHRS,0
465457,,57 New Road,Llanelli,Carmarthenshire,BRAMBLES DAY NURSERY,Hospitals/Childcare/Caring Premises,5,5,,80859,0,,51.68532700000000,19653,558,PublicProtection@carmarthenshire.gov.uk,Carmarthenshire,http://www.carmarthenshire.gov.uk,-4.16681000000000,SA15 3DP,2014-07-02,fhrs_5_en-GB,5,,FHRS,0
465458,,3 Heol Y Meinciau,Pontyates,"Llanelli, Carmarthenshire",Bread of Heaven Pontyates RFC,Restaurant/Cafe/Canteen,1,0,,200853,0,,51.75322200000000,60953,558,PublicProtection@carmarthenshire.gov.uk,Carmarthenshire,http://www.carmarthenshire.gov.uk,-4.21784400000000,SA15 5TR,2014-02-02,fhrs_5_en-GB,5,,FHRS,5
465459,,48 Station Road,Burry Port,Carmarthenshire,BRIAN BUDENIS AND SONS,Retailers - other,4613,5,,130007,10,,51.68434200000000,61018,558,PublicProtection@carmarthenshire.gov.uk,Carmarthenshire,http://www.carmarthenshire.gov.uk,-4.24786500000000,SA16 0LP,2013-11-27,fhrs_4_en-GB,4,,FHRS,5
465460,Coleg Elidyr,Church Street,Llangadog,Carmarthenshire,BRIDGE COFFEE SHOP & CRAFTS,Restaurant/Cafe/Canteen,1,5,,631921,5,,51.93986800000000,55691,558,PublicProtection@carmarthenshire.gov.uk,Carmarthenshire,http://www.carmarthenshire.gov.uk,-3.88367400000000,SA19 9AD,2014-01-30,fhrs_5_en-GB,5,,FHRS,5
465461,,,Crugybar,"Llanwrda, Carmarthenshire",BRIDGEND INN,Pub/bar/nightclub,7843,0,,434386,0,,52.02859200000000,62413,558,PublicProtection@carmarthenshire.gov.uk,Carmarthenshire,http://www.carmarthenshire.gov.uk,-3.95149800000000,SA19 8UE,2014-05-21,fhrs_4_en-GB,4,,FHRS,10
465462,,Llangennech Community Centre,Llangennech,"Llanelli, Carmarthenshire",Bright Beginnings,Hospitals/Childcare/Caring Premises,5,0,,134992,0,,51.69191900000000,68513,558,PublicProtection@carmarthenshire.gov.uk,Carmarthenshire,http://www.carmarthenshire.gov.uk,-4.08686300000000,SA14 8TH,2014-05-13,fhrs_5_en-GB,5,,FHRS,0
465463,,Picton Terrace,Carmarthen,Carmarthenshire,BRO MYRDDIN BOWLS,Pub/bar/nightclub,7843,20,,138321,10,,51.85569000000000,736,558,PublicProtection@carmarthenshire.gov.uk,Carmarthenshire,http://www.carmarthenshire.gov.uk,-4.31957000000000,SA31 3BS,2014-01-15,fhrs_1_en-GB,1,,FHRS,5
465464,,,Laugharne,"Carmarthen, Carmarthenshire",BROADWAY MANSION HOTEL,Restaurant/Cafe/Canteen,1,5,,41444,5,,51.76030600000000,10273,558,PublicProtection@carmarthenshire.gov.uk,Carmarthenshire,http://www.carmarthenshire.gov.uk,-4.47972300000000,SA33 4NU,2013-11-27,fhrs_5_en-GB,5,,FHRS,5
465465,,Station Road,St Clears,Carmarthenshire,BROOKFIELD HOUSE,Hospitals/Childcare/Caring Premises,5,5,,92922,5,,51.82305900000000,26418,558,PublicProtection@carmarthenshire.gov.uk,Carmarthenshire,http://www.carmarthenshire.gov.uk,-4.49290700000000,SA33 4BP,2013-10-17,fhrs_4_en-GB,4,,FHRS,10
465466,King Street,Market Lane,Laugharne,"Carmarthen, Carmarthenshire",BROWNS HOTEL,Hotel/bed & breakfast/guest house,7842,0,,721812,10,,51.77109000000000,60683,558,PublicProtection@carmarthenshire.gov.uk,Carmarthenshire,http://www.carmarthenshire.gov.uk,-4.46257200000000,SA33 4RY,2014-12-01,fhrs_4_en-GB,4,,FHRS,10
465467,,,Caio,"Llanwrda, Carmarthenshire",BRUNANT ARMS,Pub/bar/nightclub,7843,5,,131073,5,,52.04110336303710,62402,558,PublicProtection@carmarthenshire.gov.uk,Carmarthenshire,http://www.carmarthenshire.gov.uk,-3.93335008621216,SA19 8RD,2013-09-13,fhrs_5_en-GB,5,,FHRS,5
465468,Gelli House,Gelli Road,Llanelli,Carmarthenshire,BRYN & TRALLWM SPORTS & SOCIAL CLUB,Pub/bar/nightclub,7843,0,,636029,0,,51.68502400000000,61336,558,PublicProtection@carmarthenshire.gov.uk,Carmarthenshire,http://www.carmarthenshire.gov.uk,-4.11734700000000,SA14 9AD,2014-02-13,fhrs_4_en-GB,4,,FHRS,10
465469,,Gelli Road,Bryn,"Llanelli, Carmarthenshire",BRYN COUNTY PRIMARY SCHOOL,School/college/university,7845,5,,130237,0,,51.68590000000000,61339,558,PublicProtection@carmarthenshire.gov.uk,Carmarthenshire,http://www.carmarthenshire.gov.uk,-4.10966200000000,SA14 9TT,2014-06-19,fhrs_5_en-GB,5,,FHRS,5
465470,,6 & 8 Penllwyngwyn Road,Bryn,"Llanelli, Carmarthenshire",Bryn Fish Bar,Takeaway/sandwich shop,7844,5,,136577,5,,51.68652000000000,709,558,PublicProtection@carmarthenshire.gov.uk,Carmarthenshire,http://www.carmarthenshire.gov.uk,-4.10164700000000,SA14 9UF,2014-04-29,fhrs_5_en-GB,5,,FHRS,5
465471,,Gelli Road,Llanelli,Carmarthenshire,BRYN GELLI SERVICE STATION,Retailers - other,4613,5,,587259,5,,51.68502400000000,61337,558,PublicProtection@carmarthenshire.gov.uk,Carmarthenshire,http://www.carmarthenshire.gov.uk,-4.11734700000000,SA14 9AD,2015-01-08,fhrs_4_en-GB,4,,FHRS,10
465472,Arybryn,Heol Y Mynydd,Pembrey,"Llanelli, Carmarthenshire",BRYN ILLTYD RESIDENTIAL HOME,Hospitals/Childcare/Caring Premises,5,0,,42201,0,,51.69057900000000,10416,558,PublicProtection@carmarthenshire.gov.uk,Carmarthenshire,http://www.carmarthenshire.gov.uk,-4.27423300000000,SA16 0AX,2014-06-04,fhrs_5_en-GB,5,,FHRS,5
465473,,1-3 Talbot Road,Ammanford,Carmarthenshire,Bryn Siop,Retailers - other,4613,0,,730424,0,,51.79543700000000,83354,558,PublicProtection@carmarthenshire.gov.uk,Carmarthenshire,http://www.carmarthenshire.gov.uk,-3.99328700000000,SA18 3BA,2015-01-08,fhrs_5_en-GB,5,,FHRS,0
465474,,,Brechfa,Carmarthen,Bryn Stores,Retailers - other,4613,10,,434406,10,,51.95207900000000,77879,558,PublicProtection@carmarthenshire.gov.uk,Carmarthenshire,http://www.carmarthenshire.gov.uk,-4.14623700000000,SA32 7QY,2014-05-16,fhrs_3_en-GB,3,,FHRS,5
465475,,6 New Road,Llandeilo,Carmarthenshire,Bryn y Wawr,Hospitals/Childcare/Caring Premises,5,5,,485885,5,,51.88455800000000,4321,558,PublicProtection@carmarthenshire.gov.uk,Carmarthenshire,http://www.carmarthenshire.gov.uk,-3.99227300000000,SA19 6DB,2012-12-11,fhrs_5_en-GB,5,,FHRS,0
465476,,Brynceunant,Upper Brynamman,"Ammanford, Carmarthenshire",BRYNAMMAN PRIMARY SCHOOL,School/college/university,7845,5,,129581,0,,51.81423500000000,60442,558,PublicProtection@carmarthenshire.gov.uk,Carmarthenshire,http://www.carmarthenshire.gov.uk,-3.86255700000000,SA18 1AH,2012-12-04,fhrs_5_en-GB,5,,FHRS,5
465477,,Station Road,Upper Brynamman,"Ammanford, Carmarthenshire",BRYNAMMAN PUBLIC HALL,Retailers - other,4613,0,,654547,0,,51.81142300000000,60451,558,PublicProtection@carmarthenshire.gov.uk,Carmarthenshire,http://www.carmarthenshire.gov.uk,-3.86862100000000,SA18 1SF,2014-03-17,fhrs_5_en-GB,5,,FHRS,0
465478,Bryncoch Stores,Bryncoch,Llanelli,Carmarthenshire,BRYNCOCH STORES,Retailers - other,4613,10,,130230,5,,51.68634000000000,61317,558,PublicProtection@carmarthenshire.gov.uk,Carmarthenshire,http://www.carmarthenshire.gov.uk,-4.12364300000000,SA14 8RE,2013-11-26,fhrs_4_en-GB,4,,FHRS,5
465479,BRYNDERI FARM,,Blaen-Waun,"Whitland, Carmarthenshire",BRYNDERI HONEY FARM-FP036,Retailers - other,4613,5,,101341,0,,51.91496800000000,33075,558,PublicProtection@carmarthenshire.gov.uk,Carmarthenshire,http://www.carmarthenshire.gov.uk,-4.56643200000000,SA34 0JD,2014-01-13,fhrs_5_en-GB,5,,FHRS,5
465480,CAPEL DEWI ROAD,,Llangunnor,"Carmarthen, Carmarthenshire",BRYNDERWEN RESIDENTIAL HOME,Hospitals/Childcare/Caring Premises,5,5,,129260,5,,51.85614800000000,598,558,PublicProtection@carmarthenshire.gov.uk,Carmarthenshire,http://www.carmarthenshire.gov.uk,-4.27724600000000,SA31 2HY,2014-11-26,fhrs_5_en-GB,5,,FHRS,5
465481,Bryngwyn Comprehensive School,Dafen Road,Dafen,"Llanelli, Carmarthenshire",BRYNGWYN COMPREHENSIVE SCHOOL,School/college/university,7845,5,,130210,5,,51.69437000000000,61278,558,PublicProtection@carmarthenshire.gov.uk,Carmarthenshire,http://www.carmarthenshire.gov.uk,-4.13757800000000,SA14 8RP,2014-06-11,fhrs_5_en-GB,5,,FHRS,5
465482,,64 Cwmfelin Road,Bynea,"Llanelli, Carmarthenshire",BRYNHELYG RESIDENTIAL HOME,Hospitals/Childcare/Caring Premises,5,5,,130277,5,,51.67337900000000,61397,558,PublicProtection@carmarthenshire.gov.uk,Carmarthenshire,http://www.carmarthenshire.gov.uk,-4.10234000000000,SA14 9LR,2014-01-30,fhrs_4_en-GB,4,,FHRS,10
465483,,Rhos,Saron,"Llandysul, Carmarthenshire",BRYNSARON CP SCHOOL (SCHOOL/COLLEGE),School/college/university,7845,0,,131183,5,,52.00611495971680,62500,558,PublicProtection@carmarthenshire.gov.uk,Carmarthenshire,http://www.carmarthenshire.gov.uk,-4.36350870132446,SA44 5EB,2014-04-07,fhrs_5_en-GB,5,,FHRS,5
465484,,Trallwm Road,Llwynhendy,"Llanelli, Carmarthenshire",Brynteg CP School,Restaurant/Cafe/Canteen,1,5,,130261,0,,51.68001800000000,61382,558,PublicProtection@carmarthenshire.gov.uk,Carmarthenshire,http://www.carmarthenshire.gov.uk,-4.11669300000000,SA14 9ET,2014-09-25,fhrs_5_en-GB,5,,FHRS,0
465485,,Owens Transport Yard,Dafen,Llanelli,Burger bar,Mobile caterer,7846,0,,338992,0,,,78017,558,PublicProtection@carmarthenshire.gov.uk,Carmarthenshire,http://www.carmarthenshire.gov.uk,,,2014-03-13,fhrs_5_en-GB,5,,FHRS,5
465486,,8 New Dock Street,Llanelli,Carmarthenshire,BURGER GRILLE,Other catering premises,7841,5,,338924,5,,51.66921700000000,45544,558,PublicProtection@carmarthenshire.gov.uk,Carmarthenshire,http://www.carmarthenshire.gov.uk,-4.15823100000000,SA15 2HB,2015-01-08,fhrs_5_en-GB,5,,FHRS,5
465487,,1 St Elli Centre,Llanelli,Carmarthenshire,Burger King,Restaurant/Cafe/Canteen,1,0,,686841,0,,51.68187400000000,82293,558,PublicProtection@carmarthenshire.gov.uk,Carmarthenshire,http://www.carmarthenshire.gov.uk,-4.15947000000000,SA15 1SH,2014-06-25,fhrs_5_en-GB,5,,FHRS,0
465488,,18 Merlins Walk,Carmarthen,Carmarthenshire,Burger King,Restaurant/Cafe/Canteen,1,0,,686847,5,,51.85593900000000,82379,558,PublicProtection@carmarthenshire.gov.uk,Carmarthenshire,http://www.carmarthenshire.gov.uk,-4.30918500000000,SA31 3BN,2014-07-09,fhrs_5_en-GB,5,,FHRS,5
465489,Tregyb Arms,43 Heol Cennen,Ffairfach,Llandeilo,Burger Van,Mobile caterer,7846,0,,686846,5,,51.87637300000000,82370,558,PublicProtection@carmarthenshire.gov.uk,Carmarthenshire,http://www.carmarthenshire.gov.uk,-3.99398900000000,SA19 6ST,2014-07-30,fhrs_5_en-GB,5,,FHRS,5
465490,Parc Y Box Farm,,Kidwelly,Carmarthenshire,Burns Farm Shop,Retailers - other,4613,5,,654587,5,,51.74661800000000,78784,558,PublicProtection@carmarthenshire.gov.uk,Carmarthenshire,http://www.carmarthenshire.gov.uk,-4.29893800000000,SA17 5AB,2014-01-31,fhrs_5_en-GB,5,,FHRS,0
465491,,99 Ferry Road,Kidwelly,Carmarthenshire,BURNS PET NUTRITION LTD,Restaurant/Cafe/Canteen,1,0,,631939,5,,51.74116600000000,915,558,PublicProtection@carmarthenshire.gov.uk,Carmarthenshire,http://www.carmarthenshire.gov.uk,-4.31601500000000,SA17 5EJ,2014-01-31,fhrs_5_en-GB,5,,FHRS,0
465492,,Stepney Road,Burry Port,Carmarthenshire,BURRY PORT COUNTY PRIMARY SCHOOL,School/college/university,7845,0,,129971,5,,51.68704800000000,60994,558,PublicProtection@carmarthenshire.gov.uk,Carmarthenshire,http://www.carmarthenshire.gov.uk,-4.24886700000000,SA16 0BE,2014-01-10,fhrs_5_en-GB,5,,FHRS,5
465493,Neptune Buildings,3 Neptune Square,Burry Port,Carmarthenshire,BURRY PORT READING ROOM & CLUB,Pub/bar/nightclub,7843,0,,623192,0,,51.68345900000000,61044,558,PublicProtection@carmarthenshire.gov.uk,Carmarthenshire,http://www.carmarthenshire.gov.uk,-4.24890600000000,SA16 0EP,2013-12-18,fhrs_5_en-GB,5,,FHRS,5
465494,,3 New Street,Burry Port,Carmarthenshire,BURRY PORT RFC,Pub/bar/nightclub,7843,10,,129993,5,,51.68495800000000,61001,558,PublicProtection@carmarthenshire.gov.uk,Carmarthenshire,http://www.carmarthenshire.gov.uk,-4.24390200000000,SA16 0RT,2014-09-12,fhrs_3_en-GB,3,,FHRS,10
465495,,51 Station Road,Burry Port,Carmarthenshire,BURRY PORT TAKE AWAY,Takeaway/sandwich shop,7844,0,,130008,0,,51.68434200000000,61019,558,PublicProtection@carmarthenshire.gov.uk,Carmarthenshire,http://www.carmarthenshire.gov.uk,-4.24786500000000,SA16 0LP,2014-03-18,fhrs_5_en-GB,5,,FHRS,5
465496,River Lodge,Hillfield Villas,Kidwelly,Carmarthenshire,Busy Bugs,Hospitals/Childcare/Caring Premises,5,5,,595838,5,,51.73604900000000,79530,558,PublicProtection@carmarthenshire.gov.uk,Carmarthenshire,http://www.carmarthenshire.gov.uk,-4.31234900000000,SA17 4UL,2013-10-21,fhrs_4_en-GB,4,,FHRS,10
465497,,,Llanddarog,"Carmarthen, Carmarthenshire",BUTCHERS ARMS,Pub/bar/nightclub,7843,0,,338946,5,,51.82881500000000,60936,558,PublicProtection@carmarthenshire.gov.uk,Carmarthenshire,http://www.carmarthenshire.gov.uk,-4.17540500000000,SA32 8NS,2013-09-25,fhrs_5_en-GB,5,,FHRS,5
465498,,High Street,St. Clears,"Carmarthen, Carmarthenshire",BUTCHERS ARMS,Pub/bar/nightclub,7843,10,,446382,10,,51.81400000000000,62475,558,PublicProtection@carmarthenshire.gov.uk,Carmarthenshire,http://www.carmarthenshire.gov.uk,-4.49601900000000,SA33 4ED,2014-08-04,fhrs_3_en-GB,3,,FHRS,10
465499,D79 - D82 Bwyd Blasus,"Market Hall, Market Precinct",Llanelli,Carmarthenshire,BWYD BLASUS,Retailers - other,4613,10,,42387,10,,51.68162700000000,10453,558,PublicProtection@carmarthenshire.gov.uk,Carmarthenshire,http://www.carmarthenshire.gov.uk,-4.16067300000000,SA15 1YF,2013-09-18,fhrs_4_en-GB,4,,FHRS,0
465500,,"Unit 59/60, Carmarthen Market",Carmarthen,,Bwyd Dda,Retailers - other,4613,10,,131583,5,,51.85769400000000,631,558,PublicProtection@carmarthenshire.gov.uk,Carmarthenshire,http://www.carmarthenshire.gov.uk,-4.30910000000000,SA31 1QY,2014-10-29,fhrs_4_en-GB,4,,FHRS,5
465501,Bynea Cp School,Saron Road,Bynea,"Llanelli, Carmarthenshire",BYNEA COUNTY PRIMARY SCHOOL,School/college/university,7845,0,,130276,5,,51.67523700000000,61395,558,PublicProtection@carmarthenshire.gov.uk,Carmarthenshire,http://www.carmarthenshire.gov.uk,-4.10403100000000,SA14 9LT,2014-09-10,fhrs_5_en-GB,5,,FHRS,5
465502,,Unit 8 Eastgate,Llanelli,,CADWALADERS,Other catering premises,7841,0,,636040,0,,,81441,558,PublicProtection@carmarthenshire.gov.uk,Carmarthenshire,http://www.carmarthenshire.gov.uk,,SA15 3YF,2014-02-03,fhrs_5_en-GB,5,,FHRS,5
465503,,2 Felinfoel Road,Llanelli,Carmarthenshire,CAEFFAIR NURSING HOME,Hospitals/Childcare/Caring Premises,5,5,,40976,5,,51.68649500000000,10194,558,PublicProtection@carmarthenshire.gov.uk,Carmarthenshire,http://www.carmarthenshire.gov.uk,-4.16051400000000,SA15 3JG,2014-09-12,fhrs_5_en-GB,5,,FHRS,5
465504,,Ffairfach,Llandeilo,Carmarthenshire,CAEGLAS RESIDENTIAL HOME,Hospitals/Childcare/Caring Premises,5,0,,97051,0,,51.87183761596680,30,558,PublicProtection@carmarthenshire.gov.uk,Carmarthenshire,http://www.carmarthenshire.gov.uk,-3.99261140823364,SA19 6UL,2014-01-20,fhrs_5_en-GB,5,,FHRS,0
465505,CAEIAGO RIDING CENTRE,,Ffarmers,"Llanwrda, Carmarthenshire",CAEIAGO RIDING CENTRE,Other catering premises,7841,5,,131189,0,,52.09107200000000,62507,558,PublicProtection@carmarthenshire.gov.uk,Carmarthenshire,http://www.carmarthenshire.gov.uk,-3.97336200000000,SA19 8LZ,2014-02-24,fhrs_5_en-GB,5,,FHRS,5
465506,,Coleshill Terrace,Llanelli,Carmarthenshire,CAEMAEN RESIDENTIAL HOME,Hospitals/Childcare/Caring Premises,5,0,,434368,5,,51.68355400000000,61206,558,PublicProtection@carmarthenshire.gov.uk,Carmarthenshire,http://www.carmarthenshire.gov.uk,-4.16687000000000,SA15 3BT,2014-05-22,fhrs_5_en-GB,5,,FHRS,0
465507,CAERFFAIR,Church Road,Gors-Las,"Llanelli, Carmarthenshire",CAE'R FFAIR NURSERY,Hospitals/Childcare/Caring Premises,5,0,,200929,0,,51.80855600000000,17226,558,PublicProtection@carmarthenshire.gov.uk,Carmarthenshire,http://www.carmarthenshire.gov.uk,-4.07848200000000,SA14 7NF,2014-10-29,fhrs_5_en-GB,5,,FHRS,0
465508,,2 Mansel Street,Carmarthen,Carmarthenshire,Cafe & Interiors @ Calon,Restaurant/Cafe/Canteen,1,5,,686836,5,,51.85732400000000,81322,558,PublicProtection@carmarthenshire.gov.uk,Carmarthenshire,http://www.carmarthenshire.gov.uk,-4.30961900000000,SA31 1QX,2014-07-25,fhrs_5_en-GB,5,,FHRS,5
465509,,4 Queen Street,Carmarthen,Carmarthenshire,CAFE AT NO 4,Restaurant/Cafe/Canteen,1,5,,119423,5,,51.85638000000000,48607,558,PublicProtection@carmarthenshire.gov.uk,Carmarthenshire,http://www.carmarthenshire.gov.uk,-4.30506800000000,SA31 1JR,2013-11-28,fhrs_4_en-GB,4,,FHRS,10
465510,,11 Sycamore Street,Newcastle Emlyn,Carmarthenshire,Cafe at Number 11,Restaurant/Cafe/Canteen,1,10,,200873,10,,52.03820900000000,66445,558,PublicProtection@carmarthenshire.gov.uk,Carmarthenshire,http://www.carmarthenshire.gov.uk,-4.46785700000000,SA38 9AJ,2013-06-26,fhrs_3_en-GB,3,,FHRS,10
465511,,,Efailwen,"Clynderwen, Carmarthenshire",CAFE BECA,Restaurant/Cafe/Canteen,1,0,,130935,0,,51.89694213867188,62287,558,PublicProtection@carmarthenshire.gov.uk,Carmarthenshire,http://www.carmarthenshire.gov.uk,-4.71053504943848,SA66 7UY,2014-07-31,fhrs_5_en-GB,5,,FHRS,5
465512,Trimsaran Hall,Heol Llanelli,Trimsaran,"Kidwelly, Carmarthenshire",Cafe Beca,Other catering premises,7841,5,,83340,0,,51.72006600000000,20369,558,PublicProtection@carmarthenshire.gov.uk,Carmarthenshire,http://www.carmarthenshire.gov.uk,-4.24200700000000,SA17 4AA,2014-03-05,fhrs_5_en-GB,5,,FHRS,5
465513,,3 King Street,Llandeilo,Carmarthenshire,Cafe Braz,Restaurant/Cafe/Canteen,1,10,,126025,10,,51.88250400000000,54774,558,PublicProtection@carmarthenshire.gov.uk,Carmarthenshire,http://www.carmarthenshire.gov.uk,-3.99354800000000,SA19 6AA,2014-11-25,fhrs_3_en-GB,3,,FHRS,10
465514,,13 The Arcade (College Street),Ammanford,Carmarthenshire,Cafe Celia,Restaurant/Cafe/Canteen,1,0,,200990,5,,51.79331400000000,40723,558,PublicProtection@carmarthenshire.gov.uk,Carmarthenshire,http://www.carmarthenshire.gov.uk,-3.98855300000000,SA18 3AB,2013-07-25,fhrs_5_en-GB,5,,FHRS,5
465515,,6 Grist Square,Laugharne,Carmarthen,Cafe Culture,Restaurant/Cafe/Canteen,1,5,,200953,5,,51.76916500000000,77763,558,PublicProtection@carmarthenshire.gov.uk,Carmarthenshire,http://www.carmarthenshire.gov.uk,-4.46427900000000,SA33 4SS,2013-08-02,fhrs_5_en-GB,5,,FHRS,5
465516,,9 Heol Bryngwili,Cross Hands,"Llanelli, Carmarthenshire",Cafe Jas,Restaurant/Cafe/Canteen,1,10,,138907,10,,51.79326800000000,74216,558,PublicProtection@carmarthenshire.gov.uk,Carmarthenshire,http://www.carmarthenshire.gov.uk,-4.08868400000000,SA14 6LR,2013-05-28,fhrs_3_en-GB,3,,FHRS,10
465517,,County Hall,Carmarthen,Carmarthenshire,Cafe SA31@County Hall,School/college/university,7845,5,,434397,5,,51.85556700000000,72728,558,PublicProtection@carmarthenshire.gov.uk,Carmarthenshire,http://www.carmarthenshire.gov.uk,-4.30525900000000,SA31 1ZD,2013-11-28,fhrs_5_en-GB,5,,FHRS,5
465518,,6 Kings Road,Llandovery,Carmarthenshire,CAFE TUDOR,Restaurant/Cafe/Canteen,1,5,,130132,5,,51.99365600000000,61170,558,PublicProtection@carmarthenshire.gov.uk,Carmarthenshire,http://www.carmarthenshire.gov.uk,-3.79633700000000,SA20 0AW,2014-06-18,fhrs_4_en-GB,4,,FHRS,10
465519,Llyn Llech Owain Country Park,Church Road,Gorslas,"Llanelli, Carmarthenshire",Cafe Y Llyn,Restaurant/Cafe/Canteen,1,5,,131951,5,,51.80855600000000,63518,558,PublicProtection@carmarthenshire.gov.uk,Carmarthenshire,http://www.carmarthenshire.gov.uk,-4.07848200000000,SA14 7NF,2014-09-05,fhrs_5_en-GB,5,,FHRS,5
465520,QE High School,Llansteffan Road,Carmarthen,,Cafe6.com,Restaurant/Cafe/Canteen,1,5,,587273,0,,,80442,558,PublicProtection@carmarthenshire.gov.uk,Carmarthenshire,http://www.carmarthenshire.gov.uk,,SA31 3NT,2014-12-17,fhrs_5_en-GB,5,,FHRS,5
465521,Angel Vaults,Nott Square,Carmarthen,Carmarthenshire,Caffe Lorenzo,Restaurant/Cafe/Canteen,1,5,,721843,5,,51.85606600000000,82674,558,PublicProtection@carmarthenshire.gov.uk,Carmarthenshire,http://www.carmarthenshire.gov.uk,-4.30595300000000,SA31 1PQ,2014-12-05,fhrs_5_en-GB,5,,FHRS,5
465522,,1 Red Street,Carmarthen,Carmarthenshire,Caffe Nero,Restaurant/Cafe/Canteen,1,5,,587272,5,,51.85699100000000,80170,558,PublicProtection@carmarthenshire.gov.uk,Carmarthenshire,http://www.carmarthenshire.gov.uk,-4.30830900000000,SA31 1QL,2013-06-24,fhrs_4_en-GB,4,,FHRS,10
465523,Dunelm Mill,Unit 12/13 Parc Pemberton Retail Park,Llanelli,Carmarthenshire,Caffe Pausa,Restaurant/Cafe/Canteen,1,0,,135933,0,,,69893,558,PublicProtection@carmarthenshire.gov.uk,Carmarthenshire,http://www.carmarthenshire.gov.uk,,SA14 9U2,2013-12-11,fhrs_5_en-GB,5,,FHRS,5
465524,,26 Lammas Street,Carmarthen,Carmarthenshire,CAFFI BACH,Restaurant/Cafe/Canteen,1,0,,200947,5,,51.85656500000000,40439,558,PublicProtection@carmarthenshire.gov.uk,Carmarthenshire,http://www.carmarthenshire.gov.uk,-4.31212100000000,SA31 3AL,2014-10-02,fhrs_5_en-GB,5,,FHRS,5
465525,,11-15 Coalbrook Road,Pontyberem,"Llanelli, Carmarthenshire",CAFFI CYNNES,Restaurant/Cafe/Canteen,1,5,,95172,5,,51.77827300000000,28189,558,PublicProtection@carmarthenshire.gov.uk,Carmarthenshire,http://www.carmarthenshire.gov.uk,-4.16833300000000,SA15 5HU,2013-11-14,fhrs_5_en-GB,5,,FHRS,0
465526,,2B Jacksons Lane,Carmarthen,Carmarthenshire,Caffi Iechyd Da,Restaurant/Cafe/Canteen,1,5,,134483,5,,51.85695500000000,67955,558,PublicProtection@carmarthenshire.gov.uk,Carmarthenshire,http://www.carmarthenshire.gov.uk,-4.30596900000000,SA31 1QD,2014-06-20,fhrs_4_en-GB,4,,FHRS,10
465527,,High Street,Llandybie,"Ammanford, Carmarthenshire",Caffi Pentre,Restaurant/Cafe/Canteen,1,10,,134556,5,,51.82056700000000,68027,558,PublicProtection@carmarthenshire.gov.uk,Carmarthenshire,http://www.carmarthenshire.gov.uk,-4.00671500000000,SA18 3HX,2013-09-11,fhrs_3_en-GB,3,,FHRS,10
465528,CLOS GELLI WERDD,Cross Hands Business Park,Cross Hands,"Llanelli, Carmarthenshire",CAFFI RHIANNON,Restaurant/Cafe/Canteen,1,5,,200886,10,,51.79385600000000,45770,558,PublicProtection@carmarthenshire.gov.uk,Carmarthenshire,http://www.carmarthenshire.gov.uk,-4.07070000000000,SA14 6RX,2013-09-30,fhrs_4_en-GB,4,,FHRS,5
465529,SCC - Dyfed Powys Police Headquarters,Llangunnor Road,Llangunnor,Carmarthen,Caffi'r Gegin Fach,Restaurant/Cafe/Canteen,1,5,,338990,5,,51.85085700000000,77922,558,PublicProtection@carmarthenshire.gov.uk,Carmarthenshire,http://www.carmarthenshire.gov.uk,-4.30558500000000,SA31 2PF,2013-10-08,fhrs_5_en-GB,5,,FHRS,5
465530,,12 Heol Y Meinciau,Pontyates,"Llanelli, Carmarthenshire",CAFFI'R PENTRE,Restaurant/Cafe/Canteen,1,5,,110462,5,,51.75322200000000,40123,558,PublicProtection@carmarthenshire.gov.uk,Carmarthenshire,http://www.carmarthenshire.gov.uk,-4.21784400000000,SA15 5TR,2014-06-18,fhrs_4_en-GB,4,,FHRS,10
465531,Calsonic Kansei Technology Cen,Llethri Road,Llanelli,Carmarthenshire,CALSONIC SPORTS & SOCIAL CLUB,Restaurant/Cafe/Canteen,1,0,,130202,0,,51.69996400000000,61267,558,PublicProtection@carmarthenshire.gov.uk,Carmarthenshire,http://www.carmarthenshire.gov.uk,-4.14245800000000,SA14 8HU,2014-05-27,fhrs_5_en-GB,5,,FHRS,5
465532,,20 Heol Cwmmawr,Drefach,"Llanelli, Carmarthenshire",CAMAU BACH NURSERY,Hospitals/Childcare/Caring Premises,5,5,,55189,5,,51.79842700000000,12455,558,PublicProtection@carmarthenshire.gov.uk,Carmarthenshire,http://www.carmarthenshire.gov.uk,-4.13386800000000,SA14 7AA,2014-05-13,fhrs_5_en-GB,5,,FHRS,5
465533,,Heol Goffa,Llanelli,Carmarthenshire,Camau Tirion,Hospitals/Childcare/Caring Premises,5,0,,660636,5,,51.68721800000000,79597,558,PublicProtection@carmarthenshire.gov.uk,Carmarthenshire,http://www.carmarthenshire.gov.uk,-4.14806300000000,SA15 3EJ,2014-04-29,fhrs_5_en-GB,5,,FHRS,5
465534,,35 Marine Street,Llanelli,Carmarthenshire,CAMBRIAN INN,Pub/bar/nightclub,7843,5,,730419,5,,51.67273300000000,61595,558,PublicProtection@carmarthenshire.gov.uk,Carmarthenshire,http://www.carmarthenshire.gov.uk,-4.16555700000000,SA15 2NP,2014-10-16,fhrs_4_en-GB,4,,FHRS,10
465535,Capel Hendre Post Office,3 Saron Road,Saron,"Ammanford, Carmarthenshire",CAPEL HENDRE POST OFFICE,Retailers - other,4613,5,,636028,0,,51.78489900000000,60720,558,PublicProtection@carmarthenshire.gov.uk,Carmarthenshire,http://www.carmarthenshire.gov.uk,-4.04037800000000,SA18 3LG,2014-01-29,fhrs_5_en-GB,5,,FHRS,0
465536,,9 Lammas Street,Carmarthen,Carmarthenshire,Carmarthen Businessmens Dining Club,Pub/bar/nightclub,7843,10,,130643,0,,51.85663200000000,61944,558,PublicProtection@carmarthenshire.gov.uk,Carmarthenshire,http://www.carmarthenshire.gov.uk,-4.30916200000000,SA31 3AD,2014-05-21,fhrs_4_en-GB,4,,FHRS,5
465537,,Cambrian Place,Carmarthen,Carmarthenshire,CARMARTHEN DAY CENTRE,Hospitals/Childcare/Caring Premises,5,5,,41759,5,,51.85776900000000,10336,558,PublicProtection@carmarthenshire.gov.uk,Carmarthenshire,http://www.carmarthenshire.gov.uk,-4.30711400000000,SA31 1QG,2014-06-17,fhrs_5_en-GB,5,,FHRS,5
465538,,51 Abergwili Road,Carmarthen,"Carmarthen, Carmarthenshire",CARMARTHEN FRUIT COMPANY,Retailers - other,4613,0,,654538,0,,51.86547600000000,240,558,PublicProtection@carmarthenshire.gov.uk,Carmarthenshire,http://www.carmarthenshire.gov.uk,-4.28039000000000,SA31 2HH,2014-01-15,fhrs_5_en-GB,5,,FHRS,0
465539,,Rhydymarchog,Carmarthen,Carmarthenshire,CARMARTHEN GOLF CLUB,Restaurant/Cafe/Canteen,1,10,,125608,10,,51.88103485107422,541,558,PublicProtection@carmarthenshire.gov.uk,Carmarthenshire,http://www.carmarthenshire.gov.uk,-4.21432495117188,SA33 6EH,2014-03-07,fhrs_3_en-GB,3,,FHRS,10
465540,,132B Priory Street,Carmarthen,Carmarthenshire,CARMARTHEN MIND ASSOCIATION,Restaurant/Cafe/Canteen,1,5,,99900,5,,51.85865900000000,3182,558,PublicProtection@carmarthenshire.gov.uk,Carmarthenshire,http://www.carmarthenshire.gov.uk,-4.30165600000000,SA31 1LR,2012-10-02,fhrs_5_en-GB,5,,FHRS,5
465541,The Clubhouse,Friars Park,Carmarthen,Carmarthenshire,Carmarthen Youth Project,Restaurant/Cafe/Canteen,1,5,,434400,5,,51.85586300000000,74797,558,PublicProtection@carmarthenshire.gov.uk,Carmarthenshire,http://www.carmarthenshire.gov.uk,-4.31031300000000,SA31 3AN,2014-01-09,fhrs_4_en-GB,4,,FHRS,10
465542,,Pentre Road,St Clears,"Carmarthen, Carmarthenshire",Carmarthenshire Centre For Crafts Cafe,Restaurant/Cafe/Canteen,1,10,,136152,10,,51.81986900000000,70300,558,PublicProtection@carmarthenshire.gov.uk,Carmarthenshire,http://www.carmarthenshire.gov.uk,-4.49573500000000,SA33 4AA,2013-09-24,fhrs_3_en-GB,3,,FHRS,5
465543,GOLDEN GROVE MANSION,Agricultural College,Golden Grove,"Carmarthen, Carmarthenshire",CARMARTHENSHIRE COLLEGE O TECHNOLOGY & ART,School/college/university,7845,5,,200986,5,,51.85960000000000,61371,558,PublicProtection@carmarthenshire.gov.uk,Carmarthenshire,http://www.carmarthenshire.gov.uk,-4.03870300000000,SA32 8LR,2013-09-16,fhrs_5_en-GB,5,,FHRS,5
465544,Pibwrlwyd Campus,Catering Dept,Pibwrlwyd,"Carmarthen, Carmarthenshire",CARMARTHENSHIRE COLLEGE OF TECHNOLOGY & ART,Restaurant/Cafe/Canteen,1,5,,338959,5,,51.84038200000000,61534,558,PublicProtection@carmarthenshire.gov.uk,Carmarthenshire,http://www.carmarthenshire.gov.uk,-4.30365500000000,SA31 2NH,2013-06-27,fhrs_5_en-GB,5,,FHRS,0
465545,PIBWRLWYD CAMPUS,,Carmarthen,Carmarthenshire,CARMARTHENSHIRE COLLEGE OF TECHNOLOGY & ART,Restaurant/Cafe/Canteen,1,0,,130345,0,,51.84038200000000,61498,558,PublicProtection@carmarthenshire.gov.uk,Carmarthenshire,http://www.carmarthenshire.gov.uk,-4.30365500000000,SA31 2NH,2014-11-13,fhrs_5_en-GB,5,,FHRS,5
465546,,Alltycnap Road,Johnstown,"Carmarthen, Carmarthenshire",CARMARTHENSHIRE SOCIAL ACTIVITY CENTRE,Other catering premises,7841,0,,41346,5,,51.84366800000000,10257,558,PublicProtection@carmarthenshire.gov.uk,Carmarthenshire,http://www.carmarthenshire.gov.uk,-4.33808700000000,SA31 3QY,2014-02-10,fhrs_5_en-GB,5,,FHRS,5
465547,,,Laugharne,"Carmarthen, Carmarthenshire",CARPENTERS ARMS,Pub/bar/nightclub,7843,10,,129728,10,,51.76470565795898,60658,558,PublicProtection@carmarthenshire.gov.uk,Carmarthenshire,http://www.carmarthenshire.gov.uk,-4.47199249267578,SA33 4NS,2014-05-16,fhrs_3_en-GB,3,,FHRS,10
465548,,,Trapp,"Llandeilo, Carmarthenshire",Carreg Cennen Tea Rooms,Restaurant/Cafe/Canteen,1,0,,141218,0,,51.85625600000000,776,558,PublicProtection@carmarthenshire.gov.uk,Carmarthenshire,http://www.carmarthenshire.gov.uk,-3.93650800000000,SA19 6UA,2014-10-14,fhrs_5_en-GB,5,,FHRS,5
465549,,Pen Y Banc Road,Ammanford,Carmarthenshire,CARTREF AELYBRYN,Hospitals/Childcare/Caring Premises,5,5,,129789,5,,51.78728800000000,60728,558,PublicProtection@carmarthenshire.gov.uk,Carmarthenshire,http://www.carmarthenshire.gov.uk,-4.00291700000000,SA18 3HS,2013-11-05,fhrs_5_en-GB,5,,FHRS,0
465550,,Colonel Road,Betws,"Ammanford, Carmarthenshire",CARTREF ANNWYL-FAN,Hospitals/Childcare/Caring Premises,5,0,,105746,0,,51.78527200000000,36443,558,PublicProtection@carmarthenshire.gov.uk,Carmarthenshire,http://www.carmarthenshire.gov.uk,-3.97702000000000,SA18 2HW,2014-10-07,fhrs_5_en-GB,5,,FHRS,5
465551,,48 Carmarthen Road,Cross Hands,"Llanelli, Carmarthenshire",CARTREF LLYS FECHAN,Hospitals/Childcare/Caring Premises,5,5,,52419,5,,51.79880100000000,11837,558,PublicProtection@carmarthenshire.gov.uk,Carmarthenshire,http://www.carmarthenshire.gov.uk,-4.09102800000000,SA14 6SU,2013-11-07,fhrs_5_en-GB,5,,FHRS,5
465552,Cartref Tawelon,Ash Grove,Carmarthen,Carmarthenshire,CARTREF TAWELAN RESIDENTIAL HOME,Hospitals/Childcare/Caring Premises,5,0,,41507,5,,51.85524800000000,10288,558,PublicProtection@carmarthenshire.gov.uk,Carmarthenshire,http://www.carmarthenshire.gov.uk,-4.32646000000000,SA31 3PY,2015-01-14,fhrs_5_en-GB,5,,FHRS,5
465553,,Heol Trimsaran,Carway,"Kidwelly, Carmarthenshire",CARWAY COUNTY PRIMARY SCHOOL,School/college/university,7845,0,,129932,0,,51.73701200000000,60944,558,PublicProtection@carmarthenshire.gov.uk,Carmarthenshire,http://www.carmarthenshire.gov.uk,-4.22997000000000,SA17 4HE,2014-05-13,fhrs_5_en-GB,5,,FHRS,5
465554,CARWAY,,Kidwelly,Carmarthenshire,CARWAY PIZZA HOUSE,Takeaway/sandwich shop,7844,10,,129933,5,,51.73618316650391,60947,558,PublicProtection@carmarthenshire.gov.uk,Carmarthenshire,http://www.carmarthenshire.gov.uk,-4.22574329376221,SA17 4HL,2013-11-14,fhrs_3_en-GB,3,,FHRS,10
465555,,Myrtle Hill,Pen-Sarn,"Carmarthen, Carmarthenshire",CASTELL HOWELL,Retailers - other,4613,5,,338970,10,,51.84594400000000,62099,558,PublicProtection@carmarthenshire.gov.uk,Carmarthenshire,http://www.carmarthenshire.gov.uk,-4.30939900000000,SA31 2NG,2014-01-22,fhrs_2_en-GB,2,,FHRS,15
465556,,Cross Hands Food Park,Cross Hands,Carmarthenshire,Castell Howell - Canteen,Restaurant/Cafe/Canteen,1,0,,558973,5,,51.78776700000000,80023,558,PublicProtection@carmarthenshire.gov.uk,Carmarthenshire,http://www.carmarthenshire.gov.uk,-4.07685900000000,SA14 6SX,2014-04-15,fhrs_5_en-GB,5,,FHRS,0
465557,,Queens Square,Llangadog,Carmarthenshire,CASTLE HOTEL,Hotel/bed & breakfast/guest house,7842,5,,200931,10,,51.93808800000000,62389,558,PublicProtection@carmarthenshire.gov.uk,Carmarthenshire,http://www.carmarthenshire.gov.uk,-3.88306100000000,SA19 9BW,2014-09-03,fhrs_4_en-GB,4,,FHRS,5
465558,,Kings Road,Llandovery,Carmarthenshire,CASTLE HOTEL,Hotel/bed & breakfast/guest house,7842,10,,130135,5,,51.99335200000000,61176,558,PublicProtection@carmarthenshire.gov.uk,Carmarthenshire,http://www.carmarthenshire.gov.uk,-3.79735900000000,SA20 0AP,2014-10-27,fhrs_4_en-GB,4,,FHRS,5
465559,,2 Bridge Street,Llangennech,"Llanelli, Carmarthenshire",CASTLE INN,Pub/bar/nightclub,7843,5,,631929,5,,51.69471200000000,61346,558,PublicProtection@carmarthenshire.gov.uk,Carmarthenshire,http://www.carmarthenshire.gov.uk,-4.08399700000000,SA14 8TN,2014-01-21,fhrs_4_en-GB,4,,FHRS,10
465560,,Grist Square,Laugharne,"Carmarthen, Carmarthenshire",CASTLE VIEW CHIP SHOP,Restaurant/Cafe/Canteen,1,0,,130804,0,,51.76957000000000,621,558,PublicProtection@carmarthenshire.gov.uk,Carmarthenshire,http://www.carmarthenshire.gov.uk,-4.46425700000000,SA33 4ST,2014-09-16,fhrs_5_en-GB,5,,FHRS,5
465561,,52 Brynymor,Burry Port,Carmarthenshire,Cath's Snack Bar,Mobile caterer,7846,5,,691543,0,,51.68447400000000,82125,558,PublicProtection@carmarthenshire.gov.uk,Carmarthenshire,http://www.carmarthenshire.gov.uk,-4.26070400000000,SA16 0LA,2014-07-30,fhrs_5_en-GB,5,,FHRS,5
465562,,11 Station Road,Burry Port,Carmarthenshire,CAULFIELDS HOTEL,Pub/bar/nightclub,7843,10,,129997,5,,51.68452600000000,61005,558,PublicProtection@carmarthenshire.gov.uk,Carmarthenshire,http://www.carmarthenshire.gov.uk,-4.24580500000000,SA16 0LR,2013-06-13,fhrs_4_en-GB,4,,FHRS,5
465563,Glyneithinog,,Pontselli,"Boncath, Carmarthenshire",CAWS CENARTH FP009,Retailers - other,4613,5,,130903,5,,52.01729800000000,62242,558,PublicProtection@carmarthenshire.gov.uk,Carmarthenshire,http://www.carmarthenshire.gov.uk,-4.52695900000000,SA37 0LH,2013-11-19,fhrs_5_en-GB,5,,FHRS,0
465564,,26 Water Street,Carmarthen,Carmarthenshire,CEFFYL DU,Pub/bar/nightclub,7843,10,,130830,10,,51.85824700000000,62161,558,PublicProtection@carmarthenshire.gov.uk,Carmarthenshire,http://www.carmarthenshire.gov.uk,-4.31254100000000,SA31 1RG,2014-06-12,fhrs_3_en-GB,3,,FHRS,10
465565,Pen Y Mynydd,Mill Terrace,Ammanford,Carmarthenshire,Cefn Gwlad Meats,Retailers - other,4613,0,,721838,0,,51.77890300000000,80249,558,PublicProtection@carmarthenshire.gov.uk,Carmarthenshire,http://www.carmarthenshire.gov.uk,-4.00158900000000,SA18 3NR,2014-10-13,fhrs_5_en-GB,5,,FHRS,5
465566,,57 Heol Y Parc,Cefneithin,"Llanelli, Carmarthenshire",CEFNEITHIN C P SCHOOL (AFTER SCHOOL CLUBS),School/college/university,7845,5,,654578,0,,51.80447500000000,62518,558,PublicProtection@carmarthenshire.gov.uk,Carmarthenshire,http://www.carmarthenshire.gov.uk,-4.10013900000000,SA14 7DE,2014-03-12,fhrs_4_en-GB,4,,FHRS,10
465567,,57 Heol Y Parc,Cefneithin,"Llanelli, Carmarthenshire",CEFNEITHIN C P SCHOOL (SCHOOL/COLLEGE),School/college/university,7845,5,,721829,0,,51.80447500000000,62519,558,PublicProtection@carmarthenshire.gov.uk,Carmarthenshire,http://www.carmarthenshire.gov.uk,-4.10013900000000,SA14 7DE,2014-03-19,fhrs_5_en-GB,5,,FHRS,0
465568,,38 Heol Y Parc,Cefneithin,"Llanelli, Carmarthenshire",CEFNEITHIN POST OFFICE,Retailers - other,4613,0,,200918,0,,51.80447500000000,60461,558,PublicProtection@carmarthenshire.gov.uk,Carmarthenshire,http://www.carmarthenshire.gov.uk,-4.10013900000000,SA14 7DE,2014-02-06,fhrs_4_en-GB,4,,FHRS,10
465569,,89 Rhosmaen Street,Llandeilo,Carmarthenshire,Cegin Fach y Gwili,Restaurant/Cafe/Canteen,1,5,,130969,0,,51.88423000000000,62321,558,PublicProtection@carmarthenshire.gov.uk,Carmarthenshire,http://www.carmarthenshire.gov.uk,-3.99147400000000,SA19 6HD,2014-10-31,fhrs_5_en-GB,5,,FHRS,5
465570,,36 Blue Street,Carmarthen,Carmarthenshire,Cegin Myrddin,Takeaway/sandwich shop,7844,5,,485891,5,,51.85567600000000,79466,558,PublicProtection@carmarthenshire.gov.uk,Carmarthenshire,http://www.carmarthenshire.gov.uk,-4.30795100000000,SA31 3LE,2014-07-01,fhrs_4_en-GB,4,,FHRS,10
465571,,25 Cambrian Street,Llanelli,Carmarthenshire,Cei Bach,Restaurant/Cafe/Canteen,1,10,,200850,10,,51.67453500000000,77358,558,PublicProtection@carmarthenshire.gov.uk,Carmarthenshire,http://www.carmarthenshire.gov.uk,-4.16978000000000,SA15 2PN,2014-09-17,fhrs_2_en-GB,2,,FHRS,15
465572,,56 Gilbert Road,Llanelli,Carmarthenshire,CELTIC ARMS,Pub/bar/nightclub,7843,5,,130187,5,,51.68631100000000,61245,558,PublicProtection@carmarthenshire.gov.uk,Carmarthenshire,http://www.carmarthenshire.gov.uk,-4.15975300000000,SA15 3RA,2014-09-11,fhrs_4_en-GB,4,,FHRS,10
465573,,18 Market Precinct,Llanelli,Carmarthenshire,Celtic Cafe,Restaurant/Cafe/Canteen,1,10,,654570,10,,51.68162700000000,61794,558,PublicProtection@carmarthenshire.gov.uk,Carmarthenshire,http://www.carmarthenshire.gov.uk,-4.16067300000000,SA15 1YF,2014-01-22,fhrs_3_en-GB,3,,FHRS,10
465574,Cennen Arms,,Trapp,"Llandeilo, Carmarthenshire",CENNEN ARMS,Pub/bar/nightclub,7843,10,,595831,10,,51.85223000000000,310,558,PublicProtection@carmarthenshire.gov.uk,Carmarthenshire,http://www.carmarthenshire.gov.uk,-3.95592300000000,SA19 6TP,2013-10-11,fhrs_3_en-GB,3,,FHRS,10
465575,,Emlyn Square,Newcastle Emlyn,Carmarthenshire,CENTRAL CAFE,Restaurant/Cafe/Canteen,1,5,,130716,10,,52.03689900000000,62022,558,PublicProtection@carmarthenshire.gov.uk,Carmarthenshire,http://www.carmarthenshire.gov.uk,-4.46987000000000,SA38 9BG,2014-04-14,fhrs_4_en-GB,4,,FHRS,5
465576,Ty Cerdin,,Pentrecwrt,"Llandysul, Carmarthenshire",Cerdin Foods,Other catering premises,7841,5,,721831,5,,52.02241700000000,67908,558,PublicProtection@carmarthenshire.gov.uk,Carmarthenshire,http://www.carmarthenshire.gov.uk,-4.35240100000000,SA44 5AX,2014-02-10,fhrs_5_en-GB,5,,FHRS,0
465577,Check Point Garage,,Harford,"Llanwrda, Carmarthenshire",CHECK POINT FILLING STATION,Retailers - other,4613,5,,485889,5,,52.07064500000000,62391,558,PublicProtection@carmarthenshire.gov.uk,Carmarthenshire,http://www.carmarthenshire.gov.uk,-3.98925600000000,SA19 8DT,2012-11-29,fhrs_5_en-GB,5,,FHRS,5
465578,,32 Lammas Street,Carmarthen,Carmarthenshire,CHICK KING TAKEAWAY,Takeaway/sandwich shop,7844,0,,43930,10,,51.85656500000000,10683,558,PublicProtection@carmarthenshire.gov.uk,Carmarthenshire,http://www.carmarthenshire.gov.uk,-4.31212100000000,SA31 3AL,2014-05-22,fhrs_4_en-GB,4,,FHRS,10
465579,,16 Park Street,Llanelli,Carmarthenshire,Chicken Express,Takeaway/sandwich shop,7844,0,,135386,0,,51.68287500000000,69024,558,PublicProtection@carmarthenshire.gov.uk,Carmarthenshire,http://www.carmarthenshire.gov.uk,-4.15836000000000,SA15 3YE,2014-03-25,fhrs_5_en-GB,5,,FHRS,0
465580,SOAR CHAPEL,Marsh Street,Llanelli,Carmarthenshire,CHILDSPLAY NURSERY,Hospitals/Childcare/Caring Premises,5,0,,126431,0,,51.67505400000000,55467,558,PublicProtection@carmarthenshire.gov.uk,Carmarthenshire,http://www.carmarthenshire.gov.uk,-4.15965100000000,SA15 1AU,2014-07-17,fhrs_5_en-GB,5,,FHRS,0
465581,,9 Glanlliedi Terrace,Llanelli,Carmarthenshire,CHINA KITCHEN,Takeaway/sandwich shop,7844,5,,200907,10,,51.69789600000000,61273,558,PublicProtection@carmarthenshire.gov.uk,Carmarthenshire,http://www.carmarthenshire.gov.uk,-4.14539900000000,SA14 8BB,2014-01-14,fhrs_4_en-GB,4,,FHRS,5
465582,,17 Cedric Street,Llanelli,Carmarthenshire,China Wok,Takeaway/sandwich shop,7844,5,,57244,5,,51.67954900000000,12905,558,PublicProtection@carmarthenshire.gov.uk,Carmarthenshire,http://www.carmarthenshire.gov.uk,-4.15188000000000,SA15 1LP,2014-11-06,fhrs_4_en-GB,4,,FHRS,10
465583,,Church Road,Burry Port,Carmarthenshire,CHIVERS CORNER SERVICE STATION,Retailers - other,4613,5,,464583,5,,51.68603000000000,61035,558,PublicProtection@carmarthenshire.gov.uk,Carmarthenshire,http://www.carmarthenshire.gov.uk,-4.24048300000000,SA16 0SB,2014-04-08,fhrs_4_en-GB,4,,FHRS,10
465584,,Copperworks Road,Llanelli,Carmarthenshire,Chooselife Wales,Restaurant/Cafe/Canteen,1,0,,125584,0,,,54077,558,PublicProtection@carmarthenshire.gov.uk,Carmarthenshire,http://www.carmarthenshire.gov.uk,,SA15 2ZJ,2014-03-25,fhrs_5_en-GB,5,,FHRS,5
465585,,19-20 Lammas Street,Carmarthen,Carmarthenshire,Chris Rogers and Son Ltd,Retailers - other,4613,5,,446386,5,,51.85656500000000,78570,558,PublicProtection@carmarthenshire.gov.uk,Carmarthenshire,http://www.carmarthenshire.gov.uk,-4.31212100000000,SA31 3AL,2014-02-17,fhrs_5_en-GB,5,,FHRS,5
465586,,Clos Gelliwerdd,Cross Hands Business Park,"Cross Hands, Carmarthenshire",CIG CALON CYMRU,Retailers - other,4613,10,,117015,10,,51.79339500000000,46229,558,PublicProtection@carmarthenshire.gov.uk,Carmarthenshire,http://www.carmarthenshire.gov.uk,-4.07746500000000,SA14 6RB,2014-05-20,fhrs_3_en-GB,3,,FHRS,10
465587,,5 High Street,Llandybie,"Ammanford, Carmarthenshire",Cig Cennen,Retailers - other,4613,0,,140264,0,,51.82056700000000,76407,558,PublicProtection@carmarthenshire.gov.uk,Carmarthenshire,http://www.carmarthenshire.gov.uk,-4.00671500000000,SA18 3HX,2014-10-22,fhrs_5_en-GB,5,,FHRS,5
465588,,21 Quay Street,Ammanford,Carmarthenshire,CIGYDD TEULUOL MARTIN JONES,Retailers - other,4613,10,,115063,10,,51.79221500000000,44172,558,PublicProtection@carmarthenshire.gov.uk,Carmarthenshire,http://www.carmarthenshire.gov.uk,-3.98812700000000,SA18 3DB,2014-11-06,fhrs_3_en-GB,3,,FHRS,10
465589,Cilcoed,,Meidrim,"Carmarthen, Carmarthenshire",Cilcoed Christian Centre,Restaurant/Cafe/Canteen,1,10,,133421,5,,51.88103485107422,66094,558,PublicProtection@carmarthenshire.gov.uk,Carmarthenshire,http://www.carmarthenshire.gov.uk,-4.21432495117188,SA33 5QA,2013-11-19,fhrs_4_en-GB,4,,FHRS,5
465590,,Cilycm,Llandovery,Carmarthenshire,CILYCWM COUNTY PRIMARY,School/college/university,7845,5,,434371,5,,52.04283142089840,61590,558,PublicProtection@carmarthenshire.gov.uk,Carmarthenshire,http://www.carmarthenshire.gov.uk,-3.81968569755554,SA20 0SR,2012-06-12,fhrs_5_en-GB,5,,FHRS,5
465591,,Cilymaenllwyd Road,Pwll,"Llanelli, Carmarthenshire",Cilymaenllwyd Care Home,Hospitals/Childcare/Caring Premises,5,0,,434367,5,,51.69142000000000,61129,558,PublicProtection@carmarthenshire.gov.uk,Carmarthenshire,http://www.carmarthenshire.gov.uk,-4.20613900000000,SA15 4RB,2014-12-05,fhrs_5_en-GB,5,,FHRS,5
465592,,77 Rhosmaen Street,Llandeilo,Carmarthenshire,CK'S SUPERMARKET,Retailers - supermarkets/hypermarkets,7840,5,,338972,5,,51.88423000000000,62306,558,PublicProtection@carmarthenshire.gov.uk,Carmarthenshire,http://www.carmarthenshire.gov.uk,-3.99147400000000,SA19 6HD,2014-09-30,fhrs_4_en-GB,4,,FHRS,10
465593,,Station Road,Newcastle Emlyn,Carmarthenshire,CK'S SUPERMARKET,Retailers - supermarkets/hypermarkets,7840,10,,127475,10,,52.03594100000000,568,558,PublicProtection@carmarthenshire.gov.uk,Carmarthenshire,http://www.carmarthenshire.gov.uk,-4.46067500000000,SA38 9BX,2013-11-04,fhrs_3_en-GB,3,,FHRS,10
465594,,23 Coalbrook Road,Pontyberem,"Llanelli, Carmarthenshire",CK'S SUPERMARKET,Retailers - supermarkets/hypermarkets,7840,0,,200925,0,,51.77827300000000,53764,558,PublicProtection@carmarthenshire.gov.uk,Carmarthenshire,http://www.carmarthenshire.gov.uk,-4.16833300000000,SA15 5HU,2014-07-16,fhrs_5_en-GB,5,,FHRS,5
465595,,10 Pencader Road,Llandysul,"Pontwelly, Carmarthenshire",CK's Supermarket,Retailers - supermarkets/hypermarkets,7840,5,,138614,5,,52.03651100000000,73935,558,PublicProtection@carmarthenshire.gov.uk,Carmarthenshire,http://www.carmarthenshire.gov.uk,-4.31228600000000,SA44 4AE,2014-08-13,fhrs_4_en-GB,4,,FHRS,10
465596,,66 New Street,Burry Port,Carmarthenshire,CLAIRE ROBERTS,Other catering premises,7841,5,,51187,5,,51.68495800000000,11444,558,PublicProtection@carmarthenshire.gov.uk,Carmarthenshire,http://www.carmarthenshire.gov.uk,-4.24390200000000,SA16 0RT,2013-12-03,fhrs_4_en-GB,4,,FHRS,10
465597,,Emlyn Square,Newcastle Emlyn,Carmarthenshire,Claires Bake & Take,Retailers - other,4613,5,,200889,10,,52.03667900000000,62003,558,PublicProtection@carmarthenshire.gov.uk,Carmarthenshire,http://www.carmarthenshire.gov.uk,-4.46921600000000,SA38 9BQ,2014-12-01,fhrs_4_en-GB,4,,FHRS,5
465598,Fairlands,,Ffairfach,Llandeilo,Classic Caterers - Victoria Holmes,Mobile caterer,7846,5,,434407,5,,51.87637300000000,77881,558,PublicProtection@carmarthenshire.gov.uk,Carmarthenshire,http://www.carmarthenshire.gov.uk,-3.99398900000000,SA19 6ST,2013-11-08,fhrs_5_en-GB,5,,FHRS,5
465599,Ysgol Beca,C3201 From Efailwen To Hebron,Efailwen,"Clynderwen, Carmarthenshire",Clwb Beca - After School Club,Other catering premises,7841,0,,721834,0,,51.89551900000000,77080,558,PublicProtection@carmarthenshire.gov.uk,Carmarthenshire,http://www.carmarthenshire.gov.uk,-4.71059500000000,SA66 7UX,2014-10-06,fhrs_5_en-GB,5,,FHRS,0
465600,,"Bowls Pavilion,","Brynceunant,","Brynamman, Carmarthenshire",Clwb Plant Brynaman,Hospitals/Childcare/Caring Premises,5,5,,338976,5,,51.81390700000000,63874,558,PublicProtection@carmarthenshire.gov.uk,Carmarthenshire,http://www.carmarthenshire.gov.uk,-3.86287100000000,,2012-02-01,fhrs_5_en-GB,5,,FHRS,5
465601,Gilfach,Cynghordy,,"Llandovery, Carmarthenshire",CLYNSAER HOUSE,Hospitals/Childcare/Caring Premises,5,5,,631938,0,,52.05775200000000,8461,558,PublicProtection@carmarthenshire.gov.uk,Carmarthenshire,http://www.carmarthenshire.gov.uk,-3.71467100000000,SA20 0LP,2014-01-14,fhrs_5_en-GB,5,,FHRS,5
465602,,Unit 9 Heol Parc Mawr,Cross Hands,"Llanelli, Carmarthenshire",CNWD limited / Strawberry Shortcake,Manufacturers/packers,7839,5,,654584,0,,51.79512900000000,75482,558,PublicProtection@carmarthenshire.gov.uk,Carmarthenshire,http://www.carmarthenshire.gov.uk,-4.07550000000000,SA14 6RE,2014-03-03,fhrs_5_en-GB,5,,FHRS,5
465603,,86 & 88A Queen Victoria Road,Llanelli,Carmarthenshire,COASTAL PARK GUEST HOUSE,Hotel/bed & breakfast/guest house,7842,5,,112695,5,,51.67796100000000,41866,558,PublicProtection@carmarthenshire.gov.uk,Carmarthenshire,http://www.carmarthenshire.gov.uk,-4.16783200000000,SA15 2TH,2014-09-16,fhrs_5_en-GB,5,,FHRS,5
465604,,Bridge Street,Burry Port,Carmarthenshire,COASTING PILOT,Pub/bar/nightclub,7843,5,,130004,0,,51.68467300000000,61013,558,PublicProtection@carmarthenshire.gov.uk,Carmarthenshire,http://www.carmarthenshire.gov.uk,-4.24749100000000,SA16 0NR,2014-06-04,fhrs_5_en-GB,5,,FHRS,5
465605,Coedcae Comprehensive School,Trostre Road,Llanelli,Carmarthenshire,COEDCAE COMPREHENSIVE SCHOOL,School/college/university,7845,0,,130389,0,,51.67990200000000,61552,558,PublicProtection@carmarthenshire.gov.uk,Carmarthenshire,http://www.carmarthenshire.gov.uk,-4.14441800000000,SA15 1LJ,2014-05-13,fhrs_5_en-GB,5,,FHRS,5
465606,Unit 19,St Catherines Walk,Carmarthen,Carmarthenshire,Coffee #1,Restaurant/Cafe/Canteen,1,5,,623220,0,,51.85863000000000,81224,558,PublicProtection@carmarthenshire.gov.uk,Carmarthenshire,http://www.carmarthenshire.gov.uk,-4.30909000000000,SA31 1GA,2013-11-14,fhrs_5_en-GB,5,,FHRS,5
465607,,7 Gathen Terrace,Llanelli,"Llanelli, Carmarthenshire",COFFEE POT,Restaurant/Cafe/Canteen,1,10,,130440,10,,51.67479400000000,61621,558,PublicProtection@carmarthenshire.gov.uk,Carmarthenshire,http://www.carmarthenshire.gov.uk,-4.16204000000000,SA15 2RP,2012-10-09,fhrs_3_en-GB,3,,FHRS,10
465608,,19 Water Street,Carmarthen,Carmarthenshire,COGANS NEWSAGENTS,Retailers - other,4613,0,,686829,5,,51.85824700000000,62152,558,PublicProtection@carmarthenshire.gov.uk,Carmarthenshire,http://www.carmarthenshire.gov.uk,-4.31254100000000,SA31 1RG,2014-06-17,fhrs_5_en-GB,5,,FHRS,0
465609,,36 Lammas Street,Carmarthen,Carmarthenshire,COGANS NEWSAGENTS,Retailers - other,4613,5,,114083,10,,51.85656500000000,431,558,PublicProtection@carmarthenshire.gov.uk,Carmarthenshire,http://www.carmarthenshire.gov.uk,-4.31212100000000,SA31 3AL,2014-05-07,fhrs_4_en-GB,4,,FHRS,5
465610,VICTORIA HOUSE,Queens Square,Llangadog,"Llandovery, Carmarthenshire",COLEG ELIDYR,Hospitals/Childcare/Caring Premises,5,5,,93523,5,,51.93808800000000,26907,558,PublicProtection@carmarthenshire.gov.uk,Carmarthenshire,http://www.carmarthenshire.gov.uk,-3.88306100000000,SA19 9BW,2013-10-21,fhrs_5_en-GB,5,,FHRS,0
465611,Ammanford Campus,Dyffryn Road,Ammanford,Carmarthenshire,COLEG SIR GAR,Restaurant/Cafe/Canteen,1,5,,200979,5,,51.79700800000000,60748,558,PublicProtection@carmarthenshire.gov.uk,Carmarthenshire,http://www.carmarthenshire.gov.uk,-4.00189800000000,SA18 3TA,2013-07-03,fhrs_5_en-GB,5,,FHRS,5
465612,Graig Campus,Sandy Road,Llanelli,Carmarthenshire,COLEG SIR GAR CCTA,Restaurant/Cafe/Canteen,1,0,,130111,0,,51.68717100000000,61150,558,PublicProtection@carmarthenshire.gov.uk,Carmarthenshire,http://www.carmarthenshire.gov.uk,-4.18812200000000,SA15 4DN,2013-10-04,fhrs_5_en-GB,5,,FHRS,5
465613,,Coleshill Terrace,Llanelli,Carmarthenshire,COLESHILL SOCIAL CENTRE,Restaurant/Cafe/Canteen,1,0,,61774,5,,51.68355400000000,136,558,PublicProtection@carmarthenshire.gov.uk,Carmarthenshire,http://www.carmarthenshire.gov.uk,-4.16687000000000,SA15 3BT,2014-03-17,fhrs_5_en-GB,5,,FHRS,0
465614,LONDON HOUSE,St. John Street,Whitland,Carmarthenshire,COLIN J HARRIES BUTCHERS,Retailers - other,4613,0,,200948,5,,51.81989400000000,62271,558,PublicProtection@carmarthenshire.gov.uk,Carmarthenshire,http://www.carmarthenshire.gov.uk,-4.60481800000000,SA34 0HL,2014-07-01,fhrs_5_en-GB,5,,FHRS,5
465615,,Derwydd Road,Llandybie,"Ammanford, Carmarthenshire",COLLEGE INN,Hotel/bed & breakfast/guest house,7842,0,,730415,0,,51.84350500000000,60737,558,PublicProtection@carmarthenshire.gov.uk,Carmarthenshire,http://www.carmarthenshire.gov.uk,-3.99777600000000,SA18 2LX,2015-01-06,fhrs_4_en-GB,4,,FHRS,10
465616,,174-176 Saron Road,Saron,"Ammanford, Carmarthenshire",COLLIERS ARMS,Pub/bar/nightclub,7843,0,,129788,0,,51.79226000000000,60723,558,PublicProtection@carmarthenshire.gov.uk,Carmarthenshire,http://www.carmarthenshire.gov.uk,-4.03073400000000,SA18 3LN,2014-12-11,fhrs_5_en-GB,5,,FHRS,5
465617,,St Johns Street,Whitland,Carmarthenshire,Comfort Zone,Takeaway/sandwich shop,7844,5,,132410,5,,51.81844100000000,64374,558,PublicProtection@carmarthenshire.gov.uk,Carmarthenshire,http://www.carmarthenshire.gov.uk,-4.61394800000000,SA34 0AP,2014-05-13,fhrs_4_en-GB,4,,FHRS,10
465618,Skanda Vale,Llanpumsaint,,"Carmarthen,",COMMUNITY OF THE MANY NAMES OF GOD,Hospitals/Childcare/Caring Premises,5,0,,587254,0,,51.95942400000000,32653,558,PublicProtection@carmarthenshire.gov.uk,Carmarthenshire,http://www.carmarthenshire.gov.uk,-4.30054200000000,SA33 6JT,2013-08-06,fhrs_5_en-GB,5,,FHRS,5
465619,,16 Nott Square,Carmarthen,Carmarthenshire,Con Passionata,Restaurant/Cafe/Canteen,1,5,,434404,5,,51.85606600000000,76876,558,PublicProtection@carmarthenshire.gov.uk,Carmarthenshire,http://www.carmarthenshire.gov.uk,-4.30595300000000,SA31 1PQ,2013-10-31,fhrs_5_en-GB,5,,FHRS,5
465620,,14 Dol Y Dderwen,Llangain,"Carmarthen, Carmarthenshire",Contempo Catering,Other catering premises,7841,5,,654580,0,,51.81858300000000,66029,558,PublicProtection@carmarthenshire.gov.uk,Carmarthenshire,http://www.carmarthenshire.gov.uk,-4.34510200000000,SA33 5BE,2014-02-18,fhrs_5_en-GB,5,,FHRS,0
465621,,4 Carmarthen Street,Llandeilo,Carmarthenshire,Cooper the butcher,Retailers - other,4613,5,,131015,0,,51.88279300000000,62350,558,PublicProtection@carmarthenshire.gov.uk,Carmarthenshire,http://www.carmarthenshire.gov.uk,-3.99402600000000,SA19 6AE,2014-07-15,fhrs_5_en-GB,5,,FHRS,5
465622,,West Street,Whitland,Carmarthenshire,Co-operative Group Food Ltd,Retailers - other,4613,0,,130925,5,,51.81991800000000,62274,558,PublicProtection@carmarthenshire.gov.uk,Carmarthenshire,http://www.carmarthenshire.gov.uk,-4.61953400000000,SA34 0AE,2014-06-13,fhrs_5_en-GB,5,,FHRS,0
465623,,46 King Street,Carmarthen,Carmarthenshire,Co-operative Group Food Ltd,Retailers - other,4613,5,,130619,5,,51.85699000000000,61907,558,PublicProtection@carmarthenshire.gov.uk,Carmarthenshire,http://www.carmarthenshire.gov.uk,-4.30469300000000,SA31 1BH,2014-03-13,fhrs_4_en-GB,4,,FHRS,10
465624,,Monksford Street,Kidwelly,Carmarthenshire,Co-operative Group Food Ltd,Retailers - other,4613,0,,129696,5,,51.73509800000000,60610,558,PublicProtection@carmarthenshire.gov.uk,Carmarthenshire,http://www.carmarthenshire.gov.uk,-4.30075700000000,SA17 4TW,2014-03-06,fhrs_5_en-GB,5,,FHRS,5
465625,,Sycamore Street,Newcastle Emlyn,Carmarthenshire,Co-operative Group Food Ltd,Retailers - other,4613,5,,654572,5,,52.03820900000000,62029,558,PublicProtection@carmarthenshire.gov.uk,Carmarthenshire,http://www.carmarthenshire.gov.uk,-4.46785700000000,SA38 9AJ,2014-01-09,fhrs_4_en-GB,4,,FHRS,10
465626,,18 Afon Road,Llangennech,"Llanelli, Carmarthenshire",Co-operative Group Food Ltd,Retailers - other,4613,5,,130248,10,,51.69650800000000,61357,558,PublicProtection@carmarthenshire.gov.uk,Carmarthenshire,http://www.carmarthenshire.gov.uk,-4.08263200000000,SA14 8TS,2013-11-26,fhrs_4_en-GB,4,,FHRS,5
465627,,68 Station Road,Burry Port,Carmarthenshire,Co-operative Group Food Ltd,Retailers - other,4613,5,,130017,10,,51.68435500000000,61026,558,PublicProtection@carmarthenshire.gov.uk,Carmarthenshire,http://www.carmarthenshire.gov.uk,-4.25000700000000,SA16 0LW,2013-11-27,fhrs_3_en-GB,3,,FHRS,10
465628,,Station Road,St Clears,"Carmarthen, Carmarthenshire",Co-operative Group Food Ltd,Retailers - other,4613,5,,126136,5,,51.82786200000000,55,558,PublicProtection@carmarthenshire.gov.uk,Carmarthenshire,http://www.carmarthenshire.gov.uk,-4.49201100000000,SA33 4DG,2013-10-29,fhrs_4_en-GB,4,,FHRS,10
465629,,Glanlliedi Terrace,Llanelli,Carmarthenshire,Co-operative Group Food Ltd,Retailers - other,4613,5,,200908,10,,51.69789600000000,61274,558,PublicProtection@carmarthenshire.gov.uk,Carmarthenshire,http://www.carmarthenshire.gov.uk,-4.14539900000000,SA14 8BB,2013-11-07,fhrs_3_en-GB,3,,FHRS,10
465630,,College Street,Ammanford,Carmarthenshire,Co-operative Group Food Ltd,Retailers - other,4613,5,,200942,5,,51.79331400000000,60767,558,PublicProtection@carmarthenshire.gov.uk,Carmarthenshire,http://www.carmarthenshire.gov.uk,-3.98855300000000,SA18 3AB,2014-01-21,fhrs_4_en-GB,4,,FHRS,10
465631,,Llandeilo Road,Cross Hands,"Llanelli, Carmarthenshire",Co-operative Group Food Ltd,Retailers - other,4613,5,,129708,5,,51.79673100000000,60633,558,PublicProtection@carmarthenshire.gov.uk,Carmarthenshire,http://www.carmarthenshire.gov.uk,-4.08456600000000,SA14 6RD,2014-02-06,fhrs_5_en-GB,5,,FHRS,5
465632,,High Street,Llandovery,Carmarthenshire,Co-operative Group Food Ltd,Retailers - other,4613,10,,200930,10,,51.99474700000000,607,558,PublicProtection@carmarthenshire.gov.uk,Carmarthenshire,http://www.carmarthenshire.gov.uk,-3.78784500000000,SA20 0RA,2013-07-10,fhrs_3_en-GB,3,,FHRS,10
465633,,Rhosmaen Street,Llandeilo,Carmarthenshire,Co-operative Group Food Ltd,Retailers - supermarkets/hypermarkets,7840,5,,104223,5,,51.88754700000000,35429,558,PublicProtection@carmarthenshire.gov.uk,Carmarthenshire,http://www.carmarthenshire.gov.uk,-3.98942600000000,SA19 6LU,2013-09-23,fhrs_5_en-GB,5,,FHRS,5
465634,,Heol Parc Mawr,Cross Hands,"Llanelli, Carmarthenshire",Co-operative Group Food Ltd -  Filling Station,Retailers - other,4613,0,,636027,0,,51.79673100000000,60562,558,PublicProtection@carmarthenshire.gov.uk,Carmarthenshire,http://www.carmarthenshire.gov.uk,-4.08456600000000,SA14 6RD,2014-02-11,fhrs_5_en-GB,5,,FHRS,0
465635,,Betws Road,Betws,"Ammanford, Carmarthenshire",COOPERS ARMS,Pub/bar/nightclub,7843,0,,129886,0,,51.78471900000000,60864,558,PublicProtection@carmarthenshire.gov.uk,Carmarthenshire,http://www.carmarthenshire.gov.uk,-3.98634800000000,SA18 2HG,2015-01-08,fhrs_5_en-GB,5,,FHRS,5
465636,,Station Road,Newcastle Emlyn,Carmarthenshire,Coopers Arms,Pub/bar/nightclub,7843,0,,338967,0,,52.03594100000000,62017,558,PublicProtection@carmarthenshire.gov.uk,Carmarthenshire,http://www.carmarthenshire.gov.uk,-4.46067500000000,SA38 9BX,2014-01-10,fhrs_5_en-GB,5,,FHRS,5
465637,,Nevill Street,Llanelli,Carmarthenshire,COPPERWORKS INFANT SCHOOL,School/college/university,7845,0,,130437,0,,51.67546900000000,61618,558,PublicProtection@carmarthenshire.gov.uk,Carmarthenshire,http://www.carmarthenshire.gov.uk,-4.16399600000000,SA15 2RS,2013-11-06,fhrs_5_en-GB,5,,FHRS,5
465638,CARMARTHEN TRAIN STATION,Station Road,Carmarthen,Carmarthenshire,CORACLE BUFFET + NEWSAGENTS,Restaurant/Cafe/Canteen,1,10,,95781,5,,51.85324800000000,287,558,PublicProtection@carmarthenshire.gov.uk,Carmarthenshire,http://www.carmarthenshire.gov.uk,-4.30609900000000,SA31 2BE,2014-05-14,fhrs_3_en-GB,3,,FHRS,10
465639,,41-42 Lammas Street,Carmarthen,Carmarthenshire,CORACLE CHIP SHOP,Restaurant/Cafe/Canteen,1,5,,338911,5,,51.85656500000000,264,558,PublicProtection@carmarthenshire.gov.uk,Carmarthenshire,http://www.carmarthenshire.gov.uk,-4.31212100000000,SA31 3AL,2013-10-08,fhrs_4_en-GB,4,,FHRS,10
465640,,Cambrian Place,Carmarthen,Carmarthenshire,CORACLE TAVERN,Pub/bar/nightclub,7843,5,,130825,5,,51.85776900000000,62144,558,PublicProtection@carmarthenshire.gov.uk,Carmarthenshire,http://www.carmarthenshire.gov.uk,-4.30711400000000,SA31 1QG,2014-12-02,fhrs_4_en-GB,4,,FHRS,10
465641,,2 Stone Street,Llandovery,Carmarthenshire,Corner Shop,Other catering premises,7841,10,,200974,0,,51.99469600000000,73947,558,PublicProtection@carmarthenshire.gov.uk,Carmarthenshire,http://www.carmarthenshire.gov.uk,-3.79653900000000,SA20 0JR,2015-01-07,fhrs_4_en-GB,4,,FHRS,10
465642,Hursthouse Farm,,Laugharne,"Carmarthen, Carmarthenshire",Corran Resort & Spa,Restaurant/Cafe/Canteen,1,5,,85125,0,,51.74427800000000,21276,558,PublicProtection@carmarthenshire.gov.uk,Carmarthenshire,http://www.carmarthenshire.gov.uk,-4.47644000000000,SA33 4RS,2014-12-09,fhrs_5_en-GB,5,,FHRS,5
465643,,Unit 7 St Catherine's Walk,Carmarthen,,Costa Coffee Ltd,Restaurant/Cafe/Canteen,1,0,,595836,5,,51.85848800000000,73570,558,PublicProtection@carmarthenshire.gov.uk,Carmarthenshire,http://www.carmarthenshire.gov.uk,-4.30901000000000,SA31 1GA,2013-10-10,fhrs_5_en-GB,5,,FHRS,5
465644,,15 Parc Pemberton Retail Park,Llanelli,Carmarthenshire,Costa Coffee Ltd,Restaurant/Cafe/Canteen,1,0,,595842,0,,51.67991600000000,80762,558,PublicProtection@carmarthenshire.gov.uk,Carmarthenshire,http://www.carmarthenshire.gov.uk,-4.12933100000000,SA14 9UZ,2013-10-15,fhrs_5_en-GB,5,,FHRS,5
465645,,Unit 10 Eastgate,Llanelli,,Costa Coffee Ltd,Restaurant/Cafe/Canteen,1,0,,558977,5,,,80297,558,PublicProtection@carmarthenshire.gov.uk,Carmarthenshire,http://www.carmarthenshire.gov.uk,,SA15 3YF,2014-09-03,fhrs_5_en-GB,5,,FHRS,0
465646,,,St. Clears,"Carmarthen, Carmarthenshire",COTTAGE CAFE,Restaurant/Cafe/Canteen,1,10,,129093,5,,51.79962800000000,595,558,PublicProtection@carmarthenshire.gov.uk,Carmarthenshire,http://www.carmarthenshire.gov.uk,-4.53180600000000,SA33 4HJ,2013-11-14,fhrs_3_en-GB,3,,FHRS,10
465647,,Carmarthen Road,Llandeilo,Carmarthenshire,COTTAGE INN,Pub/bar/nightclub,7843,10,,338954,10,,51.88739200000000,61374,558,PublicProtection@carmarthenshire.gov.uk,Carmarthenshire,http://www.carmarthenshire.gov.uk,-4.00014400000000,SA19 6RS,2013-08-28,fhrs_3_en-GB,3,,FHRS,10
465648,Cottage Inn,28/32 Wind Street,Ammanford,Carmarthenshire,COTTAGE INN,Pub/bar/nightclub,7843,10,,595832,5,,51.79201700000000,60795,558,PublicProtection@carmarthenshire.gov.uk,Carmarthenshire,http://www.carmarthenshire.gov.uk,-3.98920600000000,SA18 3DN,2013-10-15,fhrs_4_en-GB,4,,FHRS,5
465649,Penlan Farm,,Nantycaws,Carmarthen,Country Kitchens,Mobile caterer,7846,10,,558967,10,,51.84313000000000,79801,558,PublicProtection@carmarthenshire.gov.uk,Carmarthenshire,http://www.carmarthenshire.gov.uk,-4.23683800000000,SA32 8ER,2013-04-23,fhrs_3_en-GB,3,,FHRS,5
465650,,St Clears,Carmarthenshire,,COUNTY STORES,Retailers - other,4613,0,,130884,10,,51.81984329223633,62216,558,PublicProtection@carmarthenshire.gov.uk,Carmarthenshire,http://www.carmarthenshire.gov.uk,-4.49952030181885,SA33 4AG,2014-10-07,fhrs_4_en-GB,4,,FHRS,10
465651,,The Harbour,Burry Port,Carmarthenshire,Crab 'n' Dab,Retailers - other,4613,5,,140363,5,,51.88103485107422,76531,558,PublicProtection@carmarthenshire.gov.uk,Carmarthenshire,http://www.carmarthenshire.gov.uk,-4.21432495117188,,2014-06-20,fhrs_5_en-GB,5,,FHRS,5
465652,Merlin Buildings,Penymorfa Lane,Llangunnor,Carmarthen,Cranc Cycle Sport Ltd,Restaurant/Cafe/Canteen,1,0,,691545,5,,51.85242900000000,82537,558,PublicProtection@carmarthenshire.gov.uk,Carmarthenshire,http://www.carmarthenshire.gov.uk,-4.29830300000000,SA31 2NW,2014-08-05,fhrs_5_en-GB,5,,FHRS,0
465653,,22 Pant Bryn Isaf,Llwynhendy,Llanelli,CRAZIE CREPES,Mobile caterer,7846,5,,528854,0,,51.68030100000000,54698,558,PublicProtection@carmarthenshire.gov.uk,Carmarthenshire,http://www.carmarthenshire.gov.uk,-4.11298900000000,SA14 9EQ,2013-03-27,fhrs_5_en-GB,5,,FHRS,0
465654,,33 Llandeilo Road,Cross Hands,"Llanelli, Carmarthenshire",CRISP & FRY,Restaurant/Cafe/Canteen,1,0,,200920,5,,51.79586300000000,60577,558,PublicProtection@carmarthenshire.gov.uk,Carmarthenshire,http://www.carmarthenshire.gov.uk,-4.08586000000000,SA14 6ND,2013-09-09,fhrs_5_en-GB,5,,FHRS,5
465655,,16 Wind Street,Ammanford,Carmarthenshire,CRISP AND FRY,Takeaway/sandwich shop,7844,10,,129815,10,,51.79201700000000,60790,558,PublicProtection@carmarthenshire.gov.uk,Carmarthenshire,http://www.carmarthenshire.gov.uk,-3.98920600000000,SA18 3DN,2014-09-19,fhrs_3_en-GB,3,,FHRS,10
465656,,,Llanwrda,Carmarthenshire,Croes y Ceiliog Inn,Pub/bar/nightclub,7843,5,,130616,5,,51.96657180786133,61901,558,PublicProtection@carmarthenshire.gov.uk,Carmarthenshire,http://www.carmarthenshire.gov.uk,-3.87541913986206,SA19 8HD,2014-09-19,fhrs_5_en-GB,5,,FHRS,5
465657,,1 Llandeilo Road,Cross Hands,"Llanelli, Carmarthenshire",CROSS HANDS HOTEL,Restaurant/Cafe/Canteen,1,5,,464580,10,,51.79513000000000,60576,558,PublicProtection@carmarthenshire.gov.uk,Carmarthenshire,http://www.carmarthenshire.gov.uk,-4.08611600000000,SA14 6NA,2013-11-12,fhrs_3_en-GB,3,,FHRS,10
465658,,42 Llandeilo Road,Cross Hands,"Llanelli, Carmarthenshire",CROSS HANDS NEWS,Retailers - other,4613,5,,721809,10,,51.79513000000000,60565,558,PublicProtection@carmarthenshire.gov.uk,Carmarthenshire,http://www.carmarthenshire.gov.uk,-4.08611600000000,SA14 6NA,2014-03-10,fhrs_4_en-GB,4,,FHRS,5
465659,,Grist Square,Laugharne,"Carmarthen, Carmarthenshire",CROSS HOUSE INN,Pub/bar/nightclub,7843,0,,129752,5,,51.76957000000000,60695,558,PublicProtection@carmarthenshire.gov.uk,Carmarthenshire,http://www.carmarthenshire.gov.uk,-4.46425700000000,SA33 4ST,2014-08-28,fhrs_5_en-GB,5,,FHRS,5
465660,,,Efailwen,"Clynderwen, Carmarthenshire",CROSS INN,Pub/bar/nightclub,7843,10,,338933,5,,51.90684127807620,604,558,PublicProtection@carmarthenshire.gov.uk,Carmarthenshire,http://www.carmarthenshire.gov.uk,-4.70002317428589,SA66 7XB,2014-02-13,fhrs_3_en-GB,3,,FHRS,10
465661,,Carmarthen Road,Cross Hands,"Llanelli, Carmarthenshire",CROSSHANDS CP SCHOOL,School/college/university,7845,0,,129671,0,,51.79880100000000,60585,558,PublicProtection@carmarthenshire.gov.uk,Carmarthenshire,http://www.carmarthenshire.gov.uk,-4.09102800000000,SA14 6SU,2014-01-20,fhrs_4_en-GB,4,,FHRS,10
465662,,Llandeilo Road,Cross Hands,Llanelli,CROSSHANDS SERVICE STATION,Retailers - other,4613,0,,464581,5,,51.79673100000000,60634,558,PublicProtection@carmarthenshire.gov.uk,Carmarthenshire,http://www.carmarthenshire.gov.uk,-4.08456600000000,SA14 6RD,2014-09-26,fhrs_5_en-GB,5,,FHRS,5
465663,,Unit 15 Market Precinct,Carmarthen,Carmarthenshire,Crumbs,Restaurant/Cafe/Canteen,1,0,,528870,0,,51.85773400000000,79697,558,PublicProtection@carmarthenshire.gov.uk,Carmarthenshire,http://www.carmarthenshire.gov.uk,-4.30892800000000,SA31 1QZ,2013-02-18,fhrs_5_en-GB,5,,FHRS,5
465664,Talyclyn Isaf,Pontardulais Road,Llangennech,"Llanelli, Carmarthenshire",CUDDLY BEARS DAY NURSERY,Hospitals/Childcare/Caring Premises,5,0,,338922,0,,51.70318500000000,40665,558,PublicProtection@carmarthenshire.gov.uk,Carmarthenshire,http://www.carmarthenshire.gov.uk,-4.07324200000000,SA14 8YF,2013-12-19,fhrs_5_en-GB,5,,FHRS,5
465665,Antioch Centre,Copperworks Road,Llanelli,Carmarthenshire,Culture Cafe,Restaurant/Cafe/Canteen,1,5,,434394,5,,51.67295500000000,67571,558,PublicProtection@carmarthenshire.gov.uk,Carmarthenshire,http://www.carmarthenshire.gov.uk,-4.16179300000000,SA15 2NE,2014-06-23,fhrs_5_en-GB,5,,FHRS,5
465666,,2 Derwent Street,Llanelli,Carmarthenshire,Custom Cakes By Alyson,Other catering premises,7841,0,,668624,0,,51.68531500000000,6041,558,PublicProtection@carmarthenshire.gov.uk,Carmarthenshire,http://www.carmarthenshire.gov.uk,-4.16840100000000,SA15 3EP,2014-05-27,fhrs_5_en-GB,5,,FHRS,0
465667,,Heol Y Dderi,Llanybydder,Carmarthenshire,Cwm Aur,Hospitals/Childcare/Caring Premises,5,0,,139239,0,,52.07047800000000,74780,558,PublicProtection@carmarthenshire.gov.uk,Carmarthenshire,http://www.carmarthenshire.gov.uk,-4.14879000000000,SA40 9AB,2013-10-18,fhrs_5_en-GB,5,,FHRS,0
465668,,Raven Industrial Estate,Garnant,"Ammanford, Carmarthenshire",CWMAMMAN DAY CENTRE,Hospitals/Childcare/Caring Premises,5,0,,105508,0,,51.80192600000000,36282,558,PublicProtection@carmarthenshire.gov.uk,Carmarthenshire,http://www.carmarthenshire.gov.uk,-3.90287900000000,SA18 1NS,2014-05-09,fhrs_5_en-GB,5,,FHRS,0
465669,,,Cwmann,"Lampeter, Carmarthenshire",CWMANN TAVERN,Pub/bar/nightclub,7843,5,,130816,5,,52.10606002807617,62128,558,PublicProtection@carmarthenshire.gov.uk,Carmarthenshire,http://www.carmarthenshire.gov.uk,-4.07094335556030,SA48 8DR,2013-11-01,fhrs_4_en-GB,4,,FHRS,10
465670,,Cefneithin Road,Gorslas,"Llanelli, Carmarthenshire",CWMCERRIG FARM SHOP and GRILL,Restaurant/Cafe/Canteen,1,0,,97487,0,,51.80632900000000,30289,558,PublicProtection@carmarthenshire.gov.uk,Carmarthenshire,http://www.carmarthenshire.gov.uk,-4.08435600000000,SA14 7HU,2014-11-10,fhrs_5_en-GB,5,,FHRS,5
465671,,,Cwmdu,"Llandeilo, Carmarthenshire",CWMDU INN,Pub/bar/nightclub,7843,5,,587253,5,,51.95381900000000,21304,558,PublicProtection@carmarthenshire.gov.uk,Carmarthenshire,http://www.carmarthenshire.gov.uk,-3.98725200000000,SA19 7DY,2013-09-04,fhrs_4_en-GB,4,,FHRS,10
465672,,Cwmdu,Llandeilo,,CWMDU POST OFFICE,Retailers - other,4613,5,,434396,0,,51.95381900000000,726,558,PublicProtection@carmarthenshire.gov.uk,Carmarthenshire,http://www.carmarthenshire.gov.uk,-3.98725200000000,SA19 7DY,2014-06-20,fhrs_5_en-GB,5,,FHRS,0
465673,Cwrt Henri Cp School,,Dryslwyn,"Carmarthen, Carmarthenshire",CWRT HENRY CP SCHOOL,School/college/university,7845,0,,133846,0,,51.88763000000000,66809,558,PublicProtection@carmarthenshire.gov.uk,Carmarthenshire,http://www.carmarthenshire.gov.uk,-4.10051200000000,SA32 8RX,2014-06-24,fhrs_5_en-GB,5,,FHRS,0
465674,,9 High Street,Ammanford,Carmarthenshire,Cwtch Coffee Shop,Restaurant/Cafe/Canteen,1,0,,139733,0,,51.79267700000000,75522,558,PublicProtection@carmarthenshire.gov.uk,Carmarthenshire,http://www.carmarthenshire.gov.uk,-3.98690000000000,SA18 2NA,2014-03-19,fhrs_5_en-GB,5,,FHRS,5
465675,CARMARTHEN PROVISIONS MARKET,Carmarthen Market,Carmarthenshire,,Cwtsh Bach,Restaurant/Cafe/Canteen,1,5,,87284,0,,51.85567600000000,225,558,PublicProtection@carmarthenshire.gov.uk,Carmarthenshire,http://www.carmarthenshire.gov.uk,-4.30795100000000,SA31 3LE,2014-07-09,fhrs_5_en-GB,5,,FHRS,5
