,businessname,ratingvalue,structural,hygiene,confidenceinmanagement,ratingdate,latitude,longitude
465338,A Taste Of Heaven,4,10,0,0,2014-07-02,51.682072,-4.162401
465339,A to Z CONVENIENCE STORE,5,0,0,5,2014-10-23,51.79945,-3.947167
465340,A&M Ice Cream Van,4,5,5,10,2013-03-25,51.687378,-4.159905
465341,Aardvark Alternatives,4,10,5,5,2013-11-25,51.856632,-4.309162
465342,ABADAM ARMS,4,5,5,10,2015-01-08,51.8225822449,-4.15060949326
465343,ABBEYFIELD LLANDEILO SOCIETY LTD,5,5,5,5,2014-02-12,51.882611,-3.994701
465344,ABERGLASNEY HOUSE AND GARDENS,5,5,0,0,2014-04-09,51.87940979,-4.06458997726
465345,ABERGWILI PRIMARY SCHOOL,5,5,0,0,2013-05-02,51.8666572571,-4.26993322372
465346,ABERNANT SCHOOL,5,0,0,0,2013-11-25,51.8827438354,-4.41323518753
465347,ABRAHAMS AND FAMILY,5,5,0,0,2014-12-04,51.816844,-4.004054
465348,ADELINE GUEST HOUSE,5,5,5,5,2014-01-09,51.687584,-4.276571
465349,Ahmed Cuisine/Llandybie Chinese & Indian,3,10,10,10,2014-11-04,51.820859,-4.005901
465350,AJ Diner,5,5,5,5,2013-11-04,51.88423,-3.991474
465351,AJ Donuts,3,10,10,10,2013-11-27,51.803358,-3.929221
465352,AJ MEATS,5,0,5,0,2014-01-21,51.681627,-4.160673
465353,Akash Indian Takeaway,2,15,10,10,2013-03-12,51.696562,-4.142601
465354,AKRAM'S,3,10,10,10,2014-01-14,51.676555,-4.145012
465355,ALBERT REES,5,5,0,0,2014-01-07,51.857694,-4.3091
465356,ALBION ARMS,3,10,10,10,2013-10-18,52.073117,-4.149544
465357,Aldi GMBH,5,5,0,0,2014-07-02,51.849947,-4.307527
465358,ALDI STORES LIMITED,5,0,5,0,2013-11-06,51.796731,-4.084566
465359,Alfie's,5,0,0,0,2014-01-15,51.793407,-3.988383
465360,ALI RAJ,5,5,5,5,2014-07-23,51.67267,-4.156312
465361,Alicja,4,5,5,10,2013-12-18,51.855676,-4.307951
465362,Ali's Cafe,4,5,10,5,2013-11-07,,
465363,ALL IN ONE TAKEAWAY,4,10,5,5,2014-01-14,51.680519,-4.160765
465364,ALLSORTS,5,0,5,0,2014-01-14,51.819869,-4.495735
465365,ALLTYMYNYDD NURSING HOME,5,0,0,5,2014-10-15,52.054651,-4.109012
465366,ALTALIA,5,5,5,5,2013-12-10,51.68275,-4.16022
465367,Alun Ap Fychan,5,5,5,5,2014-07-14,51.857694,-4.3091
465368,Amelia's Diner @ Pembrey Airport,5,5,5,0,2014-02-20,51.711858,-4.300431
465369,Amma Convenience Store,5,5,0,0,2014-01-21,51.796405,-3.995055
465370,AMMAN  CENTRE,5,0,0,0,2014-09-04,51.794512,-3.986865
465371,AMMAN UNITED RUGBY FOOTBALL CLUB,3,10,10,5,2014-03-21,51.804685,-3.915179
465372,AMMAN VALLEY COMPREHENSIVE SCHOOL,5,5,0,0,2014-06-24,51.795986,-3.985799
465373,AMMAN VALLEY HOSPITAL,5,5,0,0,2014-04-16,51.809044,-3.924126
465374,AMMANFORD AND DISTRICT MINERS WELFARE ASSOCIATION SOCIAL CLUB LTD,4,10,0,0,2014-03-24,51.792017,-3.989206
465375,AMMANFORD CENTRAL KITCHEN,5,0,0,0,2014-11-19,51.793304,-3.985927
465376,Ammanford Fire Station,5,5,5,5,2013-10-08,51.793336,-3.983551
465377,Ammanford Fish Bar,5,5,5,5,2014-03-17,51.793491,-3.989807
465378,AMMANFORD SOCIAL CLUB AND INSTITUTE,5,5,0,0,2014-02-13,51.790754,-3.991558
465379,Amser Te,5,5,5,5,2013-11-20,51.857506,-4.301742
465380,ANDI PANDIES DAY NURSERY,5,5,0,5,2013-12-03,51.796443,-3.994955
465381,Andrew & E Barker,1,15,10,20,2014-11-26,51.988306,-3.891066
465382,ANGEL HOTEL,3,10,10,5,2013-09-17,51.883035,-3.992497
465383,ANGEL INN,4,5,5,10,2012-02-16,52.0074691772,-4.0125041008
465384,ANGEL INN,5,5,0,5,2014-01-30,51.920278,-4.003744
465385,ANTS HILL CARAVAN PARK,3,10,10,10,2013-08-16,51.778306,-4.466647
465386,ARGOS BINGO CLUB,4,5,5,10,2013-12-10,51.682484,-4.159571
465387,Artwerks,5,5,5,5,2015-01-08,51.883808,-3.991949
465388,Asda Living Cafe,5,5,5,5,2014-07-18,51.8810348511,-4.21432495117
465389,ASDA STORES LTD (SUPERMARKET),5,5,0,0,2014-06-24,51.681874,-4.15947
465390,ASHBURNHAM GOLF CLUB,5,5,0,5,2014-08-26,51.683059,-4.261313
465391,ASHBURNHAM HOTEL,5,5,5,5,2014-04-24,51.684895,-4.26589
465392,AT SEAT CATERING,5,5,0,0,2014-01-08,51.853248,-4.306099
465393,AVENUE FISH BAR,5,0,5,5,2013-11-25,51.68061,-4.12177
465394,AVO Cafe Bar,5,5,5,5,2013-11-13,51.68261,-4.159056
465395,AWEL TYWI RESIDENTIAL HOME,5,5,0,5,2014-10-21,51.87532,-3.991952
465396,B J'S CAFE BAR,3,10,10,10,2014-09-30,51.681141,-4.161662
465397,BAHN MAI THAI RESTAURANT,4,10,5,5,2014-03-12,51.678502,-4.162361
465398,Balcony Cafe-Wynnstay Town and Country Stores,5,5,5,5,2014-02-17,51.795129,-4.0755
465399,BALTIC INN & RESTAURANT,5,5,5,0,2014-07-03,51.763902,-4.210875
465400,BANCFFOSFELEN CP SCHOOL,5,0,0,0,2013-10-15,51.788061,-4.195729
465401,BANCYFELIN CP SCHOOL,5,5,0,0,2014-04-30,51.835686,-4.434088
465402,BAR BUCCI,4,10,0,10,2014-07-08,51.818441,-4.613948
465403,BARA GWALIA BAKERY,3,10,10,10,2014-09-24,52.074616,-4.161013
465404,BARGOED STORES,4,5,10,5,2013-11-21,52.006116,-4.363509
465405,Barnacles Cafe,5,0,5,0,2014-08-26,51.743494,-4.559131
465406,BARRIES PLAICE,5,5,5,5,2013-11-07,51.684654,-4.248951
465407,BARRY WALTERS & SON,5,5,5,5,2013-10-29,51.869104,-4.074766
465408,BASMATI,3,10,10,10,2014-01-09,51.792913,-4.085854
465409,BayTree b/b,5,0,0,0,2014-01-08,51.772504,-4.39017
465410,BD WILLIAMS & SON,4,5,5,10,2013-10-22,51.694712,-4.083997
465411,BEACH SHOP & TEA ROOMS,5,5,5,5,2013-09-11,51.770263,-4.387181
465412,Beachcomber Kiosk,5,5,5,5,2013-11-20,51.688488,-4.286513
465413,BEAR INN,5,5,5,5,2014-09-19,51.994186,-3.796956
465414,BECKY'S FRUIT AND VEG,4,5,10,0,2014-02-21,51.938875,-4.300625
465415,BELLE VUE INN,5,5,0,0,2014-02-27,52.0468101501,-4.18446350098
465416,BENEFITS AGENCY CANTEEN,5,0,5,0,2013-09-18,51.682524,-4.162726
465417,Best Kebabs,4,5,10,5,2014-07-30,51.7374,-4.308131
465418,Best Pizza and Kebab House,4,10,5,5,2014-03-13,51.677924,-4.162507
465419,BETHS CAFE,5,0,0,5,2014-12-04,51.857694,-4.3091
465420,Bettys Kitchen @ Skoops,5,5,5,0,2014-01-16,51.79513,-4.086116
465421,BETWS COUNTY PRIMARY SCHOOL,5,5,0,0,2012-10-15,51.787074,-3.984769
465422,Bev's Cupcakes,5,0,0,5,2014-06-23,51.781491,-4.11064
465423,Bev's Fish,4,10,5,5,2014-07-02,51.859447,-4.312327
465424,Beynon's Chippy,5,5,5,5,2014-02-05,51.713779,-4.054792
465425,BHS LIMITED,4,10,5,5,2013-10-01,51.856652,-4.307246
465426,BHS LIMITED,5,5,5,5,2013-10-08,51.676324,-4.138897
465427,BIDDULPH ARMS,2,15,5,5,2013-12-10,51.668663,-4.151682
465428,Big Bite,4,5,10,0,2013-10-08,51.687334,-4.1998
465429,BIG BITE CARMARTHEN,4,10,10,0,2014-09-22,51.856176,-4.307643
465430,BIGYN COUNTY PRIMARY SCHOOL,5,5,0,0,2014-05-14,51.8810348511,-4.21432495117
465431,BIRD IN HAND,3,10,5,10,2014-09-24,51.72182,-4.246655
465432,BIRD IN HAND,4,10,0,10,2015-01-13,51.723661,-4.058397
465433,Black and White Cafe & Lollywood Sweets,5,5,0,0,2014-07-22,51.792017,-3.989206
465434,BLACK HORSE,3,10,5,10,2014-02-04,51.715798,-4.047804
465435,BLACK HORSE INN,4,10,5,5,2012-03-20,52.0224151611,-4.35240125656
465436,BLACK LION,5,5,5,5,2013-12-12,51.819869,-4.495735
465437,BLACK LION,5,5,5,0,2014-05-08,51.9830169678,-4.06294536591
465438,BLACK LION HOTEL,3,10,10,10,2014-06-20,52.0076446533,-4.01210403442
465439,BLACK LION HOTEL,3,10,10,10,2014-10-30,52.0746154785,-4.16101312637
465440,BLACK LION INN,3,10,5,10,2014-11-19,51.827331543,-4.28673458099
465441,Black Mountain Centre,5,0,0,5,2014-06-18,51.812616,-3.864289
465442,Black Mountain Turkeys,5,0,0,0,2014-12-16,51.817694,-3.861582
465443,BLACK OX,4,10,5,0,2014-07-04,51.866097,-4.269687
465444,BLAENAU COUNTY PRIMARY SCHOOL,5,5,0,0,2014-02-18,51.8181381226,-4.00337982178
465445,BLAENOS CARE HOME,5,0,0,5,2014-11-03,51.9950332642,-3.81384253502
465446,Blas Myrddin,5,5,5,0,2014-09-05,51.856566,-4.333455
465447,Blasus Delicatessen,5,5,5,5,2013-07-05,51.856783,-4.305612
465448,Blossom Lodge Inn Ltd,5,0,5,0,2013-05-30,52.006803,-4.229126
465449,BLUE ANCHOR,4,10,5,5,2014-01-21,51.687009,-4.199182
465450,BLUE BELL INN,4,5,10,5,2014-08-08,51.993919,-3.79441
465451,BLUE BOAR INN,5,5,0,0,2015-01-08,51.857213,-4.311181
465452,BOARS HEAD HOTEL,4,10,5,0,2014-06-19,51.856262,-4.309695
465453,Boathouse Restaurant,5,5,5,0,2013-03-12,51.8810348511,-4.21432495117
465454,Bombay Spice,2,5,15,10,2014-05-14,51.820022,-4.493175
465455,BOOKER  LTD,5,0,0,0,2014-02-10,51.849373,-4.325227
465456,BOOTS CO PLC,5,0,0,0,2014-07-17,51.682735,-4.161044
465457,BRAMBLES DAY NURSERY,5,0,0,5,2014-07-02,51.685327,-4.16681
465458,Bread of Heaven Pontyates RFC,5,5,0,0,2014-02-02,51.753222,-4.217844
465459,BRIAN BUDENIS AND SONS,4,5,10,5,2013-11-27,51.684342,-4.247865
465460,BRIDGE COFFEE SHOP & CRAFTS,5,5,5,5,2014-01-30,51.939868,-3.883674
465461,BRIDGEND INN,4,10,0,0,2014-05-21,52.028592,-3.951498
465462,Bright Beginnings,5,0,0,0,2014-05-13,51.691919,-4.086863
465463,BRO MYRDDIN BOWLS,1,5,10,20,2014-01-15,51.85569,-4.31957
465464,BROADWAY MANSION HOTEL,5,5,5,5,2013-11-27,51.760306,-4.479723
465465,BROOKFIELD HOUSE,4,10,5,5,2013-10-17,51.823059,-4.492907
465466,BROWNS HOTEL,4,10,10,0,2014-12-01,51.77109,-4.462572
465467,BRUNANT ARMS,5,5,5,5,2013-09-13,52.041103363,-3.93335008621
465468,BRYN & TRALLWM SPORTS & SOCIAL CLUB,4,10,0,0,2014-02-13,51.685024,-4.117347
465469,BRYN COUNTY PRIMARY SCHOOL,5,5,0,5,2014-06-19,51.6859,-4.109662
465470,Bryn Fish Bar,5,5,5,5,2014-04-29,51.68652,-4.101647
465471,BRYN GELLI SERVICE STATION,4,10,5,5,2015-01-08,51.685024,-4.117347
465472,BRYN ILLTYD RESIDENTIAL HOME,5,5,0,0,2014-06-04,51.690579,-4.274233
465473,Bryn Siop,5,0,0,0,2015-01-08,51.795437,-3.993287
465474,Bryn Stores,3,5,10,10,2014-05-16,51.952079,-4.146237
465475,Bryn y Wawr,5,0,5,5,2012-12-11,51.884558,-3.992273
465476,BRYNAMMAN PRIMARY SCHOOL,5,5,0,5,2012-12-04,51.814235,-3.862557
465477,BRYNAMMAN PUBLIC HALL,5,0,0,0,2014-03-17,51.811423,-3.868621
465478,BRYNCOCH STORES,4,5,5,10,2013-11-26,51.68634,-4.123643
465479,BRYNDERI HONEY FARM-FP036,5,5,0,5,2014-01-13,51.914968,-4.566432
465480,BRYNDERWEN RESIDENTIAL HOME,5,5,5,5,2014-11-26,51.856148,-4.277246
465481,BRYNGWYN COMPREHENSIVE SCHOOL,5,5,5,5,2014-06-11,51.69437,-4.137578
465482,BRYNHELYG RESIDENTIAL HOME,4,10,5,5,2014-01-30,51.673379,-4.10234
465483,BRYNSARON CP SCHOOL (SCHOOL/COLLEGE),5,5,5,0,2014-04-07,52.0061149597,-4.36350870132
465484,Brynteg CP School,5,0,0,5,2014-09-25,51.680018,-4.116693
465485,Burger bar,5,5,0,0,2014-03-13,,
465486,BURGER GRILLE,5,5,5,5,2015-01-08,51.669217,-4.158231
465487,Burger King,5,0,0,0,2014-06-25,51.681874,-4.15947
465488,Burger King,5,5,5,0,2014-07-09,51.855939,-4.309185
465489,Burger Van,5,5,5,0,2014-07-30,51.876373,-3.993989
465490,Burns Farm Shop,5,0,5,5,2014-01-31,51.746618,-4.298938
465491,BURNS PET NUTRITION LTD,5,0,5,0,2014-01-31,51.741166,-4.316015
465492,BURRY PORT COUNTY PRIMARY SCHOOL,5,5,5,0,2014-01-10,51.687048,-4.248867
465493,BURRY PORT READING ROOM & CLUB,5,5,0,0,2013-12-18,51.683459,-4.248906
465494,BURRY PORT RFC,3,10,5,10,2014-09-12,51.684958,-4.243902
465495,BURRY PORT TAKE AWAY,5,5,0,0,2014-03-18,51.684342,-4.247865
465496,Busy Bugs,4,10,5,5,2013-10-21,51.736049,-4.312349
465497,BUTCHERS ARMS,5,5,5,0,2013-09-25,51.828815,-4.175405
465498,BUTCHERS ARMS,3,10,10,10,2014-08-04,51.814,-4.496019
465499,BWYD BLASUS,4,0,10,10,2013-09-18,51.681627,-4.160673
465500,Bwyd Dda,4,5,5,10,2014-10-29,51.857694,-4.3091
465501,BYNEA COUNTY PRIMARY SCHOOL,5,5,5,0,2014-09-10,51.675237,-4.104031
465502,CADWALADERS,5,5,0,0,2014-02-03,,
465503,CAEFFAIR NURSING HOME,5,5,5,5,2014-09-12,51.686495,-4.160514
465504,CAEGLAS RESIDENTIAL HOME,5,0,0,0,2014-01-20,51.871837616,-3.99261140823
465505,CAEIAGO RIDING CENTRE,5,5,0,5,2014-02-24,52.091072,-3.973362
465506,CAEMAEN RESIDENTIAL HOME,5,0,5,0,2014-05-22,51.683554,-4.16687
465507,CAE'R FFAIR NURSERY,5,0,0,0,2014-10-29,51.808556,-4.078482
465508,Cafe & Interiors @ Calon,5,5,5,5,2014-07-25,51.857324,-4.309619
465509,CAFE AT NO 4,4,10,5,5,2013-11-28,51.85638,-4.305068
465510,Cafe at Number 11,3,10,10,10,2013-06-26,52.038209,-4.467857
465511,CAFE BECA,5,5,0,0,2014-07-31,51.8969421387,-4.71053504944
465512,Cafe Beca,5,5,0,5,2014-03-05,51.720066,-4.242007
465513,Cafe Braz,3,10,10,10,2014-11-25,51.882504,-3.993548
465514,Cafe Celia,5,5,5,0,2013-07-25,51.793314,-3.988553
465515,Cafe Culture,5,5,5,5,2013-08-02,51.769165,-4.464279
465516,Cafe Jas,3,10,10,10,2013-05-28,51.793268,-4.088684
465517,Cafe SA31@County Hall,5,5,5,5,2013-11-28,51.855567,-4.305259
465518,CAFE TUDOR,4,10,5,5,2014-06-18,51.993656,-3.796337
465519,Cafe Y Llyn,5,5,5,5,2014-09-05,51.808556,-4.078482
465520,Cafe6.com,5,5,0,5,2014-12-17,,
465521,Caffe Lorenzo,5,5,5,5,2014-12-05,51.856066,-4.305953
465522,Caffe Nero,4,10,5,5,2013-06-24,51.856991,-4.308309
465523,Caffe Pausa,5,5,0,0,2013-12-11,,
465524,CAFFI BACH,5,5,5,0,2014-10-02,51.856565,-4.312121
465525,CAFFI CYNNES,5,0,5,5,2013-11-14,51.778273,-4.168333
465526,Caffi Iechyd Da,4,10,5,5,2014-06-20,51.856955,-4.305969
465527,Caffi Pentre,3,10,5,10,2013-09-11,51.820567,-4.006715
465528,CAFFI RHIANNON,4,5,10,5,2013-09-30,51.793856,-4.0707
465529,Caffi'r Gegin Fach,5,5,5,5,2013-10-08,51.850857,-4.305585
465530,CAFFI'R PENTRE,4,10,5,5,2014-06-18,51.753222,-4.217844
465531,CALSONIC SPORTS & SOCIAL CLUB,5,5,0,0,2014-05-27,51.699964,-4.142458
465532,CAMAU BACH NURSERY,5,5,5,5,2014-05-13,51.798427,-4.133868
465533,Camau Tirion,5,5,5,0,2014-04-29,51.687218,-4.148063
465534,CAMBRIAN INN,4,10,5,5,2014-10-16,51.672733,-4.165557
465535,CAPEL HENDRE POST OFFICE,5,0,0,5,2014-01-29,51.784899,-4.040378
465536,Carmarthen Businessmens Dining Club,4,5,0,10,2014-05-21,51.856632,-4.309162
465537,CARMARTHEN DAY CENTRE,5,5,5,5,2014-06-17,51.857769,-4.307114
465538,CARMARTHEN FRUIT COMPANY,5,0,0,0,2014-01-15,51.865476,-4.28039
465539,CARMARTHEN GOLF CLUB,3,10,10,10,2014-03-07,51.8810348511,-4.21432495117
465540,CARMARTHEN MIND ASSOCIATION,5,5,5,5,2012-10-02,51.858659,-4.301656
465541,Carmarthen Youth Project,4,10,5,5,2014-01-09,51.855863,-4.310313
465542,Carmarthenshire Centre For Crafts Cafe,3,5,10,10,2013-09-24,51.819869,-4.495735
465543,CARMARTHENSHIRE COLLEGE O TECHNOLOGY & ART,5,5,5,5,2013-09-16,51.8596,-4.038703
465544,CARMARTHENSHIRE COLLEGE OF TECHNOLOGY & ART,5,0,5,5,2013-06-27,51.840382,-4.303655
465545,CARMARTHENSHIRE COLLEGE OF TECHNOLOGY & ART,5,5,0,0,2014-11-13,51.840382,-4.303655
465546,CARMARTHENSHIRE SOCIAL ACTIVITY CENTRE,5,5,5,0,2014-02-10,51.843668,-4.338087
465547,CARPENTERS ARMS,3,10,10,10,2014-05-16,51.764705658,-4.47199249268
465548,Carreg Cennen Tea Rooms,5,5,0,0,2014-10-14,51.856256,-3.936508
465549,CARTREF AELYBRYN,5,0,5,5,2013-11-05,51.787288,-4.002917
465550,CARTREF ANNWYL-FAN,5,5,0,0,2014-10-07,51.785272,-3.97702
465551,CARTREF LLYS FECHAN,5,5,5,5,2013-11-07,51.798801,-4.091028
465552,CARTREF TAWELAN RESIDENTIAL HOME,5,5,5,0,2015-01-14,51.855248,-4.32646
465553,CARWAY COUNTY PRIMARY SCHOOL,5,5,0,0,2014-05-13,51.737012,-4.22997
465554,CARWAY PIZZA HOUSE,3,10,5,10,2013-11-14,51.7361831665,-4.22574329376
465555,CASTELL HOWELL,2,15,10,5,2014-01-22,51.845944,-4.309399
465556,Castell Howell - Canteen,5,0,5,0,2014-04-15,51.787767,-4.076859
465557,CASTLE HOTEL,4,5,10,5,2014-09-03,51.938088,-3.883061
465558,CASTLE HOTEL,4,5,5,10,2014-10-27,51.993352,-3.797359
465559,CASTLE INN,4,10,5,5,2014-01-21,51.694712,-4.083997
465560,CASTLE VIEW CHIP SHOP,5,5,0,0,2014-09-16,51.76957,-4.464257
465561,Cath's Snack Bar,5,5,0,5,2014-07-30,51.684474,-4.260704
465562,CAULFIELDS HOTEL,4,5,5,10,2013-06-13,51.684526,-4.245805
465563,CAWS CENARTH FP009,5,0,5,5,2013-11-19,52.017298,-4.526959
465564,CEFFYL DU,3,10,10,10,2014-06-12,51.858247,-4.312541
465565,Cefn Gwlad Meats,5,5,0,0,2014-10-13,51.778903,-4.001589
465566,CEFNEITHIN C P SCHOOL (AFTER SCHOOL CLUBS),4,10,0,5,2014-03-12,51.804475,-4.100139
465567,CEFNEITHIN C P SCHOOL (SCHOOL/COLLEGE),5,0,0,5,2014-03-19,51.804475,-4.100139
465568,CEFNEITHIN POST OFFICE,4,10,0,0,2014-02-06,51.804475,-4.100139
465569,Cegin Fach y Gwili,5,5,0,5,2014-10-31,51.88423,-3.991474
465570,Cegin Myrddin,4,10,5,5,2014-07-01,51.855676,-4.307951
465571,Cei Bach,2,15,10,10,2014-09-17,51.674535,-4.16978
465572,CELTIC ARMS,4,10,5,5,2014-09-11,51.686311,-4.159753
465573,Celtic Cafe,3,10,10,10,2014-01-22,51.681627,-4.160673
465574,CENNEN ARMS,3,10,10,10,2013-10-11,51.85223,-3.955923
465575,CENTRAL CAFE,4,5,10,5,2014-04-14,52.036899,-4.46987
465576,Cerdin Foods,5,0,5,5,2014-02-10,52.022417,-4.352401
465577,CHECK POINT FILLING STATION,5,5,5,5,2012-11-29,52.070645,-3.989256
465578,CHICK KING TAKEAWAY,4,10,10,0,2014-05-22,51.856565,-4.312121
465579,Chicken Express,5,0,0,0,2014-03-25,51.682875,-4.15836
465580,CHILDSPLAY NURSERY,5,0,0,0,2014-07-17,51.675054,-4.159651
465581,CHINA KITCHEN,4,5,10,5,2014-01-14,51.697896,-4.145399
465582,China Wok,4,10,5,5,2014-11-06,51.679549,-4.15188
465583,CHIVERS CORNER SERVICE STATION,4,10,5,5,2014-04-08,51.68603,-4.240483
465584,Chooselife Wales,5,5,0,0,2014-03-25,,
465585,Chris Rogers and Son Ltd,5,5,5,5,2014-02-17,51.856565,-4.312121
465586,CIG CALON CYMRU,3,10,10,10,2014-05-20,51.793395,-4.077465
465587,Cig Cennen,5,5,0,0,2014-10-22,51.820567,-4.006715
465588,CIGYDD TEULUOL MARTIN JONES,3,10,10,10,2014-11-06,51.792215,-3.988127
465589,Cilcoed Christian Centre,4,5,5,10,2013-11-19,51.8810348511,-4.21432495117
465590,CILYCWM COUNTY PRIMARY,5,5,5,5,2012-06-12,52.0428314209,-3.81968569756
465591,Cilymaenllwyd Care Home,5,5,5,0,2014-12-05,51.69142,-4.206139
465592,CK'S SUPERMARKET,4,10,5,5,2014-09-30,51.88423,-3.991474
465593,CK'S SUPERMARKET,3,10,10,10,2013-11-04,52.035941,-4.460675
465594,CK'S SUPERMARKET,5,5,0,0,2014-07-16,51.778273,-4.168333
465595,CK's Supermarket,4,10,5,5,2014-08-13,52.036511,-4.312286
465596,CLAIRE ROBERTS,4,10,5,5,2013-12-03,51.684958,-4.243902
465597,Claires Bake & Take,4,5,10,5,2014-12-01,52.036679,-4.469216
465598,Classic Caterers - Victoria Holmes,5,5,5,5,2013-11-08,51.876373,-3.993989
465599,Clwb Beca - After School Club,5,0,0,0,2014-10-06,51.895519,-4.710595
465600,Clwb Plant Brynaman,5,5,5,5,2012-02-01,51.813907,-3.862871
465601,CLYNSAER HOUSE,5,5,0,5,2014-01-14,52.057752,-3.714671
465602,CNWD limited / Strawberry Shortcake,5,5,0,5,2014-03-03,51.795129,-4.0755
465603,COASTAL PARK GUEST HOUSE,5,5,5,5,2014-09-16,51.677961,-4.167832
465604,COASTING PILOT,5,5,0,5,2014-06-04,51.684673,-4.247491
465605,COEDCAE COMPREHENSIVE SCHOOL,5,5,0,0,2014-05-13,51.679902,-4.144418
465606,Coffee #1,5,5,0,5,2013-11-14,51.85863,-4.30909
465607,COFFEE POT,3,10,10,10,2012-10-09,51.674794,-4.16204
465608,COGANS NEWSAGENTS,5,0,5,0,2014-06-17,51.858247,-4.312541
465609,COGANS NEWSAGENTS,4,5,10,5,2014-05-07,51.856565,-4.312121
465610,COLEG ELIDYR,5,0,5,5,2013-10-21,51.938088,-3.883061
465611,COLEG SIR GAR,5,5,5,5,2013-07-03,51.797008,-4.001898
465612,COLEG SIR GAR CCTA,5,5,0,0,2013-10-04,51.687171,-4.188122
465613,COLESHILL SOCIAL CENTRE,5,0,5,0,2014-03-17,51.683554,-4.16687
465614,COLIN J HARRIES BUTCHERS,5,5,5,0,2014-07-01,51.819894,-4.604818
465615,COLLEGE INN,4,10,0,0,2015-01-06,51.843505,-3.997776
465616,COLLIERS ARMS,5,5,0,0,2014-12-11,51.79226,-4.030734
465617,Comfort Zone,4,10,5,5,2014-05-13,51.818441,-4.613948
465618,COMMUNITY OF THE MANY NAMES OF GOD,5,5,0,0,2013-08-06,51.959424,-4.300542
465619,Con Passionata,5,5,5,5,2013-10-31,51.856066,-4.305953
465620,Contempo Catering,5,0,0,5,2014-02-18,51.818583,-4.345102
465621,Cooper the butcher,5,5,0,5,2014-07-15,51.882793,-3.994026
465622,Co-operative Group Food Ltd,5,0,5,0,2014-06-13,51.819918,-4.619534
465623,Co-operative Group Food Ltd,4,10,5,5,2014-03-13,51.85699,-4.304693
465624,Co-operative Group Food Ltd,5,5,5,0,2014-03-06,51.735098,-4.300757
465625,Co-operative Group Food Ltd,4,10,5,5,2014-01-09,52.038209,-4.467857
465626,Co-operative Group Food Ltd,4,5,10,5,2013-11-26,51.696508,-4.082632
465627,Co-operative Group Food Ltd,3,10,10,5,2013-11-27,51.684355,-4.250007
465628,Co-operative Group Food Ltd,4,10,5,5,2013-10-29,51.827862,-4.492011
465629,Co-operative Group Food Ltd,3,10,10,5,2013-11-07,51.697896,-4.145399
465630,Co-operative Group Food Ltd,4,10,5,5,2014-01-21,51.793314,-3.988553
465631,Co-operative Group Food Ltd,5,5,5,5,2014-02-06,51.796731,-4.084566
465632,Co-operative Group Food Ltd,3,10,10,10,2013-07-10,51.994747,-3.787845
465633,Co-operative Group Food Ltd,5,5,5,5,2013-09-23,51.887547,-3.989426
465634,Co-operative Group Food Ltd -  Filling Station,5,0,0,0,2014-02-11,51.796731,-4.084566
465635,COOPERS ARMS,5,5,0,0,2015-01-08,51.784719,-3.986348
465636,Coopers Arms,5,5,0,0,2014-01-10,52.035941,-4.460675
465637,COPPERWORKS INFANT SCHOOL,5,5,0,0,2013-11-06,51.675469,-4.163996
465638,CORACLE BUFFET + NEWSAGENTS,3,10,5,10,2014-05-14,51.853248,-4.306099
465639,CORACLE CHIP SHOP,4,10,5,5,2013-10-08,51.856565,-4.312121
465640,CORACLE TAVERN,4,10,5,5,2014-12-02,51.857769,-4.307114
465641,Corner Shop,4,10,0,10,2015-01-07,51.994696,-3.796539
465642,Corran Resort & Spa,5,5,0,5,2014-12-09,51.744278,-4.47644
465643,Costa Coffee Ltd,5,5,5,0,2013-10-10,51.858488,-4.30901
465644,Costa Coffee Ltd,5,5,0,0,2013-10-15,51.679916,-4.129331
465645,Costa Coffee Ltd,5,0,5,0,2014-09-03,,
465646,COTTAGE CAFE,3,10,5,10,2013-11-14,51.799628,-4.531806
465647,COTTAGE INN,3,10,10,10,2013-08-28,51.887392,-4.000144
465648,COTTAGE INN,4,5,5,10,2013-10-15,51.792017,-3.989206
465649,Country Kitchens,3,5,10,10,2013-04-23,51.84313,-4.236838
465650,COUNTY STORES,4,10,10,0,2014-10-07,51.8198432922,-4.49952030182
465651,Crab 'n' Dab,5,5,5,5,2014-06-20,51.8810348511,-4.21432495117
465652,Cranc Cycle Sport Ltd,5,0,5,0,2014-08-05,51.852429,-4.298303
465653,CRAZIE CREPES,5,0,0,5,2013-03-27,51.680301,-4.112989
465654,CRISP & FRY,5,5,5,0,2013-09-09,51.795863,-4.08586
465655,CRISP AND FRY,3,10,10,10,2014-09-19,51.792017,-3.989206
465656,Croes y Ceiliog Inn,5,5,5,5,2014-09-19,51.9665718079,-3.87541913986
465657,CROSS HANDS HOTEL,3,10,10,5,2013-11-12,51.79513,-4.086116
465658,CROSS HANDS NEWS,4,5,10,5,2014-03-10,51.79513,-4.086116
465659,CROSS HOUSE INN,5,5,5,0,2014-08-28,51.76957,-4.464257
465660,CROSS INN,3,10,5,10,2014-02-13,51.9068412781,-4.70002317429
465661,CROSSHANDS CP SCHOOL,4,10,0,0,2014-01-20,51.798801,-4.091028
465662,CROSSHANDS SERVICE STATION,5,5,5,0,2014-09-26,51.796731,-4.084566
465663,Crumbs,5,5,0,0,2013-02-18,51.857734,-4.308928
465664,CUDDLY BEARS DAY NURSERY,5,5,0,0,2013-12-19,51.703185,-4.073242
465665,Culture Cafe,5,5,5,5,2014-06-23,51.672955,-4.161793
465666,Custom Cakes By Alyson,5,0,0,0,2014-05-27,51.685315,-4.168401
465667,Cwm Aur,5,0,0,0,2013-10-18,52.070478,-4.14879
465668,CWMAMMAN DAY CENTRE,5,0,0,0,2014-05-09,51.801926,-3.902879
465669,CWMANN TAVERN,4,10,5,5,2013-11-01,52.1060600281,-4.07094335556
465670,CWMCERRIG FARM SHOP and GRILL,5,5,0,0,2014-11-10,51.806329,-4.084356
465671,CWMDU INN,4,10,5,5,2013-09-04,51.953819,-3.987252
465672,CWMDU POST OFFICE,5,0,0,5,2014-06-20,51.953819,-3.987252
465673,CWRT HENRY CP SCHOOL,5,0,0,0,2014-06-24,51.88763,-4.100512
465674,Cwtch Coffee Shop,5,5,0,0,2014-03-19,51.792677,-3.9869
465675,Cwtsh Bach,5,5,0,5,2014-07-09,51.855676,-4.307951
465676,Cwtsh Chwarae,5,0,5,5,2014-06-26,51.780451,-4.042279
465677,CYLCH MEITHRIN FFAIRFACH,5,0,0,0,2014-02-18,51.8753204346,-3.99195194244
465678,CYLCH MEITHRIN TI A FI,5,5,0,5,2014-11-06,51.819373,-4.612072
465679,CYMRU BALTI,3,10,10,10,2014-01-09,51.786165,-4.118761
465680,CYNYLL FARM,5,0,0,5,2014-10-27,51.95447,-3.867361
465681,D E RICHARDS AND SON,5,0,0,0,2014-01-21,51.857694,-4.3091
465682,D.J.W  GRIFFITHS Ltd,5,0,0,0,2015-01-08,51.798102,-3.994666
465683,Dafen Chippy,3,10,10,10,2013-09-16,51.68933,-4.129383
465684,DAFEN CP SCHOOL,5,5,5,0,2013-11-11,51.690399,-4.137854
465685,DAFEN SERVICE STATION,4,5,5,10,2013-12-16,51.692421,-4.125057
465686,DAFEN STORES,5,0,0,0,2014-07-17,51.68933,-4.129383
465687,DAIRIES SPORTS & SOCIAL CLUB LTD,4,10,5,5,2013-12-06,51.858247,-4.312541
465688,Dale`s Supermarket,5,5,5,5,2014-03-10,51.793268,-4.088684
465689,Daniel's Deli Products,4,0,5,10,2014-03-18,51.690722,-4.16782
465690,DANYBANC FARM SHOP,4,10,5,5,2013-10-04,51.831472,-4.411203
465691,DAWN PAC WEST (Midshire Catering),5,0,5,0,2014-05-02,51.791029,-4.079517
465692,Debenhams,5,0,0,0,2013-11-04,51.85863,-4.30909
465693,Dechrau Disglair,5,0,0,0,2014-07-25,51.827717,-4.492932
465694,DEFRA,5,5,5,5,2014-05-16,51.854985,-4.317907
465695,DENHAM STORES,2,15,10,10,2014-09-04,51.686628,-4.180052
465696,DERLLYS COURT GOLF CLUB,5,5,5,0,2014-11-13,51.849415,-4.379753
465697,DERLWYN ARMS,4,10,5,5,2014-05-19,51.817694,-3.861583
465698,DERWYDD GARAGE LTD,5,5,5,0,2014-03-11,51.917113,-4.361418
465699,DEWI JAMES & CO(BUTCHERS),5,5,5,0,2014-03-11,52.036953,-4.469027
465700,DEWI ROBERTS BUTCHERS,5,0,0,5,2014-08-13,51.876373,-3.993989
465701,DEWI SANT PLAY CENTRE,4,10,5,5,2013-12-02,51.675469,-4.163996
465702,Dhaka,4,5,10,5,2014-01-15,51.860034,-4.299867
465703,Dhami's Fish Bar,5,5,0,0,2014-02-04,51.678502,-4.162361
465704,Dharka 2 Bombay @ BUTCHERS ARMS,3,10,10,5,2014-01-09,51.693987,-4.289048
465705,Diablo's,4,5,5,10,2014-09-01,51.855753,-4.306764
465706,Diablo's on the quay,4,5,0,10,2014-05-16,51.854841,-4.30785
465707,Dillwyn Street Newsagents,4,10,5,5,2014-01-13,51.675327,-4.157032
465708,DIMPATH HOTEL,1,15,15,20,2014-01-28,51.691927,-4.156085
465709,DINEFWR INDOOR BOWLS CENTRE,5,5,5,5,2013-09-18,51.792354,-3.99534
465710,DIPLOMAT HOTEL,4,10,5,5,2013-08-29,51.695484,-4.151392
465711,Discount UK,5,0,0,0,2014-01-22,51.682735,-4.161044
465712,dolau hirion,5,0,0,5,2014-09-10,,
465713,Dolaucothi Arms,4,5,5,10,2013-08-02,52.046859,-3.960476
465714,DOLAUCOTHI GOLDMINES (NATIONAL TRUST),5,5,5,5,2013-09-25,52.045139,-3.951403
465715,DOLYFELIN HOMES,5,5,0,0,2014-10-30,51.820022,-4.493175
465716,Dominoâs Pizza,5,5,5,0,2014-10-01,51.84531,-4.310557
465717,DOMINO'S PIZZA,4,10,0,5,2013-11-18,51.68455,-4.158208
465718,Donna's Diner,4,10,5,5,2014-11-12,51.870436,-4.232804
465719,Dragon Wagon,5,5,5,5,2013-11-25,,
465720,Dragon's Kitchen Ltd,5,5,5,5,2013-03-05,51.673534,-4.140039
465721,DREFACH CP SCHOOL,5,5,5,5,2013-01-30,51.8020858765,-4.12903690338
465722,DREFACH STORES AND POST OFFICE,4,10,0,0,2014-03-12,51.798427,-4.133868
465723,DROVERS ARMS,4,10,0,10,2013-12-09,52.098584,-3.986542
465724,DROVERS ARMS HOTEL,4,5,5,10,2014-11-20,51.856311,-4.311774
465725,DROVERS Bed & Breakfast,5,5,5,5,2012-10-09,51.994186,-3.796956
465726,Drovers Diner,4,10,5,5,2014-10-17,51.993656,-3.796337
465727,Dryslwyn Post Office and Petrol Station,5,0,0,0,2014-01-03,51.880448,-4.098826
465728,DUNBIA,5,0,5,0,2014-11-21,52.079845,-4.146496
465729,DW SPORTS,5,0,5,5,2014-12-18,51.676324,-4.138897
465730,Dwbi's,4,10,5,0,2014-03-13,51.795365,-4.08807
465731,Dwylo Bach Ltd,4,0,5,10,2014-01-27,51.994904,-3.794071
465732,DYFED POWYS POLICE,5,0,0,0,2014-01-08,51.8810348511,-4.21432495117
465733,DYLAN THOMAS BOATHOUSE,4,10,5,5,2013-09-09,51.77187,-4.457497
465734,EAGLE INN,5,5,0,5,2014-01-24,52.034725,-4.251773
465735,Eastern Eye,1,5,5,20,2013-11-20,51.681937,-4.147697
465736,Eatzen Restaurant,3,10,10,10,2013-01-09,51.753222,-4.217844
465737,Eglwyscummin Community Centre,5,0,0,0,2014-06-10,51.774875,-4.602353
465738,EJ's Cafe Bar,5,5,5,5,2014-07-24,51.68295,-4.163542
465739,Elaichi,3,10,10,5,2014-05-01,51.819769,-4.496629
465740,ELGAN JONES & SON,5,5,5,0,2014-09-10,51.684355,-4.250007
465741,ELIM PENTECOSTAL CHURCH,5,0,5,0,2013-12-10,51.679935,-4.154893
465742,Elizabeth Bennett Wholefoods,5,0,0,0,2013-12-04,51.681627,-4.160673
465743,Ella Hammel,5,0,0,5,2014-02-05,51.718782,-4.289895
465744,Emma Welsh Produce,4,5,10,5,2013-08-01,51.857694,-4.3091
465745,ERIC DAVIES & SON,5,5,0,5,2014-02-19,51.857734,-4.308928
465746,ERWHIR RESIDENTIAL HOME,5,5,5,5,2013-09-13,51.861971,-4.303815
465747,EYNONS OF ST CLEARS LIMITED,5,5,0,5,2014-02-06,51.820022,-4.493175
465748,FALCON HOTEL,5,5,5,0,2013-10-10,51.856311,-4.311774
465749,Family Kebab House,3,10,10,10,2013-10-02,51.805173,-3.924947
465750,FARHIN'S,3,10,10,5,2014-01-29,51.858659,-4.301656
465751,Farmers Arms,3,5,10,10,2014-09-04,51.7867660522,-4.41212368011
465752,FARMERS ARMS,4,5,5,10,2013-03-11,51.8021583557,-4.24166965485
465753,FARMERS ARMS,5,5,5,5,2012-02-20,51.694712,-4.083997
465754,FARMERS ARMS,4,10,0,0,2014-09-04,51.79945,-3.947167
465755,FARMFOODS LIMITED,5,0,0,0,2014-03-12,51.793395,-4.077465
465756,Farmfoods Ltd,5,0,5,5,2013-01-24,51.845944,-4.309399
465757,FERRY CABIN,5,5,5,0,2014-07-29,51.768082,-4.370064
465758,FERRYSIDE CP SCHOOL,5,5,0,0,2013-02-20,51.76873,-4.368272
465759,FERRYSIDE VILLAGE STORES,3,10,10,10,2013-12-10,51.767022,-4.368212
465760,FFAIRFACH  STORES,5,0,0,5,2014-09-02,51.876373,-3.993989
465761,FFAIRFACH COUNTY PRIMARY,5,0,0,0,2014-09-29,51.8753204346,-3.99195194244
465762,FFOREST POST OFFICE,4,5,10,5,2013-10-14,51.722017,-4.055252
465763,FFOS LAS RACECOURSE,5,5,5,5,2013-10-29,51.725705,-4.243357
465764,Ffwrnes Theatre,5,0,5,5,2013-03-28,51.682875,-4.15836
465765,FFYNNON RHOSFA FARM B&B,5,5,0,5,2014-02-19,51.752109,-4.09978
465766,FFYNNONWEN COMMUNITY HALL,5,5,0,0,2014-02-12,51.870032,-4.679221
465767,FISHER ARMS,4,10,5,5,2013-09-20,51.819416,-4.608142
465768,FISHERMANS ARMS,4,10,5,5,2012-12-07,51.7374,-4.308131
465769,FIVE ROADS COUNTY PRIMARY SCHOOL,5,0,0,0,2014-09-11,51.719455,-4.205882
465770,FLANAGANS,4,10,5,5,2013-10-23,51.677634,-4.172894
465771,FLORRIES,5,0,0,0,2014-07-09,,
465772,Food 2 Go,4,5,10,5,2014-04-10,52.036511,-4.312286
465773,FOOD COURT,2,15,10,10,2013-07-25,51.861242,-4.31162
465774,Foodies,5,0,0,5,2014-12-01,52.038209,-4.467857
465775,FORGE FILLING STATION,5,0,0,0,2014-06-05,51.825082,-4.471177
465776,FORGE RESTAURANT & MOTEL,5,5,5,5,2014-04-09,51.825082,-4.471177
465777,FORMULA 1 BAR,5,0,0,0,2014-03-11,51.711858,-4.300431
465778,Fortune House,1,15,15,20,2014-11-26,51.85823,-4.301503
465779,FOUNTAIN INN,5,5,0,0,2014-08-08,51.859959,-4.485158
465780,FOUNTAIN INN / Laugharne RFC,3,10,5,10,2014-04-25,51.770846,-4.461312
465781,Four Seasons Cafe & Shop,3,10,10,10,2014-03-21,51.882259,-4.179671
465782,FOUR SEASONS GUEST HOUSE,5,5,5,5,2012-06-08,51.688398,-4.270796
465783,FOX & HOUNDS,4,5,5,10,2014-06-19,51.835686,-4.434088
465784,Frankie & Benny's,5,5,0,0,2014-02-06,51.679916,-4.129331
465785,FRANKIE & BENNY'S,5,5,5,0,2014-10-24,51.85863,-4.30909
465786,Frankie's Kitchen,5,5,5,0,2014-04-23,51.684555,-4.170144
465787,Franks,5,5,5,5,2012-05-23,51.77227,-4.39077
465788,Freckles,4,10,0,10,2014-08-13,51.681141,-4.161662
465789,Fresh Bites,5,5,0,0,2015-01-12,51.793407,-3.988383
465790,Fresh Flavours,4,0,0,10,2014-06-24,51.819007,-4.613996
465791,Fresz Sandwich Bar,3,10,10,10,2013-09-26,51.685664,-4.191276
465792,FRIENDS ARMS,3,10,5,10,2014-10-14,51.85335,-4.326478
465793,FRONHAUL RESIDENTIAL HOME,4,5,5,10,2013-07-10,51.821419,-4.493034
465794,FUNSTERS PARTY & PLAY LTD,5,5,0,5,2013-12-17,51.712263,-4.053522
465795,FURNACE POST OFFICE,4,10,5,5,2013-12-03,51.689809,-4.167067
465796,FURNACE UNITED RUGBY FOOTBALL CLUB,3,10,10,10,2014-01-17,51.690262,-4.168362
465797,G Watkins and Sons,5,5,0,0,2014-07-16,51.794593,-4.1355
465798,Gallery,5,0,0,0,2013-11-12,51.682034,-4.161054
465799,GARNANT GOLF COURSE,3,10,10,10,2013-12-12,51.800097,-3.902018
465800,GARNANT HOUSE,5,5,0,0,2014-11-04,51.805248,-3.920352
465801,Garnant Superstore (Premier),5,0,0,0,2014-01-07,51.801386,-3.901797
465802,Garrett's Fresh Seafoods,3,10,5,10,2014-12-04,51.681627,-4.160673
465803,Gatehouse CafÃ©,5,5,5,5,2013-06-26,51.738678,-4.307167
465804,Gateway Caravan Park,4,5,10,5,2013-11-20,51.664317,-4.104668
465805,GEGIN FACH,5,5,5,5,2014-02-10,51.681627,-4.160673
465806,Genesis - Llandovery Christian Centre,4,5,5,10,2012-06-07,51.994186,-3.796956
465807,GERWYNS FRUIT & VEG,3,10,10,10,2014-03-18,51.880587,-3.994728
465808,GET STUFFED PIZZA CO,4,10,5,5,2014-02-06,51.857896,-4.308007
465809,Gill's Kitchen,5,0,5,5,2013-10-24,51.712803,-4.057107
465810,Gin Haus Deli Ltd,4,5,5,10,2014-09-02,51.88269,-3.993716
465811,GINGER INDIAN RESTAURANT,3,10,10,10,2013-10-01,51.85699,-4.304693
465812,GLAN Y MOR COMPREHENSIVE,5,5,0,0,2013-11-25,51.6853218079,-4.25633335114
465813,GLANAMMAN SERVICE STATION,4,5,10,5,2014-04-16,51.805248,-3.920352
465814,Glandycross fish and chips,5,5,5,0,2014-07-03,51.906842,-4.700023
465815,GLANMARLAIS FARM B&B,4,5,5,10,2014-02-20,51.979495,-3.917663
465816,GLANMARLAIS RESIDENTIAL HOME,4,10,0,0,2014-10-28,51.8810348511,-4.21432495117
465817,GLANMORFA CARE HOME,5,5,5,0,2014-11-05,51.734369,-4.313654
465818,GLASFRYN BED AND BREAKFAST,5,0,0,0,2014-06-27,52.071571,-4.158356
465819,GLASFRYN GUEST HOUSE & RESTAURANT,5,0,0,0,2014-01-21,51.952079,-4.146237
465820,GLASFRYN RESIDENTIAL & PRIVATE NURSING HOME,2,10,15,10,2015-01-07,51.688357,-4.158519
465821,Glen Cafe,4,5,5,10,2013-11-28,51.681063,-4.164914
465822,Glen Hurst Bed and Breakfast,4,5,10,5,2013-01-22,51.800096,-3.902018
465823,GLENHOME NURSERY,5,0,0,0,2014-10-15,51.860545,-4.303117
465824,GLYN ABBEY GOLF CLUB,4,10,0,5,2014-08-21,51.73775,-4.238943
465825,GLYN NEST RESIDENTIAL HOME,5,0,0,0,2015-01-09,52.03556,-4.468148
465826,GLYNCOED RESIDENTIAL CARE HOME,5,0,0,0,2014-01-22,51.896241,-4.094664
465827,GLYNHIR GOLF CLUB & SHOP,5,5,0,0,2014-08-05,51.826889,-3.968902
465828,GLYNHIR MANSION,4,10,5,5,2013-09-25,51.818001,-3.97558
465829,GLYNTAF HOUSE,5,5,5,5,2014-04-24,51.898642,-4.651719
465830,GOLDEN DRAGON,5,5,5,5,2014-07-09,51.736874,-4.305135
465831,GOLDEN DRAGON RESTAURANT,4,10,5,0,2014-02-27,51.680519,-4.160765
465832,GOLDEN GROVE INN,4,10,0,0,2014-11-24,51.820567,-4.006715
465833,GOLDEN LION HOTEL,5,5,5,5,2012-04-24,51.856311,-4.311774
465834,Golden River,4,10,5,5,2014-02-13,51.694712,-4.083997
465835,Golden Star,3,10,5,10,2014-11-11,51.680519,-4.160765
465836,Good and Proper Brownies,5,5,0,0,2014-10-31,,
465837,Good Choice Cuisine,5,0,5,5,2014-07-14,51.778273,-4.168333
465838,Goos Garden,5,0,0,0,2014-08-04,51.936303,-3.934892
465839,GOOSE AND CUCKOO,3,10,10,10,2013-08-30,51.938324,-3.882955
465840,GORDON HUGHES BUTCHERS,5,5,5,0,2014-12-03,51.818378,-4.613582
465841,GORSLAS CP SCHOOL,5,5,0,0,2014-12-02,51.802889,-4.074987
465842,GORSLAS SERVICE STATION,4,5,5,10,2014-04-30,51.808839,-4.070095
465843,GOWER VIEW FOODS LIMITED-FP046,5,0,0,0,2014-10-22,51.791029,-4.079517
465844,GRAVELLS PETROL STATION,5,5,5,5,2013-11-27,51.733166,-4.306235
465845,GREAT MOUNTAIN WORKINGMENS CLUB,4,10,0,0,2014-01-31,51.787136,-4.117255
465846,GREAT WALL CHINESE TAKEAWAY,4,5,10,5,2013-11-21,51.883232,-3.994656
465847,GREAT WESTERN HOTEL,4,10,5,5,2013-09-24,51.796443,-3.994955
465848,GREENFIELD INN,5,5,5,5,2013-08-01,51.679549,-4.1661
465849,GREGGS,3,10,10,5,2013-07-09,51.792215,-3.988127
465850,GREGGS PLC,5,5,5,5,2013-08-09,51.857128,-4.3082
465851,GREGGS PLC,5,0,0,0,2014-07-02,51.681874,-4.15947
465852,GREYHOUND INN,5,5,5,5,2013-12-19,51.696182,-4.147663
465853,GS AND SA RICHARDS,5,5,5,5,2014-02-20,51.870807,-4.253393
465854,GWALIA GARAGE & POST OFFICE,5,5,5,5,2013-10-10,51.912326,-4.272091
465855,Gwalia Mynydd Mawr Nursing Home,5,0,0,0,2014-09-03,51.771411,-4.109112
465856,GWENDRAETH ARMS,3,10,10,10,2013-06-05,51.792075,-4.12958
465857,GWENDRAETH FISH BAR,5,5,5,5,2014-01-30,51.752059,-4.210847
465858,GWENDRAETH SPORTS AND SOCIAL CLUB,4,10,0,5,2014-02-12,51.761758,-4.208205
465859,GWENDRAETH VALLEY FINE FOODS,5,0,5,0,2014-08-13,51.795365,-4.08807
465860,Gwesty'r Emlyn Hotel,5,0,0,5,2014-09-30,52.039703,-4.467385
465861,GWYNFRYN C.P. SCHOOL,5,0,0,0,2013-11-20,51.765999,-4.225543
465862,GWYNFRYN RESIDENTIAL HOME,5,0,5,0,2014-06-30,51.686162,-4.146335
465863,Hafan Catering - Mobile Caterer,3,5,10,10,2014-05-02,51.88666,-3.9876
465864,Hafan Croeso Residential Dementia Care Home,4,5,5,10,2014-02-12,51.807233,-3.932534
465865,Hafan Gobaith Day Centre,4,10,0,0,2014-02-12,51.796405,-3.995055
465866,HAFAN Y COED NURSING CARE HOME,5,5,5,0,2014-01-08,51.681006,-4.138612
465867,HAFOD WENOG CP SCHOOL,5,5,5,5,2014-11-14,51.8810348511,-4.21432495117
465868,Hagan's Fish and Chip,5,5,5,5,2014-01-29,51.851664,-4.304319
465869,HALF MOON HOTEL,4,5,10,5,2014-12-04,52.036661,-4.317455
465870,HALF MOON INN,3,5,10,10,2014-02-13,51.80263,-3.911045
465871,HALF MOON INN,5,5,0,0,2014-02-04,51.681126,-4.155658
465872,HALFWAY HOTEL,4,5,0,10,2014-07-22,51.683166,-4.136037
465873,HALFWAY INN,5,5,5,5,2013-09-03,51.87148,-4.130455
465874,HALFWAY JMI SCHOOL,5,0,5,5,2014-01-10,51.685262,-4.136961
465875,HALLIWELL CENTRE & Snack Bar& CWAD,4,10,5,5,2014-09-11,51.858378,-4.328712
465876,HAMILTONS WINE BAR & BRASSERIE,3,10,10,10,2014-01-14,51.85638,-4.305068
465877,Happy Corner,3,10,10,10,2013-11-13,51.809452,-3.868728
465878,HAPUS DYRFA,5,5,0,5,2014-09-03,51.683546,-4.243456
465879,Harri Morgan's Fish Bar Ltd,5,0,5,5,2014-06-17,51.788823,-4.11948
465880,HARRISON'S,4,5,10,0,2014-05-02,52.038209,-4.467857
465881,HARRY WATKINS,5,5,5,0,2014-05-07,51.699184,-4.145287
465882,Harvester,5,5,5,0,2015-01-06,51.85863,-4.30909
465883,HAVEN RESIDENTIAL HOME,5,5,5,5,2014-07-02,51.676025,-4.167002
465884,HEAVENLY CHOCOLATES AND ICE CREAMS,5,5,5,5,2014-09-11,51.883035,-3.992497
465885,HENDY COUNTY PRIMARY SCHOOL,3,10,5,10,2014-04-29,51.714379,-4.050259
465886,Henry's Snack Bar,5,0,0,5,2013-10-16,51.864156,-4.331175
465887,HENWOOD STORES,4,5,5,10,2013-11-19,51.862849,-4.312647
465888,HEOL GOFFA SCHOOL,5,5,5,5,2014-01-28,51.69153,-4.154214
465889,HIGH NOON Filling Station and Stores,5,5,5,5,2013-06-19,51.870436,-4.232804
465890,High Noon Stores,4,10,5,0,2013-03-13,51.84925,-4.296718
465891,Hoffi Coffi,5,0,0,0,2014-06-26,52.086981,-4.137292
465892,HOG ROAST,4,5,5,10,2014-08-29,51.94119,-3.943351
465893,HOLLAND AND BARRETT RETAIL LTD,5,5,5,0,2013-12-04,51.68275,-4.16022
465894,HOLLYBROOK INN,5,5,5,5,2013-10-02,51.900028,-4.298261
465895,Home Bargains,5,0,5,5,2012-05-02,51.850368,-4.308028
465896,Home Bargains,4,5,5,10,2012-09-24,51.791209,-3.986473
465897,Home Bargains,5,0,0,0,2013-10-17,51.793395,-4.077465
465898,HONG KONG KITCHEN,5,5,5,5,2014-02-13,51.674793,-4.160651
465899,HOPE & ANCHOR,4,10,5,5,2012-05-22,51.684654,-4.248951
465900,HOTEL MIRAMAR,4,10,10,0,2014-11-28,51.674793,-4.160651
465901,HUGH EVANS BUTCHERS,5,5,0,5,2013-11-20,51.883035,-3.992497
465902,HUGH EVANS BUTCHERS,4,5,10,5,2014-07-28,51.85699,-4.304693
465903,HUGHES FRESH FRUIT STALLS,5,5,5,5,2013-12-13,51.931756,-4.227091
465904,HUMBLE PIE CAFE,5,5,5,5,2014-01-14,51.856632,-4.309162
465905,Hunger Hut,5,5,0,0,2015-01-13,51.822721,-4.493164
465906,I Smooth,5,5,5,0,2014-06-23,51.79339,-3.989397
465907,Iceland Frozen Foods Plc,5,0,0,0,2014-01-09,,
465908,ICELAND FROZEN FOODS PLC,5,5,5,5,2012-05-17,51.682875,-4.15836
465909,Iechyd Da,4,10,5,5,2013-11-12,51.993302,-3.798289
465910,INA Bearings,5,5,5,5,2014-07-30,51.665135,-4.082537
465911,INCLINE INN,3,10,10,5,2011-08-09,51.761758,-4.208205
465912,Indian Lounge,4,5,5,10,2013-07-10,51.993919,-3.79441
465913,IVY BUSH,5,5,0,0,2014-07-30,52.036899,-4.46987
465914,IVY BUSH INN,5,5,0,0,2014-03-05,51.820859,-4.005901
465915,IVY BUSH ROYAL HOTEL,3,10,10,10,2014-10-13,51.85663,-4.303745
465916,J&J WILSON STORES,4,10,5,5,2014-07-31,51.737843,-4.354677
465917,JACKIES CAFE,5,0,0,0,2014-07-31,51.784899,-4.040378
465918,JACKSONS WINE BAR,3,10,10,10,2014-03-19,51.856955,-4.305969
465919,Jac's Fruit & Veg,5,0,0,0,2014-12-02,52.075086,-4.154965
465920,JAMES CATERING,3,5,10,10,2013-09-02,51.876373,-3.993989
465921,Jamils,4,5,10,5,2014-03-12,51.684894,-4.161045
465922,JELF'S,5,0,0,0,2014-02-21,51.792017,-3.989206
465923,Jellytotz Nursery,5,5,5,5,2013-11-18,51.671235,-4.147263
465924,Jenkins Bakery,5,5,5,5,2013-11-11,51.682034,-4.161054
465925,Jenkins Bakery,5,5,5,5,2013-11-05,51.820567,-4.006715
465926,Jenkins Bakery,5,0,0,5,2013-10-16,51.68061,-4.12177
465927,Jenkins Bakery,5,5,5,5,2013-08-15,51.856537,-4.308504
465928,Jenkins Bakery,5,5,5,5,2012-11-13,51.684894,-4.161045
465929,Jenkins Bakery,5,5,5,5,2013-02-26,51.684355,-4.250007
465930,Jenkins Bakery,5,5,5,5,2013-05-29,51.79513,-4.086116
465931,Jenkins Bakery,5,5,5,5,2013-06-06,51.672053,-4.158077
465932,Jenkins Bakery,5,5,5,0,2013-03-28,,
465933,Jenkins Bakery,5,5,5,5,2013-05-27,51.793407,-3.988383
465934,Jenkins Bakery,5,5,5,5,2013-02-27,51.681995,-4.160734
465935,Jenkins Bakery,5,5,5,5,2012-06-27,51.681627,-4.160673
465936,Jenkins Bakery,5,5,0,0,2013-11-07,51.673534,-4.140039
465937,Jenkins Bakery,5,5,5,5,2013-09-12,51.792215,-3.988127
465938,Jim and Sally's,5,0,0,0,2014-09-05,51.920403,-4.36687
465939,JOHN & IONA DAVIES,5,0,0,0,2014-02-19,51.857609,-4.308893
465940,JOHNS FISH & CHIP SHOP,5,5,5,5,2013-05-30,51.672303,-4.158652
465941,JOHNSTOWN CP SCHOOL (SCHOOL/COLLEGE),5,5,0,0,2014-07-03,51.851466,-4.328094
465942,JOINERS ARMS,3,10,5,10,2014-02-18,51.678043,-4.116543
465943,JOINERS ARMS,4,10,5,5,2013-11-22,51.748745,-4.34151
465944,Jollies,5,5,5,5,2013-10-08,51.705869,-4.1377
465945,Jollies @ The Exchange,4,5,5,10,2013-12-10,51.682613,-4.158897
465946,Joly's Cafe,4,5,10,5,2013-11-13,51.681141,-4.161662
465947,JONES & DAVIES (FRUIT) Ltd,5,5,0,5,2012-11-06,52.036661,-4.317455
465948,Jones & Llewellyn Auctioneers,3,10,10,10,2014-05-02,51.891551,-3.989269
465949,Josephs Fish Bar,3,10,10,10,2013-11-19,51.684355,-4.250007
465950,JT Catering,4,5,5,10,2013-10-10,51.912326,-4.272091
465951,Just Baps,5,0,5,5,2014-03-25,51.829727,-4.005816
465952,Just So Scrumptious,4,5,10,5,2014-08-08,51.993656,-3.796337
465953,K & J Spice House,1,10,20,20,2014-02-06,51.681141,-4.161662
465954,KARLS SNACK BAR,5,5,5,0,2014-01-10,,
465955,Keepers Cottage,5,0,5,5,2012-08-24,51.778306,-4.466647
465956,Kelly's Burger Bar,1,10,20,20,2014-12-17,51.681224,-4.161565
465957,KFC,5,5,0,0,2014-05-06,,
465958,KFC,5,5,5,0,2014-06-04,51.845944,-4.309399
465959,KIDWELLY ARMS,5,5,5,5,2013-12-04,51.749991,-4.269307
465960,KIDWELLY BED & BREAKFAST,5,5,5,5,2014-01-21,51.735671,-4.30642
465961,KIDWELLY RUGBY SOCIAL CLUB,4,10,0,5,2014-06-11,51.736133,-4.308993
465962,KING KEBAB HOUSE,1,10,20,20,2013-10-16,52.03725,-4.469029
465963,KINGS ARMS,5,5,0,0,2014-01-17,51.747647,-4.341076
465964,KINGS ARMS,4,10,0,0,2014-03-07,51.99434,-3.792126
465965,KINGS HEAD,5,5,5,5,2012-08-09,51.78442,-4.044634
465966,KINGS HEAD HOTEL,3,10,5,10,2014-05-14,51.994186,-3.796956
465967,KINGSWOOD STORES,4,5,5,10,2013-11-22,51.820428,-4.49356
465968,Kitchen Garden cafÃ©,5,0,5,0,2014-06-18,51.99387,-3.797045
465969,Krazy Kids,4,5,10,5,2014-04-30,51.845944,-4.309399
465970,K-Teas,2,15,15,10,2014-07-14,51.71604,-4.130754
465971,Kubus,3,10,5,10,2014-09-02,51.678502,-4.162361
465972,Kung Fu Chinese Takeaway,4,10,5,5,2014-10-23,51.674794,-4.16204
465973,KUNZAN TANDOORI INDIAN TAKEAWAY,5,5,5,5,2013-10-29,51.883808,-3.99195
465974,KWONG YICK,3,10,10,5,2013-07-24,51.858247,-4.312541
465975,L J BAILEY & SON,5,5,5,5,2013-10-21,51.937031,-3.882813
465976,La Patisserie,4,5,5,10,2014-06-13,51.994696,-3.796539
465977,LAKEFIELD CP SCHOOL,5,5,5,0,2014-04-10,51.676797,-4.16659
465978,Lakeland,5,0,0,0,2013-12-09,51.676324,-4.138897
465979,LAMB INN,4,5,5,10,2013-09-25,51.879524231,-4.59363269806
465980,LAMB INN,3,10,10,5,2014-10-13,51.914968,-4.566432
465981,Lammas Pizza,3,10,10,10,2014-09-11,51.856565,-4.312121
465982,Laser Station Ltd,5,0,0,0,2014-04-10,51.853248,-4.306099
465983,LAUGHARNE CP SCHOOL (CANTEEN),5,0,0,0,2014-11-20,51.8810348511,-4.21432495117
465984,LAURIANS CAFE & FISH BAR,5,5,5,5,2014-03-05,51.684342,-4.247865
465985,Le Chocolatier Belge,5,5,5,5,2014-11-04,51.894779,-4.272208
465986,LEEKES,5,0,5,5,2014-07-02,51.793395,-4.077465
465987,LEMON TREE,4,10,5,5,2014-01-16,51.68474,-4.15962
465988,Level Crossing,5,5,0,5,2014-10-24,51.995644,-3.802156
465989,LEWIS CATERING,4,0,0,10,2014-12-17,51.8857803345,-3.98686003685
465990,Lidl,5,0,0,0,2014-01-27,51.791063,-3.984451
465991,LIDL,5,0,0,0,2012-07-27,51.85823,-4.301503
465992,LIDL UK,5,5,0,0,2013-12-02,51.665247,-4.15502
465993,Lifestyle Express,5,0,5,5,2013-09-19,51.79226,-4.030734
465994,Lifestyle Express,5,5,5,5,2012-01-31,51.681705,-4.120374
465995,Lifestyle Express - Grocer's Pride,5,5,0,0,2014-11-19,51.786798,-4.009479
465996,Lifestyle Hundal,4,5,5,10,2013-01-23,51.690666,-4.138966
465997,Lighthouse Cafe,5,0,0,0,2014-03-06,51.680451,-4.251983
465998,Ling Di Long,3,5,10,10,2013-07-04,51.793314,-3.988553
465999,LISA`S CAFE AT TELPYN FARM,5,5,5,0,2014-02-20,51.851676,-4.611533
466000,Litebite,5,0,5,5,2014-10-29,52.038209,-4.467857
466001,LITTLE CHEF,5,5,5,5,2013-10-30,51.818508,-4.501391
466002,Little Learners,3,10,5,10,2014-09-08,51.681243,-4.166889
466003,Little M'zzz,4,0,10,5,2013-07-29,52.074616,-4.161013
466004,Llan Fish and Chip shop Company Ltd,4,10,5,5,2013-11-05,51.694712,-4.083997
466005,Llanarthne Village Hall,5,5,5,0,2014-07-22,51.8581199646,-4.13081073761
466006,LLANDAFF HOUSE,5,5,5,0,2014-01-20,51.697479,-4.086685
466007,LLANDDAROG CP SCHOOL,4,10,5,5,2013-11-13,51.8253631592,-4.16703891754
466008,LLANDDAROG POST OFFICE,4,5,10,5,2014-05-08,51.828815,-4.175405
466009,LLANDEILO COUNTY PRIMARY,5,0,0,0,2014-10-01,51.88759,-3.989667
466010,LLANDEILO KEBAB HOUSE,5,5,0,0,2014-10-14,51.884319,-3.994704
466011,LLANDOVERY COLLEGE,4,10,0,5,2014-01-27,51.995328,-3.800453
466012,Llandovery College Nursery School,5,5,0,5,2014-10-17,51.99521,-3.800522
466013,Llandovery Hospital,5,5,0,0,2014-05-01,51.994957,-3.79234
466014,Llandovery Kebab House,3,10,10,10,2013-08-14,51.994387,-3.795522
466015,LLANDOVERY RUGBY FOOTBALL CLUB,4,10,5,5,2014-06-13,51.991728,-3.803018
466016,LLANDYBIE COUNTY PRIMARY,5,0,0,0,2014-10-01,51.823326,-4.01048
466017,LLANDYBIE RUGBY CLUB,2,15,10,10,2014-03-29,51.814522,-4.009479
466018,Llandybie Store,4,5,5,10,2014-02-05,51.819367,-4.005864
466019,LLANEDI COUNTY PRIMARY SCHOOL,5,5,5,0,2013-11-12,51.750725,-4.095217
466020,LLANELLI CHINESE TAKE AWAY,4,5,5,10,2013-07-24,51.670953,-4.157214
466021,Llanelli Kebabs,5,5,5,5,2013-03-25,51.674482,-4.159986
466022,LLANELLI LEISURE CENTRE,4,10,5,5,2014-10-02,51.681243,-4.166889
466023,LLANELLI PACKED MEALS,5,5,5,5,2013-03-12,51.674482,-4.159986
466024,LLANELLI SERVICE STATION,4,10,5,5,2014-01-13,51.684416,-4.139959
466025,LLANELLI STATION NEWS,3,10,5,10,2014-07-15,51.674352,-4.161672
466026,LLANELLI TENNIS AND SQUASH CLUB,5,5,0,5,2014-09-04,51.68805,-4.173725
466027,Llanelly House,5,0,5,5,2013-12-16,51.682735,-4.161044
466028,LLANESCO SOCIAL CLUB,4,10,5,5,2014-01-14,51.678502,-4.162361
466029,LLANFAIR GRANGE RESIDENTIAL HOME,5,0,0,0,2014-06-02,52.000698,-3.794448
466030,Llanfynydd CP School,4,10,5,5,2013-01-23,51.928584,-4.099312
466031,LLANGADOG COUNTY PRIMARY,5,5,0,0,2014-10-22,51.9386177063,-3.87812256813
466032,LLANGAIN CP SCHOOL,5,5,0,5,2014-01-08,51.8170166016,-4.34787893295
466033,LLANGENNECH COUNTY PRIMARY SCHOOL (Juniors),5,5,0,0,2014-12-09,51.703185,-4.073242
466034,LLANGENNECH INFANTS SCHOOL,5,5,5,0,2014-12-16,51.695272,-4.080853
466035,LLANGENNECH INFANTS SCHOOL,5,0,5,0,2014-01-20,51.703185,-4.073242
466036,LLANGENNECH RUGBY SOCIAL CLUB,5,5,5,5,2014-05-23,51.696747,-4.084351
466037,Llangennech Stores (was 'Bargain Booze'),2,15,10,10,2013-10-01,51.696508,-4.082632
466038,LLANGUNNOR C P SCHOOL,5,0,5,5,2014-06-04,51.8513183594,-4.30091762543
466039,LLANGUNNOR C P SCHOOL (AFTER SCHOOL CLUBS),5,0,0,0,2014-01-21,51.8513183594,-4.30091762543
466040,LLANGYNDEYRN CP SCHOOL,5,5,5,5,2012-06-27,51.8038139343,-4.24149084091
466041,LLANGYNDEYRN CP SCHOOL (CRECHE/NURSERY),5,5,5,5,2012-09-27,51.803815,-4.241491
466042,LLANLLWNI CP SCHOOL,5,0,5,0,2013-09-16,52.0310211182,-4.20707798004
466043,LLANMILOE CP SCHOOL,5,5,0,5,2013-11-28,51.7536582947,-4.52461051941
466044,LLANMILOE POST OFFICE & STORES,2,15,10,10,2013-09-09,51.750134,-4.532455
466045,LLANNERCH HINDDA FARM,5,5,5,5,2012-02-03,52.073841095,-3.75183963776
466046,LLANNON COUNTY PRIMARY SCHOOL,5,0,0,0,2012-10-17,51.758548,-4.114801
466047,LLANPUMPSAINT CP SCHOOL,5,5,5,0,2014-06-24,51.938071,-4.301253
466048,LLANSADWRN CP SCHOOL,5,5,5,5,2012-05-29,51.9645462036,-3.90176939964
466049,Llansawel CP School,3,10,10,5,2014-10-22,52.008872,-4.009289
466050,LLANSTEPHAN CP SCHOOL,5,5,5,5,2013-10-08,51.7710914612,-4.38924026489
466051,LLANWRDA CP SCHOOL,5,5,0,0,2014-01-30,51.966571,-3.875419
466052,LLANWRDA POST OFFICE,5,5,5,5,2012-05-30,51.966571,-3.875419
466053,LLANYBYDDER ATHLETIC CLUB,4,10,0,10,2014-07-31,52.07602,-4.159461
466054,LLANYBYDDER CP SCHOOL,5,5,5,5,2013-10-18,52.0731163025,-4.14954423904
466055,LLECHYFEDACH COUNTY PRIMARY SCHOOL,5,5,0,5,2013-10-15,51.785025,-4.108109
466056,Lleidi Cafe,5,5,5,5,2015-01-08,51.698156,-4.145933
466057,Llety Cynin,5,0,5,0,2013-12-04,51.829036,-4.504471
466058,LLWYN HALL,5,5,0,0,2014-07-17,51.676253,-4.115563
466059,LLWYNDAFYDD INN,5,5,5,0,2014-10-23,52.0158843994,-4.36699676514
466060,LLWYNHENDY STORES AND POST OFFICE,3,10,10,5,2013-05-09,51.679064,-4.119716
466061,Llys Newydd Care Home - HC-One,5,0,0,0,2013-12-04,51.781403,-4.049049
466062,LLYS Y BRYN RESIDENTIAL HOME,5,0,0,0,2014-10-07,51.685024,-4.117347
466063,Local Bargain,4,5,10,5,2013-12-17,52.000728,-4.266165
466064,Lodge Cafe - Ffos Las,5,5,0,0,2014-08-12,51.725705,-4.243357
466065,LOLEK DELICATESSEN LIMITED,3,5,10,10,2014-10-30,51.682875,-4.15836
466066,Londis,3,10,10,10,2013-07-02,51.680393,-4.15639
466067,LONDIS,5,0,5,5,2014-04-15,52.075344,-4.161019
466068,LOTUS CHINESE AND FISH SHOP,5,5,5,5,2013-12-10,51.811423,-3.868621
466069,LOTUS HOUSE CHINESE TAKE AWAY,5,5,5,5,2014-01-15,51.684377,-4.168587
466070,Luncheon Club,4,10,10,0,2014-09-11,,
466071,M & K Snacks,5,5,5,5,2013-07-16,51.816592,-4.61342
466072,M AND S CATERING (A40 Llangadog),5,0,5,5,2014-02-04,51.927826,-4.030799
466073,M G's Quality Snacks,4,5,5,10,2013-11-15,51.794989,-4.075262
466074,M Phillips,4,10,5,5,2014-01-06,51.681627,-4.160673
466075,M&N Catering,5,5,5,5,2013-11-20,51.795437,-3.993287
466076,M@jka Polish Shop,5,5,0,5,2014-04-15,52.074616,-4.161013
466077,MACE SUPERMARKET(LJ BAILEY),5,5,5,5,2012-12-04,51.937031,-3.882813
466078,"Machynys Peninsula Bar, Brasserie and Spa",5,5,0,0,2014-07-16,51.659885,-4.148317
466079,MAES AR DDAFEN STORES,4,10,5,5,2013-11-25,51.679973,-4.123157
466080,MAES LLEWELYN RESIDENTIAL HOME,5,0,0,5,2014-06-04,52.039146,-4.468229
466081,MAES Y LILI VINTRY,5,5,5,5,2012-06-08,51.799342,-4.08135
466082,MAESGOLAU STORES & PO,2,15,10,10,2014-01-08,51.694262,-4.146457
466083,MAESTEILO RESDENTIAL CARE HOME,5,0,0,0,2014-01-14,51.922535,-4.05175
466084,MAESYBONT CP SCHOOL,5,5,5,5,2012-09-27,51.829877,-4.08254
466085,Maesycrugiau Manor B&B,5,0,0,0,2014-07-28,52.041861,-4.221232
466086,Maggies Snack Bar,4,5,5,10,2013-10-23,51.780451,-4.042279
466087,MAHEENS INDIAN RESTAURANT,3,10,10,10,2013-11-20,51.79339,-3.989397
466088,Manford House,4,10,5,5,2013-10-22,51.804512,-3.928502
466089,MANORDAF B&B,5,0,0,0,2013-12-12,51.810223,-4.494316
466090,MANORDEILO FILLING STATION,4,5,10,5,2013-10-16,51.9352722168,-3.91101932526
466091,MANSEL ARMS,5,0,0,0,2014-11-21,51.8122177124,-4.13758087158
466092,MANSION HOUSE,4,10,5,5,2013-08-30,51.796757,-4.365332
466093,MARKS & SPENCER PLC,5,0,5,0,2014-08-26,51.857618,-4.307949
466094,Marks & Spencer Plc,5,5,5,5,2014-09-02,51.676324,-4.138897
466095,Mark's Ice's,5,0,0,5,2014-06-25,51.6748,-4.171977
466096,Mark's Ices W312 URD,5,5,0,5,2014-06-18,51.761998,-4.20642
466097,MARROS RIDING CENTRE,4,10,0,10,2014-05-06,51.748208,-4.599602
466098,MARSH STORES,4,5,0,10,2015-01-07,51.742919,-4.558287
466099,MART CAFE,4,5,10,5,2013-08-14,51.847918,-4.353611
466100,Marti's Coffee Shop,5,5,0,0,2015-01-12,51.770567,-4.462601
466101,MASALA,3,10,10,10,2014-02-13,51.684138,-4.164496
466102,MASONS ARMS,4,10,5,5,2014-02-13,51.740836,-4.306698
466103,MASONS ARMS,4,0,5,10,2014-09-04,51.9625320435,-4.26365470886
466104,MATTHEWS BUTCHERS,5,5,0,5,2014-08-12,51.994696,-3.796539
466105,Maureens Cakes,5,0,0,0,2014-01-28,51.876284,-4.105867
466106,MAYFLOWER CHINESE TAKEAWAY,5,5,0,5,2014-07-16,51.993919,-3.79441
466107,Mayhem (formerly Kandi Bar),4,10,0,0,2014-02-18,51.682,-4.162412
466108,MAYWAH,2,15,15,10,2014-02-06,51.787709,-4.11792
466109,McColls,3,10,10,5,2014-08-07,51.72182,-4.246655
466110,MCDONALDS,5,5,0,0,2014-12-01,51.845944,-4.309399
466111,MCDONALDS RESTAURANTS LTD,5,5,0,0,2014-07-04,51.794989,-4.075262
466112,MCDONALDS RESTAURANTS LTD,5,5,0,0,2013-01-25,51.8810348511,-4.21432495117
466113,MEIDRIM SCHOOL,5,5,5,5,2013-11-05,51.8600006104,-4.47888612747
466114,MEITHRINFA CWTSH CYNNES NURSERY,5,5,5,5,2014-11-17,51.800717,-4.048649
466115,Meithrinfa Teifi Tots Nursery,5,0,0,0,2013-10-11,52.037974,-4.47181
466116,MELBOURNE HOUSE,5,5,0,5,2014-04-23,51.795365,-4.08807
466117,MERMAID FISH BAR,5,5,0,0,2014-12-04,51.81534,-4.010023
466118,Midshire Catering Services Cafe,5,5,5,5,2014-07-03,51.847223,-4.322996
466119,Migel's Fish Bar,5,0,5,0,2013-12-02,51.68634,-4.123643
466120,Milanos,5,5,5,0,2014-03-19,51.678502,-4.162361
466121,Miss Mollies,5,5,0,5,2014-11-18,51.935273,-3.911019
466122,MOD Cafe,5,0,5,5,2013-11-20,,
466123,Mojitos,5,5,0,0,2014-06-24,51.85638,-4.305068
466124,MORFA BAY OUTDOOR CENTRE,5,5,5,5,2013-07-09,51.8810348511,-4.21432495117
466125,Morfa Family Centre,4,5,5,10,2012-02-09,51.671235,-4.147263
466126,MORGANS FISH RESTAURANT,5,5,5,0,2015-01-15,51.857145,-4.311425
466127,Morrisons,5,0,0,0,2014-01-28,51.681062,-4.13306
466128,MORRISONS FILLING STATION,5,0,0,0,2014-02-11,51.844963,-4.308085
466129,MORRISONS SUPERMARKET PLC,5,5,5,5,2014-11-28,51.844963,-4.308085
466130,MOSES I & T,5,0,0,0,2014-09-16,51.811423,-3.868621
466131,Mr Chips,5,0,5,0,2014-06-10,51.673337,-4.16644
466132,Mrs Brownâs,4,5,5,10,2014-06-03,51.884246,-3.993684
466133,MURCO SERVICE STATION 177,5,5,5,5,2012-07-23,51.802291,-4.076772
466134,MURRAY NEWS,4,10,5,5,2014-04-27,51.687584,-4.276571
466135,Myddfai Community Hall & Visitors Centre,4,0,5,10,2014-06-04,51.956334,-3.788441
466136,MYNYDD MAWR FRESH MEATS,4,10,0,0,2014-06-03,51.787709,-4.11792
466137,MYNYDD MAWR HOSPITAL,5,0,0,0,2013-08-22,51.771411,-4.109112
466138,Mynyddcerrig Workingmens Club and Institute,5,5,0,5,2014-03-25,51.801397,-4.160319
466139,MYNYDDYGARREG PRIMARY SCHOOL,5,5,5,5,2013-12-12,51.748588562,-4.27723360062
466140,MYNYDDYGARREG R F C,4,5,5,10,2014-02-13,51.743812,-4.289712
466141,MYRDDIN CP SCHOOL,5,5,0,0,2014-11-18,51.861653,-4.311772
466142,MYRDDIN CP SCHOOL SPECIAL AND AUTISTIC UNIT,5,5,5,5,2012-09-12,51.861653,-4.311772
466143,Nahar Indian Restaurant,4,0,10,10,2014-11-13,52.03917,-4.467487
466144,Nando's,5,5,0,0,2014-10-16,,
466145,NANTGAREDIG CP SCHOOL,5,0,0,0,2014-05-16,51.869537,-4.189732
466146,NANTYCAWS Filling  STATION Ltd,5,5,0,5,2015-01-13,51.839573,-4.219532
466147,NATIONAL BOTANIC GARDEN OF WALES,5,5,0,0,2014-07-10,51.842032,-4.146673
466148,NATIONAL TRUST,5,5,0,0,2014-04-14,51.884104,-4.014732
466149,NATIONAL WETLANDS CENTRE,5,0,0,0,2014-01-14,51.66506,-4.125338
466150,NATIONAL WOOL MUSEUM,5,0,0,0,2014-04-28,52.025688,-4.398405
466151,NEIL'S FISH & CHIPS,5,5,5,5,2013-11-13,51.819769,-4.496629
466152,Nelly's Burger & Fish Bar,5,0,0,5,2014-08-27,51.717308,-4.238092
466153,NEPTUNE HOTEL,5,0,0,0,2014-01-15,51.683459,-4.248906
466154,NEUADD FAWR ARMS,3,10,10,5,2013-09-25,52.044874,-3.819652
466155,NEUADD WEN COUNTRY GUEST HOUSE AND PO,4,10,5,5,2014-08-29,51.9550285339,-4.36444377899
466156,NEUADD Y TUMBLE,5,5,0,0,2014-02-06,51.788823,-4.11948
466157,New China Wok,1,15,15,20,2014-09-04,52.073942,-4.158515
466158,NEW CHOPSTICKS HOUSE,2,15,10,10,2014-07-10,51.79339,-3.989397
466159,NEW CROSS HOTEL,4,10,5,5,2014-02-18,51.892792,-4.105506
466160,NEW DOCK NEWSAGENTS,3,5,10,10,2013-12-10,51.670953,-4.157214
466161,NEW DOCK STARS RFC,3,10,10,10,2013-03-15,51.678047,-4.14355
466162,NEW GOLDEN POOL,4,5,5,10,2013-03-07,51.677924,-4.162507
466163,NEW INN,5,5,5,5,2013-01-22,51.779985,-4.174954
466164,NEW INN,4,5,5,10,2014-06-06,51.752059,-4.210847
466165,NEW LODGE INN,4,10,5,5,2014-02-06,51.784539,-4.166981
466166,NEW MODEL CP SCHOOL,5,0,0,0,2014-12-02,51.859435,-4.326182
466167,NEW PONTYBEREM BALTI,2,10,15,10,2014-03-20,51.779985,-4.174954
466168,NEW SAVOY RESTAURANT,3,10,10,10,2013-12-03,51.681141,-4.161662
466169,NEW STAGS HEAD,4,10,5,5,2013-08-13,51.857128,-4.3082
466170,New Stepney,4,5,10,0,2014-12-02,,
466171,NEW THREE MARINERS,4,5,5,10,2014-05-29,51.770518,-4.460656
466172,NEWMILL GARAGE,5,0,0,0,2014-02-24,52.029348,-3.952552
466173,NGN EVENTS CATERING,5,0,0,0,2014-03-25,51.696508,-4.082632
466174,Nieuport Farm Shop,3,10,10,5,2014-02-21,51.746027,-4.5601
466175,Nigels Ice Cream,4,5,5,10,2013-11-25,51.692212,-4.141007
466176,NISA Pendine Sands,4,10,5,0,2014-09-30,51.742919,-4.558287
466177,NISA SERVICE STATION,4,5,5,10,2014-09-05,51.621538,-3.947962
466178,Nite Bite,3,10,10,10,2013-03-06,51.684526,-4.245805
466179,North Dock Ice Cream Kiosk,5,5,0,0,2014-07-08,51.677634,-4.172894
466180,NORWOOD GARDENS,5,0,0,0,2014-03-26,52.036339,-4.200691
466181,Ocean Blue Fish Bar,5,5,0,5,2014-09-02,51.779395,-4.020124
466182,Odeon UCI,5,0,5,0,2013-03-28,,
466183,OLD BRIDGE INN,5,5,0,5,2014-09-09,51.694904,-4.084353
466184,OLD CURIOSITY,5,0,5,5,2014-07-11,51.85699,-4.304693
466185,Old Printing Office Cafe,5,0,0,0,2013-11-27,51.993302,-3.798289
466186,OLD PRIORY GUEST HOUSE,4,10,5,5,2014-03-06,51.860283,-4.299081
466187,Old Rectory,5,5,5,5,2013-03-22,51.802416,-4.530541
466188,OLD ROAD AFTER SCHOOL CLUB,4,10,5,5,2014-01-28,51.686584,-4.162052
466189,OLD ROAD PRIMARY SCHOOL,5,0,0,0,2014-06-18,51.686584,-4.162052
466190,Olive Branch,5,0,0,0,2014-07-22,51.88269,-3.993716
466191,ONCE UPON A TIME,5,0,0,5,2014-02-24,51.674936,-4.164115
466192,Oriental China,3,10,10,10,2014-11-19,51.857145,-4.311425
466193,ORIENTAL GARDEN,5,5,5,5,2013-10-17,51.860034,-4.299867
466194,OWLS NEST TEA ROOM,2,15,10,10,2014-03-14,51.988362,-3.804016
466195,OYSTER FISH BAR,4,5,5,10,2013-10-29,51.680519,-4.160765
466196,Ozzy's Kebab & Pizza,5,0,5,5,2013-11-27,51.994233,-3.795603
466197,P M Hughes Butchers,5,5,0,5,2014-12-18,51.819869,-4.495735
466198,Pachamama Bistro & Coffee Shop,5,0,5,0,2014-02-07,52.03917,-4.46667
466199,PANT YR ODYN,5,5,5,5,2014-03-25,,
466200,Pantglas Hall Owners Club,3,5,10,10,2013-08-05,51.91095,-4.105861
466201,Pantry Blakeman,5,5,5,5,2014-11-06,51.855676,-4.307951
466202,PANTYDDERWEN INN,4,10,5,5,2013-02-08,51.8170166016,-4.34787893295
466203,PANTYFFYNNON SOCIAL CLUB,4,10,0,0,2014-09-03,51.781614,-3.997128
466204,PANTYRATHRO COUNTRY INN,4,10,5,5,2014-01-31,51.7967567444,-4.36533212662
466205,PARC WERN NURSING HOME,5,0,0,0,2013-10-23,51.792209,-4.008588
466206,Parc Y Scarlets,5,5,0,0,2014-05-28,51.678634,-4.128591
466207,PARC Y TYWYN COUNTY PRIMARY SCHOOL,5,5,0,0,2014-02-05,51.685322,-4.256334
466208,PARCYRHUN COUNTY PRIMARY SCHOOL,5,0,0,0,2014-11-24,51.787677,-3.995366
466209,PARK CAFE,4,10,5,5,2013-09-25,51.819367,-4.005864
466210,Park Dean,5,5,5,0,2014-05-21,51.742615,-4.558603
466211,PARK STREET GARAGE,4,0,0,10,2014-07-24,51.788988,-3.983795
466212,Parry Pentywyn,5,0,0,0,2014-10-10,51.742919,-4.558287
466213,Pausa Cafe,5,5,5,5,2014-10-23,51.844963,-4.308085
466214,Paxtons Choice,5,0,0,5,2014-07-02,51.826096,-4.159978
466215,PEMBERTON ARMS,4,0,0,10,2014-01-16,51.689896,-4.243857
466216,PEMBREY COUNTY PRIMARY SCHOOL,5,5,0,0,2014-01-15,51.685851,-4.273215
466217,PENBOYR VAP SCHOOL,5,5,0,0,2014-11-19,52.0182266235,-4.39956474304
466218,Penclawdd Seafood,5,5,5,5,2012-03-16,51.681627,-4.160673
466219,PENDINE OUTDOOR ACTIVITY CENTRE,5,5,5,5,2013-09-17,51.744706,-4.557185
466220,PENIEL HOUSE CARE HOME,5,5,5,5,2014-10-08,51.8962936401,-4.27674722672
466221,PENIEL PRIMARY SCHOOL,5,0,5,5,2014-05-16,51.8934173584,-4.27150011063
466222,PENLAN HOLIDAY VILLAGE,4,10,5,5,2014-01-22,52.0433044434,-4.53694295883
466223,Penny Black Coffee House,5,0,0,5,2014-02-05,51.684342,-4.247865
466224,PENSARNAU SERVICE STATION LTD,4,10,0,5,2014-04-28,52.038507,-4.433708
466225,PENTIP VA PRIMARY SCHOOL,5,5,5,0,2014-10-06,51.684377,-4.168587
466226,PENYBONT INN,4,5,5,10,2014-10-16,51.9091949463,-4.64627742767
466227,PENYCOED MANSION,4,5,5,10,2014-07-02,51.829036,-4.504471
466228,PENYGAER COUNTY PRIMARY SCHOOL,5,0,0,5,2013-11-12,51.688459,-4.147065
466229,PENYGAWSE VICTORIAN TEA ROOMS,4,5,10,5,2014-01-31,51.993919,-3.79441
466230,PENYGROES COUNTY PRIMARY SCHOOL,5,0,0,0,2013-07-08,51.800881,-4.049556
466231,PENYGROES NEWSAGENTS & Post Office,5,5,5,5,2013-10-23,51.803483,-4.055519
466232,Peppinos,3,10,10,10,2014-01-30,51.761758,-4.208205
466233,Peppinos Pizza,4,5,0,10,2014-11-05,51.79339,-3.989397
466234,Per Cup,4,5,0,10,2014-01-13,51.79179,-3.988297
466235,PETHAU BYCHAIN,3,10,10,5,2013-08-12,51.85699,-4.304693
466236,Pethau Da,5,5,5,5,2013-11-22,51.857174,-4.30447
466237,Pethau Poeth Catering (Hot Stuff),4,10,5,5,2013-11-13,51.806287,-3.923326
466238,PHOENIX TAVERN,3,10,5,10,2013-09-18,51.804315,-4.072644
466239,PICTON HOUSE HOTEL,5,5,5,0,2014-11-25,51.799628,-4.531806
466240,PILI PALA NURSERY,5,0,0,0,2014-09-25,51.8833,-3.995923
466241,Pixeys Plaice,1,10,10,20,2014-09-15,51.805188,-3.920712
466242,Pizza Express,5,5,0,0,2014-05-28,51.858488,-4.30901
466243,PIZZA HUT (UK) LTD,5,5,5,5,2013-04-26,51.8810348511,-4.21432495117
466244,Pizza King,3,10,10,10,2014-12-18,51.856783,-4.305612
466245,PIZZA PAN,3,10,10,10,2013-07-24,51.819367,-4.005864
466246,PLAS ALLTYFERIN B&B,5,5,5,5,2014-03-05,51.885904,-4.162002
466247,PLAS PARKE INN,5,5,5,5,2014-07-04,52.0224151611,-4.35240125656
466248,PLAS Y BRYN NURSING HOME,5,0,5,0,2014-10-08,51.781101,-4.064273
466249,PLAS Y DDERWEN NURSING HOME,5,5,0,5,2014-01-15,51.850515,-4.332953
466250,PLAS Y MOR,5,0,0,5,2013-11-05,51.683658,-4.246529
466251,PLASH INN,4,10,0,0,2014-11-19,51.8475570679,-4.67890167236
466252,PLOUGH & HARROW,5,0,0,5,2014-03-11,51.736874,-4.305135
466253,PLOUGH & HARROW,3,10,10,10,2012-09-18,51.787074,-3.984769
466254,PLOUGH & HARROW INN,4,10,5,5,2014-10-03,51.874062,-4.350371
466255,PLOUGH HOTEL,5,5,5,5,2012-11-20,51.995399,-3.79699
466256,PLOUGH HOTEL,4,10,5,5,2014-01-22,52.036899,-4.46987
466257,PLOUGH INN,5,5,5,5,2013-11-15,51.900381,-4.168846
466258,PLOUGH INN,5,5,5,5,2014-04-16,51.8926963806,-3.98437833786
466259,PLUME OF FEATHERS,3,10,10,10,2014-05-08,51.855753,-4.306764
466260,PLUSONS,2,10,15,10,2014-09-19,51.686045,-4.10611
466261,POBL BACH,5,0,0,0,2014-11-25,51.851725,-4.326815
466262,POBL BACH,5,0,5,5,2014-11-25,51.852429,-4.298303
466263,POINT CAFE,5,5,5,0,2014-04-24,51.743141,-4.560487
466264,PONT ABRAHAM PETROL STATION,5,5,5,5,2014-02-19,51.75115,-4.068702
466265,PONTHENRY COUNTY PRIMARY SCHOOL,5,0,5,0,2012-09-25,51.76108,-4.205477
466266,Ponty Chippy,4,5,10,5,2013-10-01,51.778273,-4.168333
466267,PONTYATES CP SCHOOL,5,5,0,5,2013-12-10,51.752059,-4.210847
466268,PONTYATES POST OFFICE,5,0,0,0,2014-09-25,51.75669,-4.221347
466269,PONTYBEREM C P SCHOOL,5,0,0,5,2014-12-03,51.779985,-4.174954
466270,PONTYBEREM RUGBY FOOTBALL CLUB,3,10,5,10,2014-02-20,51.778412,-4.173501
466271,PORKYS,5,0,5,0,2014-09-30,,
466272,PORTHYRHYD POST OFFICE,5,5,5,5,2014-02-14,51.822581,-4.150609
466273,PORTOBELLO INN,3,10,10,10,2013-03-21,51.684654,-4.248951
466274,Poundland,3,10,5,10,2014-03-03,51.681874,-4.15947
466275,Poundland,4,10,5,0,2014-06-17,51.855876,-4.309196
466276,Poundstretcher,5,5,5,0,2014-10-06,51.844963,-4.308085
466277,Premier,5,0,0,0,2013-10-09,51.999823,-4.265536
466278,PREMIER,5,5,0,5,2013-11-22,52.0750274658,-4.15814352036
466279,Premier,5,5,0,5,2014-03-13,51.683203,-4.16396
466280,Premier General Stores,1,10,20,20,2014-08-19,52.037127,-4.316196
466281,Premier Stores,4,5,5,10,2014-07-25,51.670426,-4.149206
466282,PREMIER STORES (B+S ENTERPRISES),5,0,0,0,2014-03-11,52.020813,-4.400214
466283,PREMIER STORES AND POST OFFICE,4,5,0,10,2014-01-10,51.922163,-4.367428
466284,Prezzo PLC,5,5,5,0,2015-01-08,51.858488,-4.30901
466285,PRINCE OF WALES,3,10,10,10,2013-10-28,51.8225822449,-4.15060949326
466286,PRINCE PHILIP HOSPITAL,5,5,0,5,2014-01-03,51.69162,-4.135987
466287,PRIORY NEWSAGENTS,4,5,5,10,2013-11-27,51.860034,-4.299867
466288,Priory Plaice,4,10,5,0,2014-02-05,51.860034,-4.299867
466289,PWLL COUNTY PRIMARY SCHOOL,5,5,0,5,2013-11-14,51.688599,-4.204555
466290,PWLL STORES,4,10,5,5,2014-06-20,51.686488,-4.19337
466291,Queen Elizabeth High School,5,5,5,5,2013-10-15,51.846252,-4.321161
466292,QUEENS HOTEL,3,10,10,10,2013-06-12,51.85638,-4.305068
466293,RAILWAY HOTEL,3,10,10,10,2014-01-17,51.86508,-4.189559
466294,RAILWAY INN,5,5,0,0,2014-08-08,51.944311,-4.308616
466295,RAILWAY TAVERN,3,10,10,5,2014-02-05,51.674482,-4.159986
466296,Ramps Skatepark,5,0,0,5,2014-01-15,51.683484,-4.178411
466297,RAVEN INN,4,10,5,5,2014-10-07,51.800992,-3.901737
466298,RAVEN TAKEAWAY,5,0,0,5,2014-01-30,51.801435,-3.905454
466299,Red Apple,3,10,10,10,2013-03-21,51.683925,-4.163357
466300,RED COW INN,5,5,5,5,2014-02-24,51.674036,-4.103788
466301,RED LION,5,5,5,0,2014-09-18,51.687736,-4.276159
466302,RED LION HOTEL,4,10,5,5,2015-01-07,51.822081,-4.008089
466303,RED LION HOTEL,5,0,5,5,2014-01-17,52.0236740112,-4.3997836113
466304,RED LION INN,4,10,5,5,2014-03-07,51.7821311951,-4.29836606979
466305,"Red Room Cafe, Bar and Shop",5,5,5,0,2013-09-03,,
466306,Reds Food To Go,5,5,5,0,2014-04-23,,
466307,RHOS CAFE,5,5,5,5,2013-11-07,51.750725,-4.095217
466308,Rhosyn Market Stall,5,5,5,0,2014-05-09,,
466309,RHYDYGORS SCHOOL,5,5,0,0,2014-01-17,51.847223,-4.322996
466310,Rhys Prichard (Llandovery CP) School,5,5,0,0,2014-10-03,51.998381,-3.796016
466311,RICHARDSONS HOME BAKE,5,5,5,5,2012-02-21,51.857694,-4.3091
466312,RICHIE'S MEATS,3,10,5,10,2014-01-08,51.698156,-4.145933
466313,RICHMOND PARK COUNTY PRIMARY SCHOOL,5,0,0,0,2014-10-23,51.860034,-4.299867
466314,ROAD CHEF,5,5,0,0,2014-02-05,51.747476,-4.065926
466315,ROAD CHEF (CONF/TOBACCO/NEWSAGENT),5,5,0,0,2014-06-24,51.75115,-4.068702
466316,ROADHOUSE RESTAURANT,5,5,5,5,2013-11-06,51.83275,-4.600537
466317,Robert Davies Health and Fitness Centre,5,0,0,0,2014-08-27,51.696156,-4.125883
466318,ROBERT THE BAKER / BLAS Y CWM,5,0,5,5,2014-06-30,51.78568,-4.124697
466319,ROD'S ICECREAM,4,5,5,10,2012-05-01,51.857896,-4.308007
466320,Rominos,4,10,0,0,2014-08-15,52.073942,-4.158515
466321,ROSE & CROWN,5,5,5,5,2013-12-02,51.856262,-4.309695
466322,ROSETTA,5,5,5,5,2013-11-11,51.883035,-3.992497
466323,ROYAL BRITISH LEGION CLUB,4,10,5,5,2014-10-17,51.684526,-4.245805
466324,ROYAL KITCHEN T/A Man Ting Ltd,5,0,5,5,2014-06-12,51.796123,-3.968068
466325,ROYAL OAK,4,10,5,5,2014-03-05,52.0785980225,-3.77460193634
466326,ROYAL OAK,5,5,0,0,2014-01-28,51.698156,-4.145933
466327,RYAN JAMES,4,5,5,10,2014-02-03,51.788292,-4.105448
466328,S.J.Siggery,5,5,5,5,2014-01-17,51.771953,-4.462546
466329,SAI WU RESTAURANT,5,5,5,5,2013-08-29,51.857213,-4.311181
466330,Salad Bowl,5,5,5,5,2013-10-17,51.856066,-4.305953
466331,SALUTATION INN,3,10,5,10,2014-02-05,51.8810348511,-4.21432495117
466332,Salvation Army,5,5,5,0,2013-10-23,51.856311,-4.311774
466333,SALVATION ARMY CITADEL,4,5,5,10,2014-04-09,51.686405,-4.151222
466334,SAMRAAT (HEOL GWILI) LTD,2,10,15,10,2013-03-21,51.681705,-4.120374
466335,Sancler Kebab House,2,5,15,10,2014-11-26,51.819869,-4.495735
466336,SANDY ROAD SERVICE STATION,3,5,10,10,2013-06-17,51.684984,-4.183865
466337,SANTA CLARA,4,10,5,0,2013-11-26,51.813053,-4.495706
466338,SARAH A HARRISON,5,5,0,0,2014-03-03,52.004509,-3.724785
466339,SARON COUNTY PRIMARY SCHOOL,5,5,0,0,2012-11-12,51.7890777588,-4.0344042778
466340,SAVANNAH'S,4,10,0,0,2014-06-18,51.856311,-4.311774
466341,SAVOY COUNTRY INN,5,5,0,0,2014-04-29,51.812907,-4.510149
466342,Schoolhouse Daycare,5,5,0,0,2014-09-15,51.867532,-4.284736
466343,SCOTCH PINE,5,0,0,0,2014-03-18,51.775656,-3.964336
466344,SEASIDE CAFE,5,5,5,0,2014-02-03,51.671655,-4.167473
466345,Seaview,3,10,10,5,2014-05-29,51.770352,-4.461705
466346,Sessile Oak,5,0,5,0,2013-10-17,,
466347,Sewards,5,0,0,5,2014-01-29,51.684654,-4.248951
466348,Sexton Arms,4,10,5,5,2013-10-04,51.966281,-3.899659
466349,Sezam,4,10,5,5,2012-12-06,51.674793,-4.160651
466350,SFS Event Catering,5,0,5,5,2012-05-22,51.6811981201,-4.30509996414
466351,SFS Event Catering,5,0,0,0,2014-07-08,51.688148,-4.236464
466352,SHAAN TANDOORI TAKEAWAY,5,5,5,5,2013-11-07,51.791209,-3.986473
466353,SHAD TANDOORI,4,10,5,5,2014-03-20,51.809452,-3.868728
466354,Shake Jacket & Roll,5,5,0,5,2014-01-15,51.856125,-4.308439
466355,SHAKESHAFT B&B,5,0,0,0,2014-02-04,51.859349,-4.20848
466356,Shaplaz,4,5,10,5,2014-03-10,51.857324,-4.309619
466357,SHEESH MAHAL,3,5,10,10,2014-01-22,51.85869,-4.307844
466358,SHEESH MAHAL TANDOORI,5,5,5,5,2014-02-27,51.680888,-4.163198
466359,SHEMLA BALTI TAKEAWAY,4,5,5,10,2014-03-27,51.684342,-4.247865
466360,SHIP AGROUND INN,1,5,10,20,2013-12-11,51.684841,-4.268231
466361,Sidan Lounge,5,5,5,0,2014-09-04,,
466362,Simla Curry and Balti House,2,10,15,10,2013-10-22,51.742919,-4.558287
466363,SIOP LARIA (GROCER),2,15,5,10,2014-08-20,51.809452,-3.868728
466364,Siop Penbontbren Stores,5,5,5,0,2014-01-22,51.9396972656,-4.30309724808
466365,Siop Y Pentre,5,0,0,0,2014-04-30,52.0296974182,-4.20871829987
466366,SIOP Y PENTRE,4,5,5,10,2014-04-22,51.805248,-3.920352
466367,Skanda Vale Hospice,5,0,0,5,2014-02-14,52.015484,-4.368535
466368,Slope Cafe,5,5,5,5,2013-11-20,51.688488,-4.286513
466369,Smartees Day Nursery,5,0,0,5,2014-01-07,51.800439,-3.895869
466370,SMITHS ARMS,2,15,5,10,2014-01-31,51.684632,-4.121639
466371,SMITHS ARMS INN,4,10,5,5,2013-08-20,51.8129119873,-4.11100625992
466372,SMITHS FRESH FISH,4,10,0,0,2014-09-02,52.036382,-4.317951
466373,SNA Shop,3,10,10,10,2013-02-20,51.684544,-4.17023
466374,SNOOKER WORLD,5,0,0,0,2014-02-27,51.792017,-3.989206
466375,SOCIAL ACTIVITY CENTRE,5,5,0,0,2013-10-30,51.792354,-3.99534
466376,Sosban Restaurant Ltd,5,5,0,5,2014-07-16,51.677634,-4.172894
466377,South Star Cafe,5,5,5,5,2014-01-16,51.681937,-4.147697
466378,SOUTHERN FRIED CHICKEN,5,5,5,5,2014-07-16,51.678502,-4.162361
466379,SOUTHMEAD GUEST HOUSE,3,10,10,10,2014-09-16,51.677961,-4.167832
466380,SPAR,5,5,5,5,2014-09-03,51.856262,-4.309695
466381,SPAR JOHNSTOWN,3,10,10,10,2014-05-08,51.847223,-4.322996
466382,SPAR STORES,4,10,5,0,2014-08-06,51.76957,-4.464257
466383,SPAR STORES,4,5,0,10,2014-06-23,51.672733,-4.165557
466384,SPAR STORES,3,10,10,5,2014-01-08,51.820567,-4.006715
466385,SPAR STORES,5,0,0,0,2014-01-29,51.740836,-4.306698
466386,SPAR STORES,5,5,5,5,2014-11-26,51.68061,-4.12177
466387,SPAR STORES,3,10,10,5,2014-11-25,51.819843,-4.49952
466388,SPAR STORES AND GARAGE T/A GLANDYCROSS LTD,4,10,5,0,2012-06-29,51.906842,-4.700023
466389,SPICE CUBE,5,5,0,0,2014-11-19,51.792214,-3.986576
466390,Spice Hut,5,0,0,0,2014-06-30,51.720066,-4.242007
466391,SPILMAN HOTEL,5,5,5,5,2014-01-09,51.857233,-4.303718
466392,Sport and Leisure Cafe,5,0,0,0,2013-11-07,51.860034,-4.299867
466393,SPORTING CHANCE,5,5,5,0,2014-07-24,51.776555,-4.606915
466394,SPRINGWELL INN,4,10,5,0,2013-10-22,51.7431411743,-4.56048679352
466395,SQUARE & COMPASS,5,5,5,5,2013-09-27,51.75669,-4.221347
466396,SQUARE & COMPASS INN,3,10,10,10,2013-09-18,51.8272285461,-3.95941090584
466397,ST CLEARS CANTONESE,4,5,10,0,2014-06-11,51.819843,-4.49952
466398,St John Lloyd Roman Catholic Comprehensive School,5,0,0,5,2012-12-13,51.687785,-4.134707
466399,St Michael's Boarding House,5,0,5,0,2014-07-03,51.70091,-4.076307
466400,ST MICHAELS SCHOOL,5,0,5,5,2013-12-04,51.6848297119,-4.10820865631
466401,St Pauls Familyn Centre,5,0,0,0,2013-12-13,51.678455,-4.15517
466402,ST. DAVIDS HOSPITAL CANTEEN,5,5,5,5,2014-02-04,51.856566,-4.333455
466403,ST. MARYS PRIMARY CATHOLIC SCHOOL,5,0,5,5,2014-02-07,51.687785,-4.134707
466404,ST. MARYS RC SCHOOL,5,5,5,5,2013-12-06,51.856427,-4.319143
466405,STAG & PHEASANT,4,10,5,5,2014-06-18,51.857233,-4.303718
466406,STAG & PHEASANT,5,5,5,5,2013-09-13,51.81902,-4.048957
466407,STAMPS,4,10,0,0,2013-12-17,51.680618,-4.163214
466408,STARBUCKS COFFEE COMPANY,5,5,5,0,2014-03-04,51.796731,-4.084566
466409,STARBUCKS COFFEE COMPANY,5,5,5,5,2013-09-24,51.676324,-4.138897
466410,STARDUST AMUSEMENTS,4,10,0,5,2014-02-05,51.79171,-3.987684
466411,STATION HOUSE HOTEL,5,5,5,0,2014-06-17,51.818441,-4.613948
466412,STEBONHEATH CP SCHOOL,5,0,0,0,2014-06-18,51.681937,-4.147697
466413,Steve Lee's Snack Bar,1,10,5,20,2014-06-03,51.692212,-4.141007
466414,Sticks Hotel,1,15,15,20,2014-05-07,51.771271,-4.392438
466415,STRADEY ARMS,4,10,0,5,2014-01-21,51.690705,-4.167747
466416,Stradey Castle Events,5,0,0,0,2014-06-11,51.690376,-4.188899
466417,STRADEY PARK HOTEL,5,5,5,5,2014-02-12,51.6917991638,-4.16539716721
466418,Streamline Leisure Ltd,5,5,5,0,2014-06-24,51.856783,-4.305612
466419,Subway,5,5,5,5,2013-11-20,51.68455,-4.158208
466420,Subway,4,10,5,5,2014-10-01,51.856523,-4.306005
466421,Subway,5,0,0,0,2014-12-11,51.792017,-3.989206
466422,Subway,5,0,5,0,2014-10-14,51.819767,-4.499255
466423,Subway,5,0,5,0,2014-10-15,51.84531,-4.310557
466424,SUBWAY LTD,5,5,0,0,2014-07-15,51.676324,-4.138897
466425,SUE PER SNAX,5,5,5,5,2013-11-29,51.735098,-4.300757
466426,SUGAR MOUSE,5,5,0,0,2013-01-04,51.857694,-4.3091
466427,SUNDERBAN,4,5,0,10,2014-10-29,51.792017,-3.989206
466428,SUNRISE CHINESE TAKE AWAY,3,10,10,10,2014-03-20,51.68061,-4.12177
466429,SUPERDRUG STORES PLC,4,0,5,10,2014-07-29,51.858315,-4.308203
466430,SUPERSAVE,3,10,5,10,2014-03-25,51.677924,-4.162507
466431,Surf Cafe,4,10,5,5,2014-10-02,51.684654,-4.248951
466432,Suttons Catering,5,0,5,5,2014-03-17,51.683147,-4.135096
466433,Sweet As Candy,5,0,0,0,2014-05-28,51.669217,-4.158231
466434,Sweet Dreams,5,0,0,0,2013-12-06,52.03725,-4.469029
466435,SWEET THINGS,5,0,0,0,2014-01-22,51.681627,-4.160673
466436,SWISS CORNER,4,10,0,5,2014-06-24,51.703694,-4.137641
466437,SWISS VALLEY COUNTY PRIMARY SCHOOL,5,0,0,0,2013-11-11,51.705869,-4.1377
466438,SWISS VALLEY OUT OF SCHOOL CLUB,5,5,5,5,2014-01-13,51.705869,-4.1377
466439,TAFARN BECA,5,5,5,5,2014-08-20,51.945930481,-4.50005292892
466440,TAFARN JEM,5,5,5,0,2013-12-05,52.074544,-4.022248
466441,TAFARN MORLAIS,4,0,0,10,2014-03-18,51.70091,-4.076307
466442,TAFARN TANERDY,5,5,5,5,2014-10-27,51.8649940491,-4.29133224487
466443,TAFARN Y COED,3,10,10,5,2012-02-02,51.676722,-4.163318
466444,TAFARN Y CWM,3,10,10,10,2013-11-25,51.8810348511,-4.21432495117
466445,TAFARN Y DERI,5,5,5,5,2013-11-12,51.744919,-4.049136
466446,TAFARN Y FELIN,3,10,10,10,2013-10-28,51.703694,-4.137641
466447,TAFARN YR AFON DUAD,3,10,5,10,2014-02-20,51.9550285339,-4.36444377899
466448,TAJ MAHAL,5,5,5,5,2013-12-05,51.7374,-4.308131
466449,TALLEY CP SCHOOL,5,5,5,0,2014-02-04,51.9731750488,-3.98119235039
466450,TALOG STORES,5,0,0,5,2014-01-30,51.901526,-4.42564
466451,TANERDY GARAGE,4,5,10,5,2014-12-04,51.864993,-4.291332
466452,TANYGRAIG INN,5,0,0,0,2014-01-30,52.074747,-4.159239
466453,TASTE OF CANTONESE TAKEWAWAY,5,5,5,5,2014-12-03,51.79513,-4.086116
466454,TASTE OF JABAJAK,5,5,0,5,2015-01-09,51.858361,-4.571587
466455,Tata Steel,2,15,0,10,2014-02-17,51.673947,-4.131149
466456,Taylors Bakery,4,5,5,10,2013-11-13,51.883808,-3.99195
466457,TEGFAN RESIDENTIAL HOME,5,0,0,0,2014-10-23,51.799183,-3.992973
466458,Teifi Side Cafe,5,5,5,5,2014-10-03,52.074616,-4.161013
466459,Telegraph Diner,4,5,5,10,2014-09-15,51.941543,-3.888531
466460,TEMPLE BAR INN,2,15,10,10,2014-12-04,51.837157,-4.048953
466461,TENBY ROAD FILLING STATION & CAFE,5,0,5,5,2014-08-06,51.849415,-4.379753
466462,TERRY GRIFFITHS SNOOKER,4,10,5,5,2014-01-14,51.681063,-4.164914
466463,Tesco Family Dining Ltd,4,10,5,5,2013-10-03,51.855545,-4.313666
466464,TESCO FILLING STATION,5,0,0,0,2014-07-31,51.790373,-3.985407
466465,Tesco Stores,5,5,0,0,2013-11-26,51.788418,-3.988265
466466,TESCO STORES LTD,4,10,5,5,2013-03-27,51.676324,-4.138897
466467,TESCO STORES LTD (SUPERMARKET),5,5,0,0,2013-09-26,51.855545,-4.313666
466468,TESCO STORES PETROL STATION,5,5,5,5,2012-04-23,51.8810348511,-4.21432495117
466469,TescoFamily Dining,5,5,5,5,2014-11-19,51.790373,-3.985407
466470,THE ANTHONY'S HOTEL,5,5,0,0,2013-12-04,51.734556,-4.314619
466471,THE APPLE TREE INN,4,10,5,5,2014-02-13,51.674482,-4.159986
466472,THE BEACH SHACK,5,0,0,0,2014-06-26,,
466473,THE BEE HIVE INN,5,0,0,0,2014-09-03,52.004414,-4.26434
466474,THE BELL,5,5,0,5,2014-04-23,51.674036,-4.103788
466475,THE BENGAL LANCER,3,5,10,10,2014-03-13,51.681158,-4.160737
466476,The Big Bite,5,5,5,5,2013-08-19,51.792913,-4.085854
466477,THE BOAT HOUSE B&B,5,0,0,0,2014-03-13,51.768234,-4.463228
466478,THE BRIDGE HOUSE RESTAURANT,3,5,10,10,2013-08-02,52.0041389465,-4.26458883286
466479,THE BRITISH RAILWAY CLUB,4,10,5,5,2014-02-27,51.677897,-4.159078
466480,THE BRYNGWYN,5,0,0,5,2014-01-07,51.687107,-4.19395
466481,THE BUCKET AND SPADE,4,10,5,5,2014-03-17,51.674535,-4.16978
466482,THE BUNCH OF GRAPES,5,5,0,0,2014-05-14,52.039703,-4.467385
466483,THE CARAVAN CLUB,5,0,0,0,2014-08-21,51.677629,-4.30101
466484,The Caraway,5,5,5,0,2014-06-05,51.845944,-4.309399
466485,The Carrot Cruncher,5,5,5,5,2012-05-01,52.03917,-4.46667
466486,THE CAWDOR,5,5,5,5,2014-11-12,51.883035,-3.992497
466487,THE CHIPPERY,3,10,10,5,2013-12-02,51.883808,-3.99195
466488,The Chippy,5,5,5,0,2013-10-15,51.742615,-4.558603
466489,The Clubhouse - Shoreline Caravan Park,5,5,0,5,2014-06-20,51.680427,-4.258376
466490,The Coffee Shop,5,5,5,5,2013-09-17,51.7431411743,-4.56048679352
466491,THE COLLIERS ARMS,5,5,5,5,2014-01-29,51.686613,-4.204936
466492,THE CONSERVATIVE CLUB,5,5,5,5,2014-01-17,51.681141,-4.161662
466493,The Contented Sole,4,10,0,0,2014-03-14,51.742919,-4.558287
466494,THE CORNER SHOP,4,10,5,5,2014-03-03,51.672053,-4.158077
466495,THE CORNISH ARMS,5,5,5,5,2013-03-21,51.684058,-4.253782
466496,The Cors Restaurant,4,10,0,5,2013-10-24,51.770565,-4.463558
466497,The Cowshed,5,5,5,0,2014-08-15,51.80448,-4.614518
466498,THE CROSS KEYS HOTEL,3,10,10,5,2013-03-27,51.805173,-3.924947
466499,The Curry Port,5,5,0,0,2014-01-09,51.684526,-4.245805
466500,The Daffodil Bakery and Village Store,4,10,0,10,2014-12-03,51.786798,-4.009479
466501,THE EMLYN ARMS,5,5,5,0,2013-09-19,51.860332489,-4.12840270996
466502,The Factory Shop,5,0,0,0,2013-12-10,51.735671,-4.30642
466503,The Ferryman Delicatessen,4,5,5,10,2014-09-10,51.76414,-4.492339
466504,The George IV Inn and Grill,5,5,5,5,2014-06-03,51.788319,-3.807304
466505,THE GREMLIN CLUB ( R A F A ),3,10,10,10,2013-09-18,51.856176,-4.307643
466506,THE GREYHOUND,3,10,5,10,2014-05-16,51.755055,-4.117014
466507,The Lamb of Rhos,4,10,5,5,2013-07-04,51.9973297119,-4.36351203918
466508,The Lodge,5,0,0,5,2014-06-18,51.806287,-3.923326
466509,The Lodge,5,5,5,5,2014-08-07,51.69784,-4.17774
466510,THE LORD RHYS,4,5,10,5,2013-09-13,51.994309,-3.801855
466511,THE MANSEL ARMS,3,10,5,10,2014-03-06,51.857392,-4.30984
466512,THE METROPOLITAN,4,10,5,5,2014-02-13,51.725298,-4.187174
466513,THE MOUNTAIN GATE HOTEL AND RESTAURANT,4,10,5,5,2013-11-19,51.7821,-4.018679
466514,THE NEW DROVERS,5,5,0,0,2014-09-02,51.68466,-4.160542
466515,THE NEW WHITE LION,5,0,5,0,2014-02-16,51.995345,-3.796376
466516,THE OLD MILL CAFE & RESTAURANT,2,10,15,10,2013-08-07,51.790711,-4.539921
466517,THE OLD RAILWAY INN,4,5,5,10,2014-06-27,52.044341,-4.226576
466518,THE OWL AND THE PUSSYCAT,5,5,5,5,2015-01-14,51.769165,-4.464279
466519,The Parrot Music Bar & Cafe,4,10,5,5,2014-07-07,51.857792,-4.304124
466520,THE PAVILLION CAFE,5,5,0,0,2014-06-11,51.6887207031,-4.20903158188
466521,The Peaceful Retreat,5,0,0,0,2014-06-06,51.843455,-4.663877
466522,The Pemberton/Beefeater,5,5,5,5,2013-10-01,51.682985,-4.13166
466523,THE PIT STOP,4,10,5,5,2014-01-23,51.742919,-4.558287
466524,The Play King,5,5,5,0,2014-09-17,51.696156,-4.125883
466525,The Playroom Day Nursery,5,5,5,5,2013-10-14,51.69162,-4.135987
466526,The Ranch,4,10,5,5,2013-10-04,51.770352,-4.461705
466527,The Red Kite Inn,5,5,0,0,2014-02-26,51.797238,-3.962142
466528,The Roast Hog Company,4,5,5,10,2014-05-09,51.810739,-4.144155
466529,THE ROLLING MILL,3,10,10,10,2014-06-24,51.677924,-4.162507
466530,The SANDPIPER,5,5,0,5,2014-03-25,51.683484,-4.178411
466531,The Sandwich Bar,4,10,5,5,2015-01-13,51.681627,-4.160673
466532,The Sandwich Shop,5,0,5,0,2013-12-12,52.038284,-4.468153
466533,The Snack Shack,4,10,5,5,2014-01-29,51.801928,-3.936369
466534,THE SOLE KITCHEN,4,10,5,5,2014-05-09,51.80263,-3.911045
466535,THE SOUTH STAR,3,10,10,10,2013-03-05,51.681937,-4.147697
466536,THE SPREAD EAGLE,5,5,5,0,2014-01-13,51.856783,-4.305612
466537,The Square,4,10,5,5,2014-03-24,51.792017,-3.989206
466538,THE STAG,4,10,5,0,2014-02-26,51.72735,-4.188615
466539,THE STORES,4,10,5,5,2013-10-08,51.772466,-4.39069
466540,The Tea Shop,4,5,10,5,2014-05-20,51.855545,-4.313666
466541,The Teapot,5,5,5,0,2013-09-10,51.681627,-4.160673
466542,THE VINE INN,4,5,5,10,2014-12-23,51.677924,-4.162507
466543,THE WAUNWYLLT INN,4,10,0,5,2014-12-01,51.729423,-4.177709
466544,THE WHITSTABLE INN,4,5,10,5,2013-12-30,51.670448,-4.156814
466545,THOMAS ARMS HOTEL,5,5,0,0,2014-01-20,51.685618,-4.161239
466546,THORNTONS,5,5,0,0,2012-07-27,51.855876,-4.309196
466547,THREE COMPASSES,5,5,5,5,2013-10-16,52.038209,-4.467857
466548,THREE HORSE SHOES,2,15,10,10,2013-07-10,52.0447463989,-4.52594089508
466549,THREE HORSE SHOES,5,5,0,5,2013-10-22,51.994233,-3.795603
466550,THREE RIVERS SUITE,3,10,10,5,2014-09-16,51.758571,-4.37258
466551,TIME COFFEE SHOP,5,5,5,5,2013-08-20,51.856783,-4.305612
466552,Time for tea,5,5,0,0,2014-02-04,51.7374,-4.308131
466553,TINOPOLIS,5,5,5,0,2013-09-25,51.68277,-4.158659
466554,Tiny Tearaways,5,5,5,0,2014-04-28,51.860034,-4.299867
466555,TIR EINON RESPITE HOME,5,5,5,0,2013-12-10,51.812055,-4.036281
466556,TIRYDAIL TAKEAWAY,5,0,5,5,2014-10-23,51.798466,-3.994958
466557,Toby Carvery,5,5,0,0,2013-07-30,51.858488,-4.30901
466558,Todays Store,5,5,0,5,2015-01-07,51.993302,-3.798289
466559,TODAYS VILLAGE STORE,5,5,0,0,2014-03-27,51.820859,-4.005901
466560,Todays Village Store,4,10,0,5,2014-01-21,51.804459,-4.07574
466561,Toll House Snack Bar,5,5,5,5,2013-10-22,51.819869,-4.495735
466562,Tony's Plaice,3,10,10,10,2014-07-30,52.0208129883,-4.40021371841
466563,TOP TASTE,2,10,15,10,2013-10-15,51.858086,-4.307915
466564,TOP TOTZ NURSERY,5,0,5,5,2014-08-21,51.674535,-4.16978
466565,TORBAY INN,4,10,5,5,2014-09-16,51.871837,-3.992611
466566,TOUTS/SPAR,5,0,0,0,2014-01-09,51.796136,-3.967808
466567,TOWY BRIDGE INN,5,5,0,0,2013-10-30,52.0817070007,-3.79731750488
466568,TOWY CASTLE RESIDENTIAL HOME,5,5,0,0,2014-12-10,51.80174,-4.312838
466569,Towy Fishmongers Ltd,5,5,5,5,2014-06-03,51.857694,-4.3091
466570,Towy Service Station,5,5,0,0,2014-01-28,51.853802,-4.303978
466571,Travelodge Hotels LTD,5,5,5,5,2012-08-09,51.750725,-4.095217
466572,Travelodge Hotels Ltd,5,0,0,0,2014-01-07,51.818508,-4.501391
466573,TREGIB COMPREHENSIVE SCHOOL,5,5,0,0,2014-05-20,51.875859,-3.986644
466574,TREGYB ARMS,5,5,0,5,2014-01-28,51.81231,-3.863754
466575,TREMLE RESIDENTIAL HOME,5,5,5,0,2014-06-25,51.9900360107,-4.26425552368
466576,TREMOILET SCHOOL,5,5,0,0,2015-01-07,51.7515335083,-4.5710606575
466577,Trenchers,5,5,5,5,2014-06-03,51.681874,-4.15947
466578,TRIMSARAN COUNTY PRIMARY SCHOOL,5,0,0,0,2013-10-23,51.717308,-4.238092
466579,TRIMSARAN RUGBY CLUB,4,10,10,0,2014-03-07,51.717308,-4.238092
466580,TRIMSARAN WORKINGSMENS CLUB,4,10,5,5,2014-02-06,51.72182,-4.246655
466581,Trinity St David Students Union,3,5,10,10,2014-10-21,51.858378,-4.328712
466582,TROSTRE PARK FILLING STATION,5,5,5,0,2014-07-31,51.676324,-4.138897
466583,TUMBLE COUNTY PRIMARY SCHOOL,5,5,0,5,2013-05-23,51.788823,-4.11948
466584,TUMBLE STORES,5,5,0,5,2014-01-07,51.787709,-4.11792
466585,Twts Tywi Nursery,5,0,5,5,2014-11-10,51.923386,-3.924228
466586,Ty Aberdafen,5,0,5,5,2014-07-14,51.665401,-4.152525
466587,TY CASTELL GUEST HOUSE,5,5,5,5,2012-01-11,51.86508,-4.189559
466588,TY CROESO DELI,4,5,5,10,2014-10-09,52.038209,-4.467857
466589,Ty Cwm,5,0,5,5,2013-09-02,51.850409,-4.337391
466590,TY MAIR NURSING HOME,5,5,0,5,2014-03-05,51.69417,-4.141649
466591,Ty Te Cenarth,5,0,5,5,2014-08-11,52.044748,-4.525941
466592,Tycroes Golf Centre,4,5,5,10,2014-10-03,51.764993,-4.053103
466593,TYCROES SUPERMARKET,5,0,0,0,2014-01-09,51.779395,-4.020124
466594,Tyisha Road Convenience Store (Premier),3,10,10,10,2013-11-11,51.675503,-4.153323
466595,TYISHA ROAD POST OFFICE,1,15,15,20,2014-03-07,51.675503,-4.153323
466596,Tywi Valley Foods ltd - Mobile,5,5,5,5,2014-11-28,51.86508,-4.189559
466597,TYWYSOGES GWENLLIAN CENTRE,5,5,0,5,2012-01-16,51.736049,-4.312349
466598,Under Milk Wood,5,5,5,0,2014-05-07,51.851725,-4.326815
466599,UPPER BRYNAMMAN POST OFFICE,4,5,10,5,2014-02-11,51.81284,-3.868288
466600,UPPER TUMBLE SOCIAL CLUB,4,10,5,5,2013-01-30,51.781491,-4.11064
466601,USA CHICKEN,3,10,10,5,2014-09-02,51.855676,-4.307951
466602,VALANS,5,0,0,0,2012-08-28,51.820567,-4.006715
466603,VALE OF NEATH,4,5,5,10,2014-12-03,51.680026,-4.155779
466604,VALLEY SERVICES LTD (PETROL STATION),5,0,0,0,2014-09-01,52.036511,-4.312286
466605,Van at the Cottage,5,0,0,0,2014-04-02,51.792017,-3.989206
466606,VENEZIA CAFE,5,0,0,0,2014-03-03,51.672853,-4.160053
466607,VICTORIA BAKERY,3,10,5,10,2014-11-12,51.770846,-4.461312
466608,VILLAGE FISH BAR,5,5,5,5,2013-11-07,51.720066,-4.242007
466609,Vinos Pizza and Kebab House,5,5,5,5,2014-01-23,51.684654,-4.248951
466610,Vintage Coffee Shop,5,0,0,5,2014-11-20,,
466611,VISTA LOUNGE/LANGOSTINOS,4,5,5,10,2013-12-11,51.680292,-4.16236
466612,Vue Cinema's,5,5,5,0,2014-03-18,51.858488,-4.30901
466613,W D Seward & Sons,5,5,5,5,2014-01-07,51.681627,-4.160673
466614,W J MARTIN & SON,4,10,5,0,2014-06-26,51.71247,-4.297668
466615,WAH YUEN,1,10,15,20,2014-03-26,51.7374,-4.308131
466616,Waterloo Cantonese and Fishbar,3,10,10,10,2014-06-26,51.800891,-4.051529
466617,Waterpark Snack Bar,3,5,10,10,2014-09-09,51.676103,-4.154928
466618,WAVERLEY HEALTH SHOP and CAFE,5,5,5,5,2013-07-09,51.856565,-4.312121
466619,Welsh Black Burgers,1,0,15,20,2014-04-30,51.681627,-4.160673
466620,Welsh Spice,5,5,5,5,2014-08-06,51.779395,-4.020124
466621,WERNDALE PRIVATE HOSPITAL,5,5,0,0,2013-10-31,51.83602,-4.437039
466622,West Coast Meats Ltd,5,5,0,5,2013-11-06,52.072322,-4.159575
466623,WEST END CAFE,2,15,10,10,2013-10-22,51.856565,-4.312121
466624,WEST END CAFE,3,10,10,10,2014-08-05,51.993302,-3.798289
466625,WEST END NEWSAGENTS,3,5,10,10,2013-10-02,51.789182,-3.990401
466626,WEST WALES GENERAL HOSPITAL,5,5,0,0,2014-08-14,51.867532,-4.284736
466627,WEST WALES MUSEUM OF CHILDHOOD,5,0,0,0,2013-11-15,52.034212,-4.382954
466628,WHEATEN SHEAF,4,10,5,5,2014-08-07,51.865844,-4.269733
466629,Wheyman Ammusements & Catering,5,0,0,0,2014-01-30,51.670632,-4.156114
466630,Whispers,4,5,10,5,2013-11-18,51.68424,-4.154548
466631,WHITE HART INN,3,10,10,10,2013-08-06,51.887392,-4.000144
466632,WHITE HART INN,5,5,0,5,2014-09-09,51.8273963928,-4.17333364487
466633,WHITE HART INN,4,10,5,5,2014-04-11,52.0447463989,-4.52594089508
466634,WHITE LION,4,10,0,0,2014-07-30,51.821634,-4.515858
466635,WHITE LION HOTEL,5,5,0,5,2014-03-12,51.735671,-4.30642
466636,WHITE LION INN,4,10,5,5,2013-03-08,51.698727,-4.143717
466637,WHITE MILL INN,4,10,10,0,2015-01-08,51.8704338074,-4.2328042984
466638,WHITEHALL HOTEL,5,0,0,5,2013-12-09,51.993919,-3.79441
466639,WHITLAND BOWLING CLUB,5,5,5,5,2014-02-21,51.819373,-4.612072
466640,WHITLAND CAFE,4,5,10,5,2013-08-28,51.81948,-4.613747
466641,WHITLAND CP SCHOOL (SCHOOL/COLLEGE),4,10,5,0,2014-11-06,51.853331,-4.312519
466642,WHITLAND CRICKET CLUB,5,5,5,5,2014-09-15,51.822885,-4.59727
466643,Whitland Kebab House,4,10,5,5,2014-11-05,51.818378,-4.613582
466644,Whitland Mart CafÃ©,3,10,5,10,2013-11-12,51.813019,-4.612706
466645,WHITLAND NEWS,5,5,0,0,2014-02-13,51.819007,-4.613996
466646,WHITLAND RUGBY CLUB,4,5,5,10,2013-10-28,51.818783,-4.615158
466647,Whitland Wholefoods,5,5,5,5,2012-11-21,51.818441,-4.613948
466648,WILKINSON,5,5,0,0,2013-12-03,51.681627,-4.160673
466649,WILKINSON,5,5,5,5,2013-03-27,51.789584,-3.9911
466650,Wilkinsons,5,0,5,0,2014-07-09,51.855863,-4.310313
466651,Wilkinsons Cafe,4,10,5,5,2015-01-08,51.855863,-4.310313
466652,WILLOW CAFE,5,5,5,0,2014-02-11,51.674482,-4.159986
466653,WILSONS CATERING,5,5,5,5,2014-05-15,51.69201,-4.089342
466654,WINDSOR CAFE,4,10,5,5,2013-11-13,51.791209,-3.986473
466655,WINDY CORNER GARAGE,4,0,10,10,2014-05-20,51.985766,-4.250131
466656,WOODLANDS FILLING STATION,4,10,5,5,2012-12-19,51.800768,-4.138664
466657,WORLD HORIZONS LTD,4,10,0,0,2014-02-11,51.6748,-4.171977
466658,Wright's Independent Food Emporium,4,10,5,0,2014-02-19,51.882259,-4.179671
466659,WRVS CAFE,5,5,5,5,2014-08-01,51.867532,-4.284736
466660,WRVS GLANGWILI HOSPITAL SHOP,5,5,5,0,2014-08-01,51.867532,-4.284736
466661,WYN'S FRUIT AND VEG,5,5,5,0,2013-12-05,51.999724,-4.266449
466662,Xcel Bowl,5,0,5,0,2015-01-14,51.848576,-4.321861
466663,Y BWA,5,0,0,0,2014-08-27,51.794718,-3.978333
466664,Y BWTHYN,5,0,0,0,2015-01-19,51.677554,-4.15329
466665,Y CAM CYNTAF,5,5,5,0,2013-05-16,51.893417,-4.2715
466666,Y Cigydd,4,10,5,0,2013-11-12,51.792017,-3.989206
466667,Y Cwtch Coffi Ltd,5,0,0,0,2014-08-28,52.038209,-4.467857
466668,Y Cwtsh,5,5,0,0,2014-02-25,51.803264,-4.053145
466669,Y DDERWEN FACH,5,0,0,0,2014-06-03,51.860034,-4.299867
466670,Y FARCHNAD FACH,5,5,5,5,2012-06-07,51.786788,-4.049671
466671,Y FARCHNAD FACH,5,0,0,0,2014-01-27,51.788673,-4.121778
466672,Y FELIN FISH BAR,4,10,5,5,2014-02-11,51.698156,-4.145933
466673,Y GAMFA WEN,5,5,0,5,2014-09-24,51.858378,-4.328712
466674,Y GARREG LWYD,5,5,5,0,2014-06-09,51.835137,-4.495418
466675,Y GARREG WEN BED AND BREAKFAST,5,0,0,0,2014-01-23,52.075697,-4.15695
466676,Y Gegin Flasus,4,10,0,5,2014-02-11,51.792017,-3.989206
466677,Y Glyndwr,4,10,5,5,2014-06-12,51.85638,-4.305068
466678,Y Pantri,5,5,5,5,2014-10-23,51.856955,-4.305969
466679,Y Pantry,4,5,5,10,2014-11-14,51.88423,-3.991474
466680,Y PLAS RESIDENTIAL HOME,4,10,0,0,2014-05-09,51.699696,-4.146295
466681,Y POLYN,4,10,5,5,2014-09-09,51.8546905518,-4.18591785431
466682,Y Popty,5,5,5,0,2014-11-13,51.819007,-4.613996
466683,Y Talardd,5,0,0,0,2014-07-03,52.0310211182,-4.20707798004
466684,Yasmin's,5,5,5,5,2014-05-01,52.03725,-4.469029
466685,Yeung Shing House,3,10,10,10,2014-03-17,51.684138,-4.164496
466686,YORK PALACE,5,5,5,5,2013-12-02,51.680888,-4.163198
466687,YR HEN DAFARN,2,15,15,10,2014-05-02,51.772466,-4.39069
466688,YR HEN DDERWEN,5,0,5,0,2013-09-19,51.85699,-4.304693
466689,YR HEN VIC,4,10,5,5,2014-09-11,51.884055,-3.995419
466690,YSGOL BECA CP School,4,10,5,0,2014-11-28,51.8955192566,-4.71059513092
466691,Ysgol Bro Banw,5,0,0,5,2013-09-18,51.796281,-3.9774
466692,Ysgol Bro Brynnach,5,0,0,0,2015-01-09,51.879523,-4.593632
466693,YSGOL CAER FELIN SCHOOL,5,0,0,0,2014-05-13,52.004139,-4.264589
466694,YSGOL CYNWYL ELFED,5,5,0,0,2014-12-01,51.923356,-4.368043
466695,YSGOL DEWI SANT,5,5,5,0,2014-12-10,51.688459,-4.147065
466696,YSGOL GRIFFITH JONES,5,5,5,5,2014-11-12,51.823644,-4.4895
466697,YSGOL GWENLLIAN,5,5,5,5,2013-11-04,51.735718,-4.311347
466698,YSGOL GYFUN BRO MYRDDIN,5,5,5,5,2015-01-09,51.8358039856,-4.31096982956
466699,YSGOL GYFUN DYFFRYN TAF,5,5,5,5,2013-10-23,51.822048,-4.616348
466700,YSGOL GYFUN EMLYN,5,5,0,0,2014-01-23,52.034527,-4.470643
466701,YSGOL GYFUN MAES YR YRFA SCHOOL,5,5,0,0,2013-05-23,51.802984,-4.090438
466702,YSGOL GYFUN PANTYCELYN,5,0,0,0,2014-11-03,51.997986,-3.798943
466703,Ysgol Gyfun Y Strade,5,5,0,0,2013-12-17,51.685085,-4.178922
466704,Ysgol Gymraeg y Ffwrnes,5,0,0,5,2014-12-04,51.7211303711,-4.18030738831
466705,YSGOL GYNRADD CARREG HIRFAEN,5,5,0,0,2013-07-01,52.103021,-4.064232
466706,Ysgol Maes y Morfa,5,0,0,5,2014-03-18,51.671235,-4.147263
466707,YSGOL TEILO SANT,5,0,0,0,2014-09-29,51.887547,-3.989426
466708,YSGOL Y BEDOL,5,5,0,0,2013-05-16,51.801763,-3.933823
466709,Ysgol y Castell,5,5,5,5,2014-10-22,51.737206,-4.302429
466710,YSGOL Y DDERWEN,5,5,0,0,2014-07-17,51.861242,-4.31162
466711,YSGOL Y DDWYLAN CP SCHOOL,5,0,0,0,2014-09-29,52.037971,-4.471927
466712,YSGOL Y FELIN,5,0,0,5,2014-07-11,51.696562,-4.142601
466713,YSGOL Y FRO,5,5,0,0,2013-12-09,51.8165512085,-4.29411077499
466714,YSGOL Y GWENDRAETH,5,5,5,0,2014-02-12,51.8810348511,-4.21432495117
466715,YUMMIES,3,10,10,10,2013-10-02,51.814351,-3.86542
466716,Yummies,4,5,5,10,2014-09-02,51.788823,-4.11948
466717,YUMMIES,4,10,5,5,2014-03-20,51.680519,-4.160765
466718,Yummies,4,5,10,5,2014-11-04,51.792677,-3.9869
466719,Zara's Indian Takeaway,3,10,10,10,2014-03-24,51.684894,-4.161045
466720,ZILANI'S INDIAN TAKEAWAY,3,10,10,10,2013-03-28,51.694712,-4.083997
466721,ZOE HOLMES,5,0,0,5,2013-12-10,51.876373,-3.993989
466722,Zoe Holmes (sweets& Donuts),5,5,0,0,2014-08-28,51.876373,-3.993989
