,addressline1,addressline2,addressline3,addressline4,businessname,businesstype,businesstypeid,confidenceinmanagement,extractdate,fhrsid,hygiene,itemcount,latitude,localauthoritybusinessid,localauthoritycode,localauthorityemailaddress,localauthorityname,localauthoritywebsite,longitude,postcode,ratingdate,ratingkey,ratingvalue,returncode,schemetype,structural
474570,Albany House Newport Road Cardiff South Wales,,,,...And All Things Nice,Restaurant/Cafe/Canteen,1,5,,48886,5,,51.54463300000000,11/00491/MIXED,564,environmental.health@newport.gov.uk,Newport,http://www.newport.gov.uk,-3.07914600000000,CF3 2UR,2013-10-02,fhrs_5_en-GB,5,,FHRS,5
474571,Tesco Distribution Centre Greenmoor Arch Way Gwent Euro Park Newport South Wales,,,,7 Day Catering @Tesco Trunking Centre,Restaurant/Cafe/Canteen,1,5,,30361,5,,51.57227400000000,09/00183/MIXED,564,environmental.health@newport.gov.uk,Newport,http://www.newport.gov.uk,-2.85927500000000,NP26 3TS,2013-10-24,fhrs_4_en-GB,4,,FHRS,10
474572,Unit 8 Newport Retail Park Spytty Road Newport South Wales,,,,99P Store,Retailers - other,4613,,,657549,,,51.57757800000000,13/00119/MIXED,564,environmental.health@newport.gov.uk,Newport,http://www.newport.gov.uk,-2.94359500000000,NP19 4QQ,2014-04-10,fhrs_exempt_en-GB,Exempt,,FHRS,
474573,Stall B1-B2 Newport Provisions Market High Street Newport South Wales,,,,A D Turner Butchers (Raw Meat Only),Manufacturers/packers,7839,10,,9067,5,,51.58897600000000,03585/1056/2/000,564,environmental.health@newport.gov.uk,Newport,http://www.newport.gov.uk,-2.99625800000000,NP20 1DD,2011-02-14,fhrs_4_en-GB,4,,FHRS,5
474574,199 Cardiff Road Newport South Wales,,,,A J S Stores,Retailers - other,4613,5,,5572,0,,51.57085300000000,01945/0199/2/000,564,environmental.health@newport.gov.uk,Newport,http://www.newport.gov.uk,-3.01361000000000,NP20 3BP,2014-10-09,fhrs_5_en-GB,5,,FHRS,5
474575,10 Pentonville Newport South Wales,,,,A J S Stores One,Retailers - other,4613,10,,402804,10,,51.59016200000000,07/00313/MIXED,564,environmental.health@newport.gov.uk,Newport,http://www.newport.gov.uk,-2.99954700000000,NP20 5HB,2012-06-12,fhrs_3_en-GB,3,,FHRS,5
474576,113 Bassaleg Road Newport South Wales,,,,A Touch Of Spice,Takeaway/sandwich shop,7844,10,,710291,10,,51.58053000000000,14/00301/MIXED,564,environmental.health@newport.gov.uk,Newport,http://www.newport.gov.uk,-3.01854400000000,NP20 3NA,2014-10-01,fhrs_4_en-GB,4,,FHRS,0
474577,124 Commercial Road Newport South Wales,,,,Abbaid Stores,Retailers - other,4613,20,,6567,10,,51.57621400000000,02295/0124/2/000,564,environmental.health@newport.gov.uk,Newport,http://www.newport.gov.uk,-2.98805700000000,NP20 2GW,2014-05-14,fhrs_1_en-GB,1,,FHRS,15
474578,Abbeyfield House Reene Court Newport South Wales,,,,Abbeyfield House,Hospitals/Childcare/Caring Premises,5,10,,657555,0,,51.58070500000000,13/00322/MIXED,564,environmental.health@newport.gov.uk,Newport,http://www.newport.gov.uk,-2.96165700000000,NP19 0RJ,2014-04-03,fhrs_4_en-GB,4,,FHRS,0
474579,,,,,ABCs Childminding,Hospitals/Childcare/Caring Premises,5,,,35767,,,,10/00333/FOOD,564,environmental.health@newport.gov.uk,Newport,http://www.newport.gov.uk,,,2011-12-02,fhrs_exempt_en-GB,Exempt,,FHRS,
474580,15 Acacia Avenue Newport South Wales,,,,Acacia Stores,Retailers - other,4613,5,,200586,10,,51.58769700000000,01015/1000/2/000,564,environmental.health@newport.gov.uk,Newport,http://www.newport.gov.uk,-2.95766200000000,NP19 9AT,2014-04-30,fhrs_4_en-GB,4,,FHRS,5
474581,Mobile Vehicle Trading At Port Road Maesglas Industrial Estate Newport South Wales,,,,Acme Catering,Mobile caterer,7846,20,,30790,15,,,09/00274/MIXED,564,environmental.health@newport.gov.uk,Newport,http://www.newport.gov.uk,,,2014-06-06,fhrs_1_en-GB,1,,FHRS,15
474582,16 Bettws Shopping Centre Bettws Newport South Wales,,,,Acorns Bakery,Manufacturers/packers,7839,10,,200583,5,,51.61209800000000,03960/0016/2/000,564,environmental.health@newport.gov.uk,Newport,http://www.newport.gov.uk,-3.02911500000000,NP20 7TN,2014-02-05,fhrs_4_en-GB,4,,FHRS,5
474583,Government Buildings Cardiff Road Newport South Wales,,,,Acorns Day Nursery,Hospitals/Childcare/Caring Premises,5,0,,5581,0,,51.56633800000000,01945/1027/2/000,564,environmental.health@newport.gov.uk,Newport,http://www.newport.gov.uk,-3.02723000000000,NP10 8XG,2014-06-26,fhrs_5_en-GB,5,,FHRS,5
474584,Alma House Lighthouse Road Newport South Wales,,,,Acorns Nurseries Ltd,Hospitals/Childcare/Caring Premises,5,0,,16830,0,,51.56605200000000,05320/1015/2/000,564,environmental.health@newport.gov.uk,Newport,http://www.newport.gov.uk,-3.01775900000000,NP10 8TG,2013-12-11,fhrs_5_en-GB,5,,FHRS,0
474585,82 Corporation Road Newport South Wales,,,,Al Madina Foodstore,Retailers - other,4613,10,,610234,10,,51.58809900000000,13/00386/MIXED,564,environmental.health@newport.gov.uk,Newport,http://www.newport.gov.uk,-2.98614900000000,NP19 0BH,2014-10-20,fhrs_3_en-GB,3,,FHRS,5
474586,Albany Guest House 409 Chepstow Road Newport South Wales,,,,Albany Guest House,Hotel/bed & breakfast/guest house,7842,0,,641543,0,,51.58837400000000,02115/0409/0/000,564,environmental.health@newport.gov.uk,Newport,http://www.newport.gov.uk,-2.96287200000000,NP19 8HL,2014-02-26,fhrs_5_en-GB,5,,FHRS,0
474587,Albion Rovers FC Crindau Park Blaen-Y-Pant Crescent Newport South Wales,,,,Albion Rovers FC,Restaurant/Cafe/Canteen,1,5,,30637,5,,,09/00234/HS,564,environmental.health@newport.gov.uk,Newport,http://www.newport.gov.uk,,,2014-12-23,fhrs_5_en-GB,5,,FHRS,5
474588,Alcatel Lucent Coldra Wood Chepstow Road Newport South Wales,,,,Alcatel Restaurant,Restaurant/Cafe/Canteen,1,0,,6340,0,,,02115/1000/1/001,564,environmental.health@newport.gov.uk,Newport,http://www.newport.gov.uk,,,2015-01-05,fhrs_5_en-GB,5,,FHRS,0
474589,Aldi Stores Nash Road Newport South Wales,,,,Aldi Stores Limited,Retailers - supermarkets/hypermarkets,7840,0,,622584,0,,51.57519400000000,09978/1000/2/000,564,environmental.health@newport.gov.uk,Newport,http://www.newport.gov.uk,-2.95273800000000,NP19 4TF,2013-12-04,fhrs_5_en-GB,5,,FHRS,0
474590,98 Alexandra Road Newport South Wales,,,,Alexandra Dock Post Office & Store,Retailers - other,4613,10,,536387,5,,51.57102200000000,01090/0098/2/001,564,environmental.health@newport.gov.uk,Newport,http://www.newport.gov.uk,-2.98958900000000,NP20 2JG,2013-03-11,fhrs_3_en-GB,3,,FHRS,10
474591,Mobile Vehicle Trading Opposite B&Q  Corporation Road Newport South Wales,,,,Alice Snack Bar,Mobile caterer,7846,0,,189736,5,,51.48531000000000,10/00274/FOOD,564,environmental.health@newport.gov.uk,Newport,http://www.newport.gov.uk,-3.16383000000000,,2015-01-21,fhrs_5_en-GB,5,,FHRS,5
474592,Allt-Yr-Yn Lawn Tennis Club Allt-Yr-Yn Road Newport South Wales,,,,Allt-yr-yn Lawn Tennis Club,Pub/bar/nightclub,7843,10,,189742,5,,51.59173000000000,01155/1000/2/000,564,environmental.health@newport.gov.uk,Newport,http://www.newport.gov.uk,-3.00757800000000,NP20 5EA,2014-12-24,fhrs_4_en-GB,4,,FHRS,5
474593,3 Allt-Yr-Yn Way Newport South Wales,,,,Allt-yr-yn Stores,Retailers - other,4613,10,,4529,0,,51.59704300000000,01165/0003/2/002,564,environmental.health@newport.gov.uk,Newport,http://www.newport.gov.uk,-3.00661300000000,NP20 5GB,2014-12-22,fhrs_4_en-GB,4,,FHRS,0
474594,171 Caerleon Road Newport South Wales,,,,Alonzi And Sons,Takeaway/sandwich shop,7844,10,,5444,5,,51.59681000000000,01865/0171/2/000,564,environmental.health@newport.gov.uk,Newport,http://www.newport.gov.uk,-2.98216600000000,NP19 7FX,2014-07-22,fhrs_4_en-GB,4,,FHRS,5
474595,Alway Centre Aberthaw Avenue Newport South Wales,,,,Alway Playscheme,Hospitals/Childcare/Caring Premises,5,0,,699554,0,,51.58577900000000,14/00227/MIXED,564,environmental.health@newport.gov.uk,Newport,http://www.newport.gov.uk,-2.94575700000000,NP19 9NS,2014-08-19,fhrs_5_en-GB,5,,FHRS,0
474596,,,,,Amanda Jones Childminding,Hospitals/Childcare/Caring Premises,5,,,30875,,,,09/00304/FOOD,564,environmental.health@newport.gov.uk,Newport,http://www.newport.gov.uk,,,2011-03-01,fhrs_exempt_en-GB,Exempt,,FHRS,
474597,,,,,Amanda Probert,Hospitals/Childcare/Caring Premises,5,,,657568,,,,14/00051/MIXED,564,environmental.health@newport.gov.uk,Newport,http://www.newport.gov.uk,,,2014-04-30,fhrs_exempt_en-GB,Exempt,,FHRS,
474598,1 St Johns Crescent Rogerstone Newport South Wales,,,,Amrit,Takeaway/sandwich shop,7844,10,,726542,15,,51.59106900000000,14/00264/MIXED,564,environmental.health@newport.gov.uk,Newport,http://www.newport.gov.uk,-3.06016700000000,NP10 9FL,2014-12-10,fhrs_2_en-GB,2,,FHRS,10
474599,,,,,Angelicake,Other catering premises,7841,0,,45794,0,,,11/00027/FOOD,564,environmental.health@newport.gov.uk,Newport,http://www.newport.gov.uk,,,2014-12-02,fhrs_5_en-GB,5,,FHRS,0
474600,,,,,Anne Walden Childminding,Hospitals/Childcare/Caring Premises,5,,,48467,,,,11/00303/FOOD,564,environmental.health@newport.gov.uk,Newport,http://www.newport.gov.uk,,,2014-08-04,fhrs_exempt_en-GB,Exempt,,FHRS,
474601,Enersys Ltd Stephenson Street Newport South Wales,,,,Annies Kitchen,Restaurant/Cafe/Canteen,1,0,,572258,0,,51.56861900000000,12/00421/MIXED,564,environmental.health@newport.gov.uk,Newport,http://www.newport.gov.uk,-2.97265600000000,NP19 4XJ,2014-10-23,fhrs_5_en-GB,5,,FHRS,0
474602,158A Commercial Road Newport South Wales,,,,Antalya,Takeaway/sandwich shop,7844,5,,6573,5,,51.57825200000000,02295/0158/0/A01,564,environmental.health@newport.gov.uk,Newport,http://www.newport.gov.uk,-2.98954400000000,NP20 2PJ,2014-03-04,fhrs_5_en-GB,5,,FHRS,5
474603,291 Corporation Road Newport South Wales,,,,Apex (V S Stores),Retailers - other,4613,5,,657552,5,,51.58440000000000,13/00263/MIXED,564,environmental.health@newport.gov.uk,Newport,http://www.newport.gov.uk,-2.97689000000000,NP19 0FD,2014-04-02,fhrs_5_en-GB,5,,FHRS,0
474604,Appletree Day Nursery North Row Magor Caldicot South Wales,,,,Appletree Nursery,Hospitals/Childcare/Caring Premises,5,10,,16460,5,,51.55760000000000,05061/1002/2/000,564,environmental.health@newport.gov.uk,Newport,http://www.newport.gov.uk,-2.85423800000000,NP26 3DX,2014-09-10,fhrs_4_en-GB,4,,FHRS,5
474605,Coleg Gwent Newport Campus Nash Road Newport South Wales,,,,Aramark @Coleg Gwent,School/college/university,7845,0,,48914,0,,51.57385500000000,11/00515/FOOD,564,environmental.health@newport.gov.uk,Newport,http://www.newport.gov.uk,-2.95262300000000,NP19 4TS,2014-10-22,fhrs_5_en-GB,5,,FHRS,5
474606,Llanwern Works Queensway Llanwern Newport South Wales,,,,Aramark A12 Canteen Corus UK Ltd,Restaurant/Cafe/Canteen,1,5,,492479,5,,51.57640200000000,07/00226/MIXED,564,environmental.health@newport.gov.uk,Newport,http://www.newport.gov.uk,-2.93785600000000,NP19 4QZ,2014-06-19,fhrs_4_en-GB,4,,FHRS,10
474607,103-109 Caerleon Road Newport South Wales,,,,Archway Court Day Nursery & Kids Club,Hospitals/Childcare/Caring Premises,5,5,,5440,0,,51.59522300000000,01865/0109/0/000,564,environmental.health@newport.gov.uk,Newport,http://www.newport.gov.uk,-2.98373400000000,NP19 7BZ,2014-01-24,fhrs_5_en-GB,5,,FHRS,5
474608,16-20 Stow Hill Newport South Wales,,,,Argos,Retailers - other,4613,,,17567,,,51.58758400000000,06/00009/MIXED,564,environmental.health@newport.gov.uk,Newport,http://www.newport.gov.uk,-2.99707900000000,NP20 1JB,2011-04-13,fhrs_exempt_en-GB,Exempt,,FHRS,
474609,Unit 1C Mendalgief Retail Park Docks Way Newport South Wales,,,,Argos Extra,Retailers - other,4613,,,13612,,,51.57297300000000,04223/0001/0/000,564,environmental.health@newport.gov.uk,Newport,http://www.newport.gov.uk,-2.99602400000000,NP20 2NY,2011-04-07,fhrs_exempt_en-GB,Exempt,,FHRS,
474610,147 Bryn Bevan Newport South Wales,,,,Aria Care Home,Hospitals/Childcare/Caring Premises,5,5,,673218,10,,51.60392900000000,14/00128/MIXED,564,environmental.health@newport.gov.uk,Newport,http://www.newport.gov.uk,-2.99938700000000,NP20 5QN,2014-06-05,fhrs_4_en-GB,4,,FHRS,0
474611,Asda Lower Dock Street Newport South Wales,,,,Asda - Staff Canteen,Restaurant/Cafe/Canteen,1,10,,34345,10,,51.58088100000000,10/00109/FOOD,564,environmental.health@newport.gov.uk,Newport,http://www.newport.gov.uk,-2.99023600000000,NP20 2BE,2013-10-16,fhrs_3_en-GB,3,,FHRS,10
474612,Asda Lower Dock Street Newport South Wales,,,,Asda Cafe - Eurest,Restaurant/Cafe/Canteen,1,5,,31051,5,,51.58088100000000,09/00416/MIXED,564,environmental.health@newport.gov.uk,Newport,http://www.newport.gov.uk,-2.99023600000000,NP20 2BE,2013-12-06,fhrs_5_en-GB,5,,FHRS,5
474613,Asda Lower Dock Street Newport South Wales,,,,Asda Stores Ltd,Retailers - supermarkets/hypermarkets,7840,0,,30622,10,,51.58088100000000,09/00229/MIXED,564,environmental.health@newport.gov.uk,Newport,http://www.newport.gov.uk,-2.99023600000000,NP20 2BE,2013-10-16,fhrs_4_en-GB,4,,FHRS,10
474614,Asda Pencarn Way Duffryn Newport South Wales,,,,Asda Stores Ltd,Retailers - supermarkets/hypermarkets,7840,0,,465505,5,,51.55704000000000,04812/1000/0/000,564,environmental.health@newport.gov.uk,Newport,http://www.newport.gov.uk,-3.02107700000000,NP10 8XL,2014-11-19,fhrs_5_en-GB,5,,FHRS,5
474615,36 - 37 Waterloo Road Newport South Wales,,,,Ashton Park Residential Home,Hospitals/Childcare/Caring Premises,5,10,,200572,10,,51.57846300000000,12/00054/MIXED,564,environmental.health@newport.gov.uk,Newport,http://www.newport.gov.uk,-3.00487500000000,NP20 4FP,2014-02-24,fhrs_3_en-GB,3,,FHRS,10
474616,49 Commercial Road Newport South Wales,,,,Asia Halal Food,Retailers - other,4613,10,,200571,15,,51.57948000000000,07/00289/MIXED,564,environmental.health@newport.gov.uk,Newport,http://www.newport.gov.uk,-2.99000400000000,NP20 2PE,2013-10-23,fhrs_2_en-GB,2,,FHRS,10
474617,Civic Centre Godfrey Road Newport South Wales,,,,Aspens Services Ltd@ Civic Centre Canteen,Restaurant/Cafe/Canteen,1,5,,45372,5,,51.58866100000000,11/00003/FOOD,564,environmental.health@newport.gov.uk,Newport,http://www.newport.gov.uk,-3.00582200000000,NP20 4UR,2014-05-21,fhrs_5_en-GB,5,,FHRS,5
474618,10 Gloucester Court Roman Way Caerleon Newport South Wales,,,,Athwal Stores,Retailers - other,4613,5,,699559,10,,51.61797500000000,14/00259/MIXED,564,environmental.health@newport.gov.uk,Newport,http://www.newport.gov.uk,-2.96715300000000,NP18 3FG,2014-09-03,fhrs_4_en-GB,4,,FHRS,5
474619,Unit A 7-8 Market Street Newport South Wales,,,,Atlantica/The Loft,Pub/bar/nightclub,7843,0,,710270,0,,51.58928100000000,14/00057/MIXED,564,environmental.health@newport.gov.uk,Newport,http://www.newport.gov.uk,-2.99635200000000,NP20 1FU,2014-10-08,fhrs_4_en-GB,4,,FHRS,10
474620,Mobile Trading At Unit 20 Leeway Industrial Estate Newport South Wales,,,,Ava's Lunch Box,Mobile caterer,7846,5,,554935,0,,51.57203700000000,13/00092/FOOD,564,environmental.health@newport.gov.uk,Newport,http://www.newport.gov.uk,-2.94840100000000,NP19 4SL,2014-10-20,fhrs_5_en-GB,5,,FHRS,0
474621,,,,,Avrils Country Kitchen,Other catering premises,7841,5,,536390,5,,,05/00085/MIXED,564,environmental.health@newport.gov.uk,Newport,http://www.newport.gov.uk,,,2013-02-13,fhrs_4_en-GB,4,,FHRS,10
474622,424 Chepstow Road Newport South Wales,,,,B & J Newsagents,Retailers - other,4613,5,,216268,5,,51.58786500000000,02115/0424/0/000,564,environmental.health@newport.gov.uk,Newport,http://www.newport.gov.uk,-2.96569100000000,NP19 8JH,2015-01-20,fhrs_5_en-GB,5,,FHRS,0
474623,Unit 24 Kingsway Centre John Frost Square Newport South Wales,,,,B & M Bargains,Retailers - supermarkets/hypermarkets,7840,5,,35875,15,,51.58518300000000,10/00390/MIXED,564,environmental.health@newport.gov.uk,Newport,http://www.newport.gov.uk,-2.99287000000000,NP20 1ED,2014-11-03,fhrs_2_en-GB,2,,FHRS,5
474624,78 Fields Park Road Newport South Wales,,,,Baba's News,Retailers - other,4613,,,446663,,,51.58569800000000,12/00268/MIXED,564,environmental.health@newport.gov.uk,Newport,http://www.newport.gov.uk,-3.01783700000000,NP20 5BL,2012-09-06,fhrs_exempt_en-GB,Exempt,,FHRS,
474625,Llanmartin Primary School Waltwood Road Llanmartin Newport South Wales,,,,Babes In The Wood Pre-School Playgroup,Hospitals/Childcare/Caring Premises,5,5,,31108,10,,51.59427500000000,09/00462/MIXED,564,environmental.health@newport.gov.uk,Newport,http://www.newport.gov.uk,-2.89321200000000,NP18 2HB,2014-02-18,fhrs_4_en-GB,4,,FHRS,5
474626,468 Corporation Road Newport South Wales,,,,Bagini's,Restaurant/Cafe/Canteen,1,5,,47271,5,,51.58150300000000,11/00119/MIXED,564,environmental.health@newport.gov.uk,Newport,http://www.newport.gov.uk,-2.97285900000000,NP19 0GN,2014-07-04,fhrs_5_en-GB,5,,FHRS,5
474627,Baileys Pub 13 Bailey Street Newport South Wales,,,,Baileys Bodega,Pub/bar/nightclub,7843,5,,690138,10,,51.58636200000000,01325/1000/2/000,564,environmental.health@newport.gov.uk,Newport,http://www.newport.gov.uk,-2.99913100000000,NP20 4DJ,2014-07-30,fhrs_3_en-GB,3,,FHRS,10
474628,94A Commercial Street Newport South Wales,,,,Bakerlicious Bakery,Manufacturers/packers,7839,5,,631488,5,,51.58262100000000,13/00399/MIXED,564,environmental.health@newport.gov.uk,Newport,http://www.newport.gov.uk,-2.99280000000000,NP20 1LU,2014-01-09,fhrs_5_en-GB,5,,FHRS,5
474629,,,,,Baking Instinct,Other catering premises,7841,0,,710286,5,,,14/00280/MIXED,564,environmental.health@newport.gov.uk,Newport,http://www.newport.gov.uk,,,2014-10-21,fhrs_5_en-GB,5,,FHRS,0
474630,46 Somerton Road Newport South Wales,,,,Balmoral Stores,Retailers - other,4613,10,,189787,10,,51.58717700000000,05525/0046/0/000,564,environmental.health@newport.gov.uk,Newport,http://www.newport.gov.uk,-2.96293400000000,NP19 8LD,2014-11-06,fhrs_3_en-GB,3,,FHRS,10
474631,Cross House Havelock Street Newport South Wales,,,,Baneswell Social Club,Pub/bar/nightclub,7843,10,,673207,10,,51.58566600000000,13/00402/MIXED,564,environmental.health@newport.gov.uk,Newport,http://www.newport.gov.uk,-2.99749900000000,NP20 1JX,2014-06-16,fhrs_2_en-GB,2,,FHRS,15
474632,8 Baneswell Road Newport South Wales,,,,Baneswell Store,Retailers - other,4613,20,,610215,15,,51.58722500000000,13/00217/MIXED,564,environmental.health@newport.gov.uk,Newport,http://www.newport.gov.uk,-2.99910700000000,NP20 4BP,2014-06-23,fhrs_1_en-GB,1,,FHRS,10
474633,Bannatyne's Health Club Enterprise Way Newport South Wales,,,,Bannatynes Health Club,Restaurant/Cafe/Canteen,1,10,,37275,10,,51.57855900000000,10004/1033/2/000,564,environmental.health@newport.gov.uk,Newport,http://www.newport.gov.uk,-2.98728500000000,NP20 2AQ,2014-10-30,fhrs_3_en-GB,3,,FHRS,10
474634,Mobile Vehicle Trading Out Of Newport,,,,Bar Noir,Mobile caterer,7846,0,,610230,0,,,13/00370/MIXED,564,environmental.health@newport.gov.uk,Newport,http://www.newport.gov.uk,,,2015-01-05,fhrs_5_en-GB,5,,FHRS,5
474635,15 John Frost Square Newport South Wales,,,,Bar Piazza,Restaurant/Cafe/Canteen,1,5,,9205,5,,51.58583000000000,03785/0015/0/000,564,environmental.health@newport.gov.uk,Newport,http://www.newport.gov.uk,-2.99402400000000,NP20 1HZ,2014-09-02,fhrs_5_en-GB,5,,FHRS,5
474636,,,,,Barbara Phillips Childminding,Hospitals/Childcare/Caring Premises,5,,,189766,,,,10/00065/FOOD,564,environmental.health@newport.gov.uk,Newport,http://www.newport.gov.uk,,,2012-01-09,fhrs_exempt_en-GB,Exempt,,FHRS,
474637,Hall Barnabus House New Ruperra Street Newport South Wales,,,,Barnabas Arts House,Restaurant/Cafe/Canteen,1,10,,45961,5,,51.58203200000000,11/00038/MIXED,564,environmental.health@newport.gov.uk,Newport,http://www.newport.gov.uk,-2.99023200000000,NP20 2BB,2013-09-27,fhrs_4_en-GB,4,,FHRS,5
474638,Malpas Court Junior And Infant School Whittle Drive Newport South Wales,,,,Barnaby's Childcare,Hospitals/Childcare/Caring Premises,5,10,,710295,5,,51.61689900000000,14/00309/MIXED,564,environmental.health@newport.gov.uk,Newport,http://www.newport.gov.uk,-3.01255600000000,NP20 6NS,2014-10-08,fhrs_4_en-GB,4,,FHRS,5
474639,Bethel Baptist Church Pentre-Poeth Road Newport South Wales,,,,Bassaleg Pre-School,Hospitals/Childcare/Caring Premises,5,0,,46755,0,,51.57559700000000,11/00083/MIXED,564,environmental.health@newport.gov.uk,Newport,http://www.newport.gov.uk,-3.05580900000000,NP10 8LL,2014-02-28,fhrs_5_en-GB,5,,FHRS,0
474640,Mobile Vehicle Trading At Unit 26 Leeway Court Leeway Industrial Estate Newport South Wales,,,,Batons - Mobile Trader,Mobile caterer,7846,5,,22645,5,,,07/00256/FOOD,564,environmental.health@newport.gov.uk,Newport,http://www.newport.gov.uk,,,2014-08-21,fhrs_4_en-GB,4,,FHRS,10
474641,Rogerstone Primary School Ebenezer Drive Rogerstone Newport South Wales,,,,Beanies,Restaurant/Cafe/Canteen,1,5,,622590,0,,51.58648600000000,13/00110/FOOD,564,environmental.health@newport.gov.uk,Newport,http://www.newport.gov.uk,-3.04975400000000,NP10 9YX,2013-11-28,fhrs_5_en-GB,5,,FHRS,0
474642,The Beaufort Community Centre Beaufort Road Newport South Wales,,,,Beaufort Bites @ The Beaufort Centre,Restaurant/Cafe/Canteen,1,10,,371046,0,,51.60068300000000,12/00145/FOOD,564,environmental.health@newport.gov.uk,Newport,http://www.newport.gov.uk,-2.96503900000000,NP19 7UB,2014-03-05,fhrs_4_en-GB,4,,FHRS,10
474643,430 Chepstow Road Newport South Wales,,,,Beechwood Grill,Takeaway/sandwich shop,7844,5,,687401,5,,51.58799900000000,14/00127/MIXED,564,environmental.health@newport.gov.uk,Newport,http://www.newport.gov.uk,-2.96364400000000,NP19 8JG,2014-07-24,fhrs_4_en-GB,4,,FHRS,10
474644,Beechwood Stores 88C Christchurch Road Newport South Wales,,,,Beechwood Stores,Retailers - other,4613,5,,657564,0,,51.59437300000000,14/00016/MIXED,564,environmental.health@newport.gov.uk,Newport,http://www.newport.gov.uk,-2.97242600000000,NP19 7SJ,2014-04-10,fhrs_5_en-GB,5,,FHRS,5
474645,108 Lower Dock Street Newport South Wales,,,,Bella Mama's,Restaurant/Cafe/Canteen,1,10,,6910,5,,51.58208500000000,02645/0108/0/000,564,environmental.health@newport.gov.uk,Newport,http://www.newport.gov.uk,-2.98815500000000,NP20 2AG,2014-10-29,fhrs_4_en-GB,4,,FHRS,5
474646,Stall H3 Newport Provisions Market High Street Newport South Wales,,,,Ben's Bakes,Retailers - other,4613,5,,9064,5,,51.58897600000000,03585/1008/2/000,564,environmental.health@newport.gov.uk,Newport,http://www.newport.gov.uk,-2.99625800000000,NP20 1DD,2014-01-07,fhrs_5_en-GB,5,,FHRS,5
474647,Berryhill Farm Cardiff Road Newport South Wales,,,,Berry Hill Farm Shop,Farmers/growers,7838,0,,200554,0,,51.55088100000000,09976/1005/2/000,564,environmental.health@newport.gov.uk,Newport,http://www.newport.gov.uk,-3.05858300000000,NP10 8UD,2014-03-21,fhrs_5_en-GB,5,,FHRS,5
474648,3 Caerleon Road Newport South Wales,,,,Best Kebabs,Takeaway/sandwich shop,7844,5,,5439,5,,51.59170600000000,01865/0003/2/003,564,environmental.health@newport.gov.uk,Newport,http://www.newport.gov.uk,-2.98917200000000,NP19 7BU,2014-03-03,fhrs_5_en-GB,5,,FHRS,5
474649,32 Llanthewy Road Newport South Wales,,,,Bethany Residential Home,Hospitals/Childcare/Caring Premises,5,10,,48862,10,,51.58562200000000,11/00478/MIXED,564,environmental.health@newport.gov.uk,Newport,http://www.newport.gov.uk,-3.00683700000000,NP20 4LD,2014-06-16,fhrs_3_en-GB,3,,FHRS,5
474650,,,,,Beths Childminding Service,Hospitals/Childcare/Caring Premises,5,,,189770,,,,10/00275/FOOD,564,environmental.health@newport.gov.uk,Newport,http://www.newport.gov.uk,,,2012-01-16,fhrs_exempt_en-GB,Exempt,,FHRS,
474651,17 Bettws Shopping Centre Bettws Newport South Wales,,,,Bettws Fish Bar,Takeaway/sandwich shop,7844,5,,189769,5,,51.61209800000000,03960/0018/2/000,564,environmental.health@newport.gov.uk,Newport,http://www.newport.gov.uk,-3.02911500000000,NP20 7TN,2014-10-15,fhrs_5_en-GB,5,,FHRS,0
474652,Ty Coch Playing Fields Leach Road Bettws Newport South Wales,,,,Bettws Rugby Club,Pub/bar/nightclub,7843,5,,13349,0,,51.61496800000000,04000/1001/2/000,564,environmental.health@newport.gov.uk,Newport,http://www.newport.gov.uk,-3.02887700000000,NP20 7AE,2014-10-23,fhrs_5_en-GB,5,,FHRS,5
474653,Bettws Service Station Monnow Way Bettws Newport South Wales,,,,Bettws Service Station - Filling Station,Retailers - other,4613,5,,13828,5,,51.60915900000000,04450/1001/2/000,564,environmental.health@newport.gov.uk,Newport,http://www.newport.gov.uk,-3.01971900000000,NP20 7DB,2015-01-05,fhrs_5_en-GB,5,,FHRS,5
474654,,,,,Beverley Old Childminding,Hospitals/Childcare/Caring Premises,5,,,340010,,,,10/00059/FOOD,564,environmental.health@newport.gov.uk,Newport,http://www.newport.gov.uk,,,2012-03-27,fhrs_exempt_en-GB,Exempt,,FHRS,
474655,16-18 Commercial Street Newport South Wales,,,,BHS- Customer Restaurant,Restaurant/Cafe/Canteen,1,5,,371024,0,,51.58701300000000,02315/0016/2/001,564,environmental.health@newport.gov.uk,Newport,http://www.newport.gov.uk,-2.99547900000000,NP20 1HF,2014-02-12,fhrs_5_en-GB,5,,FHRS,5
474656,Marquee Trading Outside Newport,,,,Big G's Grill,Mobile caterer,7846,5,,657570,0,,,14/00066/MIXED,564,environmental.health@newport.gov.uk,Newport,http://www.newport.gov.uk,,,2014-03-26,fhrs_5_en-GB,5,,FHRS,0
474657,236 Stow Hill Newport South Wales,,,,Bina's Traditional Fish And Chips,Takeaway/sandwich shop,7844,10,,418796,10,,51.58321000000000,05635/0236/2/000,564,environmental.health@newport.gov.uk,Newport,http://www.newport.gov.uk,-3.00912200000000,NP20 4HA,2014-01-15,fhrs_4_en-GB,4,,FHRS,0
474658,Travis Perkins Frederick Street Newport South Wales,,,,Birchwood Price Tools @ Travis Perkins,Retailers - other,4613,0,,710282,0,,51.57784300000000,14/00234/MIXED,564,environmental.health@newport.gov.uk,Newport,http://www.newport.gov.uk,-2.98688000000000,NP20 2DR,2014-10-01,fhrs_5_en-GB,5,,FHRS,0
474659,76 Blaen-Y-Pant Crescent Newport South Wales,,,,Blaen-y-pant Residential Home,Hospitals/Childcare/Caring Premises,5,5,,5179,0,,51.60437300000000,01610/1000/2/000,564,environmental.health@newport.gov.uk,Newport,http://www.newport.gov.uk,-3.01063100000000,NP20 5PX,2014-08-28,fhrs_5_en-GB,5,,FHRS,5
474660,Blaina Wharf East Dock Road Newport South Wales,,,,Blaina Wharf,Restaurant/Cafe/Canteen,1,5,,710272,5,,51.57854200000000,14/00125/MIXED,564,environmental.health@newport.gov.uk,Newport,http://www.newport.gov.uk,-2.98071800000000,NP20 2FR,2014-09-11,fhrs_5_en-GB,5,,FHRS,0
474661,Blue Oyster Bar 44 Cardiff Road Newport South Wales,,,,Blue Oyster Bar,Takeaway/sandwich shop,7844,0,,48824,0,,51.58176300000000,11/00454/MIXED,564,environmental.health@newport.gov.uk,Newport,http://www.newport.gov.uk,-2.99332900000000,NP20 2ED,2014-01-17,fhrs_5_en-GB,5,,FHRS,5
474662,33 Charles Street Newport South Wales,,,,BMS News,Retailers - other,4613,5,,465533,5,,51.58555100000000,12/00361/MIXED,564,environmental.health@newport.gov.uk,Newport,http://www.newport.gov.uk,-2.99612600000000,NP20 1JT,2014-12-23,fhrs_5_en-GB,5,,FHRS,5
474663,1 Caerleon Road Newport South Wales,,,,Body Masters Unisex Fitness Centre,Restaurant/Cafe/Canteen,1,5,,216257,5,,51.59170600000000,01865/0001/0/000,564,environmental.health@newport.gov.uk,Newport,http://www.newport.gov.uk,-2.98917200000000,NP19 7BU,2014-12-23,fhrs_4_en-GB,4,,FHRS,10
474664,12 - 13 Albany Street Newport South Wales,,,,Boilermakers Club,Pub/bar/nightclub,7843,0,,4296,5,,51.59805200000000,01055/0012/0/000,564,environmental.health@newport.gov.uk,Newport,http://www.newport.gov.uk,-2.99589400000000,NP20 5NG,2015-01-06,fhrs_5_en-GB,5,,FHRS,5
474665,Ground Floor 9 High Street Caerleon Newport South Wales,,,,Boleros Wine Bar,Pub/bar/nightclub,7843,0,,30150,0,,51.60898300000000,09/00152/MIXED,564,environmental.health@newport.gov.uk,Newport,http://www.newport.gov.uk,-2.95286800000000,NP18 1AG,2014-12-03,fhrs_5_en-GB,5,,FHRS,5
474666,61 Gaer Road Newport South Wales,,,,Bonsai Chinese Takeaway,Takeaway/sandwich shop,7844,10,,216278,10,,51.57723400000000,10/00232/MIXED,564,environmental.health@newport.gov.uk,Newport,http://www.newport.gov.uk,-3.01809500000000,NP20 3GY,2014-10-02,fhrs_3_en-GB,3,,FHRS,10
474667,Unit 1A Newport Retail Park Spytty Road Newport South Wales,,,,Boots Chemist Plc,Retailers - other,4613,0,,631474,0,,51.57757800000000,04592/1002/A/000,564,environmental.health@newport.gov.uk,Newport,http://www.newport.gov.uk,-2.94359500000000,NP19 4QQ,2014-01-30,fhrs_5_en-GB,5,,FHRS,0
474668,Unit 8A-8C Kingsway Centre John Frost Square Newport South Wales,,,,Boswells Cafe,Restaurant/Cafe/Canteen,1,0,,31032,5,,51.58493000000000,09/00397/MIXED,564,environmental.health@newport.gov.uk,Newport,http://www.newport.gov.uk,-2.99300900000000,NP20 1EB,2014-05-21,fhrs_5_en-GB,5,,FHRS,5
474669,Stow Hill Service Station Stow Hill Newport South Wales,,,,BP Service Station - Filling Station (Spar),Retailers - other,4613,5,,17177,10,,51.58277900000000,05635/1004/2/000,564,environmental.health@newport.gov.uk,Newport,http://www.newport.gov.uk,-3.00173700000000,NP20 4GA,2014-12-18,fhrs_4_en-GB,4,,FHRS,5
474670,1 The Uplands Rogerstone Newport South Wales,,,,Bread Basket,Manufacturers/packers,7839,5,,17332,5,,51.59306800000000,05869/0001/2/000,564,environmental.health@newport.gov.uk,Newport,http://www.newport.gov.uk,-3.05885600000000,NP10 9FA,2013-06-07,fhrs_5_en-GB,5,,FHRS,5
474671,Breeze 11-15 Cambrian Road Newport South Wales,,,,Breeze,Pub/bar/nightclub,7843,0,,47304,0,,51.58829600000000,11/00121/MIXED,564,environmental.health@newport.gov.uk,Newport,http://www.newport.gov.uk,-2.99800400000000,NP20 4AD,2015-01-05,fhrs_5_en-GB,5,,FHRS,0
474672,7 Station Street Newport South Wales,,,,Brew,Restaurant/Cafe/Canteen,1,5,,510162,10,,51.58802600000000,12/00321/MIXED,564,environmental.health@newport.gov.uk,Newport,http://www.newport.gov.uk,-2.99911000000000,NP20 4AU,2014-06-23,fhrs_4_en-GB,4,,FHRS,5
474673,Brick House Farm North Row Magor Caldicot South Wales,,,,Brickhouse Farm,Hotel/bed & breakfast/guest house,7842,5,,631475,15,,51.55760000000000,05061/1003/2/000,564,environmental.health@newport.gov.uk,Newport,http://www.newport.gov.uk,-2.85423800000000,NP26 3DX,2014-01-24,fhrs_2_en-GB,2,,FHRS,5
474674,Brynglas Adult Training Centre Brynglas Road Newport South Wales,,,,Brynglas Adult Training Centre,School/college/university,7845,5,,5359,0,,51.60562500000000,01775/1001/2/000,564,environmental.health@newport.gov.uk,Newport,http://www.newport.gov.uk,-2.99769100000000,NP20 5QU,2014-11-13,fhrs_4_en-GB,4,,FHRS,10
474675,46 Bryngwyn Road Newport South Wales,,,,Bryngwyn Road Care Home,Hospitals/Childcare/Caring Premises,5,10,,48619,5,,51.58520200000000,11/00355/MIXED,564,environmental.health@newport.gov.uk,Newport,http://www.newport.gov.uk,-3.00968600000000,NP20 4JT,2014-12-24,fhrs_4_en-GB,4,,FHRS,5
474676,Unit 1 Star Trading Estate Caerleon Newport South Wales,,,,B's Bistro,Restaurant/Cafe/Canteen,1,5,,548790,0,,51.62449700000000,12/00103/MIXED,564,environmental.health@newport.gov.uk,Newport,http://www.newport.gov.uk,-2.96450400000000,NP18 1PQ,2014-10-10,fhrs_5_en-GB,5,,FHRS,5
474677,,,,,Budding Scholars Childcare,Hospitals/Childcare/Caring Premises,5,,,216249,,,,10/00210/FOOD,564,environmental.health@newport.gov.uk,Newport,http://www.newport.gov.uk,,,2012-02-20,fhrs_exempt_en-GB,Exempt,,FHRS,
474678,25 Bryngwyn Road Newport South Wales,,,,Burleigh House Nursery,Hospitals/Childcare/Caring Premises,5,5,,5368,0,,51.58624900000000,01780/0025/2/000,564,environmental.health@newport.gov.uk,Newport,http://www.newport.gov.uk,-3.00706700000000,NP20 4JS,2014-11-05,fhrs_5_en-GB,5,,FHRS,0
474679,Gaer Park Hall Gaer Park Road Newport South Wales,,,,Buzzy Bees Private Nursery School,Hospitals/Childcare/Caring Premises,5,10,,8637,5,,51.57872200000000,03110/0134/2/000,564,environmental.health@newport.gov.uk,Newport,http://www.newport.gov.uk,-3.02178000000000,NP20 3NJ,2014-03-17,fhrs_4_en-GB,4,,FHRS,5
474680,Caerleon Football Club Cold Bath Road Caerleon Newport South Wales,,,,Caerleon AFC,Pub/bar/nightclub,7843,0,,46584,0,,51.61129100000000,11/00073/FOOD,564,environmental.health@newport.gov.uk,Newport,http://www.newport.gov.uk,-2.95973100000000,,2014-09-15,fhrs_5_en-GB,5,,FHRS,5
474681,Caerleon Golf Club Broadway Caerleon Newport South Wales,,,,Caerleon Golf Club,Restaurant/Cafe/Canteen,1,5,,5282,0,,51.60818900000000,01713/1003/2/000,564,environmental.health@newport.gov.uk,Newport,http://www.newport.gov.uk,-2.95871400000000,NP18 1AY,2014-01-28,fhrs_5_en-GB,5,,FHRS,5
474682,Caerleon House Nursing Home Goldcroft Common Caerleon Newport South Wales,,,,Caerleon House Nursing & Residential Home,Hospitals/Childcare/Caring Premises,5,5,,189806,5,,51.61301100000000,03222/1003/2/000,564,environmental.health@newport.gov.uk,Newport,http://www.newport.gov.uk,-2.95618700000000,NP18 1BE,2014-12-05,fhrs_5_en-GB,5,,FHRS,5
474683,Caerleon Comprehensive School Cold Bath Road Caerleon Newport South Wales,,,,Caerleon Playscheme,Hospitals/Childcare/Caring Premises,5,10,,690147,0,,51.61161400000000,14/00228/MIXED,564,environmental.health@newport.gov.uk,Newport,http://www.newport.gov.uk,-2.95885800000000,NP18 1NF,2014-08-07,fhrs_4_en-GB,4,,FHRS,5
474684,31 High Street Caerleon Newport South Wales,,,,Caerleon Post Office,Retailers - other,4613,5,,572268,0,,51.60954000000000,13/00177/MIXED,564,environmental.health@newport.gov.uk,Newport,http://www.newport.gov.uk,-2.95404900000000,NP18 1AE,2015-01-05,fhrs_5_en-GB,5,,FHRS,0
474685,Ground Floor 262 Caerleon Road Newport South Wales,,,,Caerleon Road Stores,Retailers - other,4613,10,,33305,10,,51.60027300000000,10/00036/MIXED,564,environmental.health@newport.gov.uk,Newport,http://www.newport.gov.uk,-2.98089800000000,NP19 7GR,2014-01-21,fhrs_2_en-GB,2,,FHRS,15
474686,Caerleon Rugby Club Broadway Caerleon Newport South Wales,,,,Caerleon Rugby Football Club,Restaurant/Cafe/Canteen,1,5,,5281,5,,51.60818900000000,01713/1002/2/000,564,environmental.health@newport.gov.uk,Newport,http://www.newport.gov.uk,-2.95871400000000,NP18 1AY,2014-10-07,fhrs_4_en-GB,4,,FHRS,10
474687,Newport Centre Kingsway Newport South Wales,,,,Cafe @ NC,Restaurant/Cafe/Canteen,1,0,,9269,0,,51.58573600000000,03910/1004/2/000,564,environmental.health@newport.gov.uk,Newport,http://www.newport.gov.uk,-2.99128000000000,NP20 1UH,2014-12-23,fhrs_5_en-GB,5,,FHRS,5
474688,University Of Wales Newport City Campus Usk Way Newport South Wales,,,,"Cafe @ University Of Wales Newport, City Campus",Restaurant/Cafe/Canteen,1,0,,48394,5,,51.58384200000000,11/00277/MIXED,564,environmental.health@newport.gov.uk,Newport,http://www.newport.gov.uk,-2.98666300000000,NP20 2BP,2014-09-30,fhrs_5_en-GB,5,,FHRS,5
474689,188 Upper Dock Street Newport South Wales,,,,Cafe Cariad Limited,Restaurant/Cafe/Canteen,1,10,,673217,0,,51.58899800000000,14/00124/MIXED,564,environmental.health@newport.gov.uk,Newport,http://www.newport.gov.uk,-2.99579700000000,NP20 1DB,2014-05-12,fhrs_4_en-GB,4,,FHRS,10
474690,Newport Railway Station Queensway Newport South Wales,,,,Cafe Cwtch,Restaurant/Cafe/Canteen,1,0,,641551,0,,51.58993300000000,13/00439/MIXED,564,environmental.health@newport.gov.uk,Newport,http://www.newport.gov.uk,-2.99788200000000,NP20 4AX,2014-02-07,fhrs_5_en-GB,5,,FHRS,5
474691,Mobile Vehicle Trading Out Of Newport,,,,Cafe Noir,Mobile caterer,7846,0,,610231,0,,,13/00371/MIXED,564,environmental.health@newport.gov.uk,Newport,http://www.newport.gov.uk,,,2015-01-05,fhrs_5_en-GB,5,,FHRS,0
474692,44 Commercial Street Newport South Wales,,,,Caffe Nero,Restaurant/Cafe/Canteen,1,5,,18079,0,,51.58527100000000,06/00066/MIXED,564,environmental.health@newport.gov.uk,Newport,http://www.newport.gov.uk,-2.99415700000000,NP20 1LP,2014-02-12,fhrs_5_en-GB,5,,FHRS,0
474693,Unit 19B Newport Retail Park Spytty Road Newport South Wales,,,,Caffe Nero,Restaurant/Cafe/Canteen,1,5,,710279,5,,51.57757800000000,14/00195/MIXED,564,environmental.health@newport.gov.uk,Newport,http://www.newport.gov.uk,-2.94359500000000,NP19 4QQ,2014-09-24,fhrs_5_en-GB,5,,FHRS,0
474694,Unit 3 To 4 Newport Retail Park Spytty Road Newport South Wales,,,,Caffe Ritazza - Asda Living Customer Cafe,Restaurant/Cafe/Canteen,1,5,,200588,0,,51.57757800000000,10/00186/MIXED,564,environmental.health@newport.gov.uk,Newport,http://www.newport.gov.uk,-2.94359500000000,NP19 4QQ,2014-08-12,fhrs_5_en-GB,5,,FHRS,5
474695,,,,,Cakes & Co,Other catering premises,7841,0,,641547,0,,,13/00105/FOOD,564,environmental.health@newport.gov.uk,Newport,http://www.newport.gov.uk,,,2014-03-04,fhrs_5_en-GB,5,,FHRS,0
474696,,,,,Cakes By Alyson,Other catering premises,7841,10,,673227,10,,,14/00176/FOOD,564,environmental.health@newport.gov.uk,Newport,http://www.newport.gov.uk,,,2014-06-10,fhrs_3_en-GB,3,,FHRS,5
474697,,,,,Cakes By Me,Other catering premises,7841,0,,200602,0,,,11/00224/FOOD,564,environmental.health@newport.gov.uk,Newport,http://www.newport.gov.uk,,,2014-11-18,fhrs_5_en-GB,5,,FHRS,0
474698,,,,,Cakes For Me By V,Other catering premises,7841,0,,726557,0,,,14/00375/FOOD,564,environmental.health@newport.gov.uk,Newport,http://www.newport.gov.uk,,,2014-12-02,fhrs_5_en-GB,5,,FHRS,0
474699,,,,,Cakes N Cookies,Other catering premises,7841,10,,548791,5,,,12/00114/FOOD,564,environmental.health@newport.gov.uk,Newport,http://www.newport.gov.uk,,,2013-05-01,fhrs_4_en-GB,4,,FHRS,5
474700,,,,,Calorie Girl,Other catering premises,7841,0,,673210,0,,,14/00003/MIXED,564,environmental.health@newport.gov.uk,Newport,http://www.newport.gov.uk,,,2014-06-03,fhrs_5_en-GB,5,,FHRS,0
474701,Capel Court Capel Crescent Newport South Wales,,,,Capel Court Extra Care Home,Hospitals/Childcare/Caring Premises,5,0,,33717,5,,51.57742800000000,10/00061/FOOD,564,environmental.health@newport.gov.uk,Newport,http://www.newport.gov.uk,-2.99106700000000,,2014-09-25,fhrs_5_en-GB,5,,FHRS,5
474702,Capel Grange Community Nursing Home Capel Crescent Newport South Wales,,,,Capel Grange Community Nursing Home,Hospitals/Childcare/Caring Premises,5,10,,29433,0,,51.57704600000000,09/00081/MIXED,564,environmental.health@newport.gov.uk,Newport,http://www.newport.gov.uk,-2.99070100000000,NP20 2FG,2014-10-09,fhrs_4_en-GB,4,,FHRS,10
474703,Caravan Club Site Tredegar House Pencarn Way Duffryn Newport South Wales,,,,Caravan Club - Site Shop,Retailers - other,4613,0,,673229,0,,,14/00183/MIXED,564,environmental.health@newport.gov.uk,Newport,http://www.newport.gov.uk,,,2014-06-03,fhrs_5_en-GB,5,,FHRS,0
474704,172 Commercial Street Newport South Wales,,,,Card Factory,Retailers - other,4613,,,554931,,,51.58720500000000,02315/0172/0/000,564,environmental.health@newport.gov.uk,Newport,http://www.newport.gov.uk,-2.99623400000000,NP20 1JN,2013-05-22,fhrs_exempt_en-GB,Exempt,,FHRS,
474705,43 Commercial Street Newport South Wales,,,,Card Factory,Retailers - other,4613,,,594060,,,51.58527100000000,12/00107/MIXED,564,environmental.health@newport.gov.uk,Newport,http://www.newport.gov.uk,-2.99415700000000,NP20 1LP,2013-07-05,fhrs_exempt_en-GB,Exempt,,FHRS,
474706,Unit U7 At Tesco Newport Retail Park Spytty Road Newport South Wales,,,,Card Factory @ Tesco Extra,Retailers - other,4613,,,548813,,,51.57575500000000,13/00073/MIXED,564,environmental.health@newport.gov.uk,Newport,http://www.newport.gov.uk,-2.94673200000000,NP19 4TX,2013-04-18,fhrs_exempt_en-GB,Exempt,,FHRS,
474707,Carpenters 9 High Street Newport South Wales,,,,Carpenters Arms,Pub/bar/nightclub,7843,10,,502603,10,,51.58956700000000,03585/0009/0/000,564,environmental.health@newport.gov.uk,Newport,http://www.newport.gov.uk,-2.99660300000000,NP20 1FQ,2014-08-21,fhrs_3_en-GB,3,,FHRS,10
474708,Castle Bingo Usk Way Newport South Wales,,,,Castle Bingo,Restaurant/Cafe/Canteen,1,0,,32672,0,,51.58384200000000,09965/1000/2/000,564,environmental.health@newport.gov.uk,Newport,http://www.newport.gov.uk,-2.98666300000000,NP20 2BP,2014-03-26,fhrs_5_en-GB,5,,FHRS,5
474709,Castleton Baptist Church 12 St Mellons Road Marshfield Cardiff South Wales,,,,Castleton Baptist Church,Other catering premises,7841,5,,31122,0,,,09/00475/MIXED,564,environmental.health@newport.gov.uk,Newport,http://www.newport.gov.uk,,,2014-03-18,fhrs_5_en-GB,5,,FHRS,5
474710,Marshfield Junior And Infants School Marshfield Road Cardiff South Wales,,,,Castleton Playgroup,Hospitals/Childcare/Caring Premises,5,5,,371025,0,,51.54020800000000,05/00114/MIXED,564,environmental.health@newport.gov.uk,Newport,http://www.newport.gov.uk,-3.07634500000000,CF3 2UW,2014-03-05,fhrs_5_en-GB,5,,FHRS,0
474711,Christchurch Centre Malpas Road Newport South Wales,,,,Catering Source @ Christchurch Conference Centre,Other catering premises,7841,0,,24881,0,,51.60184700000000,08/00022/MIXED,564,environmental.health@newport.gov.uk,Newport,http://www.newport.gov.uk,-3.00527600000000,NP20 5PP,2015-01-05,fhrs_5_en-GB,5,,FHRS,0
474712,Caerleon Comprehensive School Cold Bath Road Caerleon Newport South Wales,,,,Caterlink @Caerleon Comprehensive School,Restaurant/Cafe/Canteen,1,5,,47589,10,,51.61161400000000,11/00149/FOOD,564,environmental.health@newport.gov.uk,Newport,http://www.newport.gov.uk,-2.95885800000000,NP18 1NF,2014-06-24,fhrs_4_en-GB,4,,FHRS,5
474713,Newport High School Bettws Lane Newport South Wales,,,,Caterlink @Newport High School,Restaurant/Cafe/Canteen,1,5,,47603,10,,51.60526800000000,11/00150/FOOD,564,environmental.health@newport.gov.uk,Newport,http://www.newport.gov.uk,-3.01727900000000,NP20 7YB,2014-06-13,fhrs_4_en-GB,4,,FHRS,5
474714,30 Skinner Street Newport South Wales,,,,Cedar Catering,Restaurant/Cafe/Canteen,1,5,,30969,10,,51.58801000000000,09/00352/MIXED,564,environmental.health@newport.gov.uk,Newport,http://www.newport.gov.uk,-2.99567400000000,NP20 1HB,2014-11-27,fhrs_3_en-GB,3,,FHRS,10
474715,Mobile Vehicle Trading In Newport,,,,Cedars Rolls,Mobile caterer,7846,10,,572254,5,,,12/00205/MIXED,564,environmental.health@newport.gov.uk,Newport,http://www.newport.gov.uk,,,2013-07-29,fhrs_4_en-GB,4,,FHRS,5
474716,Cefn Mably Arms Michaelstone Road Michaelston-Y-Fedw Cardiff South Wales,,,,Cefn Mably Arms,Pub/bar/nightclub,7843,5,,13789,0,,51.55471700000000,04406/1002/2/000,564,environmental.health@newport.gov.uk,Newport,http://www.newport.gov.uk,-3.09620300000000,CF3 6XS,2014-03-05,fhrs_5_en-GB,5,,FHRS,0
474717,Cefn Mably Farm Park Began Road Cardiff South Wales,,,,Cefn Mably Farm Park,Restaurant/Cafe/Canteen,1,5,,32647,0,,51.54669200000000,09925/1003/2/000,564,environmental.health@newport.gov.uk,Newport,http://www.newport.gov.uk,-3.11185900000000,CF3 6XL,2014-01-30,fhrs_5_en-GB,5,,FHRS,5
474718,Maypole House Caerphilly Road Newport South Wales,,,,Celtic Catering,Mobile caterer,7846,5,,216266,5,,51.58108200000000,10/00030/MIXED,564,environmental.health@newport.gov.uk,Newport,http://www.newport.gov.uk,-3.08052900000000,NP10 8RP,2013-09-03,fhrs_5_en-GB,5,,FHRS,5
474719,Bisley Office Equipment Caswell Way Reevesland Industrial Estate Newport South Wales,,,,Celtic Catering @Bisley Canteen Kitchen 2,Restaurant/Cafe/Canteen,1,5,,339999,5,,51.56811100000000,06/00007/FOOD,564,environmental.health@newport.gov.uk,Newport,http://www.newport.gov.uk,-2.96671500000000,NP19 4PW,2014-09-19,fhrs_5_en-GB,5,,FHRS,5
474720,Solutia UK Ltd Traston Road Newport South Wales,,,,Celtic Catering @Solutia,Restaurant/Cafe/Canteen,1,10,,6687,5,,51.56680700000000,02390/2019/2/000,564,environmental.health@newport.gov.uk,Newport,http://www.newport.gov.uk,-2.96235900000000,NP19 4XF,2014-07-16,fhrs_4_en-GB,4,,FHRS,5
474721,Wales And West House Spooner Close Coedkernew Newport South Wales,,,,Celtic Catering @Wales & West Utilities,Restaurant/Cafe/Canteen,1,0,,18131,5,,51.55676600000000,06/00075/FOOD,564,environmental.health@newport.gov.uk,Newport,http://www.newport.gov.uk,-3.04409300000000,NP10 8FZ,2014-03-04,fhrs_5_en-GB,5,,FHRS,5
474722,Quinn Radiators Celtic Way Celtic Lakes Newport South Wales,,,,Celtic Catering@Quinn Radiators,Restaurant/Cafe/Canteen,1,5,,594066,10,,51.55112800000000,13/00323/MIXED,564,environmental.health@newport.gov.uk,Newport,http://www.newport.gov.uk,-3.03597400000000,NP10 8FS,2013-09-24,fhrs_4_en-GB,4,,FHRS,5
474723,Celtic Springs Day Nursery Buchanan Way Newport South Wales,,,,Celtic Springs Day Nursery,Hospitals/Childcare/Caring Premises,5,5,,22653,5,,51.55735300000000,07/00259/MIXED,564,environmental.health@newport.gov.uk,Newport,http://www.newport.gov.uk,-3.04270700000000,NP10 8FE,2014-02-11,fhrs_5_en-GB,5,,FHRS,5
474724,24 Cambrian Road Newport South Wales,,,,Charcoal Grill,Takeaway/sandwich shop,7844,0,,5469,10,,51.58888200000000,01875/0024/0/000,564,environmental.health@newport.gov.uk,Newport,http://www.newport.gov.uk,-2.99775700000000,NP20 4AB,2014-11-27,fhrs_4_en-GB,4,,FHRS,5
474725,Alway Junior And Infant School Aberthaw Road Newport South Wales,,,,Chartwells @ Alway Primary School,School/college/university,7845,5,,216239,5,,51.58536800000000,12/00092/FOOD,564,environmental.health@newport.gov.uk,Newport,http://www.newport.gov.uk,-2.95319600000000,NP19 9QP,2014-03-24,fhrs_5_en-GB,5,,FHRS,5
474726,Bassaleg School Forge Road Bassaleg Newport South Wales,,,,Chartwells @ Bassaleg Comprehensive Lower,School/college/university,7845,0,,189776,10,,51.57456600000000,12/00026/FOOD,564,environmental.health@newport.gov.uk,Newport,http://www.newport.gov.uk,-3.04339000000000,NP10 8NF,2014-11-25,fhrs_4_en-GB,4,,FHRS,5
474727,Bassaleg School Forge Road Bassaleg Newport South Wales,,,,Chartwells @ Bassaleg Comprehensive Upper School,School/college/university,7845,0,,48737,5,,51.57456600000000,11/00409/FOOD,564,environmental.health@newport.gov.uk,Newport,http://www.newport.gov.uk,-3.04339000000000,NP10 8NF,2014-09-18,fhrs_5_en-GB,5,,FHRS,5
474728,Caerleon Lodge Hill Junior School Lodge Hill Caerleon Newport South Wales,,,,Chartwells @ Caerleon Lodge Hill Junior School,School/college/university,7845,0,,594067,5,,51.61573300000000,13/00332/FOOD,564,environmental.health@newport.gov.uk,Newport,http://www.newport.gov.uk,-2.96967600000000,NP18 3BY,2014-06-11,fhrs_5_en-GB,5,,FHRS,5
474729,Caerleon Endowed Infant School High Street Caerleon Newport South Wales,,,,Chartwells @ Charles William Church In Wales School,School/college/university,7845,5,,48274,5,,,11/00244/FOOD,564,environmental.health@newport.gov.uk,Newport,http://www.newport.gov.uk,,,2014-06-26,fhrs_5_en-GB,5,,FHRS,5
474730,Clytha Primary School Bryngwyn Road Newport South Wales,,,,Chartwells @ Clytha Primary School,School/college/university,7845,5,,48847,0,,51.58520200000000,11/00470/FOOD,564,environmental.health@newport.gov.uk,Newport,http://www.newport.gov.uk,-3.00968600000000,NP20 4JT,2014-05-07,fhrs_5_en-GB,5,,FHRS,0
474731,Crindau Primary School Ailesbury Street Newport South Wales,,,,Chartwells @ Crindau Primary School,School/college/university,7845,10,,47945,5,,51.59881400000000,11/00191/FOOD,564,environmental.health@newport.gov.uk,Newport,http://www.newport.gov.uk,-2.99718100000000,NP20 5ND,2014-07-08,fhrs_4_en-GB,4,,FHRS,0
474732,Duffryn Infants And Junior School Partridge Way Duffryn Newport South Wales,,,,Chartwells @ Duffryn Infants & Junior School,School/college/university,7845,10,,48314,10,,51.56327400000000,11/00256/FOOD,564,environmental.health@newport.gov.uk,Newport,http://www.newport.gov.uk,-3.01661500000000,NP10 8WP,2014-03-11,fhrs_3_en-GB,3,,FHRS,10
474733,Duffryn High School Lighthouse Road Newport South Wales,,,,Chartwells @ Duffryn Lower School,School/college/university,7845,5,,189757,10,,51.55830200000000,11/00471/FOOD,564,environmental.health@newport.gov.uk,Newport,http://www.newport.gov.uk,-3.01245100000000,NP10 8YD,2014-06-11,fhrs_4_en-GB,4,,FHRS,5
474734,Duffryn High School Lighthouse Road Newport South Wales,,,,Chartwells @ Duffryn Middle School,School/college/university,7845,5,,48866,10,,51.55830200000000,11/00481/FOOD,564,environmental.health@newport.gov.uk,Newport,http://www.newport.gov.uk,-3.01245100000000,NP10 8YD,2014-06-11,fhrs_4_en-GB,4,,FHRS,5
474735,Eveswell Primary School Chepstow Road Newport South Wales,,,,Chartwells @ Eveswell Primary School,School/college/university,7845,0,,200560,10,,51.58898000000000,12/00044/FOOD,564,environmental.health@newport.gov.uk,Newport,http://www.newport.gov.uk,-2.97222400000000,NP19 8GX,2014-03-19,fhrs_4_en-GB,4,,FHRS,10
474736,Gaer Junior School Gaer Road Newport South Wales,,,,Chartwells @ Gaer Junior School,School/college/university,7845,10,,216244,10,,51.57723400000000,12/00075/FOOD,564,environmental.health@newport.gov.uk,Newport,http://www.newport.gov.uk,-3.01809500000000,NP20 3GY,2014-02-18,fhrs_3_en-GB,3,,FHRS,5
474737,Glan Usk Primary School Bank Street Newport South Wales,,,,Chartwells @ Glan Usk Primary School,School/college/university,7845,5,,48311,0,,51.60201300000000,11/00255/FOOD,564,environmental.health@newport.gov.uk,Newport,http://www.newport.gov.uk,-2.98249500000000,NP19 7HF,2014-12-10,fhrs_5_en-GB,5,,FHRS,5
474738,Glasllwch Junior & Infant School Melbourne Way Newport South Wales,,,,Chartwells @ Glasllwch Primary School,School/college/university,7845,5,,418818,0,,51.58277000000000,12/00202/FOOD,564,environmental.health@newport.gov.uk,Newport,http://www.newport.gov.uk,-3.02770200000000,NP20 3RH,2014-12-04,fhrs_5_en-GB,5,,FHRS,0
474739,High Cross Junior And Infant School High Cross Drive Rogerstone Newport South Wales,,,,Chartwells @ High Cross School,School/college/university,7845,5,,371045,10,,51.58616200000000,12/00138/FOOD,564,environmental.health@newport.gov.uk,Newport,http://www.newport.gov.uk,-3.04074000000000,NP10 9AB,2014-10-02,fhrs_4_en-GB,4,,FHRS,5
474740,Langstone Junior And Infant School Old Roman Road Langstone Newport South Wales,,,,Chartwells @ Langstone Junior & Infant School,School/college/university,7845,10,,48320,5,,51.61291800000000,11/00257/FOOD,564,environmental.health@newport.gov.uk,Newport,http://www.newport.gov.uk,-2.89032800000000,NP18 2JU,2014-10-10,fhrs_4_en-GB,4,,FHRS,5
474741,Llanmartin Primary School Waltwood Road Llanmartin Newport South Wales,,,,Chartwells @ Llanmartin Primary School,School/college/university,7845,10,,189758,10,,51.59427500000000,11/00473/FOOD,564,environmental.health@newport.gov.uk,Newport,http://www.newport.gov.uk,-2.89321200000000,NP18 2HB,2014-02-18,fhrs_3_en-GB,3,,FHRS,10
474742,Llanwern High School Hartridge Farm Road Newport South Wales,,,,Chartwells @ Llanwern High School,School/college/university,7845,5,,371041,5,,51.58591000000000,12/00112/FOOD,564,environmental.health@newport.gov.uk,Newport,http://www.newport.gov.uk,-2.93502100000000,NP18 2YE,2013-11-05,fhrs_5_en-GB,5,,FHRS,5
474743,Liswerry High School Nash Road Newport South Wales,,,,Chartwells @ Lliswerry High School,School/college/university,7845,0,,48742,0,,51.57161900000000,11/00411/FOOD,564,environmental.health@newport.gov.uk,Newport,http://www.newport.gov.uk,-2.95449600000000,NP19 4RP,2014-09-11,fhrs_5_en-GB,5,,FHRS,5
474744,Liswerry Primary School Nash Road Newport South Wales,,,,Chartwells @ Lliswerry Primary School,School/college/university,7845,10,,48733,5,,51.57878400000000,11/00407/FOOD,564,environmental.health@newport.gov.uk,Newport,http://www.newport.gov.uk,-2.95685400000000,NP19 4NG,2014-06-10,fhrs_4_en-GB,4,,FHRS,5
474745,Caerleon Lodge Hill Infants And Nursery School Roman Way Caerleon Newport South Wales,,,,Chartwells @ Lodge Hill Infant School,School/college/university,7845,5,,430389,5,,51.61690300000000,12/00207/FOOD,564,environmental.health@newport.gov.uk,Newport,http://www.newport.gov.uk,-2.96949900000000,NP18 3DY,2014-06-11,fhrs_5_en-GB,5,,FHRS,0
474746,Maes Ebbw School Maesglas Road Newport South Wales,,,,Chartwells @ Maes Ebbw School,School/college/university,7845,5,,48739,5,,51.56765000000000,11/00410/FOOD,564,environmental.health@newport.gov.uk,Newport,http://www.newport.gov.uk,-3.01066700000000,NP20 3DG,2014-10-02,fhrs_5_en-GB,5,,FHRS,5
474747,Maesglas Junior And Infant School Maesglas Road Newport South Wales,,,,Chartwells @ Maesglas Primary School,School/college/university,7845,0,,430390,0,,51.56765000000000,12/00208/FOOD,564,environmental.health@newport.gov.uk,Newport,http://www.newport.gov.uk,-3.01066700000000,NP20 3DG,2014-12-02,fhrs_5_en-GB,5,,FHRS,0
474748,Maindee Primary School Rodney Road Newport South Wales,,,,Chartwells @ Maindee Primary School,School/college/university,7845,0,,48735,5,,51.58792300000000,11/00408/FOOD,564,environmental.health@newport.gov.uk,Newport,http://www.newport.gov.uk,-2.98888800000000,NP19 0AP,2014-10-21,fhrs_5_en-GB,5,,FHRS,5
474749,Malpas Church In Wales Infant School Yewberry Close Newport South Wales,,,,Chartwells @ Malpas Church In Wales School,School/college/university,7845,10,,48324,5,,51.61001700000000,11/00258/FOOD,564,environmental.health@newport.gov.uk,Newport,http://www.newport.gov.uk,-3.00047400000000,NP20 6WJ,2014-07-09,fhrs_4_en-GB,4,,FHRS,5
474750,Malpas Court Junior And Infant School Whittle Drive Newport South Wales,,,,Chartwells @ Malpas Court Primary School,School/college/university,7845,5,,48786,10,,51.61689900000000,11/00430/FOOD,564,environmental.health@newport.gov.uk,Newport,http://www.newport.gov.uk,-3.01255600000000,NP20 6NS,2014-06-03,fhrs_4_en-GB,4,,FHRS,5
474751,Malpas Park Junior And Infant School Wavell Drive Newport South Wales,,,,Chartwells @ Malpas Park Primary,School/college/university,7845,5,,48784,5,,51.61672100000000,11/00429/FOOD,564,environmental.health@newport.gov.uk,Newport,http://www.newport.gov.uk,-3.00717900000000,NP20 6LE,2014-10-02,fhrs_5_en-GB,5,,FHRS,5
474752,Marshfield Junior And Infants School Marshfield Road Cardiff South Wales,,,,Chartwells @ Marshfield Primary School,School/college/university,7845,5,,189764,5,,51.54020800000000,12/00034/FOOD,564,environmental.health@newport.gov.uk,Newport,http://www.newport.gov.uk,-3.07634500000000,CF3 2UW,2014-10-23,fhrs_5_en-GB,5,,FHRS,5
474753,Millbrook Primary School Parret Road Bettws Newport South Wales,,,,Chartwells @ Millbrook Primary School,School/college/university,7845,5,,48860,0,,51.61139600000000,11/00477/FOOD,564,environmental.health@newport.gov.uk,Newport,http://www.newport.gov.uk,-3.01887400000000,NP20 7DQ,2014-11-13,fhrs_4_en-GB,4,,FHRS,10
474754,Milton Junior & Infants School Hendre Farm Drive Newport South Wales,,,,Chartwells @ Milton Junior & Infants School,School/college/university,7845,5,,48601,5,,51.59597300000000,11/00350/FOOD,564,environmental.health@newport.gov.uk,Newport,http://www.newport.gov.uk,-2.92923600000000,NP19 9HB,2014-03-07,fhrs_2_en-GB,2,,FHRS,15
474755,Monnow Junior And Infant School Darent Close Bettws Newport South Wales,,,,Chartwells @ Monnow Infants School,School/college/university,7845,0,,47886,5,,51.60886500000000,11/00183/FOOD,564,environmental.health@newport.gov.uk,Newport,http://www.newport.gov.uk,-3.03474600000000,NP20 7SQ,2014-06-17,fhrs_5_en-GB,5,,FHRS,5
474756,Mount Pleasant Primary School Ruskin Avenue Rogerstone Newport South Wales,,,,Chartwells @ Mount Pleasant Primary School,School/college/university,7845,0,,48851,5,,51.59527400000000,11/00474/FOOD,564,environmental.health@newport.gov.uk,Newport,http://www.newport.gov.uk,-3.04942200000000,NP10 0AB,2014-09-18,fhrs_5_en-GB,5,,FHRS,5
474757,Pentrepoeth Primary School Cwm-Cwddy Drive Bassaleg Newport South Wales,,,,Chartwells @ Pentrepoeth Primary School,School/college/university,7845,5,,48602,0,,51.57549100000000,11/00351/FOOD,564,environmental.health@newport.gov.uk,Newport,http://www.newport.gov.uk,-3.06157900000000,NP10 8JN,2014-02-20,fhrs_5_en-GB,5,,FHRS,5
474758,Pillgwenlly County Primary School Capel Crescent Newport South Wales,,,,Chartwells @ Pillgwenlly Primary School,School/college/university,7845,0,,48858,0,,51.57742500000000,11/00476/FOOD,564,environmental.health@newport.gov.uk,Newport,http://www.newport.gov.uk,-2.99480800000000,NP20 2FT,2014-12-04,fhrs_5_en-GB,5,,FHRS,5
474759,Ringland Primary School Dunstable Road Newport South Wales,,,,Chartwells @ Ringland Primary School,School/college/university,7845,5,,465527,0,,51.58847700000000,12/00335/FOOD,564,environmental.health@newport.gov.uk,Newport,http://www.newport.gov.uk,-2.93794600000000,NP19 9LU,2014-11-11,fhrs_5_en-GB,5,,FHRS,5
474760,Rogerstone Primary School Ebenezer Drive Rogerstone Newport South Wales,,,,Chartwells @ Rogerstone Primary School,School/college/university,7845,5,,48855,10,,51.58648600000000,11/00475/FOOD,564,environmental.health@newport.gov.uk,Newport,http://www.newport.gov.uk,-3.04975400000000,NP10 9YX,2014-05-01,fhrs_4_en-GB,4,,FHRS,5
474761,Somerton Junior And Infant School Hawthorne Fosse Newport South Wales,,,,Chartwells @ Somerton Junior & Infants School,School/college/university,7845,10,,502622,5,,51.58676100000000,13/00026/FOOD,564,environmental.health@newport.gov.uk,Newport,http://www.newport.gov.uk,-2.95998000000000,NP19 9AB,2014-03-18,fhrs_3_en-GB,3,,FHRS,10
474762,St Andrews Primary School Milner Street Newport South Wales,,,,Chartwells @ St Andrews Infant  School,School/college/university,7845,5,,465526,5,,51.58113400000000,12/00327/FOOD,564,environmental.health@newport.gov.uk,Newport,http://www.newport.gov.uk,-2.96958900000000,NP19 0GS,2014-05-14,fhrs_5_en-GB,5,,FHRS,5
474763,St Davids RC Primary School Park Crescent Newport South Wales,,,,Chartwells @ St Davids RC Primary School,School/college/university,7845,0,,189783,5,,52.31115341186523,11/00472/FOOD,564,environmental.health@newport.gov.uk,Newport,http://www.newport.gov.uk,-3.89185094833374,NP20 3AQ,2014-10-23,fhrs_5_en-GB,5,,FHRS,5
474764,St Gabriels Junior And Infants School Ringland Circle Newport South Wales,,,,Chartwells @ St Gabriels Junior And Infants School,School/college/university,7845,5,,418817,5,,51.59210600000000,12/00199/FOOD,564,environmental.health@newport.gov.uk,Newport,http://www.newport.gov.uk,-2.93715500000000,NP19 9PQ,2013-12-11,fhrs_5_en-GB,5,,FHRS,0
474765,St Josephs RC High School Pencarn Way Duffryn Newport South Wales,,,,Chartwells @ St Joseph's Comprehensive School,School/college/university,7845,5,,536404,0,,51.55726600000000,13/00063/FOOD,564,environmental.health@newport.gov.uk,Newport,http://www.newport.gov.uk,-3.02405400000000,NP10 8XH,2014-12-23,fhrs_5_en-GB,5,,FHRS,0
474766,St Josephs RC Junior And Infants School Fairoak Avenue Newport South Wales,,,,Chartwells @ St Josephs Primary School,School/college/university,7845,0,,465525,5,,51.59297600000000,12/00326/FOOD,564,environmental.health@newport.gov.uk,Newport,http://www.newport.gov.uk,-2.98035100000000,NP19 8FW,2014-05-15,fhrs_5_en-GB,5,,FHRS,5
474767,St Julians Comprehensive School Heather Road Newport South Wales,,,,Chartwells @ St Julians Comprehensive School,School/college/university,7845,10,,480663,5,,51.60108800000000,12/00380/FOOD,564,environmental.health@newport.gov.uk,Newport,http://www.newport.gov.uk,-2.97700200000000,NP19 7XU,2014-04-29,fhrs_4_en-GB,4,,FHRS,5
474768,St Julians Junior And Infants School Beaufort Road Newport South Wales,,,,Chartwells @ St Julians Primary School,School/college/university,7845,0,,48160,0,,51.60068300000000,11/00223/FOOD,564,environmental.health@newport.gov.uk,Newport,http://www.newport.gov.uk,-2.96503900000000,NP19 7UB,2014-10-16,fhrs_5_en-GB,5,,FHRS,5
474769,St Marys RC Junior And Infant School Queens Hill Newport South Wales,,,,Chartwells @ St Marys RC Junior & Infant School,School/college/university,7845,5,,48329,0,,51.59150900000000,11/00259/FOOD,564,environmental.health@newport.gov.uk,Newport,http://www.newport.gov.uk,-2.99976400000000,NP20 5HJ,2015-01-21,fhrs_5_en-GB,5,,FHRS,5
474770,St Michaels RC Primary School Baldwin Close Newport South Wales,,,,Chartwells @ St Michaels Primary School,School/college/university,7845,10,,402811,15,,51.57433300000000,12/00137/FOOD,564,environmental.health@newport.gov.uk,Newport,http://www.newport.gov.uk,-2.99364400000000,NP20 2LW,2013-12-05,fhrs_2_en-GB,2,,FHRS,10
474771,St Patricks RC School Fairfax Road Newport South Wales,,,,Chartwells @ St Patricks RC School,School/college/university,7845,10,,430392,10,,51.58366200000000,12/00220/FOOD,564,environmental.health@newport.gov.uk,Newport,http://www.newport.gov.uk,-2.96727600000000,NP19 0HR,2013-12-19,fhrs_3_en-GB,3,,FHRS,5
474772,St Woolos Junior And Infant School Stow Hill Newport South Wales,,,,Chartwells @ St Woolos Primary School,School/college/university,7845,0,,465524,0,,51.58475800000000,12/00325/FOOD,564,environmental.health@newport.gov.uk,Newport,http://www.newport.gov.uk,-2.99737800000000,NP20 4DW,2014-03-21,fhrs_5_en-GB,5,,FHRS,5
474773,Ysgol Gymraeg Bro Teyrnon Brynglas Drive Newport South Wales,,,,Chartwells @ Ysgol Gymraeg Bro Teyrnon,School/college/university,7845,10,,687406,0,,51.60676900000000,14/00198/FOOD,564,environmental.health@newport.gov.uk,Newport,http://www.newport.gov.uk,-2.99963700000000,NP20 5QS,2014-07-01,fhrs_4_en-GB,4,,FHRS,5
474774,Ysgol Gymraeg Casnewydd Hartridge Farm Road Newport South Wales,,,,Chartwells @ Ysgol Gymraeg Casnewydd,School/college/university,7845,5,,189791,10,,51.58450200000000,11/00523/FOOD,564,environmental.health@newport.gov.uk,Newport,http://www.newport.gov.uk,-2.93568500000000,NP18 2LN,2014-09-19,fhrs_4_en-GB,4,,FHRS,5
474775,Ysgol Gymraeg Ifor Hael Meon Close Bettws Newport South Wales,,,,Chartwells @ Ysgol Gymraeg Ifor Hael,School/college/university,7845,5,,454951,0,,51.61088000000000,12/00317/FOOD,564,environmental.health@newport.gov.uk,Newport,http://www.newport.gov.uk,-3.01720200000000,NP20 7DU,2014-07-16,fhrs_5_en-GB,5,,FHRS,5
474776,Monnow Junior And Infant School Darent Close Bettws Newport South Wales,,,,Chartwells @Monnow Junior School,School/college/university,7845,5,,340036,0,,51.60886500000000,12/00096/FOOD,564,environmental.health@newport.gov.uk,Newport,http://www.newport.gov.uk,-3.03474600000000,NP20 7SQ,2014-12-11,fhrs_4_en-GB,4,,FHRS,10
474777,,,,,Cheeky Cherub Childminding,Hospitals/Childcare/Caring Premises,5,,,35434,,,,10/00241/FOOD,564,environmental.health@newport.gov.uk,Newport,http://www.newport.gov.uk,,,2011-11-29,fhrs_exempt_en-GB,Exempt,,FHRS,
474778,,,,,Cherrybelle Cakes,Other catering premises,7841,10,,480664,5,,,12/00382/FOOD,564,environmental.health@newport.gov.uk,Newport,http://www.newport.gov.uk,,,2012-11-09,fhrs_4_en-GB,4,,FHRS,5
474779,52-54 Clarence Place Newport South Wales,,,,Chez Giovanni Restaurant And Topolino's Wine Bar Bistro,Restaurant/Cafe/Canteen,1,5,,6406,5,,51.59101500000000,02165/0052/0/000,564,environmental.health@newport.gov.uk,Newport,http://www.newport.gov.uk,-2.99013900000000,NP19 0AH,2013-09-12,fhrs_4_en-GB,4,,FHRS,10
474780,132 Chepstow Road Newport South Wales,,,,Chi Ho Cafe And Diner,Restaurant/Cafe/Canteen,1,5,,732496,5,,51.58972600000000,13/00268/MIXED,564,environmental.health@newport.gov.uk,Newport,http://www.newport.gov.uk,-2.97863500000000,NP19 8EG,2015-01-07,fhrs_5_en-GB,5,,FHRS,0
474781,80 - 81 Commercial Road Newport South Wales,,,,Chicken Cottage,Takeaway/sandwich shop,7844,10,,585771,10,,51.57724600000000,13/00298/MIXED,564,environmental.health@newport.gov.uk,Newport,http://www.newport.gov.uk,-2.98835300000000,NP20 2PG,2013-08-21,fhrs_3_en-GB,3,,FHRS,10
474782,105-106 Commercial Street Newport South Wales,,,,ChildsPlay Cafe Ltd,Restaurant/Cafe/Canteen,1,5,,25937,10,,51.58262100000000,08/00163/MIXED,564,environmental.health@newport.gov.uk,Newport,http://www.newport.gov.uk,-2.99280000000000,NP20 1LU,2014-03-20,fhrs_4_en-GB,4,,FHRS,5
474783,40 Cardiff Road Newport South Wales,,,,China Garden Restaurant,Restaurant/Cafe/Canteen,1,5,,5568,10,,51.58176300000000,01945/0040/0/000,564,environmental.health@newport.gov.uk,Newport,http://www.newport.gov.uk,-2.99332900000000,NP20 2ED,2014-05-15,fhrs_3_en-GB,3,,FHRS,10
474784,205 Caerleon Road Newport South Wales,,,,China Kitchen,Takeaway/sandwich shop,7844,5,,5447,10,,51.59820000000000,01865/0205/2/000,564,environmental.health@newport.gov.uk,Newport,http://www.newport.gov.uk,-2.98144500000000,NP19 7HA,2013-11-11,fhrs_4_en-GB,4,,FHRS,5
474785,4 Shopping Centre Thornbury Park Rogerstone Newport South Wales,,,,China Town,Takeaway/sandwich shop,7844,5,,46705,10,,51.58455100000000,11/00080/MIXED,564,environmental.health@newport.gov.uk,Newport,http://www.newport.gov.uk,-3.04698100000000,NP10 9DP,2014-05-08,fhrs_4_en-GB,4,,FHRS,5
474786,121 Commercial Road Newport South Wales,,,,Chip Stop,Takeaway/sandwich shop,7844,5,,465521,10,,51.57621400000000,12/00311/MIXED,564,environmental.health@newport.gov.uk,Newport,http://www.newport.gov.uk,-2.98805700000000,NP20 2GW,2013-10-03,fhrs_4_en-GB,4,,FHRS,5
474787,Mobile Vehicle Trading In Newport,,,,Chipstix,Mobile caterer,7846,5,,610225,5,,,13/00334/MIXED,564,environmental.health@newport.gov.uk,Newport,http://www.newport.gov.uk,,,2013-11-01,fhrs_5_en-GB,5,,FHRS,5
474788,Penylan Baptist Church 202 Christchurch Road Newport South Wales,,,,Christchurch Ladies Group @Penylan Baptist Church,Other catering premises,7841,5,,200579,5,,51.59289700000000,11/00464/MIXED,564,environmental.health@newport.gov.uk,Newport,http://www.newport.gov.uk,-2.95944600000000,NP19 8BD,2014-12-23,fhrs_5_en-GB,5,,FHRS,5
474789,194 Christchurch Road Newport South Wales,,,,Christchurch Road & PO Store,Retailers - other,4613,5,,402813,5,,51.59289700000000,12/00144/MIXED,564,environmental.health@newport.gov.uk,Newport,http://www.newport.gov.uk,-2.95944600000000,NP19 8BD,2014-12-23,fhrs_5_en-GB,5,,FHRS,5
474790,,,,,Christine Ann Williams Childminding,Hospitals/Childcare/Caring Premises,5,,,35664,,,,10/00286/FOOD,564,environmental.health@newport.gov.uk,Newport,http://www.newport.gov.uk,,,2011-03-21,fhrs_exempt_en-GB,Exempt,,FHRS,
474791,,,,,Chuckle Bugz,Hospitals/Childcare/Caring Premises,5,,,189760,,,,11/00264/FOOD,564,environmental.health@newport.gov.uk,Newport,http://www.newport.gov.uk,,,2012-01-11,fhrs_exempt_en-GB,Exempt,,FHRS,
474792,Pentwyn House Pentwyn Lane Bettws Newport South Wales,,,,Chuckles Nursery,Hospitals/Childcare/Caring Premises,5,5,,14219,5,,51.61496800000000,04823/1003/2/000,564,environmental.health@newport.gov.uk,Newport,http://www.newport.gov.uk,-3.02887700000000,NP20 7AE,2014-11-18,fhrs_5_en-GB,5,,FHRS,0
474793,46 Alexandra Road Newport South Wales,,,,Chun Ho Takeaway,Takeaway/sandwich shop,7844,20,,502616,10,,51.57315000000000,13/00005/MIXED,564,environmental.health@newport.gov.uk,Newport,http://www.newport.gov.uk,-2.98992400000000,NP20 2JE,2014-07-31,fhrs_1_en-GB,1,,FHRS,10
474794,420 Malpas Road Newport South Wales,,,,CJ Fish Bar,Takeaway/sandwich shop,7844,5,,536398,5,,51.61103100000000,12/00127/MIXED,564,environmental.health@newport.gov.uk,Newport,http://www.newport.gov.uk,-3.00484300000000,NP20 6WE,2014-10-21,fhrs_5_en-GB,5,,FHRS,5
474795,,,,,Claire John Childminding,Hospitals/Childcare/Caring Premises,5,,,200589,,,,11/00143/FOOD,564,environmental.health@newport.gov.uk,Newport,http://www.newport.gov.uk,,,2012-02-03,fhrs_exempt_en-GB,Exempt,,FHRS,
474796,Mobile Vehicle Trading In What Plus Car Park Newport,,,,Claire's Catering,Mobile caterer,7846,5,,610232,5,,,13/00377/MIXED,564,environmental.health@newport.gov.uk,Newport,http://www.newport.gov.uk,,,2013-10-23,fhrs_5_en-GB,5,,FHRS,5
474797,143-144 Commercial Road Newport South Wales,,,,Clare Foodstores,Retailers - other,4613,5,,216247,5,,51.57825200000000,02295/0142/1/000,564,environmental.health@newport.gov.uk,Newport,http://www.newport.gov.uk,-2.98954400000000,NP20 2PJ,2014-03-11,fhrs_4_en-GB,4,,FHRS,10
474798,Claremont Court Care Home 56 Pillmawr Road Newport South Wales,,,,Claremont Court Care Home,Hospitals/Childcare/Caring Premises,5,5,,657559,0,,51.61093800000000,13/00405/MIXED,564,environmental.health@newport.gov.uk,Newport,http://www.newport.gov.uk,-3.00205400000000,NP20 6WG,2014-04-02,fhrs_5_en-GB,5,,FHRS,0
474799,27 - 29 Chepstow Road Newport South Wales,,,,Clarence Workingmens Club,Pub/bar/nightclub,7843,10,,339983,5,,51.59118100000000,02115/0027/2/000,564,environmental.health@newport.gov.uk,Newport,http://www.newport.gov.uk,-2.98753000000000,NP19 8BW,2014-12-24,fhrs_4_en-GB,4,,FHRS,5
474800,St Marys Church Hall Llanover Close Newport South Wales,,,,Cloisters Tea Room At St Mary's Malpas,Restaurant/Cafe/Canteen,1,0,,657575,0,,51.59107971191406,14/00074/MIXED,564,environmental.health@newport.gov.uk,Newport,http://www.newport.gov.uk,-2.98830008506775,,2014-04-15,fhrs_5_en-GB,5,,FHRS,0
474801,Coach And Horses Newport Road Cardiff South Wales,,,,Coach & Horses,Pub/bar/nightclub,7843,5,,340015,10,,51.54574000000000,10005/1008/2/000,564,environmental.health@newport.gov.uk,Newport,http://www.newport.gov.uk,-3.07908600000000,CF3 2UQ,2013-11-07,fhrs_3_en-GB,3,,FHRS,10
474802,Duffryn Infants And Junior School Partridge Way Duffryn Newport South Wales,,,,Coed Cafe @ Children's Community Centre,Restaurant/Cafe/Canteen,1,0,,687399,0,,51.56327400000000,14/00001/MIXED,564,environmental.health@newport.gov.uk,Newport,http://www.newport.gov.uk,-3.01661500000000,NP10 8WP,2014-06-25,fhrs_5_en-GB,5,,FHRS,5
474803,Ground Floor 47 Commercial Street Newport South Wales,,,,Coffee #1,Restaurant/Cafe/Canteen,1,5,,48816,10,,51.58527100000000,11/00450/MIXED,564,environmental.health@newport.gov.uk,Newport,http://www.newport.gov.uk,-2.99415700000000,NP20 1LP,2013-08-20,fhrs_4_en-GB,4,,FHRS,5
474804,Turpins Western Industrial Estate Caerleon Newport South Wales,,,,Coffi Mawr,Restaurant/Cafe/Canteen,1,5,,710285,5,,51.61990900000000,14/00269/MIXED,564,environmental.health@newport.gov.uk,Newport,http://www.newport.gov.uk,-2.95933700000000,NP18 3NN,2014-10-08,fhrs_5_en-GB,5,,FHRS,5
474805,Coldra Beefeater Chepstow Road Newport South Wales,,,,Coldra Beefeater Inn,Restaurant/Cafe/Canteen,1,5,,6346,10,,51.60239300000000,02115/1068/2/000,564,environmental.health@newport.gov.uk,Newport,http://www.newport.gov.uk,-2.92235000000000,NP18 2NX,2014-02-17,fhrs_4_en-GB,4,,FHRS,5
474806,21A Leeway Court Leeway Industrial Estate Newport South Wales,,,,Coles Bakery,Manufacturers/packers,7839,20,,732500,5,,51.57249100000000,14/00193/MIXED,564,environmental.health@newport.gov.uk,Newport,http://www.newport.gov.uk,-2.94664900000000,NP19 4SJ,2014-12-22,fhrs_1_en-GB,1,,FHRS,5
474807,,,,,Colins Carvery,Other catering premises,7841,0,,34537,0,,,10/00125/MIXED,564,environmental.health@newport.gov.uk,Newport,http://www.newport.gov.uk,,,2014-10-23,fhrs_5_en-GB,5,,FHRS,0
474808,169 Commercial Road Newport South Wales,,,,Commercial Food Stores,Retailers - other,4613,10,,454944,0,,51.57933300000000,12/00190/MIXED,564,environmental.health@newport.gov.uk,Newport,http://www.newport.gov.uk,-2.99030400000000,NP20 2PL,2014-02-18,fhrs_4_en-GB,4,,FHRS,0
474809,Community House Eton Road Newport South Wales,,,,Community House Presbyterian Church,Other catering premises,7841,5,,33596,0,,51.58876500000000,10/00053/MIXED,564,environmental.health@newport.gov.uk,Newport,http://www.newport.gov.uk,-2.98394100000000,NP19 0BL,2014-09-30,fhrs_5_en-GB,5,,FHRS,0
474810,1 Chapel Terrace Harlech Drive Rhiwderin Newport South Wales,,,,Congregational Chapel Rhiwderin,Other catering premises,7841,5,,610235,5,,51.58109700000000,13/00390/MIXED,564,environmental.health@newport.gov.uk,Newport,http://www.newport.gov.uk,-3.06804500000000,NP10 8RH,2014-10-22,fhrs_5_en-GB,5,,FHRS,5
474811,Belle Vue Park Pavillion Friars Road Newport South Wales,,,,Conservatory - Belle-Vue Tea Rooms,Restaurant/Cafe/Canteen,1,5,,340000,5,,51.58010700000000,06/00109/FOOD,564,environmental.health@newport.gov.uk,Newport,http://www.newport.gov.uk,-3.00306500000000,,2014-03-05,fhrs_5_en-GB,5,,FHRS,5
474812,The Celtic Manor Resort The Coldra Newport South Wales,,,,Convention Centre Kitchen (inc Ancillary) Celtic Manor,Restaurant/Cafe/Canteen,1,10,,189752,0,,51.60221400000000,02115/1000/0/005,564,environmental.health@newport.gov.uk,Newport,http://www.newport.gov.uk,-2.93140000000000,NP18 1HQ,2014-07-29,fhrs_4_en-GB,4,,FHRS,10
474813,4 Clytha Park Road Newport South Wales,,,,Co-operative Pharmacy,Retailers - other,4613,,,33982,,,51.58732600000000,10/00079/MIXED,564,environmental.health@newport.gov.uk,Newport,http://www.newport.gov.uk,-3.00310700000000,NP20 4NZ,2011-08-02,fhrs_exempt_en-GB,Exempt,,FHRS,
474814,Chapelwood Primary Care Centre Western Valley Road Rogerstone Newport South Wales,,,,Co-operative Pharmacy,Retailers - other,4613,,,32760,,,51.58237000000000,10/00003/MIXED,564,environmental.health@newport.gov.uk,Newport,http://www.newport.gov.uk,-3.04144700000000,NP10 9DU,2011-06-28,fhrs_exempt_en-GB,Exempt,,FHRS,
474815,Co-op Filling Station High Cross Road Rogerstone Newport South Wales,,,,Cooperative Stores Ltd,Retailers - supermarkets/hypermarkets,7840,0,,34123,0,,51.58798200000000,10/00090/MIXED,564,environmental.health@newport.gov.uk,Newport,http://www.newport.gov.uk,-3.04030500000000,NP10 9AE,2014-09-11,fhrs_5_en-GB,5,,FHRS,5
474816,177A Caerleon Road Newport South Wales,,,,Copperfields Cafe,Restaurant/Cafe/Canteen,1,5,,465536,5,,51.59681000000000,12/00373/MIXED,564,environmental.health@newport.gov.uk,Newport,http://www.newport.gov.uk,-2.98216600000000,NP19 7FX,2014-04-30,fhrs_5_en-GB,5,,FHRS,0
474817,2B Somerton Road Newport South Wales,,,,Coriander,Takeaway/sandwich shop,7844,5,,340008,5,,51.58717700000000,09/00345/MIXED,564,environmental.health@newport.gov.uk,Newport,http://www.newport.gov.uk,-2.96293400000000,NP19 8LD,2013-08-12,fhrs_4_en-GB,4,,FHRS,10
474818,Cornerstone Bakery 42 Alexandra Road Newport South Wales,,,,Cornerstone Bakery,Manufacturers/packers,7839,5,,4391,5,,51.57315000000000,01090/0042/0/000,564,environmental.health@newport.gov.uk,Newport,http://www.newport.gov.uk,-2.98992400000000,NP20 2JE,2014-10-15,fhrs_5_en-GB,5,,FHRS,5
474819,163 Corporation Road Newport South Wales,,,,Corporation Road Post Office,Retailers - other,4613,10,,430373,10,,51.58696000000000,02390/0163/0/000,564,environmental.health@newport.gov.uk,Newport,http://www.newport.gov.uk,-2.98257400000000,NP19 0BJ,2014-10-15,fhrs_3_en-GB,3,,FHRS,10
474820,22-24 Commercial Street Newport South Wales,,,,Costa,Restaurant/Cafe/Canteen,1,0,,200561,0,,51.58690800000000,11/00365/MIXED,564,environmental.health@newport.gov.uk,Newport,http://www.newport.gov.uk,-2.99520300000000,NP20 1SN,2014-12-23,fhrs_5_en-GB,5,,FHRS,5
474821,Royal Gwent Hospital Cardiff Road Newport South Wales,,,,Costa Coffee @ The Royal Gwent Hospital,Restaurant/Cafe/Canteen,1,0,,710275,5,,51.57980600000000,14/00161/MIXED,564,environmental.health@newport.gov.uk,Newport,http://www.newport.gov.uk,-2.99816500000000,NP20 2UB,2014-09-25,fhrs_5_en-GB,5,,FHRS,5
474822,Unit 11A Newport Retail Park Spytty Road Newport South Wales,,,,Costa Ltd,Restaurant/Cafe/Canteen,1,5,,548805,5,,51.57757800000000,13/00024/MIXED,564,environmental.health@newport.gov.uk,Newport,http://www.newport.gov.uk,-2.94359500000000,NP19 4QQ,2014-12-04,fhrs_5_en-GB,5,,FHRS,0
474823,45 Ringland Centre Ringland Circle Newport South Wales,,,,Costcutter,Retailers - other,4613,10,,33218,10,,51.59466800000000,10/00031/MIXED,564,environmental.health@newport.gov.uk,Newport,http://www.newport.gov.uk,-2.93046600000000,NP19 9HQ,2014-10-28,fhrs_2_en-GB,2,,FHRS,15
474824,6 Caerphilly Road Newport South Wales,,,,Cottage Tea Rooms,Restaurant/Cafe/Canteen,1,20,,340024,5,,51.57740200000000,12/00009/MIXED,564,environmental.health@newport.gov.uk,Newport,http://www.newport.gov.uk,-3.04608100000000,NP10 8LE,2013-09-13,fhrs_1_en-GB,1,,FHRS,10
474825,Mobile Vehicle Trading In Newport South Wales,,,,Crepes And Baguettes,Mobile caterer,7846,5,,687405,5,,51.59108000000000,14/00171/MIXED,564,environmental.health@newport.gov.uk,Newport,http://www.newport.gov.uk,-2.98830000000000,,2014-07-07,fhrs_5_en-GB,5,,FHRS,0
474826,10 Cromwell Road Newport South Wales,,,,Cromwell Road Stores,Retailers - other,4613,10,,6750,0,,51.58258500000000,02480/0010/2/000,564,environmental.health@newport.gov.uk,Newport,http://www.newport.gov.uk,-2.97135200000000,NP19 0FZ,2014-11-07,fhrs_4_en-GB,4,,FHRS,0
474827,Crosshands Hotel 446 Chepstow Road Newport South Wales,,,,Cross Hands,Pub/bar/nightclub,7843,0,,548803,0,,51.58804100000000,12/00416/MIXED,564,environmental.health@newport.gov.uk,Newport,http://www.newport.gov.uk,-2.96171100000000,NP19 8JF,2015-01-26,fhrs_5_en-GB,5,,FHRS,5
474828,Cross Keys Hotel 9 Market Street Newport South Wales,,,,Cross Keys Hotel,Pub/bar/nightclub,7843,10,,13678,10,,51.58922400000000,04300/0009/0/001,564,environmental.health@newport.gov.uk,Newport,http://www.newport.gov.uk,-2.99672600000000,NP20 1FU,2013-11-15,fhrs_3_en-GB,3,,FHRS,10
474829,168 Chepstow Road Newport South Wales,,,,Crystal Chicken & Kebab House,Takeaway/sandwich shop,7844,5,,6329,10,,51.58972700000000,02115/0168/0/000,564,environmental.health@newport.gov.uk,Newport,http://www.newport.gov.uk,-2.97863500000000,NP19 8EG,2014-10-27,fhrs_4_en-GB,4,,FHRS,5
474830,,,,,Cupcakes By Jeni,Other catering premises,7841,0,,657565,0,,,14/00020/MIXED,564,environmental.health@newport.gov.uk,Newport,http://www.newport.gov.uk,,,2014-04-14,fhrs_5_en-GB,5,,FHRS,0
474831,,,,,Cupcakes Galore,Other catering premises,7841,10,,430388,5,,,12/00188/FOOD,564,environmental.health@newport.gov.uk,Newport,http://www.newport.gov.uk,,,2014-12-22,fhrs_4_en-GB,4,,FHRS,5
474832,4 - 5 Cross Street Caerleon Newport South Wales,,,,Curro's Restaurant,Restaurant/Cafe/Canteen,1,5,,6774,5,,51.61003800000000,02486/0004/2/000,564,environmental.health@newport.gov.uk,Newport,http://www.newport.gov.uk,-2.95365500000000,NP18 1AF,2014-09-12,fhrs_5_en-GB,5,,FHRS,5
474833,34 Clarence Place Newport South Wales,,,,Curry On The Curve,Restaurant/Cafe/Canteen,1,5,,726548,5,,51.59093900000000,14/00343/MIXED,564,environmental.health@newport.gov.uk,Newport,http://www.newport.gov.uk,-2.99067100000000,NP19 0AG,2014-12-16,fhrs_4_en-GB,4,,FHRS,10
474834,Newport Central Police Station 3 Cardiff Road Newport South Wales,,,,Custody Unit,Restaurant/Cafe/Canteen,1,0,,502604,0,,51.57996800000000,05/00131/MIXED,564,environmental.health@newport.gov.uk,Newport,http://www.newport.gov.uk,-2.99489200000000,NP20 2EH,2015-01-05,fhrs_5_en-GB,5,,FHRS,0
474835,Croesheolydd Farm Penylan Road Bassaleg Newport South Wales,,,,Cwm Hedd Trout Lake (Lt Williams & Sons),Restaurant/Cafe/Canteen,1,10,,14228,5,,51.56350900000000,04837/1002/2/000,564,environmental.health@newport.gov.uk,Newport,http://www.newport.gov.uk,-3.06510800000000,NP10 8RW,2013-11-09,fhrs_4_en-GB,4,,FHRS,0
474836,,,,,Cwtch Childminding,Hospitals/Childcare/Caring Premises,5,,,216274,,,,11/00146/FOOD,564,environmental.health@newport.gov.uk,Newport,http://www.newport.gov.uk,,,2012-02-20,fhrs_exempt_en-GB,Exempt,,FHRS,
474837,,,,,Cwtchy Cakes,Other catering premises,7841,10,,510163,5,,,12/00360/FOOD,564,environmental.health@newport.gov.uk,Newport,http://www.newport.gov.uk,,,2013-02-04,fhrs_4_en-GB,4,,FHRS,5
474838,Orchard Lane Community Centre Orchard Lane Newport South Wales,,,,Cylch Meithrin Y Delyn,Hospitals/Childcare/Caring Premises,5,10,,631486,5,,51.59973300000000,13/00303/MIXED,564,environmental.health@newport.gov.uk,Newport,http://www.newport.gov.uk,-2.98208400000000,NP19 7DW,2014-01-20,fhrs_3_en-GB,3,,FHRS,10
474839,Fourteen Locks Canal Centre Cwm Lane Rogerstone Newport South Wales,,,,Dadford Tea Room,Restaurant/Cafe/Canteen,1,5,,371044,0,,51.59816300000000,12/00136/MIXED,564,environmental.health@newport.gov.uk,Newport,http://www.newport.gov.uk,-3.03399700000000,NP10 9GN,2014-02-25,fhrs_5_en-GB,5,,FHRS,0
474840,,,,,Daily Child Care,Hospitals/Childcare/Caring Premises,5,,,200576,,,,10/00043/FOOD,564,environmental.health@newport.gov.uk,Newport,http://www.newport.gov.uk,,,2012-02-08,fhrs_exempt_en-GB,Exempt,,FHRS,
474841,40 Cardiff Road Newport South Wales,,,,Danny's Noodle Bar- Mobile Trading Outside China Garden,Mobile caterer,7846,0,,26450,5,,51.58176300000000,08/00302/MIXED,564,environmental.health@newport.gov.uk,Newport,http://www.newport.gov.uk,-2.99332900000000,NP20 2ED,2014-09-02,fhrs_4_en-GB,4,,FHRS,10
474842,Danygraig Nursing Home Quantock Drive Newport South Wales,,,,Danygraig Nursing Home,Hospitals/Childcare/Caring Premises,5,5,,30475,5,,51.59382500000000,09/00200/FOOD,564,environmental.health@newport.gov.uk,Newport,http://www.newport.gov.uk,-2.94817600000000,NP19 9DF,2014-06-18,fhrs_4_en-GB,4,,FHRS,10
474843,Mobile Vehicle Trading In Newport South Wales,,,,Dave's Whippy,Mobile caterer,7846,0,,657577,0,,51.59108000000000,14/00084/MIXED,564,environmental.health@newport.gov.uk,Newport,http://www.newport.gov.uk,-2.98830000000000,,2014-04-07,fhrs_5_en-GB,5,,FHRS,0
474844,Unit 1 Tregwilym Industrial Estate Rogerstone Newport South Wales,,,,Davies Catering @ TT Electronics,Restaurant/Cafe/Canteen,1,10,,29560,5,,51.58225000000000,09/00090/MIXED,564,environmental.health@newport.gov.uk,Newport,http://www.newport.gov.uk,-3.04786700000000,NP10 9DQ,2013-10-08,fhrs_4_en-GB,4,,FHRS,5
474845,Coed Rheddyn Ringland Way Newport South Wales,,,,Davies Catering @SPTS,Restaurant/Cafe/Canteen,1,5,,48446,5,,51.60060700000000,11/00292/MIXED,564,environmental.health@newport.gov.uk,Newport,http://www.newport.gov.uk,-2.92309300000000,NP18 2TA,2014-11-11,fhrs_4_en-GB,4,,FHRS,10
474846,Mobile Vehicle Trading At Junction Of Corporation Road And Oxwich Road Newport South Wales,,,,Dawns Big Baps (was Deli-Snax),Mobile caterer,7846,10,,200557,10,,,12/00053/MIXED,564,environmental.health@newport.gov.uk,Newport,http://www.newport.gov.uk,,,2014-09-12,fhrs_3_en-GB,3,,FHRS,10
474847,,,,,Dazzling Choices,Other catering premises,7841,0,,726543,0,,,14/00265/MIXED,564,environmental.health@newport.gov.uk,Newport,http://www.newport.gov.uk,,,2014-12-15,fhrs_5_en-GB,5,,FHRS,0
474848,,,,,Debbie Phelps Childminding,Hospitals/Childcare/Caring Premises,5,,,30815,,,,09/00283/FOOD,564,environmental.health@newport.gov.uk,Newport,http://www.newport.gov.uk,,,2011-03-23,fhrs_exempt_en-GB,Exempt,,FHRS,
474849,Tesco Newport Retail Park Spytty Road Newport South Wales,,,,Decks @ Tesco Extra,Restaurant/Cafe/Canteen,1,5,,631490,0,,51.57570400000000,13/00403/MIXED,564,environmental.health@newport.gov.uk,Newport,http://www.newport.gov.uk,-2.95077200000000,NP19 4TX,2014-01-30,fhrs_5_en-GB,5,,FHRS,5
474850,99A Chepstow Road Newport South Wales,,,,Deli Delights,Restaurant/Cafe/Canteen,1,10,,717406,5,,51.59063700000000,14/00285/MIXED,564,environmental.health@newport.gov.uk,Newport,http://www.newport.gov.uk,-2.98266800000000,NP19 8BY,2014-11-14,fhrs_4_en-GB,4,,FHRS,5
474851,Picture House Imperial Way Coedkernew Newport South Wales,,,,Deli Plus Ltd,Restaurant/Cafe/Canteen,1,5,,200596,5,,51.55692000000000,05/00060/MIXED,564,environmental.health@newport.gov.uk,Newport,http://www.newport.gov.uk,-3.03066700000000,NP10 8UH,2013-09-13,fhrs_5_en-GB,5,,FHRS,5
474852,54 - 55 High Street Newport South Wales,,,,Delilahs,Pub/bar/nightclub,7843,5,,35362,5,,51.58929000000000,10/00228/MIXED,564,environmental.health@newport.gov.uk,Newport,http://www.newport.gov.uk,-2.99736200000000,NP20 1GA,2014-12-24,fhrs_4_en-GB,4,,FHRS,10
474853,,,,,Denise Reed Childminding,Hospitals/Childcare/Caring Premises,5,,,430384,,,,12/00130/FOOD,564,environmental.health@newport.gov.uk,Newport,http://www.newport.gov.uk,,,2012-04-25,fhrs_exempt_en-GB,Exempt,,FHRS,
474854,172 Chepstow Road Newport South Wales,,,,Desi Grill,Takeaway/sandwich shop,7844,10,,673220,5,,51.58972700000000,14/00133/MIXED,564,environmental.health@newport.gov.uk,Newport,http://www.newport.gov.uk,-2.97863500000000,NP19 8EG,2014-06-10,fhrs_3_en-GB,3,,FHRS,10
474855,238 Stow Hill Newport South Wales,,,,Diamond Grill,Takeaway/sandwich shop,7844,10,,673209,10,,51.58321000000000,13/00441/MIXED,564,environmental.health@newport.gov.uk,Newport,http://www.newport.gov.uk,-3.00912200000000,NP20 4HA,2014-05-09,fhrs_3_en-GB,3,,FHRS,10
474856,3A Harlech Retail Park Cardiff Road Newport South Wales,,,,Discount UK,Retailers - supermarkets/hypermarkets,7840,0,,502617,0,,51.57245400000000,13/00010/MIXED,564,environmental.health@newport.gov.uk,Newport,http://www.newport.gov.uk,-3.01039900000000,NP20 3BA,2014-09-25,fhrs_5_en-GB,5,,FHRS,0
474857,21A Leeway Court Leeway Industrial Estate Newport South Wales,,,,DJ Snackbox @Coles Bakery,Takeaway/sandwich shop,7844,5,,732501,5,,51.57249100000000,14/00194/MIXED,564,environmental.health@newport.gov.uk,Newport,http://www.newport.gov.uk,-2.94664900000000,NP19 4SJ,2014-12-22,fhrs_5_en-GB,5,,FHRS,5
474858,Dock Conservative Club Pottery Terrace Newport South Wales,,,,Docks Conservative Club,Pub/bar/nightclub,7843,0,,14354,0,,51.57837500000000,04925/0001/2/000,564,environmental.health@newport.gov.uk,Newport,http://www.newport.gov.uk,-3.01158200000000,NP20 2HU,2014-12-04,fhrs_4_en-GB,4,,FHRS,10
474859,Ground Floor 356 Chepstow Road Newport South Wales,,,,Dominos Pizza,Takeaway/sandwich shop,7844,0,,216258,0,,51.58786500000000,10/00085/MIXED,564,environmental.health@newport.gov.uk,Newport,http://www.newport.gov.uk,-2.96569100000000,NP19 8JH,2013-10-28,fhrs_5_en-GB,5,,FHRS,0
474860,401 Malpas Road Newport South Wales,,,,Domino's Pizza,Takeaway/sandwich shop,7844,5,,622602,5,,51.60896000000000,13/00438/MIXED,564,environmental.health@newport.gov.uk,Newport,http://www.newport.gov.uk,-3.00728100000000,NP20 6WB,2014-01-10,fhrs_5_en-GB,5,,FHRS,5
474861,472 Chepstow Road Newport South Wales,,,,Dragon Palace,Takeaway/sandwich shop,7844,10,,6337,10,,51.58852400000000,02115/0472/0/000,564,environmental.health@newport.gov.uk,Newport,http://www.newport.gov.uk,-2.95879100000000,NP19 9DG,2014-09-29,fhrs_2_en-GB,2,,FHRS,15
474862,The Dragonfly Lakeside Drive Coedkernew Newport South Wales,,,,Dragonfly,Pub/bar/nightclub,7843,0,,189794,0,,51.55957800000000,04/00064/MIXED,564,environmental.health@newport.gov.uk,Newport,http://www.newport.gov.uk,-3.03619400000000,NP10 8BB,2014-09-04,fhrs_5_en-GB,5,,FHRS,5
474863,232 Stow Hill Newport South Wales,,,,Drinks Express,Retailers - other,4613,5,,35035,0,,51.58321000000000,10/00179/MIXED,564,environmental.health@newport.gov.uk,Newport,http://www.newport.gov.uk,-3.00912200000000,NP20 4HA,2014-10-09,fhrs_5_en-GB,5,,FHRS,5
474864,78 Bridge Street Newport South Wales,,,,Drinks Express,Retailers - other,4613,0,,32855,0,,51.58790700000000,10/00009/MIXED,564,environmental.health@newport.gov.uk,Newport,http://www.newport.gov.uk,-2.99829900000000,NP20 4AQ,2015-01-28,fhrs_5_en-GB,5,,FHRS,5
474865,114 Duckpool Road Newport South Wales,,,,Duckpool Cafe,Restaurant/Cafe/Canteen,1,5,,189762,5,,51.59388300000000,10/00060/MIXED,564,environmental.health@newport.gov.uk,Newport,http://www.newport.gov.uk,-2.98165500000000,NP19 7EN,2013-06-13,fhrs_5_en-GB,5,,FHRS,5
474866,53 Duckpool Road Newport South Wales,,,,Duckpool Road Baptist Church,Other catering premises,7841,0,,572253,0,,51.59388300000000,02710/1001/2/000,564,environmental.health@newport.gov.uk,Newport,http://www.newport.gov.uk,-2.98165500000000,NP19 7EN,2014-12-23,fhrs_5_en-GB,5,,FHRS,0
474867,Mobile Vehicle Trading At Frederick Street Newport South Wales,,,,Ducks Catering Co,Mobile caterer,7846,5,,28660,5,,51.57847200000000,09/00016/MIXED,564,environmental.health@newport.gov.uk,Newport,http://www.newport.gov.uk,-2.98594900000000,,2014-07-17,fhrs_5_en-GB,5,,FHRS,0
474868,Duffryn Community Centre Duffryn Shopping Centre Tredegar House Drive Newport South Wales,,,,Duffryn Community Centre - Luncheon Club,Other catering premises,7841,0,,430374,0,,51.56037100000000,02718/1003/2/000,564,environmental.health@newport.gov.uk,Newport,http://www.newport.gov.uk,-3.02579700000000,NP10 8TE,2014-03-10,fhrs_5_en-GB,5,,FHRS,0
474869,Unit 2 Duffryn Shopping Centre Tredegar House Drive Newport South Wales,,,,Duffryn Express Convenience Store Ltd,Retailers - other,4613,5,,430379,5,,51.56037100000000,07/00185/MIXED,564,environmental.health@newport.gov.uk,Newport,http://www.newport.gov.uk,-3.02579700000000,NP10 8TE,2014-12-23,fhrs_5_en-GB,5,,FHRS,5
474870,15 North Street Newport South Wales,,,,Dutchy's Jamaican Jerk Shack,Restaurant/Cafe/Canteen,1,5,,673203,10,,51.58647200000000,13/00289/MIXED,564,environmental.health@newport.gov.uk,Newport,http://www.newport.gov.uk,-2.99780600000000,NP20 1JZ,2014-05-08,fhrs_3_en-GB,3,,FHRS,10
474871,Unit 7 28 East Retail Park Docks Way Newport South Wales,,,,DW Sports Fitness,Restaurant/Cafe/Canteen,1,0,,30354,0,,51.56826400000000,09/00182/MIXED,564,environmental.health@newport.gov.uk,Newport,http://www.newport.gov.uk,-2.99988900000000,NP20 2NW,2014-01-17,fhrs_5_en-GB,5,,FHRS,0
474872,175 Upper Dock Street Newport South Wales,,,,Dylans Restaurant,Restaurant/Cafe/Canteen,1,10,,6911,10,,51.58801000000000,02645/0175/2/000,564,environmental.health@newport.gov.uk,Newport,http://www.newport.gov.uk,-2.99567400000000,NP20 1DY,2013-09-12,fhrs_3_en-GB,3,,FHRS,10
474873,133C Caerleon Road Newport South Wales,,,,Edwards And Son,Retailers - other,4613,20,,189761,5,,51.59522300000000,07/00192/MIXED,564,environmental.health@newport.gov.uk,Newport,http://www.newport.gov.uk,-2.98373400000000,NP19 7BZ,2014-09-09,fhrs_1_en-GB,1,,FHRS,10
474874,Eleanor Hodson Nursing Home Lodge Road Caerleon Newport South Wales,,,,Eleanor Hodson Nursing Home,Hospitals/Childcare/Caring Premises,5,5,,189788,10,,51.61137700000000,04856/1000/2/000,564,environmental.health@newport.gov.uk,Newport,http://www.newport.gov.uk,-2.98851700000000,NP18 3QZ,2014-06-26,fhrs_4_en-GB,4,,FHRS,5
474875,,,,,Elizabeth Taylor Childminding,Hospitals/Childcare/Caring Premises,5,,,48771,,,,11/00423/FOOD,564,environmental.health@newport.gov.uk,Newport,http://www.newport.gov.uk,,,2011-10-20,fhrs_exempt_en-GB,Exempt,,FHRS,
474876,,,,,Elizabeth Wheeler Childminding Service,Hospitals/Childcare/Caring Premises,5,,,548804,,,,13/00023/FOOD,564,environmental.health@newport.gov.uk,Newport,http://www.newport.gov.uk,,,2013-05-08,fhrs_exempt_en-GB,Exempt,,FHRS,
474877,,,,,Emma Millership Childminding,Hospitals/Childcare/Caring Premises,5,,,189801,,,,09/00290/FOOD,564,environmental.health@newport.gov.uk,Newport,http://www.newport.gov.uk,,,2012-01-13,fhrs_exempt_en-GB,Exempt,,FHRS,
474878,12 Stow Park Crescent Newport South Wales,,,,Emmaus House Residential Home,Hospitals/Childcare/Caring Premises,5,10,,17204,5,,51.58226500000000,05665/0012/0/000,564,environmental.health@newport.gov.uk,Newport,http://www.newport.gov.uk,-3.00824900000000,NP20 4HD,2014-06-12,fhrs_4_en-GB,4,,FHRS,5
474879,Quadrant House EADS Celtic Springs Newport,,,,Eurest Catering @EADS,Restaurant/Cafe/Canteen,1,5,,26121,5,,51.55676600000000,08/00201/MIXED,564,environmental.health@newport.gov.uk,Newport,http://www.newport.gov.uk,-3.04409300000000,NP10 8FZ,2013-09-18,fhrs_5_en-GB,5,,FHRS,5
474880,Unit DTo E Langland Way Newport South Wales,,,,Eurofoods (UK) Ltd,Distributors/Transporters,7,10,,402801,5,,51.57293200000000,05066/0003/2/000,564,environmental.health@newport.gov.uk,Newport,http://www.newport.gov.uk,-2.96325300000000,NP19 4PT,2014-12-03,fhrs_3_en-GB,3,,FHRS,10
474881,115 Commercial Road Newport South Wales,,,,European Food Store,Retailers - other,4613,10,,563895,10,,51.57621400000000,13/00104/MIXED,564,environmental.health@newport.gov.uk,Newport,http://www.newport.gov.uk,-2.98805700000000,NP20 2GW,2014-11-13,fhrs_3_en-GB,3,,FHRS,10
474882,The Celtic Manor Resort The Coldra Newport South Wales,,,,Evergreen Day Nursery,Hospitals/Childcare/Caring Premises,5,10,,340023,5,,51.60221400000000,11/00505/MIXED,564,environmental.health@newport.gov.uk,Newport,http://www.newport.gov.uk,-2.93140000000000,NP18 1HQ,2014-06-25,fhrs_4_en-GB,4,,FHRS,5
474883,Eveswell Community Centre Eveswell Street Newport South Wales,,,,Eveswell Community Centre,Retailers - other,4613,0,,7279,0,,51.58873100000000,02895/0000/2/000,564,environmental.health@newport.gov.uk,Newport,http://www.newport.gov.uk,-2.97512100000000,NP19 8EP,2014-10-24,fhrs_5_en-GB,5,,FHRS,5
474884,Eveswell Primary School Chepstow Road Newport South Wales,,,,Eveswell Primary School - Breakfast Club,School/college/university,7845,10,,726561,0,,51.58898000000000,14/00390/FOOD,564,environmental.health@newport.gov.uk,Newport,http://www.newport.gov.uk,-2.97222400000000,NP19 8GX,2014-12-19,fhrs_4_en-GB,4,,FHRS,5
474885,Eveswell Primary School Chepstow Road Newport South Wales,,,,Eveswell Primary School Nursery,Hospitals/Childcare/Caring Premises,5,5,,622603,0,,51.58898000000000,14/00004/MIXED,564,environmental.health@newport.gov.uk,Newport,http://www.newport.gov.uk,-2.97222400000000,NP19 8GX,2014-10-09,fhrs_5_en-GB,5,,FHRS,5
474886,256 Chepstow Road Newport South Wales,,,,Eveswell Tandoori,Restaurant/Cafe/Canteen,1,20,,699557,20,,51.58874800000000,14/00235/MIXED,564,environmental.health@newport.gov.uk,Newport,http://www.newport.gov.uk,-2.97301300000000,NP19 8NL,2014-08-13,fhrs_0_en-GB,0,,FHRS,20
474887,161 Commercial Road Newport South Wales,,,,Express Pizza And Kebab,Takeaway/sandwich shop,7844,10,,594062,5,,51.57938700000000,13/00132/MIXED,564,environmental.health@newport.gov.uk,Newport,http://www.newport.gov.uk,-2.99033400000000,NP20 2PL,2013-10-17,fhrs_4_en-GB,4,,FHRS,5
474888,,,,,Ezi's Grill House,Other catering premises,7841,5,,657580,0,,,14/00116/MIXED,564,environmental.health@newport.gov.uk,Newport,http://www.newport.gov.uk,,,2014-04-07,fhrs_5_en-GB,5,,FHRS,0
474889,,,,,Fairhaven Childcare,Hospitals/Childcare/Caring Premises,5,,,200577,,,,10/00419/FOOD,564,environmental.health@newport.gov.uk,Newport,http://www.newport.gov.uk,,,2012-01-26,fhrs_exempt_en-GB,Exempt,,FHRS,
474890,Fairoak Nursery Church Road Newport South Wales,,,,Fairoak Nursery Breakfast Club,Hospitals/Childcare/Caring Premises,5,10,,710288,10,,51.59264700000000,14/00288/MIXED,564,environmental.health@newport.gov.uk,Newport,http://www.newport.gov.uk,-2.98427000000000,NP19 7EJ,2014-09-12,fhrs_4_en-GB,4,,FHRS,0
474891,Fairoak Nursery Church Road Newport South Wales,,,,Fairoak Nursery School,School/college/university,7845,5,,6390,0,,51.59264700000000,02155/1002/2/000,564,environmental.health@newport.gov.uk,Newport,http://www.newport.gov.uk,-2.98427000000000,NP19 7EJ,2014-09-10,fhrs_5_en-GB,5,,FHRS,5
474892,3 Fallowfield Drive Newport South Wales,,,,Fallows Tandoori,Takeaway/sandwich shop,7844,5,,673219,10,,51.57823400000000,14/00131/MIXED,564,environmental.health@newport.gov.uk,Newport,http://www.newport.gov.uk,-2.95145900000000,NP19 4TD,2014-05-27,fhrs_4_en-GB,4,,FHRS,5
474893,Mobile Trader At Woolos Autos Leeway Trading Estate,,,,Family Foods,Mobile caterer,7846,10,,641554,5,,,14/00045/MIXED,564,environmental.health@newport.gov.uk,Newport,http://www.newport.gov.uk,,,2014-02-06,fhrs_4_en-GB,4,,FHRS,5
474894,119 Caerleon Road Newport South Wales,,,,Family Kebab House,Takeaway/sandwich shop,7844,5,,29107,0,,51.59522300000000,09/00053/MIXED,564,environmental.health@newport.gov.uk,Newport,http://www.newport.gov.uk,-2.98373400000000,NP19 7BZ,2014-01-31,fhrs_5_en-GB,5,,FHRS,5
474895,116 Alexandra Road Newport South Wales,,,,Fannys Rest Stop,Restaurant/Cafe/Canteen,1,5,,189755,5,,51.57102200000000,11/00418/MIXED,564,environmental.health@newport.gov.uk,Newport,http://www.newport.gov.uk,-2.98958900000000,NP20 2JG,2013-09-26,fhrs_4_en-GB,4,,FHRS,10
474896,Mobile Caterer Trading In Newport South Wales,,,,Farm To Fork Catering,Mobile caterer,7846,10,,631493,5,,,14/00007/MIXED,564,environmental.health@newport.gov.uk,Newport,http://www.newport.gov.uk,,,2014-01-24,fhrs_4_en-GB,4,,FHRS,5
474897,Mobile Caterer Trading In Newport South Wales,,,,Farm To Fork Two,Mobile caterer,7846,5,,690143,5,,,14/00147/MIXED,564,environmental.health@newport.gov.uk,Newport,http://www.newport.gov.uk,,,2014-08-05,fhrs_5_en-GB,5,,FHRS,5
474898,Croes-Carn-Einon Farm Holly Lane Newport South Wales,,,,Farmers Daughter Restaurant,Restaurant/Cafe/Canteen,1,5,,14227,5,,51.57308900000000,04831/1003/2/000,564,environmental.health@newport.gov.uk,Newport,http://www.newport.gov.uk,-3.07363000000000,NP10 8RR,2014-02-13,fhrs_5_en-GB,5,,FHRS,5
474899,130 Chepstow Road Newport South Wales,,,,Farmhouse Bakery,Manufacturers/packers,7839,10,,6324,10,,51.58990400000000,02115/0130/0/000,564,environmental.health@newport.gov.uk,Newport,http://www.newport.gov.uk,-2.98006800000000,NP19 8EF,2014-03-31,fhrs_3_en-GB,3,,FHRS,10
474900,Farries Fish Bar Aberthaw Road Newport South Wales,,,,Farries Fish Bar,Takeaway/sandwich shop,7844,10,,47557,0,,51.58552700000000,11/00145/MIXED,564,environmental.health@newport.gov.uk,Newport,http://www.newport.gov.uk,-2.95025500000000,NP19 9QQ,2014-03-25,fhrs_4_en-GB,4,,FHRS,10
474901,Fairoak Nursery Church Road Newport South Wales,,,,Ffrindiau Bach(Flying Start),Hospitals/Childcare/Caring Premises,5,5,,710287,0,,51.59264700000000,14/00286/MIXED,564,environmental.health@newport.gov.uk,Newport,http://www.newport.gov.uk,-2.98427000000000,NP19 7EJ,2014-09-12,fhrs_5_en-GB,5,,FHRS,0
474902,Mobile Vehicle Trading Out Of Newport,,,,FG Food-Food Glorious Food,Mobile caterer,7846,0,,610229,0,,,13/00368/MIXED,564,environmental.health@newport.gov.uk,Newport,http://www.newport.gov.uk,,,2015-01-05,fhrs_5_en-GB,5,,FHRS,0
474903,29 Fields Road Newport South Wales,,,,Fields Nursing Home,Hospitals/Childcare/Caring Premises,5,5,,7343,0,,51.59021200000000,02985/0029/0/000,564,environmental.health@newport.gov.uk,Newport,http://www.newport.gov.uk,-3.00425400000000,NP20 4PJ,2014-05-09,fhrs_5_en-GB,5,,FHRS,5
474904,19 Stow Park Circle Newport South Wales,,,,Florence Justice Christian Residential Home,Hospitals/Childcare/Caring Premises,5,5,,17200,10,,51.58130500000000,05660/0019/0/000,564,environmental.health@newport.gov.uk,Newport,http://www.newport.gov.uk,-3.01110000000000,NP20 4HF,2014-07-16,fhrs_4_en-GB,4,,FHRS,5
474905,St Stephens Church Hall Alexandra Road Newport South Wales,,,,Flying Start,Hospitals/Childcare/Caring Premises,5,0,,710267,0,,51.57485200000000,08/00122/MIXED,564,environmental.health@newport.gov.uk,Newport,http://www.newport.gov.uk,-2.98857500000000,NP20 2GY,2014-10-15,fhrs_5_en-GB,5,,FHRS,5
474906,Bettws Day Centre 43 Bettws Shopping Centre Bettws Newport South Wales,,,,Flying Start Twinkle Tots Playgroup,Hospitals/Childcare/Caring Premises,5,10,,622591,5,,51.61209800000000,13/00139/MIXED,564,environmental.health@newport.gov.uk,Newport,http://www.newport.gov.uk,-3.02911500000000,NP20 7TN,2013-12-06,fhrs_4_en-GB,4,,FHRS,5
474907,,,,,For The Love Of Cake,Other catering premises,7841,10,,610216,5,,,13/00253/MIXED,564,environmental.health@newport.gov.uk,Newport,http://www.newport.gov.uk,,,2013-11-06,fhrs_4_en-GB,4,,FHRS,5
474908,Foresters Oaks Chepstow Road Newport South Wales,,,,Foresters Oaks,Pub/bar/nightclub,7843,0,,340005,0,,51.61459200000000,08/00276/MIXED,564,environmental.health@newport.gov.uk,Newport,http://www.newport.gov.uk,-2.87580300000000,NP18 2AA,2014-02-25,fhrs_4_en-GB,4,,FHRS,10
474909,42 Durham Road Newport South Wales,,,,Fortune House,Takeaway/sandwich shop,7844,5,,45420,10,,51.59814400000000,11/00006/MIXED,564,environmental.health@newport.gov.uk,Newport,http://www.newport.gov.uk,-2.98278600000000,NP19 7DS,2013-09-18,fhrs_4_en-GB,4,,FHRS,5
474910,The Celtic Manor Resort The Coldra Newport South Wales,,,,Forum Leisure Cafe - Celtic Manor,Restaurant/Cafe/Canteen,1,10,,189747,5,,51.60221400000000,02115/1000/0/007,564,environmental.health@newport.gov.uk,Newport,http://www.newport.gov.uk,-2.93140000000000,NP18 1HQ,2013-10-09,fhrs_4_en-GB,4,,FHRS,5
474911,Glan Usk Primary School Bank Street Newport South Wales,,,,Foundation Phase Kitchen (Incorporating Glan Usk Nursery),School/college/university,7845,0,,34714,0,,51.60201300000000,10/00145/FOOD,564,environmental.health@newport.gov.uk,Newport,http://www.newport.gov.uk,-2.98249500000000,NP19 7HF,2014-10-16,fhrs_5_en-GB,5,,FHRS,0
474912,25-27 Cefn Walk Rogerstone Newport South Wales,,,,Fourteen Locks Mini Market,Retailers - other,4613,5,,402793,5,,51.59026400000000,02052/0025/2/000,564,environmental.health@newport.gov.uk,Newport,http://www.newport.gov.uk,-3.04253700000000,NP10 9AJ,2014-12-23,fhrs_5_en-GB,5,,FHRS,5
474913,Frankie And Bennys Newport Retail Park Seven Stiles Avenue Newport South Wales,,,,Frankie And Bennys,Restaurant/Cafe/Canteen,1,0,,402802,0,,51.57474300000000,07/00260/MIXED,564,environmental.health@newport.gov.uk,Newport,http://www.newport.gov.uk,-2.94395500000000,NP19 4QR,2014-01-16,fhrs_5_en-GB,5,,FHRS,0
474914,,,,,Fresh As A Daisy,Other catering premises,7841,5,,31055,0,,,09/00419/MIXED,564,environmental.health@newport.gov.uk,Newport,http://www.newport.gov.uk,,,2015-01-28,fhrs_5_en-GB,5,,FHRS,5
474915,37 Goldcroft Common Caerleon Newport South Wales,,,,Fresh Start,Takeaway/sandwich shop,7844,10,,26410,5,,51.61259700000000,08/00288/MIXED,564,environmental.health@newport.gov.uk,Newport,http://www.newport.gov.uk,-2.95737700000000,NP18 1NG,2014-03-19,fhrs_4_en-GB,4,,FHRS,5
474916,Unit 28 Phoenix Business Park Telford Street Newport South Wales,,,,Fresh Start Food Ltd,Manufacturers/packers,7839,5,,726535,0,,51.58572900000000,14/00177/FOOD,564,environmental.health@newport.gov.uk,Newport,http://www.newport.gov.uk,-2.97277600000000,NP19 0LW,2014-12-16,fhrs_5_en-GB,5,,FHRS,0
474917,Mobile Vehicle Trading In Newport South Wales,,,,Freshly Made,Mobile caterer,7846,20,,699561,15,,51.59108000000000,14/00263/MIXED,564,environmental.health@newport.gov.uk,Newport,http://www.newport.gov.uk,-2.98830000000000,,2014-08-25,fhrs_1_en-GB,1,,FHRS,10
474918,Mobile Vehicle At Mariner Way Felnex Industrial Estate Newport  South Wales,,,,Friars Bar,Mobile caterer,7846,5,,622593,0,,,13/00212/MIXED,564,environmental.health@newport.gov.uk,Newport,http://www.newport.gov.uk,,,2013-11-12,fhrs_5_en-GB,5,,FHRS,5
