,businessname,ratingvalue,structural,hygiene,confidenceinmanagement,ratingdate,latitude,longitude
474570,...And All Things Nice,5,5,5,5,2013-10-02,51.544633,-3.079146
474571,7 Day Catering @Tesco Trunking Centre,4,10,5,5,2013-10-24,51.572274,-2.859275
474572,99P Store,Exempt,nan,nan,nan,2014-04-10,51.577578,-2.943595
474573,A D Turner Butchers (Raw Meat Only),4,5,5,10,2011-02-14,51.588976,-2.996258
474574,A J S Stores,5,5,0,5,2014-10-09,51.570853,-3.01361
474575,A J S Stores One,3,5,10,10,2012-06-12,51.590162,-2.999547
474576,A Touch Of Spice,4,0,10,10,2014-10-01,51.58053,-3.018544
474577,Abbaid Stores,1,15,10,20,2014-05-14,51.576214,-2.988057
474578,Abbeyfield House,4,0,0,10,2014-04-03,51.580705,-2.961657
474579,ABCs Childminding,Exempt,nan,nan,nan,2011-12-02,,
474580,Acacia Stores,4,5,10,5,2014-04-30,51.587697,-2.957662
474581,Acme Catering,1,15,15,20,2014-06-06,,
474582,Acorns Bakery,4,5,5,10,2014-02-05,51.612098,-3.029115
474583,Acorns Day Nursery,5,5,0,0,2014-06-26,51.566338,-3.02723
474584,Acorns Nurseries Ltd,5,0,0,0,2013-12-11,51.566052,-3.017759
474585,Al Madina Foodstore,3,5,10,10,2014-10-20,51.588099,-2.986149
474586,Albany Guest House,5,0,0,0,2014-02-26,51.588374,-2.962872
474587,Albion Rovers FC,5,5,5,5,2014-12-23,,
474588,Alcatel Restaurant,5,0,0,0,2015-01-05,,
474589,Aldi Stores Limited,5,0,0,0,2013-12-04,51.575194,-2.952738
474590,Alexandra Dock Post Office & Store,3,10,5,10,2013-03-11,51.571022,-2.989589
474591,Alice Snack Bar,5,5,5,0,2015-01-21,51.48531,-3.16383
474592,Allt-yr-yn Lawn Tennis Club,4,5,5,10,2014-12-24,51.59173,-3.007578
474593,Allt-yr-yn Stores,4,0,0,10,2014-12-22,51.597043,-3.006613
474594,Alonzi And Sons,4,5,5,10,2014-07-22,51.59681,-2.982166
474595,Alway Playscheme,5,0,0,0,2014-08-19,51.585779,-2.945757
474596,Amanda Jones Childminding,Exempt,nan,nan,nan,2011-03-01,,
474597,Amanda Probert,Exempt,nan,nan,nan,2014-04-30,,
474598,Amrit,2,10,15,10,2014-12-10,51.591069,-3.060167
474599,Angelicake,5,0,0,0,2014-12-02,,
474600,Anne Walden Childminding,Exempt,nan,nan,nan,2014-08-04,,
474601,Annies Kitchen,5,0,0,0,2014-10-23,51.568619,-2.972656
474602,Antalya,5,5,5,5,2014-03-04,51.578252,-2.989544
474603,Apex (V S Stores),5,0,5,5,2014-04-02,51.5844,-2.97689
474604,Appletree Nursery,4,5,5,10,2014-09-10,51.5576,-2.854238
474605,Aramark @Coleg Gwent,5,5,0,0,2014-10-22,51.573855,-2.952623
474606,Aramark A12 Canteen Corus UK Ltd,4,10,5,5,2014-06-19,51.576402,-2.937856
474607,Archway Court Day Nursery & Kids Club,5,5,0,5,2014-01-24,51.595223,-2.983734
474608,Argos,Exempt,nan,nan,nan,2011-04-13,51.587584,-2.997079
474609,Argos Extra,Exempt,nan,nan,nan,2011-04-07,51.572973,-2.996024
474610,Aria Care Home,4,0,10,5,2014-06-05,51.603929,-2.999387
474611,Asda - Staff Canteen,3,10,10,10,2013-10-16,51.580881,-2.990236
474612,Asda Cafe - Eurest,5,5,5,5,2013-12-06,51.580881,-2.990236
474613,Asda Stores Ltd,4,10,10,0,2013-10-16,51.580881,-2.990236
474614,Asda Stores Ltd,5,5,5,0,2014-11-19,51.55704,-3.021077
474615,Ashton Park Residential Home,3,10,10,10,2014-02-24,51.578463,-3.004875
474616,Asia Halal Food,2,10,15,10,2013-10-23,51.57948,-2.990004
474617,Aspens Services Ltd@ Civic Centre Canteen,5,5,5,5,2014-05-21,51.588661,-3.005822
474618,Athwal Stores,4,5,10,5,2014-09-03,51.617975,-2.967153
474619,Atlantica/The Loft,4,10,0,0,2014-10-08,51.589281,-2.996352
474620,Ava's Lunch Box,5,0,0,5,2014-10-20,51.572037,-2.948401
474621,Avrils Country Kitchen,4,10,5,5,2013-02-13,,
474622,B & J Newsagents,5,0,5,5,2015-01-20,51.587865,-2.965691
474623,B & M Bargains,2,5,15,5,2014-11-03,51.585183,-2.99287
474624,Baba's News,Exempt,nan,nan,nan,2012-09-06,51.585698,-3.017837
474625,Babes In The Wood Pre-School Playgroup,4,5,10,5,2014-02-18,51.594275,-2.893212
474626,Bagini's,5,5,5,5,2014-07-04,51.581503,-2.972859
474627,Baileys Bodega,3,10,10,5,2014-07-30,51.586362,-2.999131
474628,Bakerlicious Bakery,5,5,5,5,2014-01-09,51.582621,-2.9928
474629,Baking Instinct,5,0,5,0,2014-10-21,,
474630,Balmoral Stores,3,10,10,10,2014-11-06,51.587177,-2.962934
474631,Baneswell Social Club,2,15,10,10,2014-06-16,51.585666,-2.997499
474632,Baneswell Store,1,10,15,20,2014-06-23,51.587225,-2.999107
474633,Bannatynes Health Club,3,10,10,10,2014-10-30,51.578559,-2.987285
474634,Bar Noir,5,5,0,0,2015-01-05,,
474635,Bar Piazza,5,5,5,5,2014-09-02,51.58583,-2.994024
474636,Barbara Phillips Childminding,Exempt,nan,nan,nan,2012-01-09,,
474637,Barnabas Arts House,4,5,5,10,2013-09-27,51.582032,-2.990232
474638,Barnaby's Childcare,4,5,5,10,2014-10-08,51.616899,-3.012556
474639,Bassaleg Pre-School,5,0,0,0,2014-02-28,51.575597,-3.055809
474640,Batons - Mobile Trader,4,10,5,5,2014-08-21,,
474641,Beanies,5,0,0,5,2013-11-28,51.586486,-3.049754
474642,Beaufort Bites @ The Beaufort Centre,4,10,0,10,2014-03-05,51.600683,-2.965039
474643,Beechwood Grill,4,10,5,5,2014-07-24,51.587999,-2.963644
474644,Beechwood Stores,5,5,0,5,2014-04-10,51.594373,-2.972426
474645,Bella Mama's,4,5,5,10,2014-10-29,51.582085,-2.988155
474646,Ben's Bakes,5,5,5,5,2014-01-07,51.588976,-2.996258
474647,Berry Hill Farm Shop,5,5,0,0,2014-03-21,51.550881,-3.058583
474648,Best Kebabs,5,5,5,5,2014-03-03,51.591706,-2.989172
474649,Bethany Residential Home,3,5,10,10,2014-06-16,51.585622,-3.006837
474650,Beths Childminding Service,Exempt,nan,nan,nan,2012-01-16,,
474651,Bettws Fish Bar,5,0,5,5,2014-10-15,51.612098,-3.029115
474652,Bettws Rugby Club,5,5,0,5,2014-10-23,51.614968,-3.028877
474653,Bettws Service Station - Filling Station,5,5,5,5,2015-01-05,51.609159,-3.019719
474654,Beverley Old Childminding,Exempt,nan,nan,nan,2012-03-27,,
474655,BHS- Customer Restaurant,5,5,0,5,2014-02-12,51.587013,-2.995479
474656,Big G's Grill,5,0,0,5,2014-03-26,,
474657,Bina's Traditional Fish And Chips,4,0,10,10,2014-01-15,51.58321,-3.009122
474658,Birchwood Price Tools @ Travis Perkins,5,0,0,0,2014-10-01,51.577843,-2.98688
474659,Blaen-y-pant Residential Home,5,5,0,5,2014-08-28,51.604373,-3.010631
474660,Blaina Wharf,5,0,5,5,2014-09-11,51.578542,-2.980718
474661,Blue Oyster Bar,5,5,0,0,2014-01-17,51.581763,-2.993329
474662,BMS News,5,5,5,5,2014-12-23,51.585551,-2.996126
474663,Body Masters Unisex Fitness Centre,4,10,5,5,2014-12-23,51.591706,-2.989172
474664,Boilermakers Club,5,5,5,0,2015-01-06,51.598052,-2.995894
474665,Boleros Wine Bar,5,5,0,0,2014-12-03,51.608983,-2.952868
474666,Bonsai Chinese Takeaway,3,10,10,10,2014-10-02,51.577234,-3.018095
474667,Boots Chemist Plc,5,0,0,0,2014-01-30,51.577578,-2.943595
474668,Boswells Cafe,5,5,5,0,2014-05-21,51.58493,-2.993009
474669,BP Service Station - Filling Station (Spar),4,5,10,5,2014-12-18,51.582779,-3.001737
474670,Bread Basket,5,5,5,5,2013-06-07,51.593068,-3.058856
474671,Breeze,5,0,0,0,2015-01-05,51.588296,-2.998004
474672,Brew,4,5,10,5,2014-06-23,51.588026,-2.99911
474673,Brickhouse Farm,2,5,15,5,2014-01-24,51.5576,-2.854238
474674,Brynglas Adult Training Centre,4,10,0,5,2014-11-13,51.605625,-2.997691
474675,Bryngwyn Road Care Home,4,5,5,10,2014-12-24,51.585202,-3.009686
474676,B's Bistro,5,5,0,5,2014-10-10,51.624497,-2.964504
474677,Budding Scholars Childcare,Exempt,nan,nan,nan,2012-02-20,,
474678,Burleigh House Nursery,5,0,0,5,2014-11-05,51.586249,-3.007067
474679,Buzzy Bees Private Nursery School,4,5,5,10,2014-03-17,51.578722,-3.02178
474680,Caerleon AFC,5,5,0,0,2014-09-15,51.611291,-2.959731
474681,Caerleon Golf Club,5,5,0,5,2014-01-28,51.608189,-2.958714
474682,Caerleon House Nursing & Residential Home,5,5,5,5,2014-12-05,51.613011,-2.956187
474683,Caerleon Playscheme,4,5,0,10,2014-08-07,51.611614,-2.958858
474684,Caerleon Post Office,5,0,0,5,2015-01-05,51.60954,-2.954049
474685,Caerleon Road Stores,2,15,10,10,2014-01-21,51.600273,-2.980898
474686,Caerleon Rugby Football Club,4,10,5,5,2014-10-07,51.608189,-2.958714
474687,Cafe @ NC,5,5,0,0,2014-12-23,51.585736,-2.99128
474688,"Cafe @ University Of Wales Newport, City Campus",5,5,5,0,2014-09-30,51.583842,-2.986663
474689,Cafe Cariad Limited,4,10,0,10,2014-05-12,51.588998,-2.995797
474690,Cafe Cwtch,5,5,0,0,2014-02-07,51.589933,-2.997882
474691,Cafe Noir,5,0,0,0,2015-01-05,,
474692,Caffe Nero,5,0,0,5,2014-02-12,51.585271,-2.994157
474693,Caffe Nero,5,0,5,5,2014-09-24,51.577578,-2.943595
474694,Caffe Ritazza - Asda Living Customer Cafe,5,5,0,5,2014-08-12,51.577578,-2.943595
474695,Cakes & Co,5,0,0,0,2014-03-04,,
474696,Cakes By Alyson,3,5,10,10,2014-06-10,,
474697,Cakes By Me,5,0,0,0,2014-11-18,,
474698,Cakes For Me By V,5,0,0,0,2014-12-02,,
474699,Cakes N Cookies,4,5,5,10,2013-05-01,,
474700,Calorie Girl,5,0,0,0,2014-06-03,,
474701,Capel Court Extra Care Home,5,5,5,0,2014-09-25,51.577428,-2.991067
474702,Capel Grange Community Nursing Home,4,10,0,10,2014-10-09,51.577046,-2.990701
474703,Caravan Club - Site Shop,5,0,0,0,2014-06-03,,
474704,Card Factory,Exempt,nan,nan,nan,2013-05-22,51.587205,-2.996234
474705,Card Factory,Exempt,nan,nan,nan,2013-07-05,51.585271,-2.994157
474706,Card Factory @ Tesco Extra,Exempt,nan,nan,nan,2013-04-18,51.575755,-2.946732
474707,Carpenters Arms,3,10,10,10,2014-08-21,51.589567,-2.996603
474708,Castle Bingo,5,5,0,0,2014-03-26,51.583842,-2.986663
474709,Castleton Baptist Church,5,5,0,5,2014-03-18,,
474710,Castleton Playgroup,5,0,0,5,2014-03-05,51.540208,-3.076345
474711,Catering Source @ Christchurch Conference Centre,5,0,0,0,2015-01-05,51.601847,-3.005276
474712,Caterlink @Caerleon Comprehensive School,4,5,10,5,2014-06-24,51.611614,-2.958858
474713,Caterlink @Newport High School,4,5,10,5,2014-06-13,51.605268,-3.017279
474714,Cedar Catering,3,10,10,5,2014-11-27,51.58801,-2.995674
474715,Cedars Rolls,4,5,5,10,2013-07-29,,
474716,Cefn Mably Arms,5,0,0,5,2014-03-05,51.554717,-3.096203
474717,Cefn Mably Farm Park,5,5,0,5,2014-01-30,51.546692,-3.111859
474718,Celtic Catering,5,5,5,5,2013-09-03,51.581082,-3.080529
474719,Celtic Catering @Bisley Canteen Kitchen 2,5,5,5,5,2014-09-19,51.568111,-2.966715
474720,Celtic Catering @Solutia,4,5,5,10,2014-07-16,51.566807,-2.962359
474721,Celtic Catering @Wales & West Utilities,5,5,5,0,2014-03-04,51.556766,-3.044093
474722,Celtic Catering@Quinn Radiators,4,5,10,5,2013-09-24,51.551128,-3.035974
474723,Celtic Springs Day Nursery,5,5,5,5,2014-02-11,51.557353,-3.042707
474724,Charcoal Grill,4,5,10,0,2014-11-27,51.588882,-2.997757
474725,Chartwells @ Alway Primary School,5,5,5,5,2014-03-24,51.585368,-2.953196
474726,Chartwells @ Bassaleg Comprehensive Lower,4,5,10,0,2014-11-25,51.574566,-3.04339
474727,Chartwells @ Bassaleg Comprehensive Upper School,5,5,5,0,2014-09-18,51.574566,-3.04339
474728,Chartwells @ Caerleon Lodge Hill Junior School,5,5,5,0,2014-06-11,51.615733,-2.969676
474729,Chartwells @ Charles William Church In Wales School,5,5,5,5,2014-06-26,,
474730,Chartwells @ Clytha Primary School,5,0,0,5,2014-05-07,51.585202,-3.009686
474731,Chartwells @ Crindau Primary School,4,0,5,10,2014-07-08,51.598814,-2.997181
474732,Chartwells @ Duffryn Infants & Junior School,3,10,10,10,2014-03-11,51.563274,-3.016615
474733,Chartwells @ Duffryn Lower School,4,5,10,5,2014-06-11,51.558302,-3.012451
474734,Chartwells @ Duffryn Middle School,4,5,10,5,2014-06-11,51.558302,-3.012451
474735,Chartwells @ Eveswell Primary School,4,10,10,0,2014-03-19,51.58898,-2.972224
474736,Chartwells @ Gaer Junior School,3,5,10,10,2014-02-18,51.577234,-3.018095
474737,Chartwells @ Glan Usk Primary School,5,5,0,5,2014-12-10,51.602013,-2.982495
474738,Chartwells @ Glasllwch Primary School,5,0,0,5,2014-12-04,51.58277,-3.027702
474739,Chartwells @ High Cross School,4,5,10,5,2014-10-02,51.586162,-3.04074
474740,Chartwells @ Langstone Junior & Infant School,4,5,5,10,2014-10-10,51.612918,-2.890328
474741,Chartwells @ Llanmartin Primary School,3,10,10,10,2014-02-18,51.594275,-2.893212
474742,Chartwells @ Llanwern High School,5,5,5,5,2013-11-05,51.58591,-2.935021
474743,Chartwells @ Lliswerry High School,5,5,0,0,2014-09-11,51.571619,-2.954496
474744,Chartwells @ Lliswerry Primary School,4,5,5,10,2014-06-10,51.578784,-2.956854
474745,Chartwells @ Lodge Hill Infant School,5,0,5,5,2014-06-11,51.616903,-2.969499
474746,Chartwells @ Maes Ebbw School,5,5,5,5,2014-10-02,51.56765,-3.010667
474747,Chartwells @ Maesglas Primary School,5,0,0,0,2014-12-02,51.56765,-3.010667
474748,Chartwells @ Maindee Primary School,5,5,5,0,2014-10-21,51.587923,-2.988888
474749,Chartwells @ Malpas Church In Wales School,4,5,5,10,2014-07-09,51.610017,-3.000474
474750,Chartwells @ Malpas Court Primary School,4,5,10,5,2014-06-03,51.616899,-3.012556
474751,Chartwells @ Malpas Park Primary,5,5,5,5,2014-10-02,51.616721,-3.007179
474752,Chartwells @ Marshfield Primary School,5,5,5,5,2014-10-23,51.540208,-3.076345
474753,Chartwells @ Millbrook Primary School,4,10,0,5,2014-11-13,51.611396,-3.018874
474754,Chartwells @ Milton Junior & Infants School,2,15,5,5,2014-03-07,51.595973,-2.929236
474755,Chartwells @ Monnow Infants School,5,5,5,0,2014-06-17,51.608865,-3.034746
474756,Chartwells @ Mount Pleasant Primary School,5,5,5,0,2014-09-18,51.595274,-3.049422
474757,Chartwells @ Pentrepoeth Primary School,5,5,0,5,2014-02-20,51.575491,-3.061579
474758,Chartwells @ Pillgwenlly Primary School,5,5,0,0,2014-12-04,51.577425,-2.994808
474759,Chartwells @ Ringland Primary School,5,5,0,5,2014-11-11,51.588477,-2.937946
474760,Chartwells @ Rogerstone Primary School,4,5,10,5,2014-05-01,51.586486,-3.049754
474761,Chartwells @ Somerton Junior & Infants School,3,10,5,10,2014-03-18,51.586761,-2.95998
474762,Chartwells @ St Andrews Infant  School,5,5,5,5,2014-05-14,51.581134,-2.969589
474763,Chartwells @ St Davids RC Primary School,5,5,5,0,2014-10-23,52.3111534119,-3.89185094833
474764,Chartwells @ St Gabriels Junior And Infants School,5,0,5,5,2013-12-11,51.592106,-2.937155
474765,Chartwells @ St Joseph's Comprehensive School,5,0,0,5,2014-12-23,51.557266,-3.024054
474766,Chartwells @ St Josephs Primary School,5,5,5,0,2014-05-15,51.592976,-2.980351
474767,Chartwells @ St Julians Comprehensive School,4,5,5,10,2014-04-29,51.601088,-2.977002
474768,Chartwells @ St Julians Primary School,5,5,0,0,2014-10-16,51.600683,-2.965039
474769,Chartwells @ St Marys RC Junior & Infant School,5,5,0,5,2015-01-21,51.591509,-2.999764
474770,Chartwells @ St Michaels Primary School,2,10,15,10,2013-12-05,51.574333,-2.993644
474771,Chartwells @ St Patricks RC School,3,5,10,10,2013-12-19,51.583662,-2.967276
474772,Chartwells @ St Woolos Primary School,5,5,0,0,2014-03-21,51.584758,-2.997378
474773,Chartwells @ Ysgol Gymraeg Bro Teyrnon,4,5,0,10,2014-07-01,51.606769,-2.999637
474774,Chartwells @ Ysgol Gymraeg Casnewydd,4,5,10,5,2014-09-19,51.584502,-2.935685
474775,Chartwells @ Ysgol Gymraeg Ifor Hael,5,5,0,5,2014-07-16,51.61088,-3.017202
474776,Chartwells @Monnow Junior School,4,10,0,5,2014-12-11,51.608865,-3.034746
474777,Cheeky Cherub Childminding,Exempt,nan,nan,nan,2011-11-29,,
474778,Cherrybelle Cakes,4,5,5,10,2012-11-09,,
474779,Chez Giovanni Restaurant And Topolino's Wine Bar Bistro,4,10,5,5,2013-09-12,51.591015,-2.990139
474780,Chi Ho Cafe And Diner,5,0,5,5,2015-01-07,51.589726,-2.978635
474781,Chicken Cottage,3,10,10,10,2013-08-21,51.577246,-2.988353
474782,ChildsPlay Cafe Ltd,4,5,10,5,2014-03-20,51.582621,-2.9928
474783,China Garden Restaurant,3,10,10,5,2014-05-15,51.581763,-2.993329
474784,China Kitchen,4,5,10,5,2013-11-11,51.5982,-2.981445
474785,China Town,4,5,10,5,2014-05-08,51.584551,-3.046981
474786,Chip Stop,4,5,10,5,2013-10-03,51.576214,-2.988057
474787,Chipstix,5,5,5,5,2013-11-01,,
474788,Christchurch Ladies Group @Penylan Baptist Church,5,5,5,5,2014-12-23,51.592897,-2.959446
474789,Christchurch Road & PO Store,5,5,5,5,2014-12-23,51.592897,-2.959446
474790,Christine Ann Williams Childminding,Exempt,nan,nan,nan,2011-03-21,,
474791,Chuckle Bugz,Exempt,nan,nan,nan,2012-01-11,,
474792,Chuckles Nursery,5,0,5,5,2014-11-18,51.614968,-3.028877
474793,Chun Ho Takeaway,1,10,10,20,2014-07-31,51.57315,-2.989924
474794,CJ Fish Bar,5,5,5,5,2014-10-21,51.611031,-3.004843
474795,Claire John Childminding,Exempt,nan,nan,nan,2012-02-03,,
474796,Claire's Catering,5,5,5,5,2013-10-23,,
474797,Clare Foodstores,4,10,5,5,2014-03-11,51.578252,-2.989544
474798,Claremont Court Care Home,5,0,0,5,2014-04-02,51.610938,-3.002054
474799,Clarence Workingmens Club,4,5,5,10,2014-12-24,51.591181,-2.98753
474800,Cloisters Tea Room At St Mary's Malpas,5,0,0,0,2014-04-15,51.5910797119,-2.98830008507
474801,Coach & Horses,3,10,10,5,2013-11-07,51.54574,-3.079086
474802,Coed Cafe @ Children's Community Centre,5,5,0,0,2014-06-25,51.563274,-3.016615
474803,Coffee #1,4,5,10,5,2013-08-20,51.585271,-2.994157
474804,Coffi Mawr,5,5,5,5,2014-10-08,51.619909,-2.959337
474805,Coldra Beefeater Inn,4,5,10,5,2014-02-17,51.602393,-2.92235
474806,Coles Bakery,1,5,5,20,2014-12-22,51.572491,-2.946649
474807,Colins Carvery,5,0,0,0,2014-10-23,,
474808,Commercial Food Stores,4,0,0,10,2014-02-18,51.579333,-2.990304
474809,Community House Presbyterian Church,5,0,0,5,2014-09-30,51.588765,-2.983941
474810,Congregational Chapel Rhiwderin,5,5,5,5,2014-10-22,51.581097,-3.068045
474811,Conservatory - Belle-Vue Tea Rooms,5,5,5,5,2014-03-05,51.580107,-3.003065
474812,Convention Centre Kitchen (inc Ancillary) Celtic Manor,4,10,0,10,2014-07-29,51.602214,-2.9314
474813,Co-operative Pharmacy,Exempt,nan,nan,nan,2011-08-02,51.587326,-3.003107
474814,Co-operative Pharmacy,Exempt,nan,nan,nan,2011-06-28,51.58237,-3.041447
474815,Cooperative Stores Ltd,5,5,0,0,2014-09-11,51.587982,-3.040305
474816,Copperfields Cafe,5,0,5,5,2014-04-30,51.59681,-2.982166
474817,Coriander,4,10,5,5,2013-08-12,51.587177,-2.962934
474818,Cornerstone Bakery,5,5,5,5,2014-10-15,51.57315,-2.989924
474819,Corporation Road Post Office,3,10,10,10,2014-10-15,51.58696,-2.982574
474820,Costa,5,5,0,0,2014-12-23,51.586908,-2.995203
474821,Costa Coffee @ The Royal Gwent Hospital,5,5,5,0,2014-09-25,51.579806,-2.998165
474822,Costa Ltd,5,0,5,5,2014-12-04,51.577578,-2.943595
474823,Costcutter,2,15,10,10,2014-10-28,51.594668,-2.930466
474824,Cottage Tea Rooms,1,10,5,20,2013-09-13,51.577402,-3.046081
474825,Crepes And Baguettes,5,0,5,5,2014-07-07,51.59108,-2.9883
474826,Cromwell Road Stores,4,0,0,10,2014-11-07,51.582585,-2.971352
474827,Cross Hands,5,5,0,0,2015-01-26,51.588041,-2.961711
474828,Cross Keys Hotel,3,10,10,10,2013-11-15,51.589224,-2.996726
474829,Crystal Chicken & Kebab House,4,5,10,5,2014-10-27,51.589727,-2.978635
474830,Cupcakes By Jeni,5,0,0,0,2014-04-14,,
474831,Cupcakes Galore,4,5,5,10,2014-12-22,,
474832,Curro's Restaurant,5,5,5,5,2014-09-12,51.610038,-2.953655
474833,Curry On The Curve,4,10,5,5,2014-12-16,51.590939,-2.990671
474834,Custody Unit,5,0,0,0,2015-01-05,51.579968,-2.994892
474835,Cwm Hedd Trout Lake (Lt Williams & Sons),4,0,5,10,2013-11-09,51.563509,-3.065108
474836,Cwtch Childminding,Exempt,nan,nan,nan,2012-02-20,,
474837,Cwtchy Cakes,4,5,5,10,2013-02-04,,
474838,Cylch Meithrin Y Delyn,3,10,5,10,2014-01-20,51.599733,-2.982084
474839,Dadford Tea Room,5,0,0,5,2014-02-25,51.598163,-3.033997
474840,Daily Child Care,Exempt,nan,nan,nan,2012-02-08,,
474841,Danny's Noodle Bar- Mobile Trading Outside China Garden,4,10,5,0,2014-09-02,51.581763,-2.993329
474842,Danygraig Nursing Home,4,10,5,5,2014-06-18,51.593825,-2.948176
474843,Dave's Whippy,5,0,0,0,2014-04-07,51.59108,-2.9883
474844,Davies Catering @ TT Electronics,4,5,5,10,2013-10-08,51.58225,-3.047867
474845,Davies Catering @SPTS,4,10,5,5,2014-11-11,51.600607,-2.923093
474846,Dawns Big Baps (was Deli-Snax),3,10,10,10,2014-09-12,,
474847,Dazzling Choices,5,0,0,0,2014-12-15,,
474848,Debbie Phelps Childminding,Exempt,nan,nan,nan,2011-03-23,,
474849,Decks @ Tesco Extra,5,5,0,5,2014-01-30,51.575704,-2.950772
474850,Deli Delights,4,5,5,10,2014-11-14,51.590637,-2.982668
474851,Deli Plus Ltd,5,5,5,5,2013-09-13,51.55692,-3.030667
474852,Delilahs,4,10,5,5,2014-12-24,51.58929,-2.997362
474853,Denise Reed Childminding,Exempt,nan,nan,nan,2012-04-25,,
474854,Desi Grill,3,10,5,10,2014-06-10,51.589727,-2.978635
474855,Diamond Grill,3,10,10,10,2014-05-09,51.58321,-3.009122
474856,Discount UK,5,0,0,0,2014-09-25,51.572454,-3.010399
474857,DJ Snackbox @Coles Bakery,5,5,5,5,2014-12-22,51.572491,-2.946649
474858,Docks Conservative Club,4,10,0,0,2014-12-04,51.578375,-3.011582
474859,Dominos Pizza,5,0,0,0,2013-10-28,51.587865,-2.965691
474860,Domino's Pizza,5,5,5,5,2014-01-10,51.60896,-3.007281
474861,Dragon Palace,2,15,10,10,2014-09-29,51.588524,-2.958791
474862,Dragonfly,5,5,0,0,2014-09-04,51.559578,-3.036194
474863,Drinks Express,5,5,0,5,2014-10-09,51.58321,-3.009122
474864,Drinks Express,5,5,0,0,2015-01-28,51.587907,-2.998299
474865,Duckpool Cafe,5,5,5,5,2013-06-13,51.593883,-2.981655
474866,Duckpool Road Baptist Church,5,0,0,0,2014-12-23,51.593883,-2.981655
474867,Ducks Catering Co,5,0,5,5,2014-07-17,51.578472,-2.985949
474868,Duffryn Community Centre - Luncheon Club,5,0,0,0,2014-03-10,51.560371,-3.025797
474869,Duffryn Express Convenience Store Ltd,5,5,5,5,2014-12-23,51.560371,-3.025797
474870,Dutchy's Jamaican Jerk Shack,3,10,10,5,2014-05-08,51.586472,-2.997806
474871,DW Sports Fitness,5,0,0,0,2014-01-17,51.568264,-2.999889
474872,Dylans Restaurant,3,10,10,10,2013-09-12,51.58801,-2.995674
474873,Edwards And Son,1,10,5,20,2014-09-09,51.595223,-2.983734
474874,Eleanor Hodson Nursing Home,4,5,10,5,2014-06-26,51.611377,-2.988517
474875,Elizabeth Taylor Childminding,Exempt,nan,nan,nan,2011-10-20,,
474876,Elizabeth Wheeler Childminding Service,Exempt,nan,nan,nan,2013-05-08,,
474877,Emma Millership Childminding,Exempt,nan,nan,nan,2012-01-13,,
474878,Emmaus House Residential Home,4,5,5,10,2014-06-12,51.582265,-3.008249
474879,Eurest Catering @EADS,5,5,5,5,2013-09-18,51.556766,-3.044093
474880,Eurofoods (UK) Ltd,3,10,5,10,2014-12-03,51.572932,-2.963253
474881,European Food Store,3,10,10,10,2014-11-13,51.576214,-2.988057
474882,Evergreen Day Nursery,4,5,5,10,2014-06-25,51.602214,-2.9314
474883,Eveswell Community Centre,5,5,0,0,2014-10-24,51.588731,-2.975121
474884,Eveswell Primary School - Breakfast Club,4,5,0,10,2014-12-19,51.58898,-2.972224
474885,Eveswell Primary School Nursery,5,5,0,5,2014-10-09,51.58898,-2.972224
474886,Eveswell Tandoori,0,20,20,20,2014-08-13,51.588748,-2.973013
474887,Express Pizza And Kebab,4,5,5,10,2013-10-17,51.579387,-2.990334
474888,Ezi's Grill House,5,0,0,5,2014-04-07,,
474889,Fairhaven Childcare,Exempt,nan,nan,nan,2012-01-26,,
474890,Fairoak Nursery Breakfast Club,4,0,10,10,2014-09-12,51.592647,-2.98427
474891,Fairoak Nursery School,5,5,0,5,2014-09-10,51.592647,-2.98427
474892,Fallows Tandoori,4,5,10,5,2014-05-27,51.578234,-2.951459
474893,Family Foods,4,5,5,10,2014-02-06,,
474894,Family Kebab House,5,5,0,5,2014-01-31,51.595223,-2.983734
474895,Fannys Rest Stop,4,10,5,5,2013-09-26,51.571022,-2.989589
474896,Farm To Fork Catering,4,5,5,10,2014-01-24,,
474897,Farm To Fork Two,5,5,5,5,2014-08-05,,
474898,Farmers Daughter Restaurant,5,5,5,5,2014-02-13,51.573089,-3.07363
474899,Farmhouse Bakery,3,10,10,10,2014-03-31,51.589904,-2.980068
474900,Farries Fish Bar,4,10,0,10,2014-03-25,51.585527,-2.950255
474901,Ffrindiau Bach(Flying Start),5,0,0,5,2014-09-12,51.592647,-2.98427
474902,FG Food-Food Glorious Food,5,0,0,0,2015-01-05,,
474903,Fields Nursing Home,5,5,0,5,2014-05-09,51.590212,-3.004254
474904,Florence Justice Christian Residential Home,4,5,10,5,2014-07-16,51.581305,-3.0111
474905,Flying Start,5,5,0,0,2014-10-15,51.574852,-2.988575
474906,Flying Start Twinkle Tots Playgroup,4,5,5,10,2013-12-06,51.612098,-3.029115
474907,For The Love Of Cake,4,5,5,10,2013-11-06,,
474908,Foresters Oaks,4,10,0,0,2014-02-25,51.614592,-2.875803
474909,Fortune House,4,5,10,5,2013-09-18,51.598144,-2.982786
474910,Forum Leisure Cafe - Celtic Manor,4,5,5,10,2013-10-09,51.602214,-2.9314
474911,Foundation Phase Kitchen (Incorporating Glan Usk Nursery),5,0,0,0,2014-10-16,51.602013,-2.982495
474912,Fourteen Locks Mini Market,5,5,5,5,2014-12-23,51.590264,-3.042537
474913,Frankie And Bennys,5,0,0,0,2014-01-16,51.574743,-2.943955
474914,Fresh As A Daisy,5,5,0,5,2015-01-28,,
474915,Fresh Start,4,5,5,10,2014-03-19,51.612597,-2.957377
474916,Fresh Start Food Ltd,5,0,0,5,2014-12-16,51.585729,-2.972776
474917,Freshly Made,1,10,15,20,2014-08-25,51.59108,-2.9883
474918,Friars Bar,5,5,0,5,2013-11-12,,
474919,Friends (The Loft Coffee And Gifts),5,5,5,0,2014-10-15,51.589727,-2.978635
474920,Fruits Of The World,Exempt,nan,nan,nan,2014-09-02,51.588998,-2.995797
474921,Funky Monkeys,5,0,5,5,2014-07-29,51.575704,-2.950772
474922,Gaer Community Centre,5,5,5,5,2014-09-02,51.577234,-3.018095
474923,Gaer Park Club & Institute Ltd,2,15,5,10,2014-12-04,51.579592,-3.021006
474924,Gaer Stores,3,10,10,5,2014-05-15,51.577234,-3.018095
474925,Game,Exempt,nan,nan,nan,2013-06-03,51.585271,-2.994157
474926,Garrys Kitchen,4,5,10,5,2013-09-24,51.584405,-2.978449
474927,Garth Farm House,5,5,5,5,2015-01-28,,
474928,Gateway Hotel,4,5,10,5,2014-06-26,51.590514,-2.985581
474929,Gateway Support And Care Ltd,Exempt,nan,nan,nan,2012-08-03,51.590867,-2.988476
474930,Gateway Support And Care Ltd,Exempt,nan,nan,nan,2012-08-03,51.594103,-2.975683
474931,Gateway Support And Care Ltd,Exempt,nan,nan,nan,2012-08-20,51.586143,-3.004741
474932,Gather Gather MITIE Catering,5,5,5,5,2014-06-10,51.566338,-3.02723
474933,Gemelli  Zafferano,5,0,5,0,2014-04-01,51.587145,-3.002252
474934,Gemelli @Tescos Extra,5,5,5,0,2014-03-11,51.575704,-2.950772
474935,George's Fish & Chip Shop,4,10,5,5,2014-04-03,51.58053,-3.018544
474936,Gibbo's,5,5,5,5,2014-06-12,51.582685,-2.967905
474937,Gill Dawson Childminder,Exempt,nan,nan,nan,2011-09-23,,
474938,Glengariff House,4,10,5,5,2014-03-13,51.580489,-3.004573
474939,Glenmore Residential Home,4,0,10,10,2014-12-04,51.583018,-3.006346
474940,Glenroy Hotel,5,5,5,5,2014-12-23,51.583018,-3.006346
474941,Global Food Market,3,10,10,10,2013-10-11,51.578252,-2.989544
474942,Glyn Anwen Extra Care Home,5,5,0,5,2014-02-20,51.601642,-2.964724
474943,Glynhir & Pentwyn,5,5,0,0,2014-10-09,51.615668,-2.959016
474944,Godfrey Morgan,5,5,5,5,2013-12-12,51.589727,-2.978635
474945,Gold Stars Nursery,5,5,5,5,2014-08-22,51.603392,-2.991708
474946,Golden Garden Chinese,4,5,0,10,2014-02-18,51.581763,-2.993329
474947,Golden Grill,3,10,10,10,2014-07-24,51.597654,-2.999278
474948,Golden Plaice,4,10,5,5,2014-03-06,51.594562,-2.93029
474949,Golden Tandoori,4,10,5,5,2014-02-20,51.591015,-2.990139
474950,Good Choice Chinese Takeaway,3,10,10,5,2013-09-25,51.596233,-2.888674
474951,Good Taste Foods,4,5,5,10,2014-12-24,51.59108,-2.9883
474952,Great Wall,5,5,5,5,2015-01-26,51.582685,-2.967905
474953,Green Apple Catering,5,0,0,0,2014-01-16,51.568612,-2.940452
474954,Green Flute Bakery,4,10,5,5,2013-07-18,,
474955,Greenfield Private Nursery,4,5,5,10,2014-03-11,51.586246,-3.056475
474956,Greenfields Private Nursery,4,5,10,0,2014-02-17,51.602946,-2.914968
474957,Greenmeadow Stores,5,5,5,5,2014-04-16,51.579342,-2.952348
474958,Greggs,5,0,5,5,2014-09-17,51.594562,-2.93029
474959,Greggs,5,0,0,0,2013-01-22,51.589727,-2.978635
474960,Greggs,5,5,0,5,2015-01-07,51.596203,-2.982672
474961,Greggs,5,5,5,5,2013-09-12,51.559578,-3.036194
474962,Greggs,5,5,0,0,2013-02-15,51.588335,-2.996605
474963,Greggs,5,0,0,0,2014-10-09,51.585271,-2.994157
474964,Greggs,5,5,5,5,2013-09-25,51.583877,-2.993145
474965,Greggs @ Tesco Extra,4,0,10,0,2014-12-04,51.575704,-2.950772
474966,Greyhound,4,10,5,0,2014-12-24,51.58929,-2.997362
474967,Griffiths Bakery,4,10,5,5,2014-08-06,51.593157,-2.982419
474968,Grill And Bake,2,10,15,10,2014-06-16,51.581503,-2.972859
474969,Groes Wenn Inn,4,10,5,5,2013-09-11,51.616227,-2.846601
474970,Grubs Up,0,15,20,20,2014-10-10,51.588321,-2.996128
474971,Ha Long,1,15,15,20,2014-12-05,51.578252,-2.989544
474972,Halfway House - 2010 Golf Course Celtic Manor,3,10,10,10,2014-12-05,51.602214,-2.9314
474973,Halfway House - Mongomerie Golf Course Celtic Manor,4,5,5,10,2013-08-14,51.602214,-2.9314
474974,Hanbury Arms,4,10,0,0,2014-01-22,51.607842,-2.953811
474975,Handmade Boutique Uk Ltd,4,0,10,5,2014-09-12,51.588383,-2.971591
474976,Handpost Hotel,5,5,0,5,2014-02-24,51.582514,-3.0127
474977,Handpost Tandoori,5,5,5,5,2014-01-30,51.583602,-3.010632
474978,Hannah Beese Childminding,Exempt,nan,nan,nan,2012-01-20,,
474979,Happy Faces Childminding,Exempt,nan,nan,nan,2012-03-06,,
474980,Harbour Fish Bar,5,5,5,5,2014-07-29,51.587326,-3.003107
474981,Harleys Grills,5,5,5,0,2014-08-07,,
474982,Harvester,4,10,0,5,2014-07-29,51.574743,-2.943955
474983,Harveys Wholesalers @Basement Of Friendship Inn,5,5,0,0,2015-01-21,51.594668,-2.930466
474984,Hatherleigh Community Centre,5,5,0,0,2014-06-26,51.592113,-2.957466
474985,Heaven Sent Day Spa,5,5,0,0,2012-03-27,51.587251,-3.00452
474986,Helen Westley Childminding,Exempt,nan,nan,nan,2011-11-24,,
474987,Hi Coffee Coffee Store Newport Rail Station Concourse,4,5,5,10,2013-10-23,51.589933,-2.997882
474988,Hillcroft Garage,2,15,0,5,2014-08-13,51.607458,-2.897687
474989,Hillside Resource Centre,4,5,10,5,2014-01-28,51.578907,-3.019143
474990,Hilton Hotel,4,10,0,0,2014-08-20,51.602942,-2.918896
474991,Hobbycraft,Exempt,nan,nan,nan,2014-06-25,51.572454,-3.010399
474992,Hogspitality,5,0,0,5,2014-07-16,51.59108,-2.9883
474993,Holiday Inn,3,10,10,10,2014-07-30,51.599679,-2.927883
474994,Holiday Inn Express,4,10,5,5,2014-05-01,51.559578,-3.036194
474995,Home Caterer Supplying Penhow Snr Citizens Luncheon Club,5,0,0,0,2014-10-01,,
474996,Home Caterer Supplying Penhow Snr Citizens Luncheon Club,5,0,0,0,2014-11-13,,
474997,Homelands,4,5,5,10,2014-12-24,51.620283,-2.846431
474998,Honeybunch Cake Company,5,5,5,5,2015-01-28,,
474999,Honour Garden,1,15,20,10,2013-12-05,51.590327,-2.990658
475000,Hot And Cold Baguettes,3,10,10,5,2014-06-30,51.582585,-2.971352
475001,Hot Bread Shop,4,10,5,5,2014-09-25,51.587865,-2.965691
475002,Hot Snack Vending,5,5,5,5,2013-12-11,,
475003,Ice 2 C U Cupcakes,5,0,0,5,2015-01-27,,
475004,Iceland,4,10,5,5,2014-12-24,51.591022,-2.992521
475005,Iceland,4,5,10,5,2014-12-23,51.577578,-2.943595
475006,Iceland Foods Ltd,5,5,5,5,2014-12-23,51.586365,-2.99558
475007,Icon Supplies Limited,3,5,10,10,2013-09-20,,
475008,Ideal Stores,4,10,5,5,2014-12-23,51.603765,-2.97615
475009,Indian Cottage,3,10,5,10,2013-11-19,51.597654,-2.999278
475010,International Food Market,1,10,15,20,2014-01-14,51.578252,-2.989544
475011,International Sport Village - SEWRP,5,5,5,5,2014-09-18,51.570989,-2.96112
475012,Isca Beef,5,0,5,0,2014-08-14,51.59108,-2.9883
475013,Iscoed Tafarn,5,5,0,0,2014-12-04,51.596451,-2.888346
475014,Istanbul,4,5,5,10,2015-01-08,51.58696,-2.982574
475015,ITEC Training,4,10,5,5,2014-03-11,51.583578,-2.993412
475016,Ivy Bush,4,10,5,5,2014-12-24,51.591293,-2.991228
475017,J J Fish Bar,5,5,5,5,2014-01-13,51.611353,-2.957813
475018,Jack In The Box Playgroup,1,10,0,20,2014-06-05,51.586486,-3.049754
475019,Jack News,4,10,5,0,2014-12-02,51.584584,-2.993607
475020,Jackie Vickery Childminding,Exempt,nan,nan,nan,2011-12-19,,
475021,Jamia Mosque,5,5,0,0,2014-09-16,,
475022,Jasmine Rice,4,5,10,5,2013-08-13,51.580561,-2.990778
475023,Java Coffee House,5,5,5,5,2014-02-24,51.585328,-2.995976
475024,Jayne Avril Clark,4,5,5,10,2012-12-04,,
475025,Jayne's Bakes,5,0,0,5,2014-01-22,,
475026,JBC Nutrition,4,10,5,5,2014-12-22,51.578559,-2.987285
475027,Jennifer Louise Brown Childminding,Exempt,nan,nan,nan,2011-06-12,,
475028,Jewel Balti,1,15,15,20,2014-10-27,51.587865,-2.965691
475029,Jim Oliver Butchers,3,10,10,10,2014-01-08,51.589904,-2.980068
475030,Jocelyn Snelling Childminding,Exempt,nan,nan,nan,2012-03-05,,
475031,Johanna's Greengrocers,Exempt,nan,nan,nan,2013-04-30,51.587999,-2.963644
475032,John Bristow & Sons,4,5,5,10,2014-12-22,51.589776,-2.962902
475033,John Wallace Linton,5,0,0,0,2014-01-13,51.588296,-2.998004
475034,Johns Meat Market,3,10,10,10,2014-10-08,51.583578,-2.993412
475035,Jones' Fish Bar,4,5,0,10,2014-02-13,51.594605,-2.941754
475036,Joshua's Ices,5,0,0,0,2014-07-30,51.59108,-2.9883
475037,Joy Elliman Childminding,Exempt,nan,nan,nan,2013-01-10,,
475038,Juboraj Spice,3,10,10,10,2014-03-19,51.585382,-2.97987
475039,Julia McClymont Childminding,Exempt,nan,nan,nan,2012-01-13,,
475040,Julia Phillips Childminding,Exempt,nan,nan,nan,2013-09-30,,
475041,Julie Reeves Childminding,Exempt,nan,nan,nan,2011-11-30,,
475042,Julie Willis Childminding,Exempt,nan,nan,nan,2012-01-26,,
475043,Juliet Lesley Wall Childminding,Exempt,nan,nan,nan,2013-11-05,,
475044,Junction  24 (Staff Restaurant - Celtic Manor Golf Club),5,5,5,5,2014-03-24,51.602214,-2.9314
475045,K Seto,4,10,5,5,2014-09-02,51.581908,-2.961826
475046,K2 Indian Balti & Wok 2 G At Victoria Hotel,1,15,5,20,2014-12-04,51.58696,-2.982574
475047,Kaczuszka,5,5,5,0,2014-10-09,51.583916,-2.993882
475048,Kafe's,1,10,10,20,2014-06-27,51.577234,-3.018095
475049,Karen Tinsley Childminding,Exempt,nan,nan,nan,2012-01-10,,
475050,Kasim Takeaway,5,0,0,5,2014-09-16,51.586583,-2.945312
475051,Kate's Glorious Cakes,4,0,0,10,2014-07-22,,
475052,Katy's Cafe,5,0,0,0,2014-04-08,51.598159,-3.000184
475053,Kay Burt Childminder,Exempt,nan,nan,nan,2013-05-02,,
475054,Kenabella,3,10,10,5,2014-01-23,51.598159,-3.000184
475055,Kensington Court Day Care Centre,3,10,10,5,2014-03-10,51.590852,-2.973131
475056,KFC,4,10,5,5,2014-03-10,51.56844,-2.999359
475057,KFC,5,0,0,0,2014-02-13,51.572037,-2.948401
475058,K-Force Cafe,5,0,5,0,2014-06-12,51.583662,-2.989944
475059,Kickers Kitchen,4,0,10,10,2013-09-12,51.58993,-2.977947
475060,Kid Zone,4,0,10,5,2014-10-22,51.595274,-3.049422
475061,Kimberley Nursery,5,0,0,0,2014-11-25,51.602692,-3.009467
475062,Kingdom Hall Of Jehovah's Witnesses,4,0,10,5,2014-07-23,51.586821,-2.943847
475063,Kites Nursery,5,5,5,5,2014-03-17,,
475064,Kites Nursery & Oscars School Club,4,5,0,10,2014-09-23,51.593217,-3.000812
475065,KJ Meats @ Mya Foods,5,5,5,5,2015-01-05,51.566958,-2.947112
475066,Knoll Guesthouse,2,15,0,5,2013-02-15,51.582667,-3.004318
475067,Koh-I-Noor Tandoori,3,10,5,10,2014-07-31,51.589727,-2.978635
475068,Kok Wok Chinese Takeaway,3,10,10,10,2014-10-29,51.60896,-3.007281
475069,Kokoblas Chocolates,5,0,0,0,2014-04-14,,
475070,KT's Cakery,4,5,5,10,2014-10-29,,
475071,Kurdish Coffee Shop,Exempt,nan,nan,nan,2014-10-15,51.57948,-2.990004
475072,Kwick Curry - Authentic Indian Food,5,0,0,0,2014-03-06,,
475073,La Bamba,5,5,0,0,2014-03-25,51.589204,-2.996927
475074,La Pizzeria,5,5,0,5,2014-09-30,51.587326,-3.003107
475075,Labuan Guest House,5,0,0,5,2014-11-17,51.588041,-2.961711
475076,Lane End,5,5,5,5,2014-02-17,,
475077,Langstone Playgroup,5,0,0,5,2015-01-05,51.605042,-2.903127
475078,Le Pub,5,5,0,0,2014-12-04,51.5873,-2.99983
475079,Leanne Cross Childminding,Exempt,nan,nan,nan,2012-01-06,,
475080,Leo's Fish Bar,5,5,5,5,2013-09-05,51.596203,-2.982672
475081,Lifestyle Express,3,5,10,10,2012-08-16,51.582669,-2.964397
475082,Lifestyle Express,4,5,5,10,2014-10-17,51.585382,-2.97987
475083,Lifestyle Express,1,10,10,20,2014-11-17,51.590966,-2.990585
475084,Lifestyle Express - Alexandra Stores,1,10,10,20,2014-11-17,51.572024,-2.990246
475085,Lifestyle Express - Heather Stores,3,10,10,10,2014-11-17,51.597831,-2.970667
475086,Lifestyle Express - Value Food & Wine,4,5,0,10,2014-09-16,51.578452,-2.989303
475087,Lifestyle Stores,4,10,5,5,2014-12-23,51.582846,-3.03948
475088,Lighthouse Inn,2,15,10,10,2014-03-08,51.532917,-3.012622
475089,Lilo,4,10,5,5,2014-01-28,51.581763,-2.993329
475090,Lisa Claire Kirby Childminidng,Exempt,nan,nan,nan,2012-01-19,,
475091,Lisa Colcombe Childminding,Exempt,nan,nan,nan,2012-02-28,,
475092,Lite Bites,4,5,10,5,2014-01-12,51.596203,-2.982672
475093,Little Acorns (Moorland & Broadmead Park) Playgroup,4,0,5,10,2014-04-29,51.581978,-2.949979
475094,Little Bites,4,5,10,5,2013-10-02,51.578307,-2.966801
475095,Little Buttercups Flying Start Playgroup,5,5,0,5,2014-09-30,51.563274,-3.016615
475096,Little Ducks Maindee Playgroup,4,0,0,10,2014-06-10,51.588765,-2.983941
475097,Little Hands Childminding Service,Exempt,nan,nan,nan,2012-01-16,,
475098,Little Ladybirds Flying Start Playgroup,5,5,5,5,2014-12-10,51.585779,-2.945757
475099,Little Lambs Toddler Group,5,0,0,5,2014-04-29,51.5910797119,-2.98830008507
475100,Little Monsters Childminding,Exempt,nan,nan,nan,2012-03-21,,
475101,Little Owls Flying Start,5,5,5,5,2014-09-29,51.596005,-2.928573
475102,Little Shorties Ursula Short Childminder,Exempt,nan,nan,nan,2012-01-06,,
475103,Little Sunshine Tots,Exempt,nan,nan,nan,2012-02-22,,
475104,Littlelegs Childminding,Exempt,nan,nan,nan,2012-01-19,,
475105,Llanmartin Playscheme,5,0,0,5,2014-10-29,51.594275,-2.893212
475106,Llanthewy House,5,5,5,5,2014-11-25,51.584015,-3.008663
475107,Llanwern Golf Club,5,0,0,5,2014-10-20,51.58678,-2.914831
475108,Lliswerry Out Of School Club,3,10,5,10,2011-05-12,51.578784,-2.956854
475109,Lliswerry Stores,1,5,10,20,2013-12-23,51.58438,-2.949755
475110,Lodge Restaurant - Celtic Manor Golf Club House,4,10,0,5,2014-03-18,51.602214,-2.9314
475111,Looby Lou's,Exempt,nan,nan,nan,2014-11-24,,
475112,Los Amigos,4,5,5,10,2014-05-08,51.585753,-2.996707
475113,Lotus Fish Bar,5,5,0,0,2013-10-25,51.585266,-2.978712
475114,Love Fresh,5,5,5,5,2014-12-23,51.588976,-2.996258
475115,Luca Wholesale,5,0,5,0,2015-01-22,51.577843,-2.98688
475116,Luci's Lunches,3,5,10,10,2014-10-15,,
475117,Lullabyz Nursery Ltd,4,5,10,5,2014-03-21,51.592581,-2.989928
475118,Luluanna Cakes,5,5,5,5,2015-01-28,,
475119,Lunch Box,3,10,10,5,2014-12-11,51.59234,-2.985433
475120,Lunch Box,3,10,5,10,2014-08-15,,
475121,Luncheon Club @ St Cadocs Church Room,4,10,5,5,2014-03-06,51.609704,-2.95406
475122,Lynn Jones Childminding,Exempt,nan,nan,nan,2012-01-26,,
475123,Lynne Strong Cup Cakes,5,0,0,5,2014-03-03,,
475124,Lynne's Cafe,4,10,5,5,2014-09-02,51.565727,-2.985232
475125,M & G Catering,5,0,0,0,2014-01-12,51.583236,-2.981671
475126,M A Grill,5,5,5,0,2014-08-28,51.585551,-2.996126
475127,M G Tayler,5,0,0,5,2014-10-09,51.593157,-2.982419
475128,M Vacara & Co,5,5,5,5,2014-01-07,51.585792,-2.99424
475129,MA Somerton Fish Bar,3,10,10,10,2014-06-26,51.587177,-2.962934
475130,Made 4 U,4,5,10,5,2014-09-05,51.571022,-2.989589
475131,Made With Love,5,5,0,5,2014-12-12,,
475132,Maesglas Balti Takeaway,4,10,5,5,2013-11-18,51.570853,-3.01361
475133,Maesglas Fish Bar,5,5,5,5,2013-10-30,51.570853,-3.01361
475134,Maesglas Primary School-School Breakfast Club,4,5,5,10,2014-12-02,51.56765,-3.010667
475135,Mahin Spice,4,5,10,5,2014-10-02,51.58321,-3.009122
475136,Maindee Conservative Club,4,5,5,10,2014-10-23,51.590924,-2.979541
475137,Maindee Convenience Store,3,10,10,5,2014-11-17,51.590037,-2.981327
475138,Maindee Fish Bar,4,5,10,5,2014-09-02,51.589843,-2.982001
475139,Malpas Court,2,15,10,10,2013-09-25,51.606774,-3.009572
475140,Malpas Parochial Church Council,5,5,0,0,2014-12-08,51.5910797119,-2.98830008507
475141,Malpas Road Convenience Store,5,5,5,5,2014-12-23,51.597654,-2.999277
475142,Malpas Road Evangelical Church,5,5,0,5,2014-10-08,51.599218,-3.001507
475143,Malpas Road General Store,3,10,5,10,2011-11-29,51.597654,-2.999278
475144,Mamma Q's,5,0,0,0,2014-09-02,,
475145,Man Of Gwent,5,5,0,0,2014-02-13,51.594841,-2.943693
475146,Man Of Steel,3,10,10,10,2014-03-20,51.578818,-2.950389
475147,Manor Lodge,5,0,0,5,2014-04-09,51.582667,-3.004318
475148,Marenghi's Italian Coffee Shop,5,5,0,5,2014-04-03,51.587999,-2.963644
475149,Mariusz Kroczek Candyfloss,5,0,0,0,2013-11-29,,
475150,Market Bakery And Sandwich Bar,2,15,15,10,2014-06-04,51.588976,-2.996258
475151,Marks & Spencer,5,5,5,5,2013-05-08,51.577578,-2.943595
475152,Marks Snack Bar,4,10,0,0,2014-10-16,51.590768,-3.055434
475153,Marlene Rubery Childminding,Exempt,nan,nan,nan,2011-03-25,,
475154,Marshfield Monkeys Playgroup,5,0,0,0,2014-05-14,51.540208,-3.076345
475155,Marshfield Village Hall,4,5,5,10,2014-12-23,51.530322,-3.0669
475156,Martins,4,10,5,5,2014-12-24,51.612098,-3.029115
475157,Mas Bazaar,3,10,10,10,2013-09-04,51.580881,-2.990236
475158,Masala Bazaar Ltd,5,5,5,5,2014-12-23,51.583644,-2.987713
475159,Masala Bites,4,10,5,5,2013-06-04,51.582585,-2.971352
475160,Masons Arms Public House,5,5,5,5,2014-08-14,51.531499,-3.069003
475161,Master Chef,3,10,10,5,2014-02-20,51.585382,-2.97987
475162,Mayfield Residential Home,3,10,10,5,2014-06-06,51.584015,-3.008663
475163,MB Meats Trading From Deliserve,3,10,10,10,2014-03-31,51.588439,-3.053653
475164,MBE Catering Services Ltd @ Newport Golf Club Kitchen,5,5,0,0,2014-02-25,51.596612,-3.056614
475165,McColls,5,5,0,0,2014-05-08,51.615146,-2.966689
475166,McDonalds,5,0,0,0,2014-01-16,51.588464,-2.997257
475167,McDonalds,4,5,10,5,2014-07-15,51.55704,-3.021077
475168,McDonalds,5,0,0,0,2014-12-23,51.602393,-2.92235
475169,McDonalds,5,0,0,0,2014-12-23,51.572454,-3.010399
475170,McDonalds,4,5,5,10,2013-11-15,51.596064,-2.997005
475171,McDonalds,5,0,0,0,2014-12-23,51.574743,-2.943955
475172,McDonalds,5,5,0,0,2013-11-05,51.597239,-3.077707
475173,Melting Pot Oriental Foods,5,5,5,5,2013-09-05,,
475174,Merlins Bar/Kitchen - Celtic Manor,5,0,5,5,2014-03-14,51.602214,-2.9314
475175,Meze Lounge,5,5,5,5,2014-12-23,51.589224,-2.996726
475176,Michelle Louise Humphrey Childminding,Exempt,nan,nan,nan,2011-12-01,,
475177,Michelle Smith Childminding,Exempt,nan,nan,nan,2011-10-06,,
475178,Mill Heath Nursing Home,5,5,5,0,2014-03-25,51.611396,-3.018874
475179,Millbrook Flying Start,4,5,0,10,2014-04-10,51.611396,-3.018874
475180,Milton Hotel,4,5,5,10,2013-09-10,51.590062,-2.914767
475181,Mini Me Private Day Nursery Ltd,3,10,10,10,2014-02-18,51.592647,-2.98427
475182,MITIE @ Lloyds Banking Group,4,10,5,5,2014-02-25,51.558913,-3.033107
475183,Miz Meats @ Mya Foods,4,5,5,10,2014-12-24,51.566958,-2.947112
475184,MJ Meats @ Mya Foods,5,5,0,5,2014-10-21,51.566958,-2.947112
475185,Monmouth House Day Nursery,4,10,5,5,2014-08-28,51.581779,-3.012438
475186,Moody Sow Farm Shop,5,5,5,5,2014-09-24,51.546692,-3.111859
475187,Morrison,4,10,5,0,2014-03-05,51.577094,-2.964423
475188,Morrisons,4,10,5,5,2013-07-09,51.598287,-3.079147
475189,Morrisons Petrol Station - Filling Station,5,0,0,0,2011-03-10,51.598287,-3.079147
475190,Mosque,1,15,10,20,2014-03-27,51.589812,-2.995317
475191,Mr Donner,4,10,5,5,2014-05-27,51.58854,-2.995729
475192,Mr Whippy,5,0,0,0,2015-01-21,51.59108,-2.9883
475193,Mrs Brown's Bakes,5,0,0,0,2014-06-16,,
475194,Mrs T's,4,5,5,10,2013-07-09,51.5927,-2.964898
475195,Muffins And More,4,10,5,5,2014-12-22,,
475196,My Beautiful Cake.com,5,0,0,0,2015-01-20,,
475197,My Secret Kitchen,4,5,5,10,2012-12-05,,
475198,Nana Ms Cakes,4,0,5,10,2014-06-10,,
475199,Nandos Chicken Land,5,0,5,0,2014-12-16,51.577578,-2.943595
475200,Nant Coch Church,5,0,5,5,2013-10-03,51.587988,-3.012923
475201,Nash Stores,2,5,15,10,2014-06-17,51.576964,-2.955055
475202,Nash Stores Newsagents,4,10,0,0,2014-01-16,51.571619,-2.954496
475203,Natasha Sullivan-Dungey Childminding,Exempt,nan,nan,nan,2012-01-16,,
475204,National Roman Legion Museum,5,0,0,5,2014-06-23,51.60954,-2.954049
475205,National Trust Shop,Exempt,nan,nan,nan,2013-05-10,51.560557,-3.023998
475206,Nazar Mini Market,5,5,5,5,2014-12-23,51.586378,-2.982273
475207,Nesta's Niche,4,10,5,5,2014-02-25,51.588976,-2.996258
475208,New Beer Buster,3,10,10,10,2012-05-16,51.588041,-2.961711
475209,New Best Kebabs,5,5,5,5,2014-02-07,51.590428,-2.989376
475210,New Canton,3,10,10,10,2013-11-18,51.588748,-2.973013
475211,New Delhi,4,10,5,5,2014-12-16,51.595223,-2.983734
475212,New Horizon Day Care Centre,4,5,5,10,2014-02-18,51.588741,-2.855082
475213,New Inn Hotel,5,5,5,0,2014-07-01,51.607458,-2.897687
475214,New Look,Exempt,nan,nan,nan,2011-01-17,51.58515,-2.994673
475215,New Look,Exempt,nan,nan,nan,2011-01-13,51.577578,-2.943595
475216,New Seasons Church,5,5,5,5,2014-07-14,51.579333,-2.990304
475217,New Willows,5,0,5,0,2014-12-23,51.583,-2.918753
475218,New World Restaurant,3,10,10,10,2013-12-05,51.581763,-2.993329
475219,Newport Christadelphian Hall,5,5,5,5,2014-12-23,51.603764,-2.972467
475220,Newport Cricket Club,1,10,5,20,2013-06-07,,
475221,Newport East Community Centre,5,5,5,5,2014-05-07,51.581978,-2.949979
475222,Newport Food Bank The Gaweda Trust,Exempt,nan,nan,nan,2013-08-02,51.601847,-3.005276
475223,Newport Fugitives Athletic Club,5,0,0,0,2014-09-10,51.587982,-3.040305
475224,Newport Golf Club,5,0,0,0,2014-02-25,51.596612,-3.056614
475225,Newport International Sports Village - National Velodrome,3,10,5,10,2013-05-09,51.574121,-2.95742
475226,Newport Masonic Hall Ltd,4,10,5,5,2014-03-31,51.582085,-2.988155
475227,Newport Service Station,4,5,10,5,2014-03-10,51.590637,-2.982668
475228,Newport Snack Attack,4,5,0,10,2014-10-08,51.589281,-2.996352
475229,Newport Squash Racquets Club,4,5,5,10,2014-12-23,,
475230,Newport Uskmouth Sailing Club,4,0,0,10,2014-12-23,51.548535,-2.949195
475231,News And Booze,5,5,5,5,2014-01-09,51.581763,-2.993329
475232,News Box,5,5,5,5,2014-12-23,51.590428,-2.989376
475233,Nightlodge Hotel,5,5,5,5,2014-12-23,51.586037,-2.997147
475234,Nikita Sheridan-Twinkles Day Care,Exempt,nan,nan,nan,2014-05-01,,
475235,Nikki's Nosh,3,10,10,10,2014-05-08,,
475236,Norfolk House Nursery,4,5,10,5,2014-03-17,51.583919,-3.007232
475237,Oaks Care Home,Exempt,nan,nan,nan,2011-09-22,51.609159,-3.019719
475238,Oaks Residential Home,4,5,10,5,2014-03-31,51.596612,-3.056614
475239,Oasis Community Centre,5,5,0,0,2014-03-13,51.60257,-2.88226
475240,Ocean Community Service,4,5,5,10,2014-11-17,51.583919,-3.007232
475241,OCS @Avana  (Kitchen 1),5,5,5,5,2015-01-14,51.589595,-3.057101
475242,Oddfellows Arms,5,5,0,5,2014-07-17,51.592691,-2.981153
475243,Old Barn Inn,5,5,5,5,2014-06-03,51.600521,-2.875633
475244,Old Clubhouse Kitchen - Newport RFC,3,10,10,10,2014-10-21,51.589585,-2.991263
475245,Olive Tree Restaurant - Celtic Manor,5,5,5,5,2013-09-06,51.602214,-2.9314
475246,Only Foods And Sauces,5,0,5,5,2015-01-22,51.59108,-2.9883
475247,Ooo Cake,5,0,0,5,2014-05-21,,
475248,Options Cafe,4,5,5,10,2014-10-18,51.58243,-2.988827
475249,Oriental,5,5,5,5,2014-11-13,51.583142,-2.97464
475250,Oriental Garden,2,10,15,10,2014-05-29,51.587865,-2.965691
475251,Osborne Childrens Nursery,5,0,5,5,2014-03-21,51.593825,-2.948176
475252,Palfrey's Butchers,4,5,5,10,2014-10-23,51.593157,-2.982419
475253,Palmers Upland Cyder,5,5,5,5,2015-01-28,,
475254,Pancakes By The Creperie,5,5,0,0,2014-06-11,,
475255,Panda House,3,10,10,10,2014-03-24,51.58696,-2.982574
475256,Paprika And King Kebab,4,5,10,5,2013-11-20,51.592647,-2.98427
475257,Parc Golf Club,4,0,10,10,2013-10-11,51.552358,-3.04829
475258,Parc Pantry,5,0,5,5,2014-09-03,51.61576,-3.00489
475259,Parc-y-prior Public House,5,5,0,0,2014-02-20,51.616075,-3.006991
475260,Parklands Residential Home,5,0,0,0,2014-02-20,51.620334,-3.009469
475261,Parklands Residential Home,3,10,10,10,2014-06-26,51.61457,-3.010583
475262,Pastry Kitchen - Celtic Manor,5,5,0,5,2015-01-15,51.602214,-2.9314
475263,Patio Restaurant - Celtic Manor,4,10,5,5,2014-03-18,51.602214,-2.9314
475264,Patricia Machin Childminding,Exempt,nan,nan,nan,2012-03-06,,
475265,Paula Flood Childminding,Exempt,nan,nan,nan,2012-01-16,,
475266,Pen And Wig,4,10,0,5,2013-11-28,51.587215,-2.997144
475267,Pendragon Cakes,5,0,0,0,2014-11-11,,
475268,Penhow Senior Citizens Luncheon Club,4,0,0,10,2014-03-12,51.637101,-2.682201
475269,Penny Cuts @ Mya Foods,4,0,10,10,2014-10-21,51.566958,-2.947112
475270,Pentre Tai Farm Bed And Breakfast,5,5,5,5,2014-12-23,51.586775,-3.082281
475271,Pentwyn House Nursing Home,5,0,0,5,2014-09-01,51.532843,-3.065589
475272,Perilicious,4,5,10,5,2014-10-27,51.590037,-2.981327
475273,Peters Event Catering,5,5,5,5,2012-10-10,,
475274,Peterstone Course Lakes,4,0,0,10,2014-12-22,51.534128,-3.023231
475275,Peterstone Lakes Golf Club,4,5,5,10,2014-11-14,51.514014,-3.061604
475276,Philip Thomas Milkman,5,5,5,5,2015-01-28,51.534128,-3.023232
475277,Phoenix Garden,3,5,10,10,2014-08-14,51.608983,-2.952868
475278,Photo-Me International,Exempt,nan,nan,nan,2013-07-03,51.572037,-2.948401
475279,Pie Corner,4,10,5,5,2014-10-15,51.581996,-3.039071
475280,Pili Pala @ Forest Integrated Children Centre,5,5,5,5,2014-12-03,51.563274,-3.016615
475281,Pill Harriers Social Club,5,5,5,5,2014-05-08,51.577036,-2.99617
475282,Pill Playscheme,5,0,0,0,2014-08-13,51.572045,-2.99306
475283,Pillgawenlly Primary School-Breakfast Club,3,5,10,10,2014-12-04,51.577425,-2.994808
475284,Pillgwenlly Convenience Store,2,10,15,10,2014-05-15,51.574852,-2.988575
475285,Pillgwenlly Flying Start,3,10,10,10,2014-11-05,51.577425,-2.994808
475286,Pillmawr Playgroup,4,5,10,5,2014-07-09,51.610558,-3.004457
475287,Pizza Express,5,0,0,0,2014-04-10,51.577578,-2.943595
475288,Pizza Hut,4,5,5,10,2013-09-05,51.574743,-2.943955
475289,Pizza Hut Delivery,4,0,0,10,2013-10-25,51.581763,-2.993329
475290,Pizza Perfection,3,10,10,10,2014-10-09,51.586378,-2.982273
475291,Play Football Newport,Exempt,nan,nan,nan,2014-10-20,51.578375,-3.011582
475292,Pontfaen Fish Bar,5,5,5,5,2014-05-15,51.578234,-2.951459
475293,Pool Cottage Residential Home,5,0,0,5,2014-02-26,51.588741,-2.855082
475294,Popadoms,4,0,10,5,2014-06-17,51.589557,-2.99669
475295,Poppy's,4,0,0,10,2014-02-06,,
475296,Poundland,5,5,5,5,2014-12-23,51.58493,-2.993009
475297,Poundstretcher,5,0,5,0,2014-10-09,51.57106,-3.002042
475298,Premier Andy's Convenience Store,5,5,0,0,2014-04-08,51.581763,-2.993329
475299,Premier Catering Services (C1 - Combined),5,0,0,0,2014-10-07,,
475300,Premier Catering Services (D1 - Doughnut),5,5,0,0,2014-10-07,,
475301,Premier Convenience Store,5,0,5,0,2015-01-20,51.600707,-2.965443
475302,Premier Maindee,5,5,5,5,2015-01-28,51.589993,-2.981181
475303,Premier Travel Inn,Exempt,nan,nan,nan,2011-03-18,51.54574,-3.079086
475304,Preston Avenue Care Home,5,5,5,5,2014-12-23,51.584777,-3.016171
475305,Pricedown Stores,2,10,15,10,2013-07-23,51.61483,-3.008494
475306,Pricewise Supermarket,1,10,10,20,2014-11-17,51.586583,-2.945312
475307,Prince Of Caerleon,2,15,15,10,2014-08-14,51.613888,-2.956711
475308,Princess Tea Rooms,4,0,10,5,2014-06-17,51.588882,-2.997757
475309,Priory Hotel,4,5,5,10,2014-07-15,51.608983,-2.952868
475310,Priory Mount Eveswell,5,5,5,5,2014-10-09,51.590318,-2.971315
475311,Punjabi Kitchen,5,5,5,5,2015-01-08,51.583881,-2.993794
475312,Quality Catering,5,0,5,5,2014-07-24,51.59108,-2.9883
475313,Quatro,5,5,0,0,2014-11-21,51.556766,-3.044093
475314,Queens Hotel,5,5,5,5,2013-10-18,51.587538,-2.999402
475315,R Needhams Fishmongers,5,5,5,5,2014-04-08,51.588976,-2.996258
475316,Rachel Louise Hadley Childminding,Exempt,nan,nan,nan,2012-02-23,,
475317,Rachel's Curry Kitchen,5,0,5,5,2015-01-20,51.588976,-2.996258
475318,Radford House,5,0,5,5,2014-12-23,51.608189,-2.958714
475319,Rafters Restaurant -2010 Clubhouse Celtic Manor,1,15,15,20,2014-12-05,51.602214,-2.9314
475320,Railway Tandoori Take- Away,3,5,10,10,2013-10-22,51.590223,-2.998653
475321,Rainbows Private Nursery,5,5,5,0,2015-01-13,51.584051,-2.963647
475322,Rainbows Sunbeams Pre-School Playgroup,4,5,0,10,2014-12-24,51.599316,-2.976026
475323,Rais Convenience Stores,4,10,5,5,2014-12-22,51.583142,-2.97464
475324,Rangeela Spice,1,15,15,20,2014-11-18,51.581763,-2.993329
475325,Rascal Hope Centre,1,10,15,20,2014-03-10,51.587722,-2.957936
475326,RCP Catering,5,5,5,5,2014-06-18,51.551216,-3.062585
475327,Reach Supported Living (Heather Road),Exempt,nan,nan,nan,2014-03-17,51.597831,-2.970667
475328,Red Hot Goodies,4,10,5,5,2013-12-04,51.581763,-2.993329
475329,Red Lion Hotel,4,10,0,0,2014-10-29,51.585753,-2.996707
475330,Redeem Church Of God,4,5,5,10,2013-11-04,,
475331,Restpoint Cafe,4,5,10,5,2014-10-31,51.582669,-2.964397
475332,Rhiwderin Inn,3,10,10,10,2014-11-05,51.58008,-3.068209
475333,Rhiwderin Playscheme,3,10,5,10,2014-07-30,51.58008,-3.068209
475334,Rift & Co.,3,10,10,10,2014-10-02,51.58872,-2.996729
475335,Riley Snooker Club,1,15,15,20,2014-06-10,51.587025,-2.994137
475336,Ringland Buffet (Supplies Ringland Labour Club),1,10,20,20,2014-10-15,,
475337,Ringland Flying Start,2,15,10,5,2014-05-13,51.588477,-2.937946
475338,Ringland Labour Club,5,5,5,5,2014-12-23,51.5938,-2.933393
475339,Ringland Presbyterian Church,5,5,5,5,2014-08-27,51.596606,-2.930892
475340,Ringland Primary School-Breakfast Club,4,5,5,10,2014-12-10,51.588477,-2.937946
475341,Ringwood House,5,5,5,5,2014-03-07,51.590593,-2.943143
475342,Rising Sun,4,5,5,10,2014-01-28,51.59069,-3.048205
475343,Riverfront Cafe,5,5,5,5,2014-09-08,51.58761,-2.992937
475344,Riverside Tavern,5,5,5,0,2014-05-28,51.591293,-2.991228
475345,Roberts Butchers,5,0,0,0,2014-12-18,51.577234,-3.018095
475346,Rock And Fountain Inn,3,10,10,10,2014-12-09,51.616235,-2.846659
475347,Rodney Parade Ltd,4,5,5,10,2013-09-20,51.589585,-2.991263
475348,Roman Farm,5,0,0,0,2015-01-08,,
475349,Roman Farm - Farm Shop,5,0,5,5,2014-12-22,51.611376,-2.988516
475350,Roman Lodge Hotel,4,10,5,5,2014-12-23,51.622385,-2.963332
475351,Rose Inn,4,10,5,5,2013-07-30,51.553047,-2.844764
475352,Rose's Angels Childminding,Exempt,nan,nan,nan,2011-11-29,,
475353,Rossini's,4,5,10,5,2013-08-20,51.591293,-2.991228
475354,Rossi's,5,0,5,5,2014-04-24,51.59108,-2.9883
475355,Royal British Legion,5,5,0,5,2011-03-08,51.581801,-2.99411
475356,Royal Gwent Hospital,4,10,5,5,2014-05-07,51.579806,-2.998165
475357,Royal Mail,5,0,0,0,2014-03-05,51.590851,-2.997786
475358,Royal Oak Stores,2,15,10,10,2014-01-06,51.596664,-2.937292
475359,Royal Voluntary Service Tea Bar,5,5,0,0,2014-09-25,51.579806,-2.998165
475360,Royals,2,15,15,10,2014-03-11,51.585382,-2.97987
475361,RSPB Newport Wetlands,4,5,10,5,2014-08-07,51.54664,-2.955679
475362,Ruperra Arms,5,5,5,5,2014-01-17,51.576575,-3.054042
475363,S & A Convenience Store,4,10,5,5,2014-10-14,51.597346,-2.99751
475364,S Local,3,5,10,10,2014-08-08,51.581503,-2.972859
475365,S Mehmi News,4,10,5,5,2014-12-22,51.582685,-2.967905
475366,SAFE - Liswerry Baptist Church,5,5,5,5,2014-11-06,51.582571,-2.96109
475367,Sainsbury's Caerleon Local,5,5,0,0,2014-01-14,51.613011,-2.956187
475368,Sainsbury's Supermarkets Ltd,4,10,5,5,2014-03-28,51.599702,-2.994298
475369,Sally Harding Childminding Services,Exempt,nan,nan,nan,2013-04-18,,
475370,Salt & Vinegar,4,5,5,10,2014-06-26,51.597654,-2.999278
475371,Sandra Frivet,5,0,0,5,2015-01-21,,
475372,Sandra Welch Childminding,Exempt,nan,nan,nan,2012-01-12,,
475373,Sandwich Bar,4,5,10,5,2013-08-08,51.584119,-3.009055
475374,Santini's@Newport City Truck Stop,3,5,10,10,2014-10-15,51.57106,-3.002042
475375,Sarah Blackley Childminder,Exempt,nan,nan,nan,2013-07-25,,
475376,Sarah Harries Childminding,Exempt,nan,nan,nan,2012-02-14,,
475377,Sarah James Childminding,Exempt,nan,nan,nan,2014-09-16,,
475378,Sarah Louise Moses Childminding,Exempt,nan,nan,nan,2012-02-27,,
475379,SE Meats @ Deliserve,5,5,5,5,2014-11-03,51.566958,-2.947112
475380,Seawall Snacks,5,5,5,5,2014-12-23,51.538076,-2.901584
475381,SEN Bakery,3,10,10,10,2013-11-15,51.590037,-2.981327
475382,SEN BBQ,5,0,0,5,2014-02-20,51.589727,-2.978635
475383,Serious Sports Nutrition,Exempt,nan,nan,nan,2012-01-12,51.58493,-2.993009
475384,Servest @ International Rectifiers,5,5,5,5,2013-01-31,51.565847,-3.022645
475385,Servest Catering @Tesco Distribution,4,10,0,0,2014-09-19,51.572274,-2.859275
475386,Shaaron's Cafe,3,10,10,10,2013-08-09,51.5938,-2.933393
475387,Shah Tandoori,5,5,5,0,2014-07-24,51.583602,-3.010632
475388,Shahbaz Tikka,3,10,10,10,2014-03-21,51.578252,-2.989544
475389,Shahnaz Balti,5,5,5,5,2013-07-12,51.585382,-2.97987
475390,Shanghai Chef,3,10,10,10,2014-07-31,51.593157,-2.982419
475391,Sharon Parfitt-Jones Childminding,Exempt,nan,nan,nan,2012-03-13,,
475392,Shell Casnewydd,5,5,5,5,2014-06-10,51.591181,-2.98753
475393,Shell Newport Filling Station,4,5,10,5,2014-06-10,51.597654,-2.999278
475394,Shellies Childcare,Exempt,nan,nan,nan,2014-01-20,,
475395,Shepherd's Christian Bookshop,5,0,0,0,2014-07-08,51.5833,-2.990173
475396,Sheppards Fish Bar,4,5,5,10,2014-11-04,51.569919,-3.01558
475397,Ship Inn,3,10,10,10,2013-12-09,51.606812,-2.951161
475398,Shoboraj,4,0,10,10,2014-03-06,51.597654,-2.999278
475399,Shotts,5,5,0,0,2014-02-12,51.588976,-2.996258
475400,Simla Spice,3,10,10,10,2014-06-24,51.58238,-2.974335
475401,Sinclair Service Station Filling Station,5,5,5,5,2015-01-21,51.579572,-2.969238
475402,SITB Vending (Snack In The Box),Exempt,nan,nan,nan,2011-03-21,51.592731,-2.962214
475403,Six Bells,4,5,5,10,2014-05-21,51.514014,-3.061604
475404,Slow Boat,4,5,10,5,2014-12-04,51.58352,-3.011755
475405,Snack Shack,4,5,10,0,2013-12-13,51.599135,-3.000682
475406,Somerton Playscheme,Exempt,nan,nan,nan,2014-08-19,51.587722,-2.957936
475407,Somerton Superstore,5,0,0,5,2014-10-09,51.582454,-2.962112
475408,Sonia Cox Childminding,Exempt,nan,nan,nan,2011-03-23,,
475409,Spar,5,0,5,5,2013-10-24,51.58053,-3.018544
475410,Spar,5,5,0,0,2013-12-20,51.570853,-3.01361
475411,Spar,4,10,5,5,2014-08-21,51.5982,-2.981445
475412,Spar,5,5,5,5,2013-12-19,51.612098,-3.029115
475413,Spar,5,5,5,5,2015-01-28,51.596233,-2.888674
475414,Spar,5,0,0,0,2014-01-09,51.60896,-3.007281
475415,Spar,5,5,5,5,2015-01-28,51.587865,-2.965691
475416,Spar,5,0,0,0,2014-10-08,51.622385,-2.963332
475417,Sparkle Cafe @ Serennu Children Centre,5,0,0,5,2014-09-24,51.588738,-3.039297
475418,Spice Corner At The Kings Arms Ltd,3,5,10,10,2013-11-18,51.603474,-2.949157
475419,Spice House,1,10,10,20,2014-03-03,51.585328,-2.995976
475420,Spicy Aroma Balti,5,5,0,5,2014-08-05,51.5982,-2.981445
475421,Spicy Aroma Takeaway,2,15,15,10,2014-07-15,51.584551,-3.046981
475422,Spring Gardens Resource Centre,5,5,0,0,2014-04-08,51.577036,-2.99617
475423,Squirrels Childminding Services,Exempt,nan,nan,nan,2012-01-05,,
475424,St Basil's Church Hall,5,0,5,5,2014-06-11,51.578617,-3.044897
475425,St Cadocs Hospital Catering Dept,5,5,5,5,2014-08-28,51.613194,-2.966748
475426,St Catherines Nursing Home,3,10,10,5,2014-06-05,51.587988,-3.012923
475427,St Davids Foundation,5,5,5,5,2014-10-21,51.61457,-3.010583
475428,St Josephs Private Hospital,4,5,10,5,2014-03-20,51.617946,-3.004851
475429,St Julians Baptist Church,4,0,5,10,2014-06-24,51.600669,-2.967897
475430,St Julians HSOB Rugby Club,4,5,5,10,2013-10-11,51.602013,-2.982495
475431,St Julians Inn,5,5,0,0,2013-12-09,51.601296,-2.957211
475432,St Julians Methodist,5,5,5,5,2014-05-08,51.599147,-2.980065
475433,St Mellons Golf Club,5,5,0,5,2014-12-10,51.533535,-3.086265
475434,St Mellons Hotel & Spa,5,5,0,5,2014-08-23,51.535305,-3.086365
475435,St Michael's RC Primary School (Breakfast Club),4,0,5,10,2014-01-31,51.574333,-2.993644
475436,St Patrick's Catholic Social Club,5,5,5,5,2014-12-23,51.58271,-2.965957
475437,St Peters Hospital,4,10,10,0,2014-12-10,51.614592,-2.875803
475438,St Woolos Hospital - Main Kitchen,3,10,5,10,2014-08-21,51.582203,-3.002908
475439,St Woolos Hospital - Ward Kitchens,5,0,0,5,2014-09-30,51.582203,-3.002908
475440,Staples,Exempt,nan,nan,nan,2013-12-18,51.56844,-2.999359
475441,Star Cafe,5,5,5,5,2014-08-19,51.624774,-2.963686
475442,Starbucks,4,10,5,5,2013-09-06,51.587425,-2.99673
475443,Stardust Amusement,5,5,5,5,2014-12-23,51.58515,-2.994673
475444,Stedman Bros (events) Ltd,5,0,0,0,2014-11-11,,
475445,Stepping Stones Cafe,5,0,0,0,2014-01-14,51.584485,-2.995669
475446,Steve Amman Butchers,3,10,10,10,2014-09-02,51.612098,-3.029115
475447,Stonehouse,5,5,5,5,2014-12-15,51.566052,-3.017759
475448,Stow Park Church Centre,4,5,5,10,2013-12-06,51.5910797119,-2.98830008507
475449,Stow Park Lawn Tennis Club,4,5,10,5,2014-12-23,51.585308,-3.016169
475450,Stow Park Nursing Home,3,10,5,10,2014-03-06,51.580489,-3.004573
475451,Subway,5,0,0,0,2013-12-19,51.58583,-2.994024
475452,Subway,5,0,5,5,2014-08-05,51.581763,-2.993329
475453,Subway,5,0,0,5,2014-12-19,51.60896,-3.007281
475454,Subway,5,0,0,0,2014-12-23,51.588464,-2.997257
475455,Subway,3,10,10,5,2014-08-19,,
475456,Subway @ Spar,3,10,10,10,2013-12-10,51.622385,-2.963332
475457,Subway @ Tesco Extra,5,5,5,0,2014-03-13,51.575704,-2.950772
475458,Sue's Cafe,4,5,10,5,2013-09-25,51.588976,-2.996258
475459,Sues Cakes,5,0,0,0,2015-01-14,,
475460,Sugar Bowl,4,10,5,5,2014-08-01,51.582501,-2.991051
475461,Summerhill Nursing Home,4,5,5,10,2014-11-24,51.593498,-2.97824
475462,Sunflowers Tots/ Duffryn Community Link Childcare,4,5,10,5,2014-02-07,51.563274,-3.016615
475463,Sunnybank Childrens Nursery,3,10,10,10,2014-08-21,51.5801,-3.004868
475464,Supporting You In South Wales - Acorns,Exempt,nan,nan,nan,2013-01-10,51.608866,-3.019236
475465,SW Catering,5,5,5,5,2013-08-07,,
475466,Sweet And Innocent,5,0,0,0,2014-12-02,,
475467,Sweet Peas Flying Start Play Group,4,0,5,10,2014-06-02,51.586761,-2.95998
475468,Sweetli,5,0,0,0,2014-03-11,,
475469,Sylhet Tandoori,1,15,10,20,2015-01-13,51.596203,-2.982672
475470,T(n)S Catering @ Go Compare,5,5,5,5,2014-12-10,51.555534,-3.030866
475471,Talisman Public House,5,5,0,0,2014-10-09,51.584584,-2.993607
475472,Talkington Bates,5,5,5,5,2014-04-03,51.559294,-3.022435
475473,Tamarind,2,10,15,10,2014-02-20,51.589904,-2.980068
475474,Taoist Tai Chi Society Of Great Britain,4,0,0,10,2014-10-27,51.588044,-2.967932
475475,Tarka,4,10,5,0,2014-03-18,51.610038,-2.953655
475476,Taste Buds,0,15,20,20,2014-08-08,51.58854,-2.995729
475477,Taste Of Asia,4,10,5,5,2014-07-30,51.5873,-2.99983
475478,Taste Of Sweden,2,15,15,10,2014-06-26,51.589395,-2.996729
475479,Taste Of The World Food Store,5,5,5,5,2014-04-23,51.590753,-2.991346
475480,Tasteful Creations,5,0,0,0,2015-01-28,,
475481,Tasty Snacks,2,5,15,10,2014-07-08,,
475482,Tea And Chat,5,0,0,0,2014-12-23,,
475483,Terrace,5,5,5,5,2014-10-24,51.583881,-2.993794
475484,Terry M Restaurant - Celtic Manor,5,5,5,5,2013-08-01,51.602214,-2.9314
475485,Tesco,4,10,0,0,2014-03-04,51.575704,-2.950772
475486,Tesco Express,5,5,5,5,2015-01-28,51.587326,-3.003107
475487,Tesco Express,5,5,5,5,2014-10-14,51.59456,-3.058862
475488,Tesco Express,5,5,5,0,2014-10-16,51.588882,-2.997757
475489,Tesco Express,4,5,10,5,2014-11-24,51.60896,-3.007281
475490,Tesco Express,5,5,5,5,2014-10-16,51.593738,-2.984972
475491,Tesco Family Dining Ltd,5,5,0,0,2014-12-02,51.572454,-3.010399
475492,Tesco Stores Limited,4,10,10,0,2013-08-27,51.572454,-3.010399
475493,That Cafe,2,10,15,10,2014-01-10,51.583602,-3.010632
475494,That Sweetest Feeling,5,0,0,0,2014-04-16,,
475495,The Alma,3,10,10,10,2011-08-09,51.581813,-2.991642
475496,The Banc,5,5,5,0,2015-01-06,51.58993,-2.977946
475497,The Bell Inn,4,10,5,5,2013-08-22,51.605673,-2.946329
475498,The Bird Cage,4,10,5,5,2014-12-24,51.589224,-2.996726
475499,The Borderer Harvester,5,0,0,0,2014-12-23,51.607717,-3.008654
475500,The Busy Kitchen,5,5,0,5,2014-03-06,51.592647,-2.98427
475501,The Cafe At Wilkinsons,4,0,10,10,2013-10-25,51.58493,-2.993009
475502,The Charming Cake Company,5,0,0,5,2014-11-13,,
475503,The Chippy,3,10,5,10,2014-03-18,51.589727,-2.978635
475504,The Coffee Pot,3,10,5,10,2013-09-10,51.612098,-3.029115
475505,The Coffee Shop,4,5,0,10,2014-01-15,51.588534,-2.995339
475506,The Coffee Shop  (within Wildings),4,10,10,0,2014-06-03,51.586802,-2.995994
475507,The Co-operative,5,0,5,5,2014-11-11,51.582669,-2.964397
475508,The Courtyard,5,0,5,0,2014-06-18,51.588882,-2.997757
475509,The Dodger,3,10,10,10,2014-08-21,51.590867,-2.988476
475510,The Ferns Club,4,10,0,5,2014-11-12,51.581152,-2.954176
475511,The Filling Station Cafe,5,5,0,0,2014-03-03,51.577101,-2.982029
475512,The Friendly Fox,1,10,15,20,2014-10-22,51.578886,-3.061052
475513,The Friendship Inn,5,5,0,0,2015-01-21,51.594668,-2.930466
475514,The Gaer Inn,3,10,10,10,2014-11-19,51.577234,-3.018095
475515,The Galley,5,5,5,5,2013-11-07,51.597296,-3.07878
475516,The Gap Centre,4,5,5,10,2013-10-10,51.586037,-2.997147
475517,The George,4,10,5,5,2014-12-24,51.58993,-2.977947
475518,The Goldcroft,4,5,5,10,2014-08-07,51.612597,-2.957377
475519,The Green,4,10,5,5,2014-12-04,51.612597,-2.957377
475520,The Greyhound Inn,4,5,5,10,2013-06-20,51.598854,-2.944484
475521,The Hub,Exempt,nan,nan,nan,2014-12-04,51.618023,-2.966721
475522,The Lamb Inn,4,5,10,5,2014-11-10,51.587752,-2.997458
475523,The Log Cabin At The Adventure Golf,Exempt,nan,nan,nan,2014-03-14,51.602214,-2.9314
475524,The Lyceum,4,10,5,5,2013-12-11,51.600371,-3.00224
475525,The Maindee Hotel,3,10,10,10,2011-08-18,51.59015,-2.979626
475526,The Natural Sheep Company,5,5,5,5,2014-12-23,51.59108,-2.9883
475527,The New Lahore,5,5,5,0,2014-09-03,51.584081,-2.991345
475528,The New Moon,2,10,15,10,2014-06-24,51.584584,-2.993607
475529,The Nightingale,4,0,10,10,2014-02-20,52.3111534119,-3.89185094833
475530,The Open Hearth,5,5,0,5,2014-11-03,51.588406,-2.934394
475531,The Phoenix Project,5,0,0,0,2014-01-17,,
475532,The Pot,4,5,10,5,2013-09-04,51.588785,-2.997553
475533,The Potters,3,10,10,5,2014-03-28,51.587443,-2.994666
475534,The Range,5,5,0,0,2014-12-23,51.568264,-2.999889
475535,The Range Coffee House,5,0,5,0,2014-06-10,51.568264,-2.999889
475536,The Red Lion Hotel,3,10,10,5,2014-12-04,51.611206,-2.953723
475537,The Rest,4,10,0,0,2014-09-16,51.580978,-2.986168
475538,The Ridgeway Bar And Kitchen,3,10,10,10,2014-03-06,51.586606,-3.017843
475539,The Royal Albert,5,0,0,0,2014-06-18,51.590809,-2.978297
475540,The Royal Mail Pub,4,5,10,5,2014-12-24,51.590851,-2.997786
475541,The Scrum Half,4,10,5,5,2014-12-24,51.59015,-2.979626
475542,The Secret Garden Cafe,3,10,10,5,2014-09-10,51.585551,-2.996126
475543,The Snug,5,5,5,5,2014-03-12,51.610765,-2.957039
475544,The Stuffed Dormouse,3,10,10,10,2015-01-12,51.622385,-2.963332
475545,The Three Mughals,0,25,25,30,2014-11-07,51.579545,-3.037558
475546,The Vineyard,5,5,5,5,2015-01-05,51.589567,-2.996603
475547,The Well Fed Sandwich Bar,5,5,5,5,2014-07-28,51.587145,-3.002252
475548,The Welsh Confection,5,0,0,5,2014-12-10,,
475549,The Welshman's Lunch,4,5,10,5,2013-11-26,51.585729,-2.972776
475550,Theresa McCarthy Childminding,Exempt,nan,nan,nan,2011-11-23,,
475551,Thomas Tastys,2,5,15,10,2014-05-06,,
475552,Thornbury Park Stores,4,10,0,10,2014-01-23,51.584551,-3.046981
475553,Three Horseshoes,4,5,5,10,2014-11-13,51.610938,-3.002054
475554,Thursday Toddlers @ Malpas Community Centre,5,0,0,0,2014-12-18,51.610558,-3.004457
475555,Tiny Tots Premier Childcare Services,5,5,5,5,2014-06-13,51.580939,-2.994971
475556,Tiny Tots Premier Childcare Services,5,5,0,0,2014-03-25,51.611031,-3.004843
475557,TLC Childminding,Exempt,nan,nan,nan,2013-11-11,,
475558,TNS Superstore,3,10,10,10,2014-11-04,51.583602,-3.010632
475559,TNT Caterers @ Newport Indoor Bowls Centre,3,10,10,10,2014-09-12,51.602013,-2.982495
475560,Toby Carvery - Royal Oak,5,0,0,0,2014-10-22,51.596017,-2.940599
475561,Toddlers Play Group,4,5,5,10,2013-12-06,51.612098,-3.029115
475562,Tom Toya Lewis,5,0,0,0,2015-01-05,51.583578,-2.993412
475563,Tony's Fish Bar,3,10,10,10,2014-08-08,51.581503,-2.972859
475564,Total Asia Foods Ltd,1,5,15,20,2014-11-14,51.57106,-3.002042
475565,Town Balti,5,5,5,5,2014-02-18,51.582621,-2.9928
475566,TR Group Premier Store,5,5,5,5,2013-12-19,51.588998,-2.995797
475567,Tracey Moody Childminding,Exempt,nan,nan,nan,2011-03-23,,
475568,Tracks Cafe @ Motorpoint,4,5,10,5,2014-10-17,51.568612,-2.940452
475569,Tredegar Arms,5,5,5,5,2014-12-10,51.593624,-3.053932
475570,Tredegar Arms,4,10,0,0,2014-02-26,51.577402,-3.046081
475571,Tredegar Constitutional Club,4,10,5,5,2014-03-19,51.587527,-3.00698
475572,Tredegar House & Park,3,10,10,10,2013-06-27,51.560557,-3.023998
475573,Tredegar Park Golf Club,5,5,5,5,2014-03-10,51.598858,-3.030635
475574,Treetops,4,5,5,10,2014-12-23,51.550881,-3.058583
475575,Tregwillym Lodge Residential Home,4,5,5,10,2014-05-20,51.585476,-3.055129
475576,Tuesday Toddlers @ Malpas Community Centre,5,0,0,0,2015-01-13,51.610558,-3.004457
475577,Turkish Social Club,1,10,10,20,2014-04-29,51.58696,-2.982574
475578,Turners Fine Foods,4,10,5,5,2014-08-05,51.588935,-2.996864
475579,Twinkle Tots Flying Start Childcare Centre,4,0,5,10,2014-05-13,51.616899,-3.012556
475580,Twins Fish Bar,1,10,15,20,2014-06-25,51.560371,-3.025797
475581,Ty Newydd,4,10,0,10,2014-02-25,51.577576,-3.031423
475582,Ty-Du Playgroup,4,5,5,10,2013-09-06,51.591019,-3.059961
475583,Underwood Community Centre,Exempt,nan,nan,nan,2011-03-17,51.597557,-2.888396
475584,Uni Of South Wales Caerleon Campus - Student Union Shop,5,0,0,0,2014-01-30,51.614349,-2.959768
475585,United Foods,0,10,20,30,2014-07-24,51.588572,-2.980227
475586,University Of Wales Caerleon Campus,3,10,10,10,2013-10-23,51.614349,-2.959768
475587,Upper Crust,4,10,0,0,2014-03-20,51.589933,-2.997882
475588,USA Chicken,2,10,15,10,2014-12-02,51.58801,-2.995674
475589,Usk Vale Fine Food And Bar,4,10,5,5,2014-01-15,51.611377,-2.988517
475590,Valentines,4,5,10,0,2014-08-13,51.59015,-2.979626
475591,Vanessa Bailey Childminding,Exempt,nan,nan,nan,2012-02-10,,
475592,Vanilla Spice,4,10,5,5,2013-10-24,51.596064,-2.997005
475593,Victoria Inn,3,10,10,5,2013-09-26,51.578784,-2.956854
475594,Victors Fish Bar,2,0,15,10,2014-01-14,51.579659,-2.99008
475595,Villa Dino Bar & Restaurant,4,5,5,10,2013-10-24,51.590637,-2.982668
475596,Village Bakery Wales Ltd Burger Van,5,5,0,5,2014-11-10,,
475597,Village Bakery/Brunos,2,10,15,10,2014-10-16,51.611206,-2.953723
475598,Village Butchers,3,10,10,10,2014-12-17,51.617975,-2.967153
475599,Village Fish Bar,4,10,5,5,2014-09-09,51.578601,-3.047696
475600,Village Services Health And Well-being Group,4,0,10,5,2014-12-05,51.582983,-2.992519
475601,Vittorio Restaurant,3,10,10,10,2013-11-21,51.58267,-2.999757
475602,W Meats @ Mya Foods,5,5,5,5,2011-06-13,51.566958,-2.947112
475603,Walkers News,4,5,5,10,2014-12-22,51.612597,-2.957377
475604,Walnut Tree Farm Park,5,5,5,0,2014-03-04,51.531054,-3.024186
475605,Warehouse 54,4,5,10,5,2014-05-09,51.588882,-2.997757
475606,Wastesavers Charitable Trust,5,5,5,5,2014-12-23,51.570701,-2.980665
475607,Waterloo Hotel,3,5,10,10,2013-08-06,51.571022,-2.989589
475608,Waterloo Inn,3,5,10,10,2013-09-11,51.548535,-2.949195
475609,Waterstones Booksellers,Exempt,nan,nan,nan,2011-01-21,51.586222,-2.995462
475610,Wayfarers Cafe,3,10,10,10,2014-02-11,51.588041,-2.961711
475611,Well And Truely Pickled,4,5,5,10,2013-11-07,,
475612,Wellspring Christian Fellowship,Exempt,nan,nan,nan,2011-04-07,51.605042,-2.903127
475613,Wellwood House Extra Care Home,5,5,0,5,2014-01-31,51.50789,-3.153717
475614,Welsh Hog Roast,5,5,5,5,2013-08-12,,
475615,Wentwood Court,5,0,5,5,2014-01-28,51.614592,-2.875803
475616,West Of England,5,5,5,5,2014-12-23,51.571438,-2.988213
475617,What Plus Ltd,Exempt,nan,nan,nan,2013-10-17,51.586549,-3.053797
475618,White Hart Inn,5,5,5,5,2014-01-10,51.60954,-2.954049
475619,Whiteheads Sports Club,4,10,0,0,2014-07-22,51.578405,-3.039437
475620,Whittingtons Compass @Newport Crown Court,4,10,5,5,2014-06-06,51.588389,-3.004949
475621,Wilding And Kent Ltd,3,10,10,10,2014-10-08,51.594562,-2.93029
475622,Wilfords,4,10,5,5,2014-12-22,51.592691,-2.981153
475623,Willow House,5,5,5,5,2014-09-30,51.581305,-3.0111
475624,Willowbrook Extra Care Home,4,5,5,10,2014-09-18,51.611919,-3.027753
475625,Windsor Castle,4,5,5,10,2014-07-11,51.588131,-2.995229
475626,Wok Inn,3,10,10,5,2014-11-13,51.587865,-2.965691
475627,Woody's Ices,5,0,0,0,2014-07-30,51.59108,-2.9883
475628,World Food And Vegetable Market,1,5,5,20,2013-10-17,51.57948,-2.990004
475629,Wrens Bakery,5,5,0,0,2013-03-13,51.5982,-2.981445
475630,Xing Long,1,15,15,20,2014-12-19,51.579767,-2.989043
475631,Y Maerun,5,5,5,5,2014-12-01,51.532843,-3.065589
475632,Yag Den Food Store,2,10,15,10,2014-06-06,51.58696,-2.982574
475633,Yaki Niku,4,10,5,0,2014-03-21,51.537508,-3.093093
475634,Ye Olde Bull Inn,4,10,5,5,2014-08-05,51.60954,-2.954049
475635,Ye Olde Murenger House,5,5,5,5,2013-12-04,51.589156,-2.997345
475636,Yes Please Louise,5,5,5,5,2015-01-28,,
475637,Yezen Cafe,5,5,5,5,2014-01-07,51.588976,-2.996258
475638,YMCA,4,0,10,10,2013-09-12,51.572045,-2.99306
475639,Young Ones Childminding,Exempt,nan,nan,nan,2011-12-16,,
475640,Young Treasures,Exempt,nan,nan,nan,2015-01-21,,
475641,Yummies,3,10,10,10,2014-01-27,51.58854,-2.995729
475642,Zack's Snacks,5,0,0,0,2014-09-18,,
475643,Zam Zam,4,5,10,5,2014-05-29,51.589611,-2.986009
475644,Zam Zam,Exempt,nan,nan,nan,2013-06-21,51.584584,-2.993607
475645,Zest,5,0,0,5,2014-07-28,,
475646,Zoopers,4,5,5,10,2013-09-05,51.599116,-2.962467
