,businessname,ratingvalue,structural,hygiene,confidenceinmanagement,ratingdate,latitude,longitude
481325,360 Beach and Watersports Centre,5,5,0,0,2012-12-05,,
481326,3663,5,0,0,0,2012-04-26,51.6202,-3.923925
481327,3M's Canteen,5,5,0,0,2011-05-17,51.668759,-4.020793
481328,A J Meats,5,5,0,5,2013-11-08,51.619122,-3.945129
481329,A Taste Of India,3,10,10,10,2014-02-19,51.71388,-4.039683
481330,Abacus Day Nursery,5,0,0,5,2015-01-05,51.618394,-3.970407
481331,Abbeyfield Society,4,5,0,10,2011-03-18,51.616148,-3.964416
481332,Abertawe Service Station,3,10,10,5,2014-09-09,51.646722,-3.984182
481333,Abrahams And Family,5,5,5,0,2014-12-16,51.619122,-3.945129
481334,Ael Y Bryn Nursing Home,4,10,0,10,2014-10-06,51.67772,-3.926392
481335,Alberts Cafe,4,5,10,5,2013-10-02,51.669025,-4.039706
481336,Aldes Kebab,5,5,5,5,2014-04-09,51.663158,-3.944037
481337,Aldi,5,0,0,5,2014-04-02,51.666167,-4.037553
481338,Aldi,5,0,0,5,2012-03-28,51.635377,-3.965796
481339,Ali Raj,4,5,10,0,2014-08-05,51.625321,-4.034061
481340,All Seasons Round,5,0,0,5,2011-06-15,51.712426,-4.031758
481341,Alliance Healthcare,4,0,10,5,2013-11-12,51.647002,-3.99317
481342,Alma Inn,4,10,0,0,2014-01-07,51.642086,-3.940938
481343,Alpha Tots,5,0,0,5,2012-03-14,51.697401,-3.905059
481344,Anarkali,4,10,5,5,2014-08-12,51.615732,-3.956988
481345,Andrie Swistun,4,5,5,10,2014-01-09,,
481346,Angelas,3,5,10,10,2013-06-07,51.575678,-4.045135
481347,Annies Marina Cafe,4,5,5,10,2014-12-09,51.616256,-3.936239
481348,Anthony Davies,1,10,15,20,2013-07-08,51.619122,-3.945129
481349,April Court Nursing Home,5,5,5,5,2014-07-09,51.617407,-3.955254
481350,Arches Guest House,4,10,0,5,2014-09-15,51.613919,-3.95301
481351,Argyle Fish Bar,5,5,5,5,2014-12-03,51.615698,-3.952537
481352,Arthur Llewellyn Jenkins,5,5,0,5,2011-05-16,51.664767,-4.018649
481353,Asda Customer Restaurant,5,5,0,0,2013-04-29,51.668458,-4.034547
481354,Asda Stores,5,5,0,0,2011-10-14,51.669324,-4.036986
481355,Asda Stores Ltd,5,0,0,0,2014-01-31,51.663738,-3.912553
481356,Ashgrove Care Home,5,0,0,5,2015-01-27,51.641629,-4.027044
481357,Asia Market,3,10,5,10,2014-01-23,51.617301,-3.954022
481358,Ask Restaurant,5,5,0,5,2014-02-10,51.619606,-3.940339
481359,Aspire Day Nursery,5,5,0,5,2014-08-19,51.671825,-4.041076
481360,Aunty Ivys Day Nursery,5,0,0,5,2013-11-06,51.649231,-4.041867
481361,Awa Grill House,3,10,10,5,2015-01-08,51.621452,-3.94283
481362,Awel y Mor Nursing Home,5,0,0,0,2014-11-17,51.673495,-4.054645
481363,Azeem General Store,5,5,0,0,2014-04-04,51.640959,-4.020004
481364,Aztec Cafe,3,10,5,10,2014-06-24,51.642879,-3.985474
481365,Badminton Hotel,5,0,0,5,2011-08-01,51.61475,-3.953854
481366,Bakers Basket,3,10,10,5,2014-06-18,51.615836,-3.969588
481367,Bako Wales,5,0,5,0,2012-01-17,51.668271,-4.027163
481368,Bambu Beach Bar,5,5,0,5,2014-02-19,51.61917,-3.940061
481369,Bank Farm Caravan Park,4,5,10,5,2014-03-13,51.551371,-4.204431
481370,Bar New Lodge Gorseinon Independent Social Club,1,10,5,20,2014-11-07,51.667686,-4.052068
481371,Bar Reef,4,5,5,10,2014-06-24,51.620015,-3.955207
481372,Bar Twenty Two,5,5,0,0,2014-06-25,51.619382,-3.93916
481373,Bargain Booze,5,0,0,5,2013-11-13,51.669025,-4.039706
481374,Baskin Robbins,5,0,0,0,2014-09-17,51.618812,-3.946474
481375,BBQ Jacks,4,10,0,10,2014-02-10,51.619382,-3.93916
481376,Beach Road Cafe Bar,5,5,5,5,2014-09-11,51.621503,-3.940319
481377,Beanos,4,5,5,10,2013-11-06,51.631455,-3.972346
481378,Beaufort Arms,3,10,5,10,2014-07-04,51.587095,-4.052043
481379,Belash Takeaway,2,15,10,10,2014-01-23,51.618843,-3.967234
481380,Belle Vue Bistro,5,5,0,0,2014-02-06,51.622067,-3.944287
481381,Benefit Agency,5,0,0,0,2011-01-04,51.652369,-3.919317
481382,Bengal Spice,4,5,10,5,2014-06-18,51.626869,-3.972349
481383,Best Kebabs,4,5,5,10,2015-01-08,51.625707,-3.941683
481384,Best One,5,5,0,5,2015-01-20,51.622149,-3.942052
481385,Best One,3,10,10,10,2013-12-02,51.657631,-3.9498
481386,Beynons Farm and Coffee Shop,5,0,0,0,2011-07-15,51.576668,-4.139366
481387,BFC,4,5,5,10,2013-08-19,51.62272,-3.931429
481388,Big Shop,5,0,0,0,2014-07-25,51.558324,-4.169147
481389,Billy Bonkers Sweet Shop,5,5,0,5,2011-10-05,51.61865,-3.948114
481390,Billy Suttons Coffee Shop,5,0,0,5,2014-12-16,51.647673,-4.038372
481391,Birchgrove After School Club,5,0,0,0,2014-05-15,51.67046,-3.878301
481392,Birchgrove Comprehensive School,4,10,0,0,2014-07-14,51.671057,-3.871847
481393,Birchgrove Primary School,5,5,0,0,2014-11-04,51.67046,-3.878301
481394,Birchgrove RFC,5,5,0,5,2014-01-28,51.668186,-3.881013
481395,Birchgrove Special Needs Centre,4,10,0,5,2011-06-17,51.668107,-3.87414
481396,Bishop Gore Comprehensive School,5,5,5,5,2014-06-12,51.61525,-3.98837
481397,Bishop Vaughan  Roman Catholic School,4,10,5,0,2013-06-06,51.661227,-3.935698
481398,Bishopston Comprehensive School,5,5,0,0,2013-12-10,51.584728,-4.048024
481399,Bishopston Primary School,5,0,0,0,2013-12-10,51.582178,-4.051893
481400,Bizzie Lizzie,5,5,5,5,2014-08-07,51.618829,-3.958392
481401,Bizzie Lizzie Cafe,5,0,5,5,2013-11-25,51.664767,-4.018649
481402,Black Boy Inn,5,5,0,0,2014-10-15,51.617943,-4.018649
481403,Blaenymaes Primary School,5,5,0,0,2014-12-11,51.654644,-3.974061
481404,Blaenymaes Stores,3,5,10,10,2013-12-06,51.653399,-3.974845
481405,Blas,5,0,0,0,2014-05-08,51.609625,-3.980642
481406,Blas,5,0,0,0,2015-01-19,51.607545,-3.988769
481407,Bloomburger,3,5,10,10,2013-11-11,51.619326,-3.938782
481408,Bloomfield Care Home,5,0,0,5,2014-02-06,51.619755,-3.991557
481409,Bonophool Indian Restaurant,3,10,10,10,2014-10-01,51.647945,-4.038239
481410,Bonymaen Chip Bar,4,5,5,10,2014-02-24,51.6394,-3.912829
481411,Bonymaen Community Centre,5,0,0,5,2014-11-07,51.6394,-3.912829
481412,Bonymaen House Care Centre,5,5,5,0,2013-06-27,51.648244,-3.905931
481413,Bonymaen Kids Play Initiative,5,0,0,5,2015-01-20,51.6394,-3.912829
481414,Bonymaen RFC,1,15,15,20,2015-01-10,51.629499,-3.918419
481415,Booker Cash and Carry,5,5,5,0,2013-10-30,51.665075,-3.911494
481416,Borfa House,5,0,0,0,2014-10-02,51.544814,-4.210229
481417,Bouchon De Rossi,5,5,5,5,2014-06-13,51.618876,-3.949106
481418,Brian West Mobile,3,10,5,10,2014-02-19,51.629694,-3.935525
481419,Britannia Inn,5,0,0,5,2015-01-22,51.616578,-4.247099
481420,British Home Store Restaurant,5,5,0,0,2012-04-04,51.620657,-3.94362
481421,Browns Newsagent,4,10,5,5,2014-07-29,51.643361,-3.941585
481422,Brownsters,5,5,0,0,2015-01-13,51.696337,-3.890775
481423,Brunswick Arms,4,10,5,5,2014-09-29,51.618756,-3.956295
481424,Bryn Lliw,4,10,0,5,2014-10-10,51.687913,-4.039499
481425,Brynfield Manor Nursing Home,5,5,0,5,2014-09-18,51.570738,-4.015172
481426,Brynhyfryd Infants,4,0,10,0,2013-10-08,51.643245,-3.94424
481427,Brynhyfryd Junior School,5,5,0,0,2012-04-24,51.643245,-3.94424
481428,Brynhyfryd Palace,5,5,5,5,2013-07-04,51.641803,-3.94662
481429,Brynmill After School Club,5,0,0,0,2010-11-16,51.612768,-3.971275
481430,Brynmill Primary School,5,0,0,0,2010-12-08,51.612768,-3.971275
481431,Brynmill Stores,5,5,0,5,2014-12-17,51.614439,-3.970885
481432,Builders Arms,3,10,5,10,2011-10-10,51.618409,-3.950704
481433,Buon Appetito,1,10,15,20,2014-04-09,51.625453,-3.941817
481434,Burger King,5,0,0,0,2014-01-13,51.619161,-3.945998
481435,Burger King,5,5,0,0,2013-02-21,51.663738,-3.912553
481436,Burger King,5,5,5,0,2013-10-18,51.679253,-3.99505
481437,Burrows Hall Nursing Home,5,0,0,5,2014-08-07,51.602764,-4.275184
481438,Burrows Service Station,5,0,0,0,2011-05-23,51.621492,-3.908681
481439,Busy Bees Day Nursery,5,5,0,5,2015-01-08,51.674344,-4.003425
481440,Butterflies Flying Start Childcare,5,0,0,0,2014-12-11,51.654644,-3.974061
481441,Byrons Butchers,5,0,0,0,2014-02-14,51.667097,-3.911697
481442,Cadle After School Club,5,0,0,5,2011-06-14,51.647059,-3.98291
481443,Cadle Primary School,5,5,0,5,2014-11-26,51.647059,-3.98291
481444,Caereithin Cafe,4,5,10,5,2014-11-04,51.646883,-3.973073
481445,Cafe 32,3,5,10,10,2014-07-04,51.620798,-3.946516
481446,Cafe Beka,3,5,10,10,2014-07-03,51.619332,-3.946525
481447,Cafe Chino,5,0,0,5,2013-10-23,51.652533,-3.9258
481448,Cafe Continental,3,10,10,10,2014-12-12,51.620878,-3.941723
481449,Cafe Del Mar,5,5,0,0,2014-04-29,51.619313,-3.948763
481450,Cafe Glas,5,0,0,0,2012-12-10,51.609625,-3.980642
481451,Cafe Marks,5,0,0,0,2010-11-22,51.620194,-3.944438
481452,Cafe Memo,5,5,5,5,2014-04-10,51.666258,-3.925052
481453,Cafe Metro,5,0,0,5,2014-03-07,51.622387,-3.98377
481454,Cafe Metro,5,5,5,5,2013-12-16,51.624661,-3.94944
481455,Cafe Nisse,5,5,5,5,2014-01-06,51.619573,-3.939572
481456,Cafe Ole,4,5,0,10,2014-09-09,51.619432,-3.947006
481457,Cafe Play,3,5,10,10,2014-08-20,51.575624,-4.000263
481458,Cafe Stralis,5,0,0,5,2011-04-14,51.652533,-3.9258
481459,Cafe Swansea,4,0,10,5,2014-10-01,51.609223,-3.985275
481460,Cafe Two Cann,5,0,0,0,2011-06-03,51.619686,-3.931112
481461,Cafe Valance,4,5,10,0,2013-11-18,51.575581,-4.002267
481462,Cafe Zest for life,5,5,0,0,2014-12-17,51.666167,-4.037553
481463,Caffe Americano,4,5,10,5,2013-11-15,51.618847,-3.930166
481464,Caffe Latte,5,5,0,0,2014-04-29,,
481465,Caffe Lucia,2,15,10,10,2014-06-18,51.619485,-3.944379
481466,Cake with Slate Gallery,3,10,10,10,2013-03-01,51.574869,-3.999696
481467,Callaghans,5,0,5,0,2013-11-01,51.609625,-3.980642
481468,Calon Fawr Nursing Home Ltd,5,5,0,5,2014-10-13,51.625343,-3.989764
481469,Campanilismo,5,0,0,0,2014-05-09,51.618656,-3.948273
481470,Campion Gardens,3,10,10,10,2014-11-10,51.584991,-4.031363
481471,Campus Cafe,5,0,0,5,2012-11-22,51.625128,-3.974253
481472,Captains Table,5,5,0,5,2014-10-02,51.544814,-4.210229
481473,Car Wash Cafe,5,5,5,5,2014-05-16,51.621492,-3.908681
481474,Cariad Cafe,5,5,5,0,2014-05-14,51.642613,-4.103937
481475,Carol Watts,5,5,5,5,2014-01-09,51.619122,-3.945129
481476,Carreglwyd Caravan Park,4,0,5,10,2011-09-19,51.546697,-4.212903
481477,Casllwchwr Primary School,5,5,0,5,2014-12-10,51.663301,-4.072866
481478,Castellamare,5,5,5,5,2014-12-11,51.565998,-3.981414
481479,Castle Bingo,5,5,0,0,2014-01-29,51.665198,-3.922795
481480,Castle Graig Nursing Home,3,10,5,10,2015-01-06,51.648824,-3.941298
481481,Castle Inn,4,5,0,10,2014-02-27,51.691711,-4.011701
481482,Castle News and Mumbles Video,5,0,0,0,2015-01-29,51.575581,-4.002267
481483,Cefn Coed Hospital,5,5,5,5,2014-10-07,51.62818,-3.988964
481484,Cefn Hengoed Comprehensive School,5,0,0,5,2011-12-15,51.644663,-3.904942
481485,Celebration Cakes,5,0,5,5,2014-08-12,51.618288,-3.9676
481486,Central Fish Bar,5,5,0,5,2014-09-10,51.665636,-3.92572
481487,Chai Tea Room,4,0,10,5,2013-11-13,51.575343,-4.002516
481488,Chaplins Steakhouse Mumbles,5,0,0,0,2014-02-05,51.573149,-3.995652
481489,Charlies Snacks,4,5,5,10,2013-10-01,51.695306,-3.896144
481490,Checkers,2,15,10,0,2013-11-19,51.616609,-3.959438
481491,Cheers Wine Merchants Ltd,5,0,0,0,2013-08-05,51.575624,-4.000262
481492,Chicago Pizza,3,10,10,10,2013-09-24,51.623158,-3.941921
481493,Chicken Cottage Swansea,3,10,5,10,2014-05-13,51.617753,-3.953348
481494,Chicken Diner,5,0,5,5,2015-01-07,51.619583,-3.948775
481495,Chicken King,4,0,5,10,2014-09-18,51.629576,-3.956702
481496,Chicken on the Road,2,10,15,10,2013-07-30,51.632132,-3.939285
481497,Chick-o-land,4,5,5,10,2014-03-27,51.619312,-3.940717
481498,Chilli Restaurant,5,5,0,5,2013-12-16,51.715714,-4.044398
481499,Chilli Too,5,5,5,5,2014-02-25,51.695255,-3.894883
481500,China Deli and Bakery,3,10,10,5,2013-09-18,51.617301,-3.954022
481501,China Garden,3,10,10,10,2013-07-25,51.618249,-3.952214
481502,China Kitchen,5,5,5,5,2013-09-19,51.617943,-4.018649
481503,Chips Ahoy,5,5,5,5,2014-07-30,51.566058,-4.218172
481504,Chiquitos,4,10,5,0,2014-01-14,51.618633,-3.938796
481505,Choice Mobile Catering,1,15,15,20,2014-07-07,51.663969,-3.92536
481506,Christ Well United Reformed Church,5,0,0,5,2013-05-08,51.641579,-3.954126
481507,Christadelphian Rest Home,5,5,0,5,2014-01-20,51.578457,-4.019121
481508,Christchurch Primary School,5,0,0,0,2011-10-10,51.61341,-3.957133
481509,Christmaspie Bed and Breakfast,5,0,5,0,2011-07-21,51.618947,-3.964811
481510,Chutney,5,5,5,5,2014-01-29,51.575343,-4.002516
481511,Cila Primary School,5,0,0,5,2011-09-22,51.613182,-4.029286
481512,City Bar,4,10,0,5,2014-03-06,51.62283,-3.932401
481513,City Day Nursery,5,5,5,5,2014-12-19,51.619549,-3.950825
481514,Civic Centre Staff Canteen,4,5,0,10,2014-03-25,51.613726,-3.948365
481515,CJ's Restaurant and Wine Bar,3,5,10,10,2013-09-03,51.574837,-3.997876
481516,CKâs Coffee Shop and Bistro,5,5,0,5,2013-12-04,51.618799,-3.946704
481517,CKs Supermarket,5,5,0,0,2014-09-03,51.647673,-4.038372
481518,CKs Supermarket,5,5,5,5,2014-08-15,51.625707,-3.941683
481519,CKs Supermarket,4,5,10,0,2014-07-21,51.641804,-4.101413
481520,CKs Supermarket,5,0,0,0,2014-12-08,51.630614,-3.941315
481521,CKs Supermarket,5,5,5,5,2014-12-05,51.67046,-3.878301
481522,CK's Supermarket,3,10,5,10,2014-08-05,51.616176,-3.99998
481523,CK's Supermarket,2,10,15,10,2014-09-15,51.636915,-3.953434
481524,CK's Supermarket,4,5,5,10,2013-11-13,51.638819,-4.011079
481525,Clase Primary After School Club,4,0,0,10,2011-07-14,51.664054,-3.945275
481526,Clase Primary School,4,10,0,5,2014-10-02,51.664054,-3.945275
481527,Clase Social Club,4,10,0,10,2014-11-18,51.664093,-3.947807
481528,Clase Supermarket,4,10,5,5,2013-01-08,51.660599,-3.94598
481529,Close Care Limited,5,0,5,5,2011-01-04,51.699501,-3.8959
481530,Club House Restaurant at Clyne,5,5,0,5,2014-12-04,51.595487,-4.013524
481531,Club Life Cafe Ltd,5,0,0,0,2013-07-04,51.656377,-3.907313
481532,Clwyd Primary School,4,10,0,0,2014-12-12,51.645109,-3.965133
481533,Clydach Chinese Takeaway,4,5,10,5,2013-01-17,51.694004,-3.898824
481534,Clydach Cricket Club,4,10,5,5,2014-07-15,51.698685,-3.891814
481535,Clydach Fish Bar,3,10,10,10,2013-07-15,51.696337,-3.890775
481536,Clydach Infants School,5,0,0,0,2011-07-11,51.696034,-3.89561
481537,Clydach Junior School,5,5,0,0,2011-07-11,51.697719,-3.89762
481538,Clydach Kebab House,5,5,0,5,2014-12-04,51.696337,-3.890775
481539,Clyne Farm Centre,5,0,0,5,2014-11-13,51.598946,-4.010024
481540,Coakleys,3,10,5,10,2011-07-19,51.575577,-3.999337
481541,Coast Line Cafe,5,0,0,5,2014-10-01,51.613726,-3.948365
481542,Cocktails,4,0,0,10,2011-05-13,51.632132,-3.939285
481543,Cod Box,4,5,5,10,2014-05-06,51.660397,-3.942964
481544,Coffee House,5,5,0,0,2015-01-27,51.651947,-3.892165
481545,Coffee Shop,5,0,5,0,2014-06-11,51.622387,-3.98377
481546,Coffee Tree,5,0,0,5,2014-12-15,51.586698,-4.001067
481547,Coffee#1,5,0,5,0,2014-05-09,51.621035,-3.943102
481548,Coffees Been,5,5,5,5,2014-08-01,51.618829,-3.958392
481549,Coggers Newsagent,4,10,5,5,2014-08-18,51.619312,-3.940717
481550,Colwyn Fish Bar,4,10,0,0,2014-07-29,51.646416,-3.907155
481551,Commercial Hotel,5,5,0,5,2012-05-24,51.648074,-4.036019
481552,Commercial Inn,5,5,0,5,2011-06-06,51.639607,-3.944546
481553,Commercial Inn,5,5,5,5,2011-05-27,51.648118,-3.935067
481554,Co-operative Food,5,0,0,0,2011-05-17,51.620426,-3.945618
481555,Co-operative Wholesale Service,4,5,0,10,2013-10-22,51.714282,-4.041381
481556,Co-operative Wholesale Service,4,5,5,10,2015-01-13,51.58057,-4.001346
481557,Coopers Arms,4,10,0,10,2014-07-23,51.648118,-3.935067
481558,Cosmo,5,5,5,5,2015-01-19,51.620779,-3.942224
481559,Cost Cutters,5,0,5,5,2011-01-31,51.586698,-4.001067
481560,Costa Coffee,4,10,0,10,2013-08-13,51.619423,-3.944319
481561,Costa Coffee,5,5,0,5,2012-03-30,51.609625,-3.980642
481562,Costa Coffee,5,0,5,0,2011-08-23,51.618826,-3.947211
481563,Costa Coffee,5,0,0,5,2013-09-12,51.625189,-3.940925
481564,Costa Coffee at Hendrefoilan,5,5,0,0,2011-11-08,51.623638,-4.00379
481565,Costcutter,5,0,0,5,2014-04-01,51.626869,-3.972349
481566,Costcutter,5,5,5,0,2011-01-18,51.619005,-3.950527
481567,Country Kitchen,5,0,5,5,2014-08-21,51.619122,-3.945129
481568,Country Quality Meats,5,5,0,5,2015-01-14,51.619122,-3.945129
481569,Craig Cefn Parc Post Office,4,5,5,10,2012-07-05,51.707281,-3.91465
481570,Craig Cefn Parc Primary School,5,5,0,0,2012-05-17,51.715864,-3.918241
481571,Craigfelen Caterpillars Flying Start,5,5,0,0,2014-05-23,51.697401,-3.905059
481572,Craigfelen Primary School,5,5,0,5,2013-11-26,51.697401,-3.905059
481573,Crofty Supermarket,4,5,5,10,2013-10-11,51.633867,-4.130193
481574,Cross Keys Service Station,4,10,0,5,2014-10-24,51.663551,-4.060196
481575,Cross Service Station,4,10,5,0,2014-05-09,51.671087,-3.999839
481576,Cross Stores,4,0,0,10,2011-08-17,51.645485,-3.970599
481577,Crown Inn,5,0,0,0,2011-11-10,51.670239,-3.872956
481578,Crumbs Kitchen,4,0,5,10,2014-04-23,51.61784,-3.966439
481579,Crusts,5,5,0,0,2015-01-06,51.618554,-3.947936
481580,Crwys Primary After School Club,5,0,0,5,2011-05-24,51.627102,-4.065927
481581,Crwys Primary School,4,10,5,0,2014-06-12,51.627102,-4.065927
481582,Curry Pot,5,5,0,5,2014-07-08,51.651178,-3.979114
481583,Cwm Glas Primary School,4,10,0,0,2014-10-03,51.647011,-3.907079
481584,Cwm Stores,4,5,0,10,2014-10-31,51.692805,-3.900684
481585,Cwmbwrla Bakehouse,5,5,5,5,2014-01-16,51.636172,-3.954848
481586,Cwmbwrla Day Centre,5,5,0,5,2013-12-03,51.633947,-3.957252
481587,Cwmbwrla Primary School,5,5,0,5,2014-12-05,51.636172,-3.954848
481588,Cwmdonkin Park Kiosk,5,0,0,5,2014-04-14,51.620606,-3.969361
481589,Cwmfelin Social Club,5,5,0,0,2014-12-12,51.636094,-3.948702
481590,Cwmrhydyceirw Primary School,5,5,0,0,2014-01-24,51.678754,-3.930732
481591,Cylch Meithrin Clydach,5,0,0,5,2014-05-06,51.700746,-3.894519
481592,D Danter and Sons,5,0,0,5,2013-02-21,51.667154,-4.033534
481593,Dagwoods Sandwich Bar and Cafe,3,10,10,5,2014-04-15,51.621104,-3.948696
481594,Dalling Stores,5,0,0,5,2012-06-26,51.677217,-3.917562
481595,Dani Foods,5,5,0,0,2014-10-02,51.628865,-4.134742
481596,Danycoed Education Centre,5,0,0,0,2014-11-04,51.591108,-3.999297
481597,Danygraig General Stores,4,5,10,5,2014-12-16,51.624155,-3.909689
481598,Danygraig Primary School,5,0,0,5,2012-03-27,51.621315,-3.915102
481599,Danygraig Primary School Breakfast Club,5,0,0,0,2012-01-23,51.621315,-3.915102
481600,David Richards Butcher,5,5,5,5,2015-01-21,51.669611,-4.042741
481601,Davies of Mumbles,5,5,5,0,2015-01-12,51.631455,-3.972346
481602,Davies of Mumbles,5,0,5,5,2014-01-30,51.618278,-3.98424
481603,Davies of Mumbles,5,0,0,5,2012-05-16,51.618067,-4.018207
481604,Davies of Mumbles,4,10,0,5,2014-09-03,51.619122,-3.945129
481605,Davies of Mumbles,5,0,0,5,2014-09-03,51.619122,-3.945129
481606,Day Day Store,4,5,0,10,2014-02-05,51.619761,-3.954258
481607,Debenhams Restaurant,5,0,0,0,2010-11-22,51.617887,-3.945322
481608,Dechrau Disglair Tan-y-Lan,5,0,0,0,2014-05-20,51.664218,-3.932095
481609,DECKS Swansea,5,0,0,0,2015-01-07,51.650781,-3.987163
481610,Deli Espangol,5,0,0,5,2011-01-24,51.622387,-3.98377
481611,Deshi Spice,5,0,0,0,2015-01-15,51.643245,-3.94424
481612,Desi Foods,1,15,5,20,2013-07-30,51.617753,-3.953348
481613,Design A Cake,5,0,0,5,2014-05-20,51.667991,-4.041236
481614,Devon View,5,0,5,0,2010-11-18,51.612959,-3.957172
481615,Dhoniya Takeaway,4,10,5,5,2013-11-19,51.647673,-4.038372
481616,Dick Bartons Fish and Chip Shop,5,0,0,5,2013-10-23,51.586698,-4.001067
481617,Dicksy's Fish Bar,5,5,0,0,2014-12-10,51.6833,-3.924401
481618,Didier and Stephanie,5,5,0,5,2013-09-20,51.616614,-3.955899
481619,Dillys Kitchen,4,10,0,5,2014-11-10,51.617778,-3.986689
481620,Dilwyns Cafe,5,0,0,5,2013-03-24,51.615946,-3.940299
481621,Discovery Visitor Centre,5,0,0,5,2011-03-23,51.615305,-3.974982
481622,Dominos,5,0,0,0,2014-10-03,51.667991,-4.041236
481623,Domino's Pizza,4,10,0,0,2014-02-10,51.618283,-3.949629
481624,Domino's Pizza,5,0,0,0,2011-03-01,51.663602,-3.925836
481625,Double Luck,3,10,10,10,2013-12-04,51.612959,-3.957172
481626,Double Luck Chinese Takeaway,4,10,10,0,2013-11-13,51.714377,-4.040589
481627,Dragon Boat,3,10,10,10,2013-10-30,51.573184,-3.995668
481628,Dragon Palace,4,5,5,10,2013-10-07,51.663158,-3.944037
481629,Dukes Arms,4,10,0,0,2014-03-04,51.657156,-3.926286
481630,Dunelm,5,0,0,0,2012-12-05,51.650781,-3.987163
481631,Dunvant Primary School,4,10,0,0,2014-12-05,51.623237,-4.021918
481632,Dunvant Primary Wrap Around Club,5,5,0,5,2014-02-13,51.623237,-4.021918
481633,DVLA Canteen,5,0,5,0,2011-05-25,51.670004,-3.945458
481634,DVLA Day Nursery,5,5,0,5,2014-03-24,51.670004,-3.945458
481635,Dylan Thomas,4,10,5,5,2013-07-02,51.660678,-3.901638
481636,Dylan Thomas Centre,4,10,0,5,2013-07-30,51.618759,-3.936042
481637,Dylan Thomas Community School,5,5,0,0,2011-10-13,51.633099,-3.983125
481638,Dynamic Rock Ltd,5,0,0,5,2012-03-20,51.694004,-3.898824
481639,Dynevor Centre,5,5,5,5,2014-10-06,51.621708,-3.945904
481640,Eagle Service Station,5,0,0,5,2013-05-15,51.655618,-3.949193
481641,Eastern Express Takeaway,4,5,5,10,2015-01-07,51.621988,-3.925662
481642,Eastern Kitchen,5,5,5,5,2013-11-20,51.640594,-4.015031
481643,Eaton Road Fish Bar Limited,4,10,0,5,2014-03-13,51.640528,-3.945973
481644,Eddie Rockets,5,5,0,5,2014-01-29,51.618094,-3.939322
481645,Eddys Cafe and Bistro,5,5,5,5,2014-10-10,51.596192,-4.283851
481646,EET Sandwich Cafe,3,10,10,10,2014-12-16,51.619229,-3.956503
481647,Eli Jenkins,5,5,0,5,2014-09-24,51.619085,-3.947367
481648,Eliance Digby Trout Restaurants,5,5,0,0,2010-12-13,51.616425,-3.938571
481649,Elior Catering,5,5,5,5,2013-05-17,51.620556,-3.930701
481650,Elior UK Ltd,5,5,0,0,2013-11-20,51.668317,-3.904142
481651,Espresso Bar,3,10,5,10,2014-07-09,51.625707,-3.941683
481652,Esso Morriston Service Station,5,0,0,0,2011-06-07,51.662335,-3.907607
481653,Exotica,1,15,10,20,2014-08-28,51.616614,-3.955899
481654,Exotica 2,1,15,10,20,2014-02-07,51.617753,-3.953348
481655,Facilities Management Catering Ltd,5,5,5,5,2014-12-02,51.642162323,-3.935131073
481656,Fairdeal Cafe,5,5,0,0,2014-11-13,51.65971,-3.913598
481657,Fairleigh House,5,0,0,0,2014-10-09,51.618207,-3.968723
481658,Fairwood Park Golf Club Ltd,3,10,10,5,2014-02-19,51.602426,-4.044387
481659,Fairwood Stores,5,0,0,5,2014-10-06,51.61523,-4.044486
481660,Fairyhill Hotel,5,5,0,5,2014-07-24,51.6354789734,-4.12053489685
481661,Family Kebab House,1,15,10,20,2014-03-04,51.654248,-3.953674
481662,Farmers Arms,4,10,0,5,2011-06-07,51.626363,-3.948242
481663,Fforestfach ATC,4,5,10,5,2013-12-04,51.64721,-3.991488
481664,Ffynone House School,5,5,0,0,2014-11-25,51.619438,-3.959618
481665,Fil Fil,4,5,5,10,2015-01-07,51.653837,-3.974994
481666,Finks Diner,5,0,0,5,2014-08-12,51.666673,-4.015537
481667,Fired up Feasts,5,0,5,0,2013-07-13,51.624183,-3.903521
481668,First Call Coffee,5,0,0,0,2012-05-09,51.623139,-3.942556
481669,Flamers,4,5,5,10,2014-03-19,51.641189,-3.938081
481670,Flying Pizza,5,5,0,0,2014-10-07,51.663602,-3.925836
481671,Flying Start,5,0,0,0,2014-07-16,51.627859,-3.951832
481672,Flying Start Nursery,5,0,0,5,2011-06-14,51.634306,-3.940996
481673,Food 2 Go,3,5,10,10,2014-03-27,51.619005,-3.950527
481674,Food for Thought,5,0,0,5,2014-02-12,51.635731,-3.949438
481675,Food Net,1,15,10,20,2014-10-28,51.669202,-4.040929
481676,Footlights and Roof Top Cafe and Lavazza Coffee Shop,5,5,0,5,2014-01-10,51.618023,-3.947928
481677,Fords Sports and Social Club,5,5,0,5,2014-02-24,51.655618,-3.949193
481678,Forge Fach Cafe,4,10,5,5,2013-06-12,51.694004,-3.898824
481679,Forge Fach Day Nursery,4,5,5,10,2014-06-05,51.694004,-3.898824
481680,Fortes Ice Cream Parlour,5,5,0,5,2013-12-04,51.565998,-3.981414
481681,Fortune House,3,10,10,10,2014-01-22,51.613833,-3.964648
481682,Fountain Inn,5,5,0,5,2014-11-19,51.7088,-4.026138
481683,Francos,4,10,10,0,2014-10-16,51.618799,-3.946704
481684,Frankie & Bennys,4,5,10,5,2014-09-18,51.6434,-3.929952
481685,Frankie and Bennys,5,0,5,0,2012-05-11,51.618901,-3.938923
481686,Fredericks Restaurant,5,0,5,5,2013-11-29,51.57257,-3.993202
481687,Fresco,5,5,0,5,2014-03-19,51.616425,-3.938571
481688,Fresco Coffee House,1,5,10,20,2014-02-27,51.663158,-3.944037
481689,Fresh 2 Lips Cafe,5,5,0,5,2015-01-27,51.695091,-3.895585
481690,Fujitsu,5,0,0,0,2014-02-18,51.652423,-3.916009
481691,Full Moon,4,10,0,10,2012-02-29,51.626966,-3.941174
481692,Full Moon Cantonese Takeaway,5,5,0,0,2014-03-14,51.625321,-4.034061
481693,Galley Catering,5,5,0,0,2014-03-19,51.571395,-3.987739
481694,Gallinis Restaurant,3,10,10,5,2014-05-15,51.615865,-3.934864
481695,Garbos Cafe Bar Ltd,5,5,5,0,2014-11-05,51.618847,-3.930166
481696,Garuda Indonesian Restaurant,4,5,5,10,2014-10-30,51.618249,-3.952214
481697,Gendros Primary School,4,10,5,5,2014-10-09,51.640257,-3.973508
481698,George Chaplin and Sons,4,5,0,10,2014-10-14,51.618067,-4.018207
481699,Gerells Coppermill Cafe,5,5,5,5,2014-10-23,51.632928,-3.938452
481700,Gershwins Coffee House Ltd,5,0,5,5,2013-10-01,51.618799,-3.946704
481701,Glais House Nursing Home,5,5,5,5,2014-03-06,51.688981,-3.877896
481702,Glais Primary School,5,5,0,5,2014-10-09,51.688244,-3.879544
481703,Glasfryn House,4,10,0,10,2014-08-04,51.634289,-3.981312
481704,Glevdon Hotel,4,10,0,5,2014-09-05,51.612959,-3.957172
481705,Globe Inn,5,0,0,5,2014-11-18,51.663171,-4.056694
481706,Glyncollen Primary After School Club,5,0,0,0,2010-11-12,51.682015,-3.919992
481707,Glyncollen Primary School,4,10,5,5,2014-06-09,51.682015,-3.919992
481708,Glynderwen House,5,5,0,5,2014-01-20,51.69672,-3.893816
481709,Golden Choice,4,10,5,5,2014-01-09,51.62206,-3.942553
481710,Golden Dragon,4,10,5,5,2014-09-16,51.648118,-3.935067
481711,Golden Dragon Fish Bar,5,5,5,5,2013-12-03,51.623955,-3.91205
481712,Golden House,4,0,10,5,2013-10-08,51.675712,-3.928172
481713,Golden House,5,5,5,5,2014-04-09,51.639607,-3.944546
481714,Golden Palace,4,5,10,5,2014-02-19,51.71388,-4.039683
481715,Golden Phoenix,4,10,10,0,2014-05-28,51.662508,-3.925631
481716,Golden Swan,4,10,5,5,2014-09-09,51.622824,-3.945302
481717,Good News,5,0,0,0,2014-03-26,51.619122,-3.945129
481718,Good View Takeaway,5,5,0,5,2014-03-13,51.64071,-3.915775
481719,Goodies Continental Foods,4,10,5,5,2014-12-18,51.619122,-3.945129
481720,Gors Community Primary School,5,0,0,5,2014-10-13,51.632601,-3.980646
481721,Gors Little Learners Flying Start,5,0,5,5,2014-06-23,51.632601,-3.980646
481722,Gors Supermarket,5,0,0,0,2015-01-23,51.631455,-3.972346
481723,Gorseinon Hospital,5,0,0,0,2014-10-23,51.672127,-4.048017
481724,Gorseinon Infants School,5,5,0,0,2014-12-03,51.671103,-4.039698
481725,Gorseinon Junior School,5,0,0,5,2010-11-25,51.670033,-4.041762
481726,Gorseinon Packed Meals,4,10,5,5,2014-06-19,51.667973,-4.035046
481727,Gorseinon Stroke Club,4,5,5,10,2013-04-29,51.668163,-4.039147
481728,Gorseinon Workingmens Club,4,10,0,0,2014-01-16,51.671103,-4.039698
481729,Gourmet Cafe,5,5,5,0,2014-04-11,51.616175,-3.95848
481730,Govindas Vegetarian Restaurant,4,10,0,5,2014-03-04,51.620663,-3.947059
481731,Gower Coast Seafood Mobile,5,0,0,5,2013-11-27,51.633867,-4.130193
481732,Gower Coffee Company,5,0,0,5,2014-05-31,51.62025,-3.945438
481733,Gower College Swansea,5,5,5,5,2014-01-07,51.664002,-4.05034
481734,Gower Cottage Brownies,5,0,0,5,2011-03-08,51.587352,-4.194812
481735,Gower Day Nursery,5,0,0,5,2013-10-09,51.641804,-4.101413
481736,Gower Golf Club,4,10,0,5,2014-01-14,51.637628,-4.063082
481737,Gower Heritage Centre,4,10,0,5,2013-11-19,51.583099,-4.10247
481738,Gower Inn,5,5,0,0,2013-01-30,51.6354789734,-4.12053489685
481739,Gower Lodge,5,5,0,0,2014-02-21,51.647945,-4.038239
481740,Gower Salt Marsh Lamb Ltd,4,10,0,10,2013-12-10,51.610433,-4.193542
481741,Gower View Stores,4,10,5,5,2014-07-25,51.558324,-4.169147
481742,Gower Wildflower Cafe,5,0,0,0,2014-07-08,51.602426,-4.044387
481743,Gowerton Comprehensive School Kitchen 1,5,5,5,5,2013-10-16,51.642595,-4.036164
481744,Gowerton Comprehensive School Kitchen 2,5,0,5,5,2013-10-16,51.642595,-4.036164
481745,Gowerton Conservative Club,5,0,0,0,2012-05-24,51.647945,-4.038239
481746,Gowerton Cricket Club,4,0,5,10,2011-06-21,51.5903091431,-3.80233001709
481747,Gowerton Primary School,5,0,0,5,2013-06-12,51.647156,-4.039172
481748,Gowerton Primary School Junior Department,5,5,0,0,2013-05-20,51.645984,-4.043456
481749,Gowerton RFC,4,10,5,5,2014-09-13,51.65353,-4.039776
481750,Gowerton Village Shop,4,10,5,5,2013-10-18,51.647673,-4.038372
481751,Grab and Go,4,10,5,5,2013-06-20,51.640532,-3.933747
481752,Graigos Cafe,4,5,5,10,2014-02-14,51.697401,-3.905059
481753,Grand Hotel,3,10,5,10,2014-01-22,51.624769,-3.941354
481754,Grange Primary School,4,5,5,10,2015-01-13,51.581319,-4.004843
481755,Grange School Club and Playtots,5,0,0,0,2011-07-19,51.581319,-4.004843
481756,Grape & Olive,5,5,0,0,2014-02-19,51.615002,-3.937518
481757,Grape Tree,5,5,0,0,2014-04-29,51.618494,-3.945015
481758,Greedy Fellas,5,5,0,5,2014-07-17,51.619122,-3.945129
481759,Greggs,5,5,0,0,2014-06-03,51.619432,-3.947006
481760,Greggs,5,0,0,0,2010-12-07,51.575343,-4.002516
481761,Greggs,5,5,0,0,2012-09-12,51.664696,-3.925478
481762,Greggs,5,0,0,0,2011-07-21,51.669025,-4.039706
481763,Greggs,5,5,0,0,2011-08-03,51.619423,-3.944319
481764,Greggs,5,5,5,5,2014-11-21,51.645387,-3.990281
481765,Greggs,5,5,0,5,2014-07-09,51.657949,-3.910777
481766,Greggs,5,0,5,0,2011-05-17,51.617926,-3.946205
481767,Gregorys Scarratt,5,0,0,5,2011-11-23,51.661099,-3.916664
481768,Greyhound Inn,5,5,5,5,2013-10-22,51.605504,-4.184466
481769,Grill House,4,5,10,5,2013-09-18,51.639802,-4.006685
481770,Grosvenor Casino,5,0,0,5,2012-06-28,51.622706,-3.942668
481771,Grove Stores,4,10,0,10,2014-05-29,51.618785,-4.026141
481772,Guildhall Kiosk,5,0,5,0,2015-01-20,,
481773,Gwyndy Stores,3,10,5,10,2013-02-11,51.639498,-3.923311
481774,Gwyrosydd Primary School,4,10,0,5,2014-06-16,51.649242,-3.949194
481775,H and M Convenience,4,0,0,10,2011-05-12,51.622868,-3.952917
481776,Hafod Packed Meals,3,10,10,10,2014-02-24,51.631512,-3.939244
481777,Hafod Primary School Kitchen,5,5,0,0,2014-06-11,51.634306,-3.940996
481778,Halal Foodstore,4,5,5,10,2011-07-01,51.617301,-3.954022
481779,Hansons at the Chelsea Restaurant,4,5,10,5,2013-07-24,51.619553,-3.941348
481780,Happy Chef Chinese Takeaway,4,10,5,5,2014-02-24,51.669611,-4.042741
481781,Harvester,5,0,0,0,2014-12-01,51.6434,-3.929952
481782,Harvester Restaurant,5,5,0,5,2013-10-22,51.65353,-4.039776
481783,Harvey's Butcher,5,0,0,5,2014-11-19,51.646279,-3.972613
481784,Haryana Indian Restaurant,4,10,5,5,2014-01-15,51.662508,-3.925631
481785,Hawthorn Court Care Home,5,5,5,5,2014-10-07,51.624253,-3.99041
481786,Hazeldene Residential Home,5,0,5,5,2014-10-20,51.660574,-3.926734
481787,Heatherslade Residental Home,5,0,0,0,2014-01-16,51.567049,-4.092292
481788,Hels Kitchen,4,10,5,5,2014-04-22,51.690722,-3.901017
481789,Hen Dderwen,4,10,5,5,2014-06-17,51.615699,-3.999497
481790,Hendrefoilan Primary School,5,0,0,0,2011-01-12,51.622277,-4.014985
481791,Hengoed Court,4,10,0,10,2014-06-23,51.649199,-3.893612
481792,Hengoed Park Care Home,4,0,10,10,2014-06-23,51.649199,-3.893612
481793,Heol yr Gors Fish and Chips,4,10,0,5,2014-04-30,51.633062,-3.96873
481794,Herons Way Filling Station,3,10,10,10,2014-12-04,51.608444,-4.166077
481795,High Gate Day Nursery,4,10,5,5,2014-05-29,51.620456,-3.972403
481796,High Street Newsagent,5,0,0,5,2014-03-27,51.62324,-3.941896
481797,Highfield Holiday Park,5,0,5,5,2013-08-29,51.544814,-4.210229
481798,Highgate Day Nursery,5,5,0,5,2014-10-07,51.68175,-3.927894
481799,Hiks,4,10,10,0,2013-07-16,51.636207,-3.944068
481800,Hillend Caravan Park Shop,5,0,0,0,2014-05-01,51.596192,-4.283851
481801,Hillside Care Home,5,0,0,0,2014-12-10,51.620621,-3.961503
481802,Hilton,4,5,5,10,2014-04-22,51.621988,-3.925662
481803,HM Prison,5,5,0,5,2014-10-03,51.61539,-3.948899
481804,Ho Wah House,5,5,5,0,2014-02-19,51.654248,-3.953674
481805,Hogans Bar & Grill,4,5,5,10,2014-10-28,51.663602,-3.925836
481806,Holbrooks Coffee House,4,10,5,5,2014-01-13,51.619987,-3.946091
481807,Hon Shen Limited,4,5,5,10,2011-07-27,51.667097,-3.911697
481808,Hong Kong Chinese Takeaway,3,10,10,5,2013-11-19,51.618417,-3.966897
481809,Hot Stuff Pizza,5,5,0,0,2014-11-06,51.586698,-4.001067
481810,Hot Wok,1,10,10,20,2014-07-31,51.62179,-3.920684
481811,Hot Wok,3,10,10,10,2014-12-18,51.714377,-4.040589
481812,Howells Food Savouries,5,0,0,5,2014-05-31,51.607545,-3.988769
481813,Humphrey Street Stores,4,0,10,5,2014-10-02,51.620351,-3.955049
481814,Hurns Brewing Company,5,5,0,5,2012-09-25,51.652997,-3.92105
481815,I J Mooney Butchers,5,0,0,5,2014-06-09,51.645387,-3.990281
481816,Ibis Swansea Bay,5,5,5,5,2014-11-28,51.620167,-3.912743
481817,Ice Bar,5,5,5,5,2015-01-15,51.619584,-3.941133
481818,Iceland,5,5,0,0,2014-02-18,51.654804,-3.912278
481819,Idols,5,5,5,0,2011-05-26,51.619606,-3.940339
481820,Indian Flavours,4,5,5,10,2014-01-17,51.641189,-3.938081
481821,Innovation Cafe,5,0,5,5,2013-10-03,51.668642,-3.905688
481822,J and K Bread Shop,5,0,0,0,2010-11-24,51.647673,-4.038372
481823,J and K Breadshop,5,0,0,0,2010-11-10,51.626869,-3.972349
481824,Jags Catering Swansea Ltd,5,0,0,0,2014-04-30,51.650742,-3.921503
481825,Jan Evans,5,5,0,0,2014-09-03,51.654092,-3.910716
481826,Jasmines News and General Store,5,5,5,5,2015-01-22,51.639607,-3.944546
481827,Jenkins,5,5,5,0,2014-04-03,51.651178,-3.979114
481828,Jenkins Bakery,5,5,5,0,2014-06-30,51.619423,-3.944319
481829,Jenkins Bakery,5,0,5,0,2011-07-12,51.715087,-4.043212
481830,Jenkins Bakery,5,0,0,0,2014-11-05,51.617939,-3.966443
481831,Jenkins Bakery,5,0,5,5,2013-10-08,51.616176,-3.99998
481832,Jenkins Bakery,5,5,0,0,2012-04-18,51.669025,-4.039706
481833,Jenkins Bakery,5,5,0,5,2014-12-12,51.664696,-3.925478
481834,Jersey Arms,4,10,0,10,2012-02-27,51.64071,-3.915775
481835,Jinnys Coffee Shop,5,5,0,5,2014-04-02,51.669209,-4.038427
481836,Jo Jos General Stores,5,5,0,5,2015-01-26,51.623955,-3.91205
481837,Joes Ice Cream Parlour,5,5,5,5,2013-12-06,51.574464,-3.998177
481838,Joes Ice Cream Parlour,5,5,5,5,2014-09-11,51.621763,-3.938741
481839,Johals Supermarket,5,0,5,0,2013-10-07,51.626627,-3.960462
481840,Johnnies Fish Bar,5,0,0,0,2014-03-19,51.574762,-4.001755
481841,Johns Fish Bar,5,5,0,5,2014-08-12,51.66907,-4.054676
481842,Joiners Arms,5,5,0,5,2014-08-27,51.647887,-3.997676
481843,Joiners Arms,4,10,0,5,2014-06-26,51.583405,-4.052208
481844,Jonathan Haley Stores,4,5,0,10,2013-12-31,51.62272,-3.931429
481845,Jubilee Garden Take Away,5,5,0,5,2014-03-19,51.617625,-3.987751
481846,Jubo Raj,4,10,0,10,2014-08-05,51.667329,-3.923362
481847,Julians Supermarket Ltd,4,10,10,0,2013-10-23,51.578951,-4.211655
481848,Juniper Tree,5,0,0,0,2014-02-19,51.620514,-3.924502
481849,Kaczuszka Polish Shop,5,5,0,5,2014-04-23,51.624191,-3.942009
481850,Kardomah Coffee Shop,5,5,5,5,2014-09-10,51.62025,-3.945438
481851,Karen Evans Bakery,5,5,0,5,2015-01-21,51.619122,-3.945129
481852,Karl Davies,4,5,5,10,2014-02-20,51.669209,-4.038427
481853,Kaths Korner Kafe,4,10,0,5,2014-12-10,51.637684,-3.950418
481854,Kays Convenience Stores,5,5,0,5,2013-12-11,51.615932,-3.96978
481855,KCK Quality Meats,4,10,5,5,2012-05-01,51.648704,-4.040109
481856,Kentucky Fried Chicken,5,5,0,0,2014-12-04,51.663738,-3.912553
481857,KFC,5,0,0,5,2013-01-16,51.61816,-3.967219
481858,KFC,5,0,0,0,2011-09-07,51.6434,-3.929952
481859,Killay Spice,5,5,5,5,2014-08-05,51.617943,-4.018649
481860,Kilvrough Manor Outdoor Education Centre,4,10,0,10,2014-10-06,51.584756,-4.079624
481861,King Arthur Hotel,4,10,5,5,2014-11-11,51.587352,-4.194812
481862,King Fish Bar,4,10,0,10,2015-01-09,51.711652,-4.035414
481863,Kings Arms Tavern,5,5,5,5,2011-09-07,51.623139,-3.942556
481864,Kings Newsagents,5,5,5,5,2012-04-13,51.618249,-3.952214
481865,Kingsbridge Inn,3,10,5,10,2013-11-20,51.66089,-4.037953
481866,Kingsway Coffee,1,10,0,20,2014-09-19,51.621162,-3.945751
481867,Kiosk,4,5,5,10,2013-08-21,51.574837,-3.997876
481868,Kiosk Penllergaer Office,5,5,0,0,2014-01-15,51.67331,-3.99285
481869,Kittle Village Bakery,3,10,5,10,2014-02-06,51.58421,-4.05913
481870,Knelston Primary School,5,5,0,0,2011-01-05,51.5789527893,-4.21165513992
481871,Knipe Wholesale Butcher,5,0,5,5,2015-01-14,51.640613,-3.952162
481872,Kristys Bakery,4,10,0,10,2014-10-27,51.618278,-3.98424
481873,Kumar Stores,4,10,0,0,2013-11-15,51.640628,-3.976053
481874,Kumar Stores,5,5,0,5,2013-12-31,51.6222,-3.923663
481875,L Vaughan,3,10,5,10,2013-01-17,51.575624,-4.000263
481876,La Baguette du Jour,5,0,0,5,2014-12-08,51.618958,-3.950092
481877,La Braseria,2,15,15,10,2014-11-18,51.619326,-3.938782
481878,La Dolce Vita,5,5,0,5,2014-03-20,51.619504,-3.941072
481879,La Fina,5,5,5,5,2014-07-04,51.620798,-3.946516
481880,La Parmigiana,5,0,0,5,2014-11-27,51.618756,-3.956295
481881,La Parrilla,4,10,5,5,2014-11-25,51.619686,-3.931112
481882,La Strada,1,15,15,20,2014-11-19,51.621104,-3.948696
481883,La Viva,4,5,0,10,2011-03-23,51.622706,-3.942668
481884,Ladybirds at Pentrechwyth Flying Start,5,0,0,0,2011-09-28,51.639342,-3.920776
481885,Lakeside Day Nursery,5,5,5,0,2014-09-17,51.656577,-3.918266
481886,Landore Social Club,4,10,0,0,2014-03-26,51.637035,-3.936387
481887,Langland Bay Golf Club,4,10,5,5,2013-12-12,51.568101,-4.015791
481888,Langland Brasserie,5,5,5,0,2014-09-30,51.567744,-4.014058
481889,Langland Road B and B,5,0,5,5,2013-08-05,51.574467,-4.004845
481890,Laserzone Ltd,4,10,0,5,2014-03-05,51.620691,-3.941585
481891,Latte Lounge,5,5,0,5,2013-12-12,51.618004,-3.986078
481892,LC2,5,0,0,0,2014-06-04,51.617087,-3.940391
481893,Lees Local Shopping,5,5,0,5,2012-04-10,51.632132,-3.939285
481894,Leonardos,4,0,0,10,2012-03-01,51.612959,-3.957172
481895,Lezzet Cafe,3,10,10,5,2013-12-17,51.645387,-3.990281
481896,Lifestyle Express,5,5,5,5,2011-02-03,51.631577,-3.951066
481897,Lifestyle Express,4,5,5,10,2013-09-11,51.646324,-3.907281
481898,Lifestyle Express,3,10,10,5,2014-07-28,51.655663,-3.889197
481899,Lifestyle Express,4,5,0,10,2013-11-13,51.717306,-4.031397
481900,Lilleys Days Nursery,4,10,0,5,2011-06-17,51.660687,-3.873126
481901,Linden Tree,5,5,0,0,2014-01-27,51.589652,-4.00713
481902,Lite Bite Luncheon Club,5,0,5,5,2014-03-06,,
481903,Little Acorns Day Nursery,4,10,5,5,2014-06-09,51.612415,-3.968747
481904,Little Cherubs Day Nursery,5,0,5,5,2014-11-17,51.642377,-3.978991
481905,Little Gems,5,0,0,5,2014-07-31,51.627731,-3.963818
481906,Little Monkeys Day Nursery,4,10,0,10,2014-12-09,51.66727,-4.032035
481907,Little Shop,5,0,0,0,2014-07-25,51.558324,-4.169147
481908,Little Sunbeams Flying Start and Day Care,5,0,0,5,2013-12-11,51.645109,-3.965133
481909,Llangyfelach Primary School,4,5,10,5,2014-06-17,51.672665,-3.95584
481910,Llangyfelach Primary Wrap Around Club,4,10,0,5,2014-05-14,51.672665,-3.95584
481911,Llangyfelach Stores,4,10,0,5,2014-11-19,51.67305,-3.957549
481912,Llanmadoc Community Shop,4,0,10,10,2014-05-21,51.617203,-4.255335
481913,Llanrhidian Primary School,5,0,0,5,2011-01-05,51.6354789734,-4.12053489685
481914,Llansamlet Service Station,4,5,10,5,2013-10-07,51.661932,-3.888012
481915,Llets Cafe,5,0,5,5,2014-05-12,51.643982,-3.990407
481916,Lloyds No 1,5,0,5,0,2011-01-10,51.619205,-3.940626
481917,Llwchwr Workingmens Club,5,5,5,0,2015-01-06,51.667973,-4.035046
481918,Llwyn y Bryn,5,0,0,5,2011-02-02,51.617773,-3.960774
481919,Llwynerer Unit,5,0,0,5,2014-03-24,51.671018,-3.935262
481920,Llys y Tywysog Nursing Home,5,5,0,0,2014-06-24,51.689989,-4.036974
481921,Llys Y Werin,5,0,0,0,2015-01-09,51.669487,-4.048838
481922,Llysgwyn House,5,5,0,5,2014-11-19,51.715651,-4.035579
481923,Lolek,3,10,5,10,2014-02-05,51.620878,-3.941723
481924,Londis,3,5,10,10,2013-10-07,51.622417,-3.98942
481925,Londis,5,0,0,5,2014-09-22,51.673366,-4.039872
481926,Londis,4,0,0,10,2015-01-06,51.623993,-3.951261
481927,London House,5,5,0,0,2014-05-06,51.65685,-3.990957
481928,Lotties,5,0,0,5,2011-11-17,51.670033,-4.041762
481929,Lotus House Take Away,1,10,15,20,2014-10-01,51.665912,-3.923114
481930,Loughor and District Workingmens Club,4,10,0,10,2014-01-10,51.667282,-4.057647
481931,Loughor Boating Club,1,10,5,20,2013-12-05,51.665198,-4.073372
481932,Loughor RFC,4,0,0,10,2014-11-21,51.664709,-4.052064
481933,Lucky House,1,15,10,20,2015-01-07,51.620674,-3.954528
481934,Luna Restaurant,3,10,10,10,2013-12-03,51.619005,-3.950527
481935,Luncheon Club,5,5,5,5,2014-07-17,51.661612,-3.901171
481936,Luncheon Club,5,5,0,5,2011-02-09,51.667255,-3.924588
481937,Luncheon Club,5,0,5,0,2014-11-19,51.616462,-4.021646
481938,Luncheon Club,4,0,0,10,2011-05-12,51.6395,-4.018017
481939,Luncheon Club,4,5,5,10,2012-11-29,51.588459,-4.006977
481940,Luncheon Club Light Lunch,1,5,0,20,2011-03-03,51.580605,-4.035339
481941,Lyndell House,5,5,5,5,2014-09-02,51.616923,-3.964854
481942,M and H Supermarket,5,5,0,0,2015-01-23,51.629576,-3.956702
481943,M and S Newsagents,4,0,0,10,2012-07-10,51.639596,-4.015593
481944,M Bar,3,10,5,10,2013-12-10,51.620022,-3.947234
481945,M W Anthony,4,0,10,10,2014-08-26,51.641624,-3.953622
481946,M W Caterers,4,0,10,5,2014-08-06,51.65604,-4.018911
481947,Mace Stores,4,10,0,5,2014-08-26,51.640142,-3.952981
481948,Mackerel Mal,4,0,0,10,2011-08-17,51.670998,-4.051914
481949,Maddocks Cakes from Wales Ltd,5,0,0,0,2014-10-23,51.567985,-4.087703
481950,Madeira Restaurant,5,0,0,5,2014-03-20,51.620967,-3.9445
481951,Madras,5,5,0,5,2014-08-19,51.618278,-3.98424
481952,Maes Glas Community Support Unit,5,5,5,0,2014-01-08,51.639897,-3.96063
481953,Maharani Indian Cuisine,3,10,10,5,2014-03-16,51.615732,-3.956988
481954,Mai Hong Take Away,4,10,0,5,2013-12-04,51.669209,-4.038427
481955,Main Kitchen,5,0,0,0,2012-12-07,51.609625,-3.980642
481956,Mair Harries,4,5,5,10,2014-08-20,51.619122,-3.945129
481957,Mama Bears,5,0,5,5,2013-09-13,51.658747,-3.904839
481958,Mamgus Bakery,2,15,0,0,2011-07-05,51.657115,-3.915556
481959,Mamma Chai,3,10,10,10,2014-10-22,51.667973,-4.035046
481960,Mamma Mia Restaurant,4,5,5,10,2013-11-04,51.618959,-3.941395
481961,Mammas Pizza Parlour,4,10,0,10,2014-03-14,51.631512,-3.939244
481962,Mandarin Packed Meals,3,10,10,5,2014-10-22,51.640547,-3.944297
481963,Manor Leigh House,5,5,0,5,2011-08-17,51.640614,-3.952163
481964,Manor Park Country House,3,10,10,10,2013-06-27,51.69639,-3.880779
481965,Manos Takeaway,3,10,10,10,2013-12-10,51.616614,-3.955899
481966,Manselton Food Centre,3,10,5,10,2014-08-20,51.640881,-3.95122
481967,Manselton Primary School,5,5,0,5,2014-11-04,51.639253,-3.950153
481968,Mardy Inn,5,0,0,0,2014-04-08,51.669209,-4.038427
481969,Margarets Newsagents,5,5,0,0,2011-01-20,51.637992,-3.950316
481970,Marina Nursing Home,5,5,5,5,2015-01-27,51.61724,-3.93709
481971,Marina Spice,5,5,5,5,2014-07-16,51.614108,-3.942156
481972,Marina Stores Ltd,5,0,5,5,2011-01-25,51.616256,-3.936239
481973,Marks and Spencer Fforestfach,5,0,0,0,2011-06-29,51.649863,-3.989884
481974,Marmaris,1,15,10,20,2014-03-19,51.644759,-3.945692
481975,Marquis Arms,4,10,0,0,2015-01-06,51.641116,-3.977997
481976,Marriott Hotel,4,10,10,0,2013-09-12,51.620081,-3.944751
481977,Martins General Store,4,10,0,0,2014-12-09,51.640737,-3.971173
481978,Mary Nons,5,0,5,0,2013-06-24,51.715714,-4.044398
481979,Masala Bazaar Ltd,5,5,0,0,2014-09-03,51.618863,-3.952052
481980,Masons,4,0,5,10,2011-06-17,51.584991,-4.031363
481981,Masons Arms,4,5,0,10,2014-02-21,51.639981,-4.013587
481982,Masons Arms,4,10,0,5,2014-12-03,51.703431,-3.931725
481983,Maxims Fish and Chips,3,10,5,10,2014-10-20,51.617625,-3.987751
481984,Mayals Primary School,5,5,0,0,2014-06-18,51.591482,-4.010041
481985,Mayhill Fish Bar,4,5,5,10,2014-10-28,51.629576,-3.956702
481986,Mayhill Super Stores,4,10,5,5,2014-10-24,51.631577,-3.951066
481987,Maytree Special School,5,0,0,5,2014-12-17,51.661227,-3.935698
481988,McDonalds,5,5,0,0,2013-07-05,51.619922,-3.943473
481989,McDonalds,4,10,0,0,2014-07-16,51.679253,-3.99505
481990,McDonalds,4,10,0,0,2014-12-12,51.665314,-3.920689
481991,McDonalds,5,5,5,5,2015-01-05,51.620167,-3.912743
481992,McDonalds,5,0,0,5,2012-04-23,51.635714,-3.960189
481993,McDoner Takeaway,5,5,0,5,2014-12-18,51.714023,-4.04024
481994,Meadow House,5,5,0,5,2013-10-02,51.671103,-4.039698
481995,Mecca Bingo Club,5,5,0,0,2014-12-17,51.635714,-3.960189
481996,Mediterranean,4,5,5,10,2014-12-12,51.57257,-3.993202
481997,Megasave,4,10,0,5,2011-01-18,51.614431,-3.953581
481998,Memoirs,5,5,0,5,2014-11-10,51.584991,-4.031363
481999,Mercure Swansea,5,5,0,5,2014-01-27,51.654804,-3.912278
482000,Mermaid Cafe Bar and Restaurant,5,5,0,5,2014-02-18,51.57209,-3.990728
482001,Mes Enfants,5,0,0,5,2013-11-22,51.571395,-3.987739
482002,Metro 2,5,5,0,0,2014-02-11,51.625128,-3.974253
482003,Metro Xtra,5,0,0,0,2014-02-06,51.624661,-3.94944
482004,Miahs,5,5,5,5,2015-01-21,51.663158,-3.944037
482005,Middle East Supermarket,4,10,0,0,2014-02-18,51.618958,-3.950092
482006,Midland Hotel,4,10,5,5,2014-10-17,51.671128,-3.920342
482007,Mikes Bites,4,10,0,10,2014-02-13,51.655121,-3.906075
482008,Mike's Breakfast Cabin,4,10,5,5,2013-12-18,,
482009,Milanos Coffee Shop,3,5,10,10,2013-10-15,51.663602,-3.925836
482010,Mile End Bakery,5,0,5,5,2013-12-17,51.638743,-3.966202
482011,Millers Arms,5,5,0,5,2014-12-12,51.685495,-3.907264
482012,Ming Fai,5,5,5,5,2014-03-27,51.647945,-4.038239
482013,Ming Kitchen,3,10,5,10,2014-03-21,51.664659,-3.926055
482014,Mirador Guest House,5,0,0,5,2011-08-03,51.618947,-3.964811
482015,Miss April Zoe Studt,5,5,0,5,2014-03-07,51.659423,-3.923461
482016,Missionaries of Charity,5,0,0,5,2014-07-14,51.622918,-3.941246
482017,Molly's Mini Market,4,5,5,10,2014-04-08,51.643361,-3.941585
482018,Mond Valley Golf Club,5,5,5,5,2014-06-17,,
482019,Monksland,4,10,0,10,2014-03-12,51.568098,-4.218242
482020,Monni,4,5,10,5,2014-10-27,51.61601,-3.957606
482021,Moonlight,5,5,0,5,2014-03-14,51.573184,-3.995668
482022,Moose International Clydach,5,0,0,5,2014-09-09,51.698452,-3.889532
482023,Morgans Hotel,5,5,5,5,2014-05-01,51.618759,-3.936042
482024,Morlais Guest House,5,0,5,5,2014-09-02,51.613919,-3.95301
482025,Morris Arms,3,5,10,10,2013-11-14,51.643245,-3.94424
482026,Morris House Nursing Home,4,10,0,5,2014-11-14,51.616184,-3.965992
482027,Morris Mouse Day Nursery and After School Club,5,5,0,5,2014-09-02,51.664341,-3.92406
482028,Morrisons,5,5,0,0,2014-11-12,,
482029,Morriston AFC,4,0,5,10,2014-03-22,51.672345,-3.919091
482030,Morriston Bakehouse Cafe,3,10,10,5,2014-02-14,51.657156,-3.926286
482031,Morriston Comprehensive School,5,5,0,5,2013-10-17,51.681554,-3.926714
482032,Morriston Fire Station Canteen,1,15,15,20,2014-02-04,51.668668,-3.922898
482033,Morriston Golf Club,4,10,0,5,2014-07-29,51.671089,-3.933139
482034,Morriston Hospital Central Production Unit,5,5,5,5,2014-08-22,51.68466,-3.935265
482035,Morriston Kebab House,5,5,5,5,2014-12-17,51.663602,-3.925836
482036,Morriston Leisure Centre,3,5,10,10,2014-12-11,51.68175,-3.927894
482037,Morriston Primary School,5,5,0,5,2014-07-09,51.6629,-3.920384
482038,Morriston RFC,5,5,0,5,2013-09-21,51.674466,-3.925212
482039,Morriston Snooker and Pool Club,5,5,0,5,2011-10-12,51.666258,-3.925052
482040,Mothers Kitchen Diner,4,10,0,5,2014-10-06,51.65353,-4.039776
482041,Mount Calvary Baptist Church,5,0,0,5,2014-03-12,51.638748,-3.95029
482042,Mount Pleasant Baptist Church,4,10,0,5,2014-12-23,51.621162,-3.945751
482043,Mozarts,4,10,0,10,2014-10-09,51.618352,-3.960567
482044,Mr Chungs Chinese Takeaway,5,5,0,5,2015-01-08,51.628938,-3.979735
482045,Mrs Bs,4,5,10,5,2014-12-05,51.618958,-3.950092
482046,Ms Melanie Jayne Kate John,5,0,5,5,2013-12-17,51.661612,-3.901171
482047,Mumbai Indian Restaurant,4,10,5,5,2014-07-22,51.598087,-3.998694
482048,Mumbles Coffee,4,10,5,5,2014-04-17,51.575624,-4.000263
482049,Mumbles Fast Food,4,10,0,0,2014-02-05,51.573184,-3.995668
482050,Mumbles Nursing Home,5,5,0,5,2014-06-26,51.584869,-4.001275
482051,Mumbles Pier Cafe,2,15,10,10,2014-01-20,51.568997,-3.977418
482052,Mumbles RFC,4,5,10,5,2013-03-15,51.573184,-3.995668
482053,Munch of Mumbles,4,10,0,5,2014-02-20,51.58057,-4.001346
482054,MURCO,4,0,5,10,2011-05-19,51.640651,-4.023792
482055,Murco Costcutter,5,0,0,0,2010-11-30,51.619622,-4.010403
482056,Murton Methodist Luncheon Club Full Lunch,5,0,0,5,2014-09-18,51.582021,-4.041306
482057,Murton Stores,5,0,0,0,2012-02-22,51.582021,-4.041306
482058,My Costcutter,5,0,0,5,2014-03-21,51.609625,-3.980642
482059,Nandos,5,5,0,0,2014-06-19,51.619055,-3.939377
482060,Naval and Military Club,5,5,5,5,2011-05-26,51.62136596,-3.91537745
482061,Nawab Tandoori Restaurant,4,10,5,5,2013-12-04,51.620334,-3.949573
482062,Nayim Takeaway,4,5,5,10,2014-02-24,51.669209,-4.038427
482063,New Conway Cafe,4,5,5,10,2013-08-21,51.643401,-3.962992
482064,New Golden Palace,4,10,5,0,2014-03-19,51.660541,-3.898408
482065,New Goldfinch Chinese Takeaway,4,10,10,0,2014-08-05,51.619761,-3.954258
482066,New Hong Kong,5,5,5,5,2013-10-10,51.636278,-3.949014
482067,New Rane Bengal Indian Takeaway,1,5,10,20,2013-08-07,51.662595,-3.92523
482068,Newpark Holiday Park And Shop,5,5,0,5,2014-09-23,51.548412,-4.214962
482069,Newton Grange,5,5,0,5,2014-11-14,51.573215,-4.013867
482070,Newton Inn,3,10,5,10,2014-03-05,51.575231,-4.014288
482071,Newton Packed Meals,3,10,10,5,2014-07-16,51.575425,-4.000875
482072,Newton Primary School,5,5,0,0,2014-09-16,51.575902,-4.013986
482073,Nick Jones,5,5,0,5,2014-06-26,51.619122,-3.945129
482074,Ninety Three,4,10,5,5,2014-01-27,51.575259,-4.003754
482075,Nipa Takeaway,4,10,5,5,2013-12-18,51.649746,-3.932332
482076,Nisa Extra,5,0,0,5,2011-01-31,51.672957,-4.05248
482077,Nisa Local,4,10,0,10,2013-06-10,51.645159,-3.973461
482078,No Sign Wine Bar,4,5,10,5,2014-12-09,51.619312,-3.940717
482079,Noahs Ark Day Nursery and After School Club,5,0,0,0,2015-01-06,51.667973,-4.035046
482080,Noakes Bakery,4,10,0,5,2013-12-11,51.714282,-4.041381
482081,Norfolk Bakery,3,5,10,10,2014-02-25,51.623993,-3.951261
482082,Norton House Hotel,4,5,5,10,2014-09-05,51.580064,-4.003027
482083,Oakleigh House School,5,5,5,5,2014-12-08,51.622249,-3.972177
482084,Oasis,4,5,10,5,2014-06-06,51.619005,-3.950527
482085,Oat So Good Co Ltd,5,0,0,5,2011-07-12,51.666673,-4.015537
482086,Ocean Living Residential Home,3,10,5,10,2014-02-26,51.571395,-3.987739
482087,Ocean View,4,5,5,10,2013-07-04,51.610433,-4.193542
482088,Olchfa Comprehensive School,5,5,0,0,2012-01-26,51.618899,-4.004347
482089,Old Duke Inn,2,15,0,10,2015-01-13,51.626966,-3.941174
482090,Old Vicarage Nursing Home,5,0,5,5,2013-12-17,51.616994,-3.990511
482091,Olde Cross Keys,4,5,0,10,2014-01-14,51.619553,-3.941348
482092,Oldwalls Gower,5,0,5,5,2013-12-13,51.605504,-4.184466
482093,Olivers,1,15,5,20,2014-11-13,51.645105,-3.982001
482094,Olives and Oils Delicatessen,5,0,0,0,2014-02-05,51.575624,-4.000263
482095,One Shoe Cafe,5,5,0,5,2014-10-14,51.616079,-3.960469
482096,One Stop,5,0,0,0,2014-02-27,51.651178,-3.979114
482097,Opium Den,1,15,15,20,2014-11-12,51.617625,-3.987751
482098,Out Patients Cafe,5,5,0,5,2013-02-13,51.68466,-3.935265
482099,Oxwich Bay Hotel,5,5,0,0,2014-12-10,51.6354789734,-4.12053489685
482100,Oyster Hotel,5,0,0,5,2014-09-03,51.613919,-3.95301
482101,Oystermouth Primary School,5,0,0,0,2014-06-03,51.57552,-4.003174
482102,P and J Caterers,4,10,0,5,2014-08-26,51.662097,-3.905602
482103,Paddy Field,4,5,5,10,2014-12-20,51.618249,-3.952214
482104,Paninis Ltd,5,0,0,0,2014-12-04,51.643789,-3.996498
482105,Panshee,4,10,0,5,2014-03-24,51.618602,-3.947707
482106,Pantri,5,0,5,5,2014-01-07,51.699288,-3.882274
482107,Pantygwydr Restaurant,5,5,5,5,2013-07-03,51.617916,-3.952185
482108,Paprika Indian Takeaway,5,5,5,0,2013-09-24,51.641967,-4.102881
482109,Paradise Spice Balti,4,10,5,5,2014-07-17,51.667973,-4.035046
482110,Paradise Takeaway,3,10,10,10,2014-03-18,51.618863,-3.952052
482111,Parc Fish Bar,4,10,5,5,2014-11-12,51.613626,-3.970561
482112,Pari Takeaway,4,10,0,10,2014-12-18,51.717413,-4.03091
482113,Parklands Evangelical Church,5,5,0,0,2014-10-01,51.61723,-3.995679
482114,Parklands Primary School,4,10,0,0,2014-09-19,51.615601,-3.997355
482115,Parkview Residential Home,3,5,10,10,2014-05-06,51.697844,-3.884833
482116,Parkway Residential Home,4,5,5,10,2014-06-05,51.61932,-4.001766
482117,Pa's Wine Bar,4,10,5,5,2013-12-17,51.575259,-4.003754
482118,Patisserie,5,5,0,5,2012-06-29,51.624661,-3.94944
482119,Patricks,5,5,0,0,2014-09-02,51.57257,-3.993202
482120,Patti Raj,5,5,5,5,2013-10-08,51.612418,-3.963735
482121,Paul Slees Newsagents,3,10,10,10,2014-11-05,51.616775,-3.95267
482122,Paul Tucker,4,5,10,5,2012-05-10,51.641804,-4.101413
482123,Peking House,5,0,5,0,2014-06-11,51.65633,-3.980235
482124,Penclawdd Primary School,5,0,0,0,2014-11-28,51.640919,-4.111634
482125,Penclawdd RFC,5,5,0,0,2014-09-13,51.640919,-4.111634
482126,Pengelli Primary School,5,5,0,5,2014-03-12,51.689252,-4.035393
482127,Peniel Green Nursing Home - HC-One,5,0,5,5,2013-10-07,51.661393,-3.887961
482128,Penlan Fish Bar,5,0,0,0,2014-10-07,51.650113,-3.953568
482129,Penlan Social Club,4,5,5,10,2014-01-29,51.648262,-3.95943
482130,Penlan Stores,4,5,5,10,2013-11-04,51.651595,-3.953704
482131,Penllergaer After School Club,5,0,0,5,2012-05-10,51.674317,-4.001327
482132,Penllergaer Primary School,5,5,5,5,2014-11-25,51.674317,-4.001327
482133,Penllergaer Valley Woods Visitor Kiosk,5,0,5,5,2014-04-29,,
482134,Pennard Coffee Shop and Stores,5,5,0,5,2014-03-18,51.567985,-4.087703
482135,Pennard Golf Club,5,5,0,0,2014-02-26,51.572403,-4.093664
482136,Pennard Primary School,5,0,0,0,2014-07-15,51.575748,-4.083022
482137,Penplas Family Centre,5,0,0,5,2014-08-14,51.65321,-3.971657
482138,Pentrechwyth Primary School,5,5,0,0,2014-11-27,51.639342,-3.920776
482139,Pentrehafod Comprehensive School,5,5,0,5,2014-12-10,51.637908,-3.941251
482140,Pentre'r Graig Primary School,5,5,0,5,2014-12-16,51.668941,-3.923763
482141,Penybryn Care Home,5,5,0,5,2014-09-18,51.616994,-3.990511
482142,Penybryn Special School,5,5,5,5,2013-12-10,51.661227,-3.935698
482143,Penyfro Primary School,5,0,0,0,2010-12-08,51.625003,-4.043539
482144,Penygraig General Store,4,10,0,10,2011-08-12,51.626627,-3.960462
482145,Penyrheol Comprehensive School,5,0,0,0,2014-12-03,51.675295,-4.042201
482146,Penyrheol Primary School,5,5,0,5,2013-10-09,51.677812,-4.044281
482147,Pepinos Pizza,4,10,5,5,2014-07-23,51.643401,-3.962992
482148,Pepinos Pizza,3,5,10,10,2014-06-19,51.667973,-4.035046
482149,Peppermint Kitchen Bar & Lounge,4,10,5,5,2014-01-29,51.619606,-3.940339
482150,Perriswood Catering,5,0,0,5,2011-02-18,51.577305,-4.161998
482151,Peru Coffee Bar,3,10,5,10,2014-01-13,51.665636,-3.92572
482152,Phoenix Cafe and Nursery,5,5,0,5,2014-05-19,51.626118,-3.967216
482153,Phool Koli,5,5,5,5,2014-09-12,51.70096,-3.897987
482154,Pilot Inn,5,0,0,0,2015-01-16,51.571395,-3.987739
482155,Pipehouse Wharf Canteen,4,10,0,0,2014-01-07,,
482156,Pipkins Day Nursery,5,0,0,5,2012-07-12,51.618067,-4.018207
482157,Pitcher and Piano,3,10,10,5,2014-01-08,51.619312,-3.940717
482158,Pitter Patter After School Club,5,0,0,5,2014-03-13,51.713067,-4.032626
482159,Pitter Patter Day Nursery Ltd,5,5,0,0,2014-01-23,51.714353,-4.038344
482160,Pitton Cross Caravan Site Shop,5,0,5,5,2011-06-29,51.567093,-4.269362
482161,Pizza Express,5,0,5,0,2013-11-11,51.620878,-3.941723
482162,Pizza Giorgio,5,5,5,5,2014-11-25,51.646279,-3.972613
482163,Pizza Hut,5,5,5,0,2014-09-24,51.6434,-3.929952
482164,Pizza Hut Delivery,5,5,0,0,2014-10-14,51.617753,-3.953348
482165,Pizza Hut Delivery,5,5,5,5,2014-12-17,51.636842,-3.937751
482166,Pizza Milano,4,10,5,5,2014-02-26,51.618278,-3.98424
482167,Pizza Napoli,3,10,5,10,2014-10-08,51.616175,-3.95848
482168,Pizza Primo and Frankies Chip Shop,1,10,10,20,2014-10-22,51.617939,-3.966443
482169,Pizza Venice,4,10,5,5,2014-01-14,51.616614,-3.955899
482170,Pizzatorium,4,5,10,5,2014-01-08,51.619857,-3.940899
482171,Pizzeria Vesuvio,5,5,5,0,2013-10-03,51.641189,-3.938081
482172,Plantasia,4,5,5,10,2014-12-11,51.621763,-3.938741
482173,Plantos Bach,5,0,0,5,2014-05-14,51.65323,-3.971542
482174,Plantos Bach Pontybrenin,4,10,5,5,2013-11-19,51.662308,-4.041761
482175,Plas Newydd Nursing Home,5,0,0,5,2014-01-15,51.652667,-3.9471
482176,Plasmarl Primary School,5,5,0,5,2014-09-29,51.649219,-3.934261
482177,Playzone,5,5,0,0,2014-06-27,51.659284,-3.910486
482178,Plough and Harrow,5,0,5,5,2014-11-13,51.58084,-4.044096
482179,Plough and Harrow,4,5,10,5,2013-11-12,51.671368,-3.958084
482180,Plough and Harrow,0,20,15,30,2014-11-24,51.639607,-3.944546
482181,Pompeii Pizza,3,10,10,10,2015-01-06,51.669025,-4.039706
482182,Pontarddulais Comprehensive School,5,0,5,5,2014-03-20,51.717398,-4.033877
482183,Pontarddulais RFC,5,5,5,5,2014-02-26,51.713242,-4.035543
482184,Pontardulais Primary School,4,10,0,0,2014-12-04,51.712426,-4.031758
482185,Pontardulais Service Station,5,0,0,5,2015-01-05,51.715714,-4.044398
482186,Pontlliw Primary School,5,0,0,5,2011-09-21,51.693224,-4.01051
482187,Pontlliw Village Stores,5,5,5,5,2011-01-14,51.691711,-4.011701
482188,Pontybrenin Primary School,5,0,5,0,2013-12-19,51.6354789734,-4.12053489685
482189,Poppies,5,5,0,5,2014-12-17,51.650781,-3.987163
482190,Porter House,4,0,0,10,2014-12-11,51.663551,-4.060196
482191,Portmead and Blaenymaes Day Centre,3,10,5,10,2011-06-28,51.653399,-3.974845
482192,Portmead Primary School,5,5,0,0,2013-12-09,51.649519,-3.971352
482193,Premier,3,10,10,5,2014-07-17,51.670605,-4.009117
482194,Premier Brynmelyn,3,10,5,10,2014-08-18,51.631814,-3.942696
482195,Premier Food Store,4,10,10,0,2014-07-29,51.663158,-3.944037
482196,Premier Inn,5,5,5,5,2013-12-02,51.618901,-3.938923
482197,Premier Stores,3,5,10,10,2012-03-05,51.674252,-3.926707
482198,PTS Late Stop,4,10,0,10,2015-01-08,51.662508,-3.925631
482199,Pub on the Pond,4,10,0,10,2014-10-14,51.605875,-3.983829
482200,Puddleducks Flying Start,5,5,0,5,2011-06-09,51.649519,-3.971352
482201,Pure Spice,2,10,15,10,2014-07-29,51.632635,-3.948005
482202,Qic Bite,4,5,0,10,2014-02-26,51.695255,-3.894883
482203,Quadrant Cafe,5,0,0,0,2014-06-02,51.626966,-3.941174
482204,Queens Hotel,4,10,5,5,2014-03-11,51.61724,-3.93709
482205,Rachels,5,0,5,5,2011-05-04,51.707281,-3.91465
482206,Raduni Restuarant,4,5,5,10,2014-08-20,51.669025,-4.039706
482207,Rahims Tandoori,5,5,5,5,2015-01-06,51.667973,-4.035046
482208,Rail Gourmet UK Ltd,5,0,0,0,2011-05-23,51.625189,-3.940925
482209,Railmens Club,5,0,0,0,2015-01-19,51.618901,-3.938923
482210,Ralph Williams And Son,5,5,0,5,2014-11-25,51.665636,-3.92572
482211,Ranna Ghor,4,10,5,5,2014-03-11,51.694004,-3.898824
482212,Rasoi,5,5,0,5,2015-01-16,51.70277,-4.015969
482213,Ravenhill Stores,4,10,0,10,2014-12-16,51.64608,-3.979615
482214,Razzbri Restaurant,5,0,0,0,2011-05-26,51.667332,-3.903869
482215,Red Lion,5,5,5,0,2015-01-22,51.668668,-3.922898
482216,Red Sun Chinese Takeaway,4,10,5,5,2013-12-10,51.696337,-3.890775
482217,Reeds Bakery,4,10,5,5,2014-09-10,51.619233,-3.948182
482218,Regent Fish Bar and Cafe,5,5,5,5,2013-11-12,51.665912,-3.923114
482219,Rendezvous,1,15,15,20,2014-02-19,51.618959,-3.941395
482220,Revolution,4,10,0,10,2014-03-05,51.619326,-3.938782
482221,Reynoldston General Store,4,5,5,10,2013-07-19,51.588808,-4.195821
482222,Rhossili Residential Activity Centre,5,0,5,0,2011-03-02,51.569096,-4.276013
482223,Rhyddings Hotel,4,10,0,10,2014-10-28,51.613626,-3.970561
482224,Ripples Ice Cream Parlour,5,5,0,0,2014-11-04,51.575246,-3.998717
482225,Riverside Caravan Park,5,5,5,5,2014-07-29,51.6354789734,-4.12053489685
482226,Riverside Caravan Park Shop,5,5,5,5,2014-07-29,51.6354789734,-4.12053489685
482227,Riverside Fish Bar,3,10,10,10,2014-02-27,51.622331,-3.933204
482228,Robert Street Stores,3,10,10,5,2013-10-23,51.637684,-3.950418
482229,Roberts Butchers,4,10,5,5,2015-01-07,51.641803,-3.94662
482230,Roberts Rolls and Pastries,3,10,10,10,2013-12-03,51.623998,-3.933563
482231,Robins Nest Diner,5,5,5,5,2014-01-31,51.654092,-3.910716
482232,Roma 2000 Fish Bar,5,5,0,5,2014-10-17,51.669025,-4.039706
482233,Roma Fish Bar,5,5,5,5,2014-01-24,51.664696,-3.925478
482234,Roma Fish Bar Townhill,4,0,10,10,2014-09-25,51.626869,-3.972349
482235,Roma Fish Restaurant,5,5,5,5,2014-01-25,51.669209,-4.038427
482236,Rose Cross House,5,5,5,5,2014-09-12,51.643491,-3.960843
482237,Rose Garden Day Nursery,5,0,5,5,2015-01-15,51.619072,-3.9659
482238,Rose Indienne Restuarant,5,5,5,5,2014-07-31,51.616271,-3.956491
482239,Rossi Fish and Chip Shop,5,5,5,0,2015-01-22,51.644895,-3.936924
482240,Rossi Original,4,0,0,10,2014-11-18,51.644895,-3.936924
482241,Rotherstor Cafe,5,5,5,5,2013-11-28,51.569411,-4.006541
482242,Round the Square,5,0,0,5,2014-12-05,51.618067,-4.018207
482243,SA3 Bistro,5,0,0,5,2014-11-11,51.57257,-3.993202
482244,Sabi's,1,15,15,20,2014-09-02,51.617301,-3.954022
482245,Saffron Indian Takeaway,3,10,5,10,2014-08-12,51.620397,-3.951165
482246,Saigon,4,10,5,5,2013-12-19,51.626627,-3.960462
482247,Sainsburys,4,10,0,0,2011-11-01,51.618204,-3.985422
482248,Sainsburys,5,0,0,0,2011-07-25,51.669611,-4.042741
482249,Sainsburys,5,0,0,0,2012-01-06,51.617947,-3.965967
482250,Sainsburys Restaurant,5,5,5,0,2013-09-25,51.620085,-3.935246
482251,Sainsburys Supermarkets Plc,5,0,0,0,2012-04-19,51.620085,-3.935246
482252,SAJ Cross Cafe,1,10,15,20,2014-11-19,51.645485,-3.970599
482253,Salento Ristorante,5,5,0,0,2014-05-01,51.616279,-3.931603
482254,Salvation Army Luncheon Club,5,0,0,0,2014-07-16,51.661807,-3.926714
482255,Sam Pan,4,5,10,5,2013-03-20,51.573184,-3.995668
482256,Samlet Packed Meals,5,5,0,5,2014-06-11,51.661008,-3.904544
482257,Samlet Social Club,4,10,0,5,2013-10-10,51.661008,-3.904544
482258,Sams Cafe and Takeaway,5,5,0,5,2014-11-06,51.615549,-3.956633
482259,Sams Restaurant,3,10,10,10,2014-08-19,51.618799,-3.946704
482260,Sancta Maria Hospital,5,0,0,0,2014-06-02,51.620183,-3.964027
482261,Sandpiper Guest House,4,0,0,10,2011-07-08,51.613919,-3.95301
482262,Sandwich Bar,2,10,15,10,2013-10-23,51.614825,-3.961744
482263,Sandwich Bar,5,5,5,5,2014-01-13,51.619122,-3.945129
482264,Sandys Lunchbox,5,5,5,5,2014-10-27,51.619122,-3.945129
482265,Sanghera Food & Wine,5,0,0,0,2014-01-10,51.654248,-3.953674
482266,Sapore,2,10,15,10,2013-09-06,51.619352,-3.948592
482267,Saunders Sandwiches,5,0,5,0,2014-05-14,51.648262,-3.95943
482268,Savour the Flavour,5,0,0,5,2013-06-04,51.655277,-3.901299
482269,Sea Beach Hotel,5,5,0,5,2014-04-16,51.613919,-3.95301
482270,Sea Garden Chinese Restaurant,5,0,0,0,2014-03-05,51.646929,-4.078248
482271,Sea Haven Hotel,5,5,0,5,2014-08-29,51.613919,-3.95301
482272,Seafarer,5,5,0,5,2013-10-23,51.544814,-4.210229
482273,Seahorse Chinese Takeaway,3,10,5,10,2013-11-19,51.712596,-4.036962
482274,Seahorses Flying Start,5,0,5,5,2014-05-15,51.664054,-3.945275
482275,Seaview Community Primary,5,5,0,0,2014-09-23,51.627859,-3.951832
482276,Segnor Super Softie,5,0,5,5,2013-03-20,51.636984,-3.946544
482277,Seren Fach Day Nursery,5,5,5,5,2014-08-29,51.632336,-3.957327
482278,Seren Retreat,4,0,5,10,2011-03-31,51.609551,-4.08561
482279,Shahi Indian Take Away,3,10,5,10,2014-02-19,51.655663,-3.889197
482280,Shang Restaurant,1,10,15,20,2013-08-23,51.615946,-3.940299
482281,Shanghai Chef,5,5,5,5,2014-03-16,51.654248,-3.953674
482282,Shepherds Country Inn,3,10,5,10,2014-11-28,51.708364,-3.971435
482283,Shepherds Ltd,4,10,0,5,2015-01-12,51.6354789734,-4.12053489685
482284,Sherwoods,5,5,0,5,2014-08-26,51.661956,-3.924219
482285,Ship and Castle,4,10,5,5,2014-03-28,51.663141,-4.076329
482286,Shipa Spice,3,10,10,10,2013-08-28,51.654248,-3.953674
482287,Shiraz,3,5,10,10,2013-09-03,51.571647,-3.989308
482288,Simply Gym & Play,5,0,0,0,2014-05-16,51.65353,-4.039776
482289,Simply Lush,4,5,5,10,2011-10-24,51.663602,-3.925836
482290,Sin City,5,5,0,5,2010-10-06,51.618958,-3.950092
482291,Singleton Day Nursery,5,0,0,5,2014-01-14,51.616286,-3.985064
482292,Singleton Hospital Central Production Unit,5,5,0,5,2014-12-11,51.609223,-3.985275
482293,Singleton Hospital Dining Room & Coffee Shop,5,0,5,5,2013-10-04,51.609223,-3.985275
482294,Sketty Bistro and Cafe,3,10,5,10,2014-02-11,51.618278,-3.98424
482295,Sketty Hall,5,5,0,0,2014-11-05,51.610801,-3.988724
482296,Sketty House,5,5,0,0,2015-01-05,51.619945,-3.999381
482297,Sketty Packed Meals,5,5,5,5,2014-03-20,51.618278,-3.98424
482298,Sketty Park Fish Bar,3,10,10,10,2014-12-01,51.616176,-3.99998
482299,Sketty Primary School,5,0,0,0,2010-12-08,51.625096,-3.996327
482300,Sketty Store,4,5,5,10,2014-05-20,51.618278,-3.98424
482301,Slees Stores,3,10,5,10,2014-11-11,51.647854,-3.934709
482302,Smiths Arms,0,15,20,20,2014-12-05,51.660678,-3.901638
482303,Smugglers Haunt Restaurant,3,10,10,10,2014-09-24,51.544814,-4.210229
482304,Snack Bar,5,5,0,5,2014-10-23,51.6666,-3.910158
482305,Snack Box,5,0,5,0,2014-04-10,51.667973,-4.035046
482306,Southern Fried Chicken,3,10,10,10,2014-11-14,51.668746,-4.03764
482307,Southgate County Club,5,0,0,0,2014-09-11,51.572403,-4.093664
482308,Southview Service Station,5,5,0,0,2014-02-21,51.668112,-4.025464
482309,Spar,4,10,5,0,2014-07-10,51.663301,-4.072866
482310,Spar,5,5,5,0,2014-09-22,51.662595,-3.92523
482311,Spar,4,5,0,10,2013-10-03,51.695941,-3.892452
482312,Spar,4,5,5,10,2013-11-20,51.613482,-3.963579
482313,Spar,4,0,0,10,2014-11-28,51.641803,-3.94662
482314,Spar,4,10,0,0,2014-11-11,51.643401,-3.962992
482315,Spar,4,0,0,10,2012-03-08,51.612265,-3.97394
482316,Spar,5,5,5,5,2011-06-09,51.619005,-3.950527
482317,Spar,5,0,0,5,2012-01-18,51.669209,-4.038427
482318,Spar,5,5,0,5,2011-09-06,51.632635,-3.948005
482319,Spar,5,5,0,0,2013-11-21,51.670244,-3.939119
482320,Spice Hut,4,10,5,5,2014-09-30,51.695091,-3.895585
482321,Spring Garden,5,5,5,5,2013-08-21,51.640737,-3.951763
482322,Squiggles Day Nursery,5,5,0,0,2014-10-23,51.575748,-4.083022
482323,St George Hotel,5,5,5,5,2014-11-18,51.619427,-3.955442
482324,St Helen's Primary School,5,0,0,5,2011-09-20,51.615287,-3.954022
482325,St Illtyds Roman Catholic School,5,5,0,0,2014-12-09,51.64071,-3.915775
482326,St James Residential Home,4,5,10,5,2013-10-28,51.619618,-3.961792
482327,St Johns Day Centre,5,0,5,5,2015-01-19,51.637757,-3.953051
482328,St Johns House Residential Home,5,5,0,0,2014-12-09,51.637757,-3.953051
482329,St Josephs Infants & Junior School,5,5,0,5,2013-10-22,51.63189,-3.944664
482330,St Josephs R C School,3,10,10,5,2014-03-11,51.696942,-3.881105
482331,St Martins Care Home - HC-One,5,5,0,5,2014-02-25,51.659895,-3.924826
482332,St Marys Church Cafe,5,5,5,5,2014-12-16,51.619015,-3.9429
482333,St Marys Luncheon Club,5,0,0,5,2014-12-10,51.619015,-3.9429
482334,St Pauls Lunch Club,5,5,0,5,2014-11-07,51.616623,-3.986942
482335,St Thomas After School Club,5,5,0,0,2014-05-01,51.624068,-3.924927
482336,St Thomas Community Primary School,5,0,0,0,2011-09-20,51.624068,-3.924927
482337,St. Madoc Christian Youth Camp,5,5,0,5,2014-07-02,51.617203,-4.255335
482338,Star Kebab House,0,15,20,30,2014-10-08,51.626627,-3.960462
482339,Starbucks,5,0,5,5,2014-05-28,51.6202,-3.923925
482340,Starbucks Coffee Company,5,0,5,0,2010-12-02,51.6434,-3.929952
482341,Starvin Jacks,5,0,0,5,2013-10-08,51.62025,-3.945438
482342,Starvin Jacks Ltd,5,5,0,5,2013-10-07,51.650742,-3.921503
482343,Station Hotel,5,5,0,0,2011-07-20,51.667973,-4.035046
482344,Station House Nursery,5,5,0,5,2014-11-06,51.688981,-3.877896
482345,Station Inn,3,10,5,10,2013-09-17,51.642325,-3.940095
482346,Steak By Night,5,5,0,0,2011-03-28,51.620963,-3.947433
482347,Steam Coffee and Tea Room,3,10,10,10,2014-04-14,51.618288,-3.9676
482348,Stella Maris Convent,4,0,10,5,2014-02-17,51.616591,-3.962109
482349,Stuarts Hot Bread Shop,2,15,10,10,2014-01-17,51.618067,-4.018207
482350,Students Union Day Nursery,4,5,5,10,2011-03-22,51.609625,-3.980642
482351,Subway,5,0,0,0,2013-09-20,51.664659,-3.926055
482352,Subway,5,5,0,0,2013-12-06,51.618417,-3.966897
482353,Subway,4,10,5,0,2013-11-28,51.619005,-3.950527
482354,Subway,5,0,5,5,2015-01-08,51.669202,-4.040929
482355,Subway,5,5,0,0,2015-01-21,51.620105,-3.946573
482356,Subway,5,5,5,5,2013-08-27,51.661932,-3.888012
482357,Subway,5,5,0,0,2011-09-22,51.641116,-3.977997
482358,Sunbeams After School Care,5,0,0,5,2011-12-01,51.671103,-4.039698
482359,Sunnyside Up,1,10,20,20,2014-08-18,,
482360,Superstar Chinese Takeaway,5,5,5,5,2014-08-12,51.620939,-3.948327
482361,Surfside Cafe,5,5,0,5,2014-01-20,,
482362,Surfside Cafe,4,5,10,5,2014-06-03,51.575678,-4.045135
482363,Surma Restaurant,3,10,10,10,2014-11-19,51.618249,-3.952214
482364,Swansea Airport Cafe,4,0,0,10,2014-02-13,51.60259,-4.067846
482365,Swansea and District Pony Club Field,4,0,5,10,2013-08-06,51.5638771057,-4.06376600266
482366,Swansea Bail Hostel,4,10,5,5,2013-09-03,51.624222,-3.940667
482367,Swansea Brewing Company,4,5,0,10,2012-06-28,51.583405,-4.052208
482368,Swansea Central Fire Station,4,5,5,10,2011-03-07,51.622918,-3.941246
482369,Swansea Centre for Deaf People,5,0,0,0,2014-02-25,51.634645,-3.938496
482370,Swansea Childrens Centre  After School Club,4,5,0,10,2013-03-20,51.645109,-3.965133
482371,Swansea Community Farm,5,0,5,5,2014-01-08,51.650781,-3.987163
482372,Swansea Cyrenians,5,0,0,0,2010-12-02,51.615609,-3.947637
482373,Swansea Dockers Club,5,5,5,0,2014-03-05,51.62272,-3.931429
482374,Swansea Food Centre,3,5,10,10,2011-07-12,51.622926,-3.941839
482375,Swansea Foodbank Mumbles Outlet,5,0,0,0,2013-03-18,51.57257,-3.993202
482376,Swansea Fresh Fish Ltd,4,5,0,10,2013-08-13,51.615865,-3.934864
482377,Swansea Kebab House,3,10,10,10,2014-07-24,51.619606,-3.940339
482378,Swansea Kebab House,3,10,10,10,2014-09-16,51.625707,-3.941683
482379,Swansea Lawn Tennis Squash Racquet,4,10,0,10,2013-09-26,51.607774,-3.991726
482380,Swansea Mail Centre,5,0,5,5,2014-06-10,51.647966,-3.924046
482381,Swansea Masonic Hall Co Ltd,1,15,15,20,2014-12-01,51.618004,-3.953936
482382,Swansea Oriental,3,10,10,10,2014-02-19,51.616338,-3.959498
482383,Swansea Rugby Club,5,5,5,0,2013-09-27,51.613208,-3.967033
482384,Swansea Uplands RFC,5,5,5,5,2014-02-15,51.611432,-4.044619
482385,Swansea Yacht and Sub Aqua Club,5,5,5,5,2014-12-16,51.618382,-3.935491
482386,Swistuns Seafoods,4,5,5,10,2014-01-29,51.619122,-3.945129
482387,Swn Y Gan Nursing Home,5,5,5,5,2014-09-16,51.641304,-4.109253
482388,Swnsea Gorseinon Foodbank,5,0,0,0,2014-03-06,51.668163,-4.039147
482389,Symons Caterers,5,0,0,5,2014-11-07,51.667686,-4.052068
482390,T and G Davies,5,5,5,5,2013-12-03,51.58057,-4.001346
482391,Tafarn Y Trap,4,10,0,5,2014-12-02,51.66089,-4.037953
482392,Talycoppa Primary School,5,5,0,5,2014-06-11,51.656982,-3.885464
482393,Tandoori Spice,2,15,15,10,2014-03-12,51.643279,-3.973437
482394,Tapestri,5,5,0,0,2013-01-15,51.623476,-3.943394
482395,Taste of Sicily,5,5,5,5,2014-02-05,51.665948,-3.923116
482396,Tasty Cantonese Takeaway,3,10,10,10,2014-06-04,51.623993,-3.951261
482397,Tasty House,3,10,10,10,2014-02-05,51.662508,-3.925631
482398,Taybarns,5,5,5,0,2013-07-05,51.66503,-3.912738
482399,Taylor Made 4 You,5,0,0,0,2011-07-14,51.659196,-3.923625
482400,Taylors,2,15,10,10,2014-04-04,51.61601,-3.957606
482401,Tea Rooms,5,5,5,5,2014-09-22,51.6999,-4.022354
482402,Terrace Restaurant,5,0,0,5,2011-07-21,51.61723,-3.995679
482403,Terrace Road Primary,5,5,0,0,2010-10-19,51.623448,-3.954821
482404,Tesco,5,5,0,5,2013-11-04,51.616564,-3.943749
482405,Tesco Cafe,5,5,5,0,2014-07-01,51.616564,-3.943749
482406,Tesco Express,5,0,0,0,2010-11-15,51.64937,-4.046803
482407,Tesco Express,5,0,0,0,2011-09-27,51.6202,-3.923925
482408,Tesco Express,5,0,0,0,2011-07-19,51.618129,-3.952367
482409,Tesco Extra,4,10,0,10,2014-03-25,51.650781,-3.987163
482410,Tesco Extra,4,5,10,5,2013-07-08,51.659765,-3.902482
482411,Tesco Extra Coffee Shop,5,5,0,0,2011-01-25,51.659765,-3.902482
482412,Tesco Stores Ltd,5,0,0,0,2014-03-11,51.71416,-4.042186
482413,TGI Fridays,5,5,5,5,2013-11-29,51.618901,-3.938923
482414,Thai Elephant,4,5,5,10,2014-09-10,51.619761,-3.932011
482415,Thai Kitchen,4,5,10,5,2013-12-04,51.669202,-4.040929
482416,Thai Taste,5,5,5,5,2014-07-02,51.619122,-3.945129
482417,The Azad Tandoori Takeaway,5,5,0,5,2015-01-15,51.641189,-3.938081
482418,The Baby Bug Day Nursery,4,5,5,10,2014-08-14,51.645716,-4.034034
482419,The Bacon Stall,5,0,5,5,2014-10-09,51.619122,-3.945129
482420,The Bakery House,4,10,5,5,2014-04-14,51.621779,-3.947034
482421,The Bay Bistro and Coffee House,5,0,5,5,2014-07-02,51.568927,-4.283321
482422,The Bay View,1,10,0,20,2015-01-07,51.612959,-3.957172
482423,The Bistro,5,5,0,0,2014-12-09,51.623075,-3.991977
482424,The Bowen Arms,0,20,15,20,2014-07-18,51.660687,-3.873126
482425,The Bridgend Inn,5,5,5,5,2013-05-14,51.670239,-3.872956
482426,The Brynymor Hotel,5,5,0,0,2011-02-21,51.616432,-3.958159
482427,The Buck Inn,3,10,10,10,2014-06-24,51.688254,-4.012966
482428,The Butchers,4,0,5,10,2014-11-28,51.695941,-3.892452
482429,The Chattery,4,5,5,10,2013-11-07,51.618091,-3.967013
482430,The Childrens Room,5,0,0,0,2014-03-13,51.619618,-3.961792
482431,The Coal House,5,5,5,5,2014-02-21,51.558324,-4.169147
482432,The Coffee Denn,5,5,0,0,2015-01-29,51.575624,-4.000263
482433,The Collier Arms Swansea Ltd,3,5,10,10,2013-10-15,51.652316,-3.906001
482434,The Commercial Inn,5,5,5,0,2014-07-11,51.617447,-4.018757
482435,The Contented Sole,4,10,5,5,2014-03-20,51.647945,-4.038239
482436,The Co-operative Food,5,5,0,5,2013-08-06,51.617926,-3.946205
482437,The Corner Shop,4,5,10,0,2013-11-08,51.717306,-4.031397
482438,The Crepe Vine Limited,5,0,0,5,2012-04-17,51.619423,-3.944319
482439,The Crescent,5,0,0,5,2013-03-05,51.616591,-3.962109
482440,The Cricketers,3,10,10,5,2013-12-06,51.614385,-3.964426
482441,The Curry Centre,3,10,10,10,2014-07-31,51.636086,-3.951347
482442,The Cwtch,4,5,5,10,2014-04-25,51.618359,-3.943378
482443,The Deers Leap,5,5,0,5,2013-10-10,51.679194,-3.927496
482444,The Dillwyn Arms,0,20,15,20,2014-08-05,51.644286,-3.94492
482445,The Diner,5,5,5,5,2014-11-11,51.609625,-3.980642
482446,The Donut Den,5,0,0,5,2014-04-08,51.619122,-3.945129
482447,The Donut Shop,5,0,0,0,2011-05-13,51.621522,-3.939728
482448,The Dragon Hotel,4,10,5,0,2013-08-09,51.621646,-3.944717
482449,The Dunvant,5,5,5,0,2014-10-13,51.623542,-4.028766
482450,The Eagle Inn,4,10,5,5,2014-10-14,51.657631,-3.9498
482451,The Emperor,3,10,10,5,2013-09-12,51.624064,-3.941555
482452,The Emporium,5,5,0,5,2014-02-03,51.584484,-4.01591
482453,The Favourite Cafe and Restaurant,4,10,0,0,2014-02-04,51.616175,-3.95848
482454,The Fendrod,5,5,5,0,2013-10-01,51.660651,-3.908837
482455,The Flowers Day Nursery,5,0,0,0,2013-12-03,51.617407,-3.955254
482456,The Front Room,5,5,5,0,2014-03-06,51.57257,-3.993202
482457,The George,5,5,0,0,2014-09-08,51.571647,-3.989308
482458,The Gleesy Spoon,5,5,0,0,2014-11-10,51.667015,-3.924969
482459,The Globe Inn,4,5,0,10,2014-02-25,51.688981,-3.877896
482460,The Gower Butcher,4,0,5,10,2011-03-15,51.62025,-3.945438
482461,The Gower Grill,5,0,5,0,2014-04-25,51.635377,-3.965796
482462,The Gower Kitchen,4,10,5,0,2014-07-22,51.617947,-3.965967
482463,The Granary,5,0,0,5,2012-05-08,51.568098,-4.218242
482464,The Halfway,4,0,5,10,2013-01-30,51.650212,-3.894348
482465,The Hanbury,5,0,0,0,2011-02-23,51.620967,-3.9445
482466,The Hollies Home For Aged,5,5,0,5,2014-01-25,51.715651,-4.035579
482467,The Hot Dog House,5,0,5,5,2013-07-05,51.619312,-3.940717
482468,The Hub,1,5,10,20,2013-07-16,51.620473,-3.933009
482469,The Jolly Frier,4,10,0,10,2014-01-15,51.659562,-4.030548
482470,The King Hotel,3,10,5,10,2014-01-14,51.711652,-4.035414
482471,The Kings Head Hotel,4,10,10,0,2014-11-25,51.651774,-3.948334
482472,The Kingshead Hotel,4,5,5,10,2014-12-09,51.600296,-4.269804
482473,The Kitchen Table,4,5,5,10,2014-11-27,51.57257,-3.993202
482474,The Lewis Jones,4,5,5,10,2014-01-28,51.668712,-4.04014
482475,The Lliw Cafe & Fishery,5,0,0,0,2014-02-27,51.706654,-3.972605
482476,The Mad Cow,5,0,0,5,2013-04-25,51.621209,-3.941824
482477,The Mansion House,4,10,5,5,2014-07-15,51.621648,-3.959742
482478,The Market Cafe,5,0,0,0,2014-09-09,51.669025,-4.039706
482479,The Market Chippy,4,0,10,10,2014-02-27,51.619122,-3.945129
482480,The Market Plaice,5,5,5,0,2012-11-23,51.619122,-3.945129
482481,The Mill,4,10,0,10,2012-01-24,51.616338,-3.959498
482482,The Mill House,5,5,0,5,2011-06-07,51.665635,-3.926298
482483,The Mumbles Pate Company,5,0,0,0,2014-01-17,51.57257,-3.993202
482484,The New Globe Inn,5,0,0,5,2012-01-19,51.641811,-3.941793
482485,The Office,5,5,5,5,2012-03-26,51.620649,-3.942522
482486,The Old Glais Inn,5,5,5,0,2013-11-20,51.688981,-3.877896
482487,The Old Inn,4,10,0,10,2014-06-24,51.671087,-3.999839
482488,The Old Mill Health Store,4,0,0,10,2011-08-15,51.668746,-4.03764
482489,The Old Prince Inn,4,0,0,10,2014-04-29,51.662497,-3.929028
482490,The Owl and Parrot Cafe,5,5,5,5,2014-02-03,51.626885,-3.94169
482491,The Parish Pantry,5,5,0,0,2014-05-14,51.638447,-4.130032
482492,The Pinewood Fillin Station,4,10,10,0,2014-04-08,51.670244,-3.939119
482493,The Potters Wheel,5,0,0,0,2014-10-16,51.619583,-3.948775
482494,The Poundffald Inn,3,10,10,10,2014-11-20,51.629239,-4.072208
482495,The Prime Cut,4,10,5,5,2014-03-12,51.618067,-4.018207
482496,The Pumphouse,4,10,5,0,2015-01-07,51.616723,-3.936807
482497,The Purple Badger,5,5,0,5,2014-06-19,51.6354789734,-4.12053489685
482498,The Range,5,5,0,5,2014-10-14,51.618278,-3.98424
482499,The Raspberry Cakery,5,5,0,5,2014-04-03,,
482500,The Red Cafe,5,0,0,5,2014-11-18,51.57257,-3.993202
482501,The Reverend James,4,10,0,10,2014-07-01,51.667292,-4.063779
482502,The Riverside Inn Grillhouse and Restaurant,4,10,5,0,2014-07-10,51.667973,-4.035046
482503,The Salvation Army,5,0,5,5,2014-12-10,51.615939,-3.95158
482504,The Sandwich Box,5,5,5,5,2013-11-11,51.625531,-3.959331
482505,The Sherries,4,10,5,5,2014-02-28,51.650113,-3.953568
482506,The Ship Inn,3,10,10,5,2014-04-15,51.623998,-3.933563
482507,The Ship Inn,4,10,0,10,2014-12-05,51.544814,-4.210229
482508,The Shoreline Hotel,5,0,0,5,2014-11-10,51.57257,-3.993202
482509,The Skelp,1,10,5,20,2013-10-17,51.664696,-3.925478
482510,The Sketty Club,5,0,0,5,2014-10-23,51.618278,-3.98424
482511,The Smiths Arms,3,10,10,10,2013-11-29,51.633093,-3.938777
482512,The Smoke Haus,4,5,10,5,2013-07-10,51.618901,-3.938923
482513,The Snow Lodge,4,10,5,5,2014-04-29,51.619804,-3.941951
482514,The Swan Inn,4,10,5,5,2014-05-09,51.659402,-3.924733
482515,The Swansea City Mission,5,5,5,5,2014-02-03,51.576668,-4.139366
482516,The Tenby,5,5,5,5,2011-08-23,51.620015,-3.955207
482517,The Valley,4,5,5,10,2013-12-10,51.583405,-4.052208
482518,The Venue,5,0,0,0,2012-12-10,51.609625,-3.980642
482519,The Village Inn,5,0,0,5,2015-01-16,51.573184,-3.995668
482520,The Village Shop,5,0,0,0,2015-01-27,51.566058,-4.218172
482521,The Village Tavern,4,10,0,10,2014-08-20,51.695941,-3.892452
482522,The Waterfront Beefeater,5,0,0,0,2011-06-16,51.620062,-3.919672
482523,The Waterloo,4,5,5,10,2014-06-06,51.57284,-3.995306
482524,The Wern Inn,4,5,0,10,2014-08-26,51.644161,-3.941056
482525,The West Cross Inn,4,5,5,10,2014-11-11,51.584869,-4.001275
482526,The Westbourne,5,5,0,0,2011-09-01,51.616432,-3.958159
482527,The White Rose,5,5,0,0,2014-09-30,51.575577,-3.999337
482528,The White Swan,5,5,0,5,2014-01-23,51.626885,-3.94169
482529,The Wig,2,10,15,10,2013-10-22,51.615466,-3.957829
482530,The Woodman,5,0,0,0,2014-01-14,51.596934,-3.99564
482531,The World of Play 2007 Ltd,5,0,0,0,2013-09-24,51.635787,-3.970886
482532,The Wright Burger,4,5,5,10,2014-04-24,,
482533,Theos Coffee Shop,5,5,5,0,2013-11-18,51.574464,-3.998177
482534,Thomas Of Morriston,5,0,0,5,2014-12-09,51.667015,-3.924969
482535,Three Cliffs Bay Caravan Park,5,5,0,5,2014-09-23,51.577581,-4.116764
482536,Three Cliffs Care Home,5,5,0,0,2015-01-12,51.577985,-4.123811
482537,Three Sisters,5,5,5,0,2013-10-18,51.635604,-3.952236
482538,Tiamo,5,5,5,0,2014-06-11,51.69909,-3.897967
482539,Tiffanys Sweetie Jar,4,10,5,5,2011-09-27,51.619122,-3.945129
482540,Timet UK Ltd,4,10,5,5,2014-02-17,51.649417,-3.996023
482541,Tiny Tots,4,5,0,10,2014-04-30,51.617167,-3.968519
482542,Tircoed Village Stores,4,0,0,10,2012-06-14,51.681355,-3.991453
482543,Toby Carvery,5,5,0,0,2014-10-09,51.620066,-4.002882
482544,Toby Carvery,5,5,0,0,2014-10-03,51.668916,-4.035652
482545,Tonys Off Sales,5,5,0,5,2014-07-21,51.667792,-3.872479
482546,Top Pizza,5,0,0,5,2015-01-29,51.647673,-4.038371
482547,Topic House,5,0,0,5,2014-09-26,51.627474,-3.956612
482548,Topo Gigio,5,0,0,5,2014-09-16,51.617062,-3.954907
482549,Touchline Cafe,4,5,5,10,2013-02-17,51.674466,-3.925212
482550,Townhill Newsagents,3,10,5,10,2014-08-12,51.625531,-3.959331
482551,Townhill Primary School,5,5,0,0,2014-11-28,51.627731,-3.963818
482552,Tracs Care 2006,5,0,0,5,2012-03-14,51.670239,-3.872956
482553,Trallwn Community Centre,5,0,0,0,2011-09-09,51.659607,-3.891082
482554,Trallwn Post Office and Shop,5,5,0,0,2014-08-14,51.653283,-3.889575
482555,Trallwn Primary School,4,10,0,0,2013-12-16,51.657289,-3.893776
482556,Trams Diner,4,10,0,0,2014-09-04,51.58057,-4.001346
482557,Travellers Well Inn,4,5,5,10,2011-03-18,51.635643,-3.961761
482558,Travelodge,5,5,0,0,2012-06-26,51.618156,-3.941534
482559,Tre Uchaf Kids Club,5,0,0,5,2010-11-22,51.665614,-4.059986
482560,Tre Uchaf Primary School,5,0,5,0,2014-01-10,51.665614,-4.059986
482561,Treasure,4,10,5,5,2014-10-07,51.575422,-3.999965
482562,Treasure Island Cantonese,2,15,10,10,2014-02-26,51.673495,-4.054645
482563,Treboeth Stop and Shop,3,10,10,5,2013-11-18,51.654017,-3.948647
482564,Tredegar Arms,5,5,0,5,2012-03-29,51.613858,-3.955029
482565,Tree Tops Country Club,5,5,5,5,2013-07-19,51.664093,-3.947807
482566,Treforys Tiny Tots,5,0,0,5,2014-06-17,51.656243,-3.908956
482567,Trehafod Day Unit,5,5,0,0,2011-07-19,51.62818,-3.988964
482568,Trenchers,1,10,10,20,2014-11-24,51.618494,-3.945016
482569,Truffle,5,5,5,0,2014-10-29,51.616079,-3.960469
482570,Truly Scrumptious,3,10,10,10,2014-04-25,51.637588,-3.961585
482571,Trusting Hands Day Nursery,5,0,0,0,2013-12-12,51.666167,-4.037553
482572,TSA Foods,4,5,5,10,2014-01-28,51.626966,-3.941174
482573,Tuckers Swansea Ltd,5,0,5,5,2013-11-21,51.619122,-3.945129
482574,Tudor Court Hotel and Restaurant,4,5,5,10,2014-07-22,51.61341,-3.954981
482575,Tudors News,2,15,5,10,2013-11-21,51.670244,-3.939119
482576,Tumbling Monkeys Sweet Creations,4,10,0,5,2014-03-13,51.714023,-4.04024
482577,Turkish Best Kebab,4,5,10,5,2013-10-23,51.660678,-3.901638
482578,Turkish Patisserie,4,5,0,10,2014-04-24,51.618828,-3.948222
482579,Twizzle Lodge Day Nursery,5,0,0,5,2014-01-20,51.618801,-3.971869
482580,Ty Croeso,5,0,0,0,2014-04-15,51.695941,-3.892452
482581,Ty Fforest Community House,5,5,0,5,2015-01-23,51.646694,-3.977315
482582,Ty Garngoch,5,0,0,5,2014-02-12,51.658709,-4.011121
482583,Ty Glais Childrens Home,5,0,0,5,2014-04-10,51.675777,-4.051133
482584,Ty Junction,4,10,0,10,2014-10-07,51.573955,-4.001084
482585,Ty Rhian,5,5,5,5,2012-03-29,51.62302,-3.945917
482586,Ty Siriol,5,5,0,5,2013-03-08,51.698757,-4.041637
482587,Ty Victoria Nursing Home,5,5,0,5,2014-02-05,51.640172,-4.02127
482588,Ty Waunarlwydd,5,0,0,0,2014-11-17,51.640959,-4.020004
482589,Uplands Diner,5,5,0,5,2014-10-16,51.61816,-3.967219
482590,Uplands Kebab House,1,15,15,20,2014-12-02,51.617939,-3.966443
482591,Vanilla Pod,5,5,0,5,2014-09-24,51.622387,-3.98377
482592,Vardre RFC,5,5,5,5,2013-11-23,51.694884,-3.896676
482593,Varsity Stores,5,5,0,0,2014-08-11,51.616175,-3.95848
482594,Vees Cafe,4,5,0,10,2014-09-16,51.622098,-3.922229
482595,Verdis,5,5,5,0,2014-01-17,51.568997,-3.977418
482596,Verona,1,10,10,20,2014-02-05,51.621077,-3.947062
482597,Verve 37,3,10,5,10,2014-03-24,51.617947,-3.965967
482598,Vicarage Road Chippy,1,15,15,20,2014-08-11,51.667046,-3.931304
482599,Vicarage Road Shop,4,10,0,5,2014-10-28,51.665475,-3.931685
482600,Viceroy Of India,4,10,0,10,2014-09-16,51.617062,-3.954907
482601,Victoria Park Kiosk,5,5,0,5,2014-11-24,51.614096,-3.960225
482602,Vietnam Restaurant,3,10,10,10,2014-10-15,51.618417,-3.966897
482603,Village Hotel and Leisure Complex,5,5,0,0,2013-12-11,51.6202,-3.923925
482604,Village Inn,5,5,5,5,2013-09-27,51.618067,-4.018207
482605,Village Stores,5,5,5,5,2013-05-14,51.659562,-4.030548
482606,Virgin Media,5,0,0,0,2010-12-06,51.648756,-3.92632
482607,VIs Corner Shop,4,5,0,10,2014-09-02,51.635611,-3.939881
482608,Vivian Arms,5,5,0,0,2014-02-19,51.618775,-3.98731
482609,Vojon,3,10,10,5,2013-12-12,51.618687,-3.95125
482610,W T Hughes Butchers,5,0,5,0,2013-11-15,51.669209,-4.038427
482611,Walkabout Inn,4,10,0,5,2014-07-07,51.619902,-3.94093
482612,Wasabi,5,5,5,5,2013-09-03,51.617947,-3.965967
482613,Waterstones,5,0,0,0,2014-02-06,51.619332,-3.946525
482614,Waun Wen Chippy,1,10,10,20,2014-02-04,51.632635,-3.948005
482615,Waun Wen Flying Start Nursery,5,5,0,5,2011-06-09,51.63355,-3.945978
482616,Waun Wen Primary School,5,0,0,5,2014-11-10,51.63355,-3.945978
482617,Waunarlwydd Primary School,5,0,0,5,2012-05-03,51.640719,-4.026584
482618,Welcome Inn,3,10,5,10,2014-01-28,51.663024,-3.955338
482619,Welcome To Gower,4,5,5,10,2013-11-22,51.647462,-4.043783
482620,Welsh Government Offices Penlergaer,5,0,0,0,2015-01-13,,
482621,West Cross Chinese Takeaway,5,0,5,5,2014-08-19,51.584484,-4.01591
482622,West Cross Community Centre,4,0,0,10,2010-12-08,51.588459,-4.006977
482623,West Cross Tandoori,4,5,5,10,2014-02-26,51.586698,-4.001067
482624,West End Hotel,5,5,0,5,2012-02-28,51.667991,-4.041236
482625,West End Stores,4,5,5,10,2013-11-12,51.664003,-4.040493
482626,Western House Bed and Breakfast,4,5,5,10,2012-02-29,51.600714,-4.27189
482627,Wheatsheaf Hotel,4,10,0,10,2014-01-08,51.715087,-4.043212
482628,White House Hotel,4,10,5,5,2011-04-12,51.617962,-3.963497
482629,Whitestone Primary School,5,5,0,0,2014-09-29,51.581868,-4.017396
482630,Whittingtons,5,5,0,0,2013-09-10,51.614361,-3.957247
482631,Wild Swan Cantonese Restaurant,5,5,5,5,2013-06-26,51.621969,-3.943185
482632,Wilkinsons Cafe,4,5,10,0,2014-03-21,51.618602,-3.947707
482633,Wiltshire Farm Foods,4,0,0,10,2014-03-12,51.653786,-3.925564
482634,Win Win Cafe,4,10,5,5,2014-03-11,51.6205,-3.950374
482635,Wind Street Stores,4,5,5,10,2014-01-29,51.619055,-3.939377
482636,Windsor Cafe,4,5,5,10,2013-10-14,51.620663,-3.947059
482637,Windsor Lodge Hotel,4,10,0,10,2014-11-25,51.622696,-3.947608
482638,Wishes Day Nursery Ltd,4,10,5,5,2014-06-03,51.670595,-3.905076
482639,Wok and Roll,2,15,10,5,2014-03-19,51.620663,-3.947059
482640,Wok u Like,5,5,5,5,2013-10-24,51.668668,-3.922898
482641,Wonderful Chinese Cuisine,4,10,5,5,2014-01-29,51.634645,-3.938496
482642,Woodlands,5,5,5,0,2014-02-13,51.65685,-3.990957
482643,Woollacotts Butcher,5,0,5,5,2014-03-11,51.573396,-4.014842
482644,World Peace Cafe,5,5,0,5,2011-06-29,51.620621,-3.961503
482645,Worms Head Hotel,4,5,5,10,2014-01-29,51.5694580078,-4.28888845444
482646,Wyevale Garden Centre Cafe,4,10,5,0,2014-01-06,51.650445,-3.920392
482647,Xue Fu Chinese Supermarket,AwaitingInspection,nan,nan,nan,,51.616175,-3.95848
482648,Y Plas Care Home,5,5,0,5,2013-10-21,51.649999,-3.948576
482649,Yacht Club Catering,5,0,0,5,2011-12-07,51.57209,-3.990728
482650,Yallops,2,15,10,10,2013-11-26,51.670239,-3.872956
482651,Yallops Fish Bar,4,10,5,5,2014-07-08,51.573184,-3.995668
482652,Yates Wine Lodge,5,5,5,5,2013-10-29,51.619804,-3.941951
482653,YGG Bryniago,4,10,0,0,2014-12-04,51.713067,-4.032626
482654,YGG Brynymor,5,0,0,5,2011-09-14,51.614028,-3.968542
482655,YGG Brynymor-Clwb Terfyn Dydd,5,0,0,5,2013-02-21,51.614028,-3.968542
482656,YGG Gellionen,5,0,0,0,2013-11-29,51.700746,-3.894519
482657,YGG LLwynderw,5,5,0,0,2014-07-14,51.585339,-4.004313
482658,YGG Lon Las Central Kitchen,4,10,5,5,2014-03-18,51.665221,-3.899283
482659,YGG Pontybrenin,5,0,5,0,2013-12-17,51.662308,-4.041761
482660,YGG Tirdeunaw Primary School,5,5,5,5,2014-11-19,51.658301,-3.954354
482661,YGG Y Login Fach,5,5,0,0,2014-09-09,51.641905,-4.013051
482662,Ynystawe Cricket Club,5,5,5,5,2014-11-28,51.682108,-3.905964
482663,Ynystawe Primary School,3,10,10,10,2014-06-18,51.685495,-3.907264
482664,Yr Hafan Nursing Home,5,5,5,5,2014-10-13,51.711269,-4.033139
482665,Ysgol Crug Glas,5,0,0,5,2012-04-25,51.628463,-3.942524
482666,Ysgol Gyfun Gwyr,5,0,0,5,2013-11-25,51.645905,-4.039188
482667,Ysgol Gyfun Gymraeg Bryntawe,5,5,5,5,2013-10-22,51.651193,-3.959469
482668,Ysgol Gynradd Felindre,5,5,0,5,2011-09-21,51.708364,-3.971435
482669,Ysgol Penybryn Residential Unit,5,0,0,5,2013-07-16,51.661227,-3.935698
482670,Yum - Bake It Easy,2,15,10,5,2013-10-23,51.663006,-3.905003
482671,Yummies Pizza and Kebab,1,10,15,20,2014-03-04,51.646416,-3.907155
482672,Yummy Yummy,4,10,5,5,2014-03-19,51.616614,-3.955899
482673,Zaal,4,10,0,10,2014-08-12,51.617625,-3.987751
482674,Zaika,3,10,10,10,2013-08-14,51.615732,-3.956988
482675,Zam Zam,4,5,5,10,2014-01-30,51.618129,-3.952367
