,addressline1,addressline2,addressline3,addressline4,businessname,businesstype,businesstypeid,confidenceinmanagement,extractdate,fhrsid,hygiene,itemcount,latitude,localauthoritybusinessid,localauthoritycode,localauthorityemailaddress,localauthorityname,localauthoritywebsite,longitude,postcode,ratingdate,ratingkey,ratingvalue,returncode,schemetype,structural
481325,,Mumbles Road,Brynmill,Swansea,360 Beach and Watersports Centre,Restaurant/Cafe/Canteen,1,0,,492474,0,,,152289,568,FoodandSafety@swansea.gov.uk,Swansea,http://www.swansea.gov.uk,,SA2 0AY,2012-12-05,fhrs_5_en-GB,5,,FHRS,5
481326,3663 First For Food Services,Langdon Road,Swansea Docks,Swansea,3663,Distributors/Transporters,7,0,,372154,0,,51.62020000000000,2291,568,FoodandSafety@swansea.gov.uk,Swansea,http://www.swansea.gov.uk,-3.92392500000000,SA1 8QY,2012-04-26,fhrs_5_en-GB,5,,FHRS,0
481327,3M (UK) Plc,Gorseinon Road,Penllergaer,Swansea,3M's Canteen,Restaurant/Cafe/Canteen,1,0,,78449,0,,51.66875900000000,18669,568,FoodandSafety@swansea.gov.uk,Swansea,http://www.swansea.gov.uk,-4.02079300000000,SA4 9GD,2011-05-17,fhrs_5_en-GB,5,,FHRS,5
481328,"Unit 4a, Swansea Market",Oxford Street,City Centre,Swansea,A J Meats,Retailers - other,4613,5,,58922,0,,51.61912200000000,13034,568,FoodandSafety@swansea.gov.uk,Swansea,http://www.swansea.gov.uk,-3.94512900000000,SA1 3PE,2013-11-08,fhrs_5_en-GB,5,,FHRS,5
481329,,128 St Teilo Street,Pontarddulais,Swansea,A Taste Of India,Takeaway/sandwich shop,7844,10,,109218,10,,51.71388000000000,3936,568,FoodandSafety@swansea.gov.uk,Swansea,http://www.swansea.gov.uk,-4.03968300000000,SA4 8RE,2014-02-19,fhrs_3_en-GB,3,,FHRS,10
481330,,42 Sketty Road,Uplands,Swansea,Abacus Day Nursery,Hospitals/Childcare/Caring Premises,5,5,,93272,0,,51.61839400000000,26722,568,FoodandSafety@swansea.gov.uk,Swansea,http://www.swansea.gov.uk,-3.97040700000000,SA2 0LJ,2015-01-05,fhrs_5_en-GB,5,,FHRS,0
481331,,71 Eaton Crescent,Uplands,Swansea,Abbeyfield Society,Hospitals/Childcare/Caring Premises,5,10,,75415,0,,51.61614800000000,17601,568,FoodandSafety@swansea.gov.uk,Swansea,http://www.swansea.gov.uk,-3.96441600000000,SA1 4QP,2011-03-18,fhrs_4_en-GB,4,,FHRS,5
481332,Powell Garages,1093 Carmarthen Road,Fforestfach,Swansea,Abertawe Service Station,Retailers - other,4613,5,,117552,10,,51.64672200000000,4678,568,FoodandSafety@swansea.gov.uk,Swansea,http://www.swansea.gov.uk,-3.98418200000000,SA5 4AN,2014-09-09,fhrs_3_en-GB,3,,FHRS,10
481333,"Unit 43c 43d 43e, Swansea Market",Oxford Street,City Centre,Swansea,Abrahams And Family,Retailers - other,4613,0,,149220,5,,51.61912200000000,955,568,FoodandSafety@swansea.gov.uk,Swansea,http://www.swansea.gov.uk,-3.94512900000000,SA1 3PQ,2014-12-16,fhrs_5_en-GB,5,,FHRS,5
481334,,160 Llanllienwen Road,Ynysforgan,Swansea,Ael Y Bryn Nursing Home,Hospitals/Childcare/Caring Premises,5,10,,149989,0,,51.67772000000000,9701,568,FoodandSafety@swansea.gov.uk,Swansea,http://www.swansea.gov.uk,-3.92639200000000,SA6 6LT,2014-10-06,fhrs_4_en-GB,4,,FHRS,10
481335,,75 High Street,Gorseinon,Swansea,Alberts Cafe,Restaurant/Cafe/Canteen,1,5,,112166,10,,51.66902500000000,4143,568,FoodandSafety@swansea.gov.uk,Swansea,http://www.swansea.gov.uk,-4.03970600000000,SA4 4BP,2013-10-02,fhrs_4_en-GB,4,,FHRS,5
481336,,90 Rheidol Avenue,Clase,Swansea,Aldes Kebab,Takeaway/sandwich shop,7844,5,,634953,5,,51.66315800000000,155140,568,FoodandSafety@swansea.gov.uk,Swansea,http://www.swansea.gov.uk,-3.94403700000000,SA6 7JS,2014-04-09,fhrs_5_en-GB,5,,FHRS,5
481337,Aldi,Millers Drive,Gorseinon,Swansea,Aldi,Retailers - supermarkets/hypermarkets,7840,5,,654795,0,,51.66616700000000,153030,568,FoodandSafety@swansea.gov.uk,Swansea,http://www.swansea.gov.uk,-4.03755300000000,SA4 4QN,2014-04-02,fhrs_5_en-GB,5,,FHRS,0
481338,"Aldi Foodstore Ltd, Parc Cwmdu",Carmarthen Road,Cwmdu,Swansea,Aldi,Retailers - supermarkets/hypermarkets,7840,5,,338695,0,,51.63537700000000,139976,568,FoodandSafety@swansea.gov.uk,Swansea,http://www.swansea.gov.uk,-3.96579600000000,SA5 8LJ,2012-03-28,fhrs_5_en-GB,5,,FHRS,0
481339,,6 Dunvant Square,Dunvant,Swansea,Ali Raj,Takeaway/sandwich shop,7844,0,,60600,10,,51.62532100000000,132366,568,FoodandSafety@swansea.gov.uk,Swansea,http://www.swansea.gov.uk,-4.03406100000000,SA2 7TA,2014-08-05,fhrs_4_en-GB,4,,FHRS,5
481340,Pontardulais Primary School,James Street,Pontarddulais,Swansea,All Seasons Round,School/college/university,7845,5,,59566,0,,51.71242600000000,130954,568,FoodandSafety@swansea.gov.uk,Swansea,http://www.swansea.gov.uk,-4.03175800000000,SA4 8HY,2011-06-15,fhrs_5_en-GB,5,,FHRS,0
481341,"Unichem Plc, Swansea West Industrial Park",Kingsway,Fforestfach,Swansea,Alliance Healthcare,Other catering premises,7841,5,,118669,10,,51.64700200000000,4801,568,FoodandSafety@swansea.gov.uk,Swansea,http://www.swansea.gov.uk,-3.99317000000000,SA5 4HA,2013-11-12,fhrs_4_en-GB,4,,FHRS,0
481342,,10 Bennett Street,Landore,Swansea,Alma Inn,Pub/bar/nightclub,7843,0,,120033,0,,51.64208600000000,491,568,FoodandSafety@swansea.gov.uk,Swansea,http://www.swansea.gov.uk,-3.94093800000000,SA1 2QH,2014-01-07,fhrs_4_en-GB,4,,FHRS,10
481343,Craigfelen Cp School,Woodside Crescent,Clydach,Swansea,Alpha Tots,Hospitals/Childcare/Caring Premises,5,5,,338707,0,,51.69740100000000,23086,568,FoodandSafety@swansea.gov.uk,Swansea,http://www.swansea.gov.uk,-3.90505900000000,SA6 5DP,2012-03-14,fhrs_5_en-GB,5,,FHRS,0
481344,,79-80 St Helens Road,Sandfields,Swansea,Anarkali,Restaurant/Cafe/Canteen,1,5,,57173,5,,51.61573200000000,1290,568,FoodandSafety@swansea.gov.uk,Swansea,http://www.swansea.gov.uk,-3.95698800000000,SA1 4BQ,2014-08-12,fhrs_4_en-GB,4,,FHRS,10
481345,,3-5 Cockle Rotunda,Swansea Market,Swansea,Andrie Swistun,Retailers - other,4613,10,,64908,5,,,145205,568,FoodandSafety@swansea.gov.uk,Swansea,http://www.swansea.gov.uk,,,2014-01-09,fhrs_4_en-GB,4,,FHRS,5
481346,Unit 1,Caswell Beach,Caswell,Swansea,Angelas,Takeaway/sandwich shop,7844,10,,247506,10,,51.57567800000000,3308,568,FoodandSafety@swansea.gov.uk,Swansea,http://www.swansea.gov.uk,-4.04513500000000,SA3 3DD,2013-06-07,fhrs_3_en-GB,3,,FHRS,5
481347,Unit 5,Abernethy Square,Maritime Quarter,Swansea,Annies Marina Cafe,Restaurant/Cafe/Canteen,1,10,,66002,5,,51.61625600000000,148670,568,FoodandSafety@swansea.gov.uk,Swansea,http://www.swansea.gov.uk,-3.93623900000000,SA1 1UH,2014-12-09,fhrs_4_en-GB,4,,FHRS,5
481348,"Unit 3a, Swansea Market",Oxford Street,City Centre,Swansea,Anthony Davies,Retailers - other,4613,20,,247489,15,,51.61912200000000,125520,568,FoodandSafety@swansea.gov.uk,Swansea,http://www.swansea.gov.uk,-3.94512900000000,SA1 3PE,2013-07-08,fhrs_1_en-GB,1,,FHRS,10
481349,April Court Care Home,137-138 St Helens Road,Sandfields,Swansea,April Court Nursing Home,Hospitals/Childcare/Caring Premises,5,5,,147400,5,,51.61740700000000,9183,568,FoodandSafety@swansea.gov.uk,Swansea,http://www.swansea.gov.uk,-3.95525400000000,SA1 4DE,2014-07-09,fhrs_5_en-GB,5,,FHRS,5
481350,,280-282 Oystermouth Road,Swansea,,Arches Guest House,Hotel/bed & breakfast/guest house,7842,5,,50833,0,,51.61391900000000,1134,568,FoodandSafety@swansea.gov.uk,Swansea,http://www.swansea.gov.uk,-3.95301000000000,SA1 3UH,2014-09-15,fhrs_4_en-GB,4,,FHRS,10
481351,,31 Argyle Street,Sandfields,Swansea,Argyle Fish Bar,Takeaway/sandwich shop,7844,5,,49793,5,,51.61569800000000,1106,568,FoodandSafety@swansea.gov.uk,Swansea,http://www.swansea.gov.uk,-3.95253700000000,SA1 3TB,2014-12-03,fhrs_5_en-GB,5,,FHRS,5
481352,Arthur Llewellyn Jenkins,Phoenix Way,Gorseinon,Swansea,Arthur Llewellyn Jenkins,Restaurant/Cafe/Canteen,1,5,,80479,0,,51.66476700000000,19482,568,FoodandSafety@swansea.gov.uk,Swansea,http://www.swansea.gov.uk,-4.01864900000000,SA4 9WF,2011-05-16,fhrs_5_en-GB,5,,FHRS,5
481353,Asda,Heol Y Mynydd,Gorseinon,Swansea,Asda Customer Restaurant,Restaurant/Cafe/Canteen,1,0,,66700,0,,51.66845800000000,149761,568,FoodandSafety@swansea.gov.uk,Swansea,http://www.swansea.gov.uk,-4.03454700000000,SA4 4NZ,2013-04-29,fhrs_5_en-GB,5,,FHRS,5
481354,,Heol Y Mynydd,Gorseinon,Swansea,Asda Stores,Retailers - supermarkets/hypermarkets,7840,0,,65178,0,,51.66932400000000,146040,568,FoodandSafety@swansea.gov.uk,Swansea,http://www.swansea.gov.uk,-4.03698600000000,SA4 4BZ,2011-10-14,fhrs_5_en-GB,5,,FHRS,5
481355,Asda Stores Ltd,Heron Way,Morriston,Swansea,Asda Stores Ltd,Retailers - supermarkets/hypermarkets,7840,0,,219015,0,,51.66373800000000,21914,568,FoodandSafety@swansea.gov.uk,Swansea,http://www.swansea.gov.uk,-3.91255300000000,SA6 8PS,2014-01-31,fhrs_5_en-GB,5,,FHRS,0
481356,,344-346 Swansea Road,Waunarlwydd,Swansea,Ashgrove Care Home,Hospitals/Childcare/Caring Premises,5,5,,64428,0,,51.64162900000000,143164,568,FoodandSafety@swansea.gov.uk,Swansea,http://www.swansea.gov.uk,-4.02704400000000,SA5 4SQ,2015-01-27,fhrs_5_en-GB,5,,FHRS,0
481357,,40 St Helens Road,Swansea,,Asia Market,Retailers - other,4613,10,,63532,5,,51.61730100000000,140110,568,FoodandSafety@swansea.gov.uk,Swansea,http://www.swansea.gov.uk,-3.95402200000000,SA1 4AZ,2014-01-23,fhrs_3_en-GB,3,,FHRS,10
481358,,6 Wind Street,City Centre,Swansea,Ask Restaurant,Restaurant/Cafe/Canteen,1,5,,45326,0,,51.61960600000000,11,568,FoodandSafety@swansea.gov.uk,Swansea,http://www.swansea.gov.uk,-3.94033900000000,SA1 1DF,2014-02-10,fhrs_5_en-GB,5,,FHRS,5
481359,,69 Pontardulais Road,Gorseinon,Swansea,Aspire Day Nursery,Hospitals/Childcare/Caring Premises,5,5,,585570,0,,51.67182500000000,152728,568,FoodandSafety@swansea.gov.uk,Swansea,http://www.swansea.gov.uk,-4.04107600000000,SA4 4FF,2014-08-19,fhrs_5_en-GB,5,,FHRS,5
481360,,22 Mill Street,Gowerton,Swansea,Aunty Ivys Day Nursery,Hospitals/Childcare/Caring Premises,5,5,,81738,0,,51.64923100000000,19979,568,FoodandSafety@swansea.gov.uk,Swansea,http://www.swansea.gov.uk,-4.04186700000000,SA4 3ED,2013-11-06,fhrs_5_en-GB,5,,FHRS,0
481361,,8-14 College Street,City Centre,Swansea,Awa Grill House,Restaurant/Cafe/Canteen,1,5,,732781,10,,51.62145200000000,151246,568,FoodandSafety@swansea.gov.uk,Swansea,http://www.swansea.gov.uk,-3.94283000000000,SA1 5AE,2015-01-08,fhrs_3_en-GB,3,,FHRS,10
481362,Awel Y Mor Nursing Home,Brynafon Road,Gorseinon,Swansea,Awel y Mor Nursing Home,Hospitals/Childcare/Caring Premises,5,0,,149268,0,,51.67349500000000,9565,568,FoodandSafety@swansea.gov.uk,Swansea,http://www.swansea.gov.uk,-4.05464500000000,SA4 4YF,2014-11-17,fhrs_5_en-GB,5,,FHRS,0
481363,,232-234 Swansea Road,Waunarlwydd,Swansea,Azeem General Store,Retailers - other,4613,0,,119985,0,,51.64095900000000,4907,568,FoodandSafety@swansea.gov.uk,Swansea,http://www.swansea.gov.uk,-4.02000400000000,SA5 4SN,2014-04-04,fhrs_5_en-GB,5,,FHRS,5
481364,Aztec Business Centre,Queensway,Fforestfach,Swansea,Aztec Cafe,Restaurant/Cafe/Canteen,1,10,,53691,5,,51.64287900000000,120875,568,FoodandSafety@swansea.gov.uk,Swansea,http://www.swansea.gov.uk,-3.98547400000000,SA5 4DJ,2014-06-24,fhrs_3_en-GB,3,,FHRS,10
481365,,102 Fleet Street,Swansea,,Badminton Hotel,Pub/bar/nightclub,7843,5,,84037,0,,51.61475000000000,20761,568,FoodandSafety@swansea.gov.uk,Swansea,http://www.swansea.gov.uk,-3.95385400000000,SA1 3UT,2011-08-01,fhrs_5_en-GB,5,,FHRS,0
481366,,44 Bernard Street,Brynmill,Swansea,Bakers Basket,Retailers - other,4613,5,,88708,10,,51.61583600000000,2339,568,FoodandSafety@swansea.gov.uk,Swansea,http://www.swansea.gov.uk,-3.96958800000000,SA2 0DT,2014-06-18,fhrs_3_en-GB,3,,FHRS,10
481367,Bako Wales,Gorseinon Road,Gorseinon,Swansea,Bako Wales,Distributors/Transporters,7,0,,218999,5,,51.66827100000000,3745,568,FoodandSafety@swansea.gov.uk,Swansea,http://www.swansea.gov.uk,-4.02716300000000,SA4 4GG,2012-01-17,fhrs_5_en-GB,5,,FHRS,0
481368,,51-52 Wind Street,City Centre,Swansea,Bambu Beach Bar,Pub/bar/nightclub,7843,5,,641644,0,,51.61917000000000,151739,568,FoodandSafety@swansea.gov.uk,Swansea,http://www.swansea.gov.uk,-3.94006100000000,SA1 1EJ,2014-02-19,fhrs_5_en-GB,5,,FHRS,5
481369,Bank Farm,Horton,Swansea,,Bank Farm Caravan Park,Retailers - other,4613,5,,99780,10,,51.55137100000000,3173,568,FoodandSafety@swansea.gov.uk,Swansea,http://www.swansea.gov.uk,-4.20443100000000,SA3 1LL,2014-03-13,fhrs_4_en-GB,4,,FHRS,5
481370,,143 Alexandra Road,Gorseinon,Swansea,Bar New Lodge Gorseinon Independent Social Club,Pub/bar/nightclub,7843,20,,717446,5,,51.66768600000000,12828,568,FoodandSafety@swansea.gov.uk,Swansea,http://www.swansea.gov.uk,-4.05206800000000,SA4 4PE,2014-11-07,fhrs_1_en-GB,1,,FHRS,10
481371,,127 Walter Road,City Centre,Swansea,Bar Reef,Pub/bar/nightclub,7843,10,,682960,5,,51.62001500000000,155488,568,FoodandSafety@swansea.gov.uk,Swansea,http://www.swansea.gov.uk,-3.95520700000000,SA1 5RG,2014-06-24,fhrs_4_en-GB,4,,FHRS,5
481372,,22 Wind Street,City Centre,Swansea,Bar Twenty Two,Restaurant/Cafe/Canteen,1,0,,65106,0,,51.61938200000000,145879,568,FoodandSafety@swansea.gov.uk,Swansea,http://www.swansea.gov.uk,-3.93916000000000,SA1 1DY,2014-06-25,fhrs_5_en-GB,5,,FHRS,5
481373,,66 High Street,Gorseinon,Swansea,Bargain Booze,Retailers - other,4613,5,,577247,0,,51.66902500000000,153908,568,FoodandSafety@swansea.gov.uk,Swansea,http://www.swansea.gov.uk,-4.03970600000000,SA4 4BP,2013-11-13,fhrs_5_en-GB,5,,FHRS,0
481374,,23 Nelson Street,City Centre,Swansea,Baskin Robbins,Retailers - other,4613,0,,65350,0,,51.61881200000000,146700,568,FoodandSafety@swansea.gov.uk,Swansea,http://www.swansea.gov.uk,-3.94647400000000,SA1 3QE,2014-09-17,fhrs_5_en-GB,5,,FHRS,0
481375,,22 Wind Street,City Centre,Swansea,BBQ Jacks,Restaurant/Cafe/Canteen,1,10,,634957,0,,51.61938200000000,155203,568,FoodandSafety@swansea.gov.uk,Swansea,http://www.swansea.gov.uk,-3.93916000000000,SA1 1DY,2014-02-10,fhrs_4_en-GB,4,,FHRS,10
481376,Tenpin,Parc Tawe,City Centre,Swansea,Beach Road Cafe Bar,Restaurant/Cafe/Canteen,1,5,,148026,5,,51.62150300000000,9207,568,FoodandSafety@swansea.gov.uk,Swansea,http://www.swansea.gov.uk,-3.94031900000000,SA1 2AX,2014-09-11,fhrs_5_en-GB,5,,FHRS,5
481377,,226 Gors Avenue,Townhill,Swansea,Beanos,Takeaway/sandwich shop,7844,10,,551388,5,,51.63145500000000,153506,568,FoodandSafety@swansea.gov.uk,Swansea,http://www.swansea.gov.uk,-3.97234600000000,SA1 6RT,2013-11-06,fhrs_4_en-GB,4,,FHRS,5
481378,,18 Pennard Road,Kittle,Swansea,Beaufort Arms,Pub/bar/nightclub,7843,10,,101853,5,,51.58709500000000,3350,568,FoodandSafety@swansea.gov.uk,Swansea,http://www.swansea.gov.uk,-4.05204300000000,SA3 3JS,2014-07-04,fhrs_3_en-GB,3,,FHRS,10
481379,,46 The Grove,Uplands,Swansea,Belash Takeaway,Takeaway/sandwich shop,7844,10,,135725,10,,51.61884300000000,6960,568,FoodandSafety@swansea.gov.uk,Swansea,http://www.swansea.gov.uk,-3.96723400000000,SA2 0QR,2014-01-23,fhrs_2_en-GB,2,,FHRS,15
481380,,8 Belle Vue Way,City Centre,Swansea,Belle Vue Bistro,Restaurant/Cafe/Canteen,1,0,,634952,0,,51.62206700000000,154796,568,FoodandSafety@swansea.gov.uk,Swansea,http://www.swansea.gov.uk,-3.94428700000000,SA1 5BY,2014-02-06,fhrs_5_en-GB,5,,FHRS,5
481381,Waterside Business Park,Clos Llwyn Cwm,Swansea Enterprise Park,Swansea,Benefit Agency,Other catering premises,7841,0,,55573,0,,51.65236900000000,125354,568,FoodandSafety@swansea.gov.uk,Swansea,http://www.swansea.gov.uk,-3.91931700000000,SA6 8AH,2011-01-04,fhrs_5_en-GB,5,,FHRS,0
481382,,124 Townhill Road,Cockett,Swansea,Bengal Spice,Takeaway/sandwich shop,7844,5,,654786,10,,51.62686900000000,148105,568,FoodandSafety@swansea.gov.uk,Swansea,http://www.swansea.gov.uk,-3.97234900000000,SA2 0UU,2014-06-18,fhrs_4_en-GB,4,,FHRS,5
481383,,70 High Street,City Centre,Swansea,Best Kebabs,Takeaway/sandwich shop,7844,10,,641657,5,,51.62570700000000,155017,568,FoodandSafety@swansea.gov.uk,Swansea,http://www.swansea.gov.uk,-3.94168300000000,SA1 1LN,2015-01-08,fhrs_4_en-GB,4,,FHRS,5
481384,,234 High Street,City Centre,Swansea,Best One,Retailers - other,4613,5,,676501,0,,51.62214900000000,151652,568,FoodandSafety@swansea.gov.uk,Swansea,http://www.swansea.gov.uk,-3.94205200000000,SA1 1NZ,2015-01-20,fhrs_5_en-GB,5,,FHRS,5
481385,,861-863 Llangyfelach Road,Treboeth,Swansea,Best One,Retailers - other,4613,10,,619659,10,,51.65763100000000,154860,568,FoodandSafety@swansea.gov.uk,Swansea,http://www.swansea.gov.uk,-3.94980000000000,SA5 9AU,2013-12-02,fhrs_3_en-GB,3,,FHRS,10
481386,Nicholaston Farm,,Penmaen,Swansea,Beynons Farm and Coffee Shop,Restaurant/Cafe/Canteen,1,0,,62106,0,,51.57666800000000,136948,568,FoodandSafety@swansea.gov.uk,Swansea,http://www.swansea.gov.uk,-4.13936600000000,SA3 2HL,2011-07-15,fhrs_5_en-GB,5,,FHRS,0
481387,,17 Delhi Street,St. Thomas,Swansea,BFC,Takeaway/sandwich shop,7844,10,,539895,5,,51.62272000000000,153283,568,FoodandSafety@swansea.gov.uk,Swansea,http://www.swansea.gov.uk,-3.93142900000000,SA1 8BT,2013-08-19,fhrs_4_en-GB,4,,FHRS,5
481388,Beach Shop 1,,Oxwich,Swansea,Big Shop,Takeaway/sandwich shop,7844,0,,55317,0,,51.55832400000000,124865,568,FoodandSafety@swansea.gov.uk,Swansea,http://www.swansea.gov.uk,-4.16914700000000,SA3 1LS,2014-07-25,fhrs_5_en-GB,5,,FHRS,0
481389,,11 Shoppers Walk,City Centre,Swansea,Billy Bonkers Sweet Shop,Retailers - other,4613,5,,65443,0,,51.61865000000000,147070,568,FoodandSafety@swansea.gov.uk,Swansea,http://www.swansea.gov.uk,-3.94811400000000,SA1 3AY,2011-10-05,fhrs_5_en-GB,5,,FHRS,5
481390,,86 Sterry Road,Gowerton,Swansea,Billy Suttons Coffee Shop,Restaurant/Cafe/Canteen,1,5,,559637,0,,51.64767300000000,152230,568,FoodandSafety@swansea.gov.uk,Swansea,http://www.swansea.gov.uk,-4.03837200000000,SA4 3BW,2014-12-16,fhrs_5_en-GB,5,,FHRS,0
481391,Birchgrove Primary School,Heol Nant Bran,Birchgrove,Swansea,Birchgrove After School Club,School/college/university,7845,0,,665473,0,,51.67046000000000,154699,568,FoodandSafety@swansea.gov.uk,Swansea,http://www.swansea.gov.uk,-3.87830100000000,SA7 9LS,2014-05-15,fhrs_5_en-GB,5,,FHRS,0
481392,Birchgrove Comprehensive School,Birchgrove Road,Birchgrove,Swansea,Birchgrove Comprehensive School,School/college/university,7845,0,,133656,0,,51.67105700000000,6657,568,FoodandSafety@swansea.gov.uk,Swansea,http://www.swansea.gov.uk,-3.87184700000000,SA7 9NB,2014-07-14,fhrs_4_en-GB,4,,FHRS,10
481393,Birchgrove Primary School,Heol Nant Bran,Birchgrove,Swansea,Birchgrove Primary School,School/college/university,7845,0,,80088,0,,51.67046000000000,19342,568,FoodandSafety@swansea.gov.uk,Swansea,http://www.swansea.gov.uk,-3.87830100000000,SA7 9LS,2014-11-04,fhrs_5_en-GB,5,,FHRS,5
481394,Parc Bedw,Heol Dulais,Birchgrove,Swansea,Birchgrove RFC,Pub/bar/nightclub,7843,5,,54813,0,,51.66818600000000,12360,568,FoodandSafety@swansea.gov.uk,Swansea,http://www.swansea.gov.uk,-3.88101300000000,SA7 9LW,2014-01-28,fhrs_5_en-GB,5,,FHRS,5
481395,,31 Lon Gwesyn,Birchgrove,Swansea,Birchgrove Special Needs Centre,Other catering premises,7841,5,,64662,0,,51.66810700000000,14411,568,FoodandSafety@swansea.gov.uk,Swansea,http://www.swansea.gov.uk,-3.87414000000000,SA7 9LD,2011-06-17,fhrs_4_en-GB,4,,FHRS,10
481396,Bishop Gore Comprehensive School,De La Beche Road,Sketty,Swansea,Bishop Gore Comprehensive School,School/college/university,7845,5,,94708,5,,51.61525000000000,2788,568,FoodandSafety@swansea.gov.uk,Swansea,http://www.swansea.gov.uk,-3.98837000000000,SA2 9AP,2014-06-12,fhrs_5_en-GB,5,,FHRS,5
481397,Bishop Vaughan School,Mynydd Garnllwyd Road,Morriston,Swansea,Bishop Vaughan  Roman Catholic School,School/college/university,7845,0,,128430,5,,51.66122700000000,5835,568,FoodandSafety@swansea.gov.uk,Swansea,http://www.swansea.gov.uk,-3.93569800000000,SA6 7QG,2013-06-06,fhrs_4_en-GB,4,,FHRS,10
481398,Bishopston Comprehensive School,The Glebe,Bishopston,Swansea,Bishopston Comprehensive School,School/college/university,7845,0,,84185,0,,51.58472800000000,20858,568,FoodandSafety@swansea.gov.uk,Swansea,http://www.swansea.gov.uk,-4.04802400000000,SA3 3JP,2013-12-10,fhrs_5_en-GB,5,,FHRS,5
481399,Bishopston Primary School,Bishopston Road,Bishopston,Swansea,Bishopston Primary School,School/college/university,7845,0,,101568,0,,51.58217800000000,3327,568,FoodandSafety@swansea.gov.uk,Swansea,http://www.swansea.gov.uk,-4.05189300000000,SA3 3EN,2013-12-10,fhrs_5_en-GB,5,,FHRS,0
481400,,55 Walter Road,City Centre,Swansea,Bizzie Lizzie,Restaurant/Cafe/Canteen,1,5,,74588,5,,51.61882900000000,1723,568,FoodandSafety@swansea.gov.uk,Swansea,http://www.swansea.gov.uk,-3.95839200000000,SA1 5PY,2014-08-07,fhrs_5_en-GB,5,,FHRS,5
481401,Bizzie Lizzies Cafe,Phoenix Way,Gorseinon,Swansea,Bizzie Lizzie Cafe,Restaurant/Cafe/Canteen,1,5,,66663,5,,51.66476700000000,14971,568,FoodandSafety@swansea.gov.uk,Swansea,http://www.swansea.gov.uk,-4.01864900000000,SA4 9WF,2013-11-25,fhrs_5_en-GB,5,,FHRS,0
481402,,444 Gower Road,Killay,Swansea,Black Boy Inn,Pub/bar/nightclub,7843,0,,91658,0,,51.61794300000000,2543,568,FoodandSafety@swansea.gov.uk,Swansea,http://www.swansea.gov.uk,-4.01864900000000,SA2 7AJ,2014-10-15,fhrs_5_en-GB,5,,FHRS,5
481403,Blaenymaes Primary School,Broughton Avenue,Blaenymaes,Swansea,Blaenymaes Primary School,School/college/university,7845,0,,120945,0,,51.65464400000000,4976,568,FoodandSafety@swansea.gov.uk,Swansea,http://www.swansea.gov.uk,-3.97406100000000,SA5 5LW,2014-12-11,fhrs_5_en-GB,5,,FHRS,5
481404,,85 Broughton Avenue,Blaenymaes,Swansea,Blaenymaes Stores,Retailers - other,4613,10,,65621,10,,51.65339900000000,147600,568,FoodandSafety@swansea.gov.uk,Swansea,http://www.swansea.gov.uk,-3.97484500000000,SA5 5LN,2013-12-06,fhrs_3_en-GB,3,,FHRS,5
481405,University Of Wales Swansea,,Sketty,Swansea,Blas,Restaurant/Cafe/Canteen,1,0,,665467,0,,51.60962500000000,154525,568,FoodandSafety@swansea.gov.uk,Swansea,http://www.swansea.gov.uk,-3.98064200000000,SA2 8PP,2014-05-08,fhrs_5_en-GB,5,,FHRS,0
481406,Wales National Pool Swansea,Sketty Lane,Sketty,Swansea,Blas,Restaurant/Cafe/Canteen,1,0,,585567,0,,51.60754500000000,152597,568,FoodandSafety@swansea.gov.uk,Swansea,http://www.swansea.gov.uk,-3.98876900000000,SA2 8QG,2015-01-19,fhrs_5_en-GB,5,,FHRS,0
481407,First Floor And Second Floor,27 Wind Street,City Centre,Swansea,Bloomburger,Restaurant/Cafe/Canteen,1,10,,559635,10,,51.61932600000000,149371,568,FoodandSafety@swansea.gov.uk,Swansea,http://www.swansea.gov.uk,-3.93878200000000,SA1 1DZ,2013-11-11,fhrs_3_en-GB,3,,FHRS,5
481408,,129 Gower Road,Sketty,Swansea,Bloomfield Care Home,Hospitals/Childcare/Caring Premises,5,5,,50196,0,,51.61975500000000,11174,568,FoodandSafety@swansea.gov.uk,Swansea,http://www.swansea.gov.uk,-3.99155700000000,SA2 9HS,2014-02-06,fhrs_5_en-GB,5,,FHRS,0
481409,,93 Sterry Road,Gowerton,Swansea,Bonophool Indian Restaurant,Restaurant/Cafe/Canteen,1,10,,115267,10,,51.64794500000000,4442,568,FoodandSafety@swansea.gov.uk,Swansea,http://www.swansea.gov.uk,-4.03823900000000,SA4 3BN,2014-10-01,fhrs_3_en-GB,3,,FHRS,10
481410,,Bonymaen Road,Bonymaen,Swansea,Bonymaen Chip Bar,Takeaway/sandwich shop,7844,10,,458029,5,,51.63940000000000,152592,568,FoodandSafety@swansea.gov.uk,Swansea,http://www.swansea.gov.uk,-3.91282900000000,SA1 7AT,2014-02-24,fhrs_4_en-GB,4,,FHRS,5
481411,Bonymaen Community Centre,Bon Y Maen Road,Bonymaen,Swansea,Bonymaen Community Centre,Other catering premises,7841,5,,50674,0,,51.63940000000000,11301,568,FoodandSafety@swansea.gov.uk,Swansea,http://www.swansea.gov.uk,-3.91282900000000,SA1 7AT,2014-11-07,fhrs_5_en-GB,5,,FHRS,0
481412,,62 Cardigan Crescent,Winch Wen,Swansea,Bonymaen House Care Centre,Hospitals/Childcare/Caring Premises,5,0,,219014,5,,51.64824400000000,2115,568,FoodandSafety@swansea.gov.uk,Swansea,http://www.swansea.gov.uk,-3.90593100000000,SA1 7DY,2013-06-27,fhrs_5_en-GB,5,,FHRS,5
481413,Bonymaen Community Centre,Bon Y Maen Road,Bonymaen,Swansea,Bonymaen Kids Play Initiative,Other catering premises,7841,5,,65984,0,,51.63940000000000,148639,568,FoodandSafety@swansea.gov.uk,Swansea,http://www.swansea.gov.uk,-3.91282900000000,SA1 7AT,2015-01-20,fhrs_5_en-GB,5,,FHRS,0
481414,Bonymaen Rugby Football,Cefn Hengoed Road,Winch Wen,Swansea,Bonymaen RFC,Restaurant/Cafe/Canteen,1,20,,83550,15,,51.62949900000000,20507,568,FoodandSafety@swansea.gov.uk,Swansea,http://www.swansea.gov.uk,-3.91841900000000,SA1 7JH,2015-01-10,fhrs_1_en-GB,1,,FHRS,15
481415,,Upper Fforest Way,Swansea Enterprise Park,Swansea,Booker Cash and Carry,Distributors/Transporters,7,0,,131337,5,,51.66507500000000,6277,568,FoodandSafety@swansea.gov.uk,Swansea,http://www.swansea.gov.uk,-3.91149400000000,,2013-10-30,fhrs_5_en-GB,5,,FHRS,5
481416,Borva House,,Port Eynon,Swansea,Borfa House,Restaurant/Cafe/Canteen,1,0,,99647,0,,51.54481400000000,3162,568,FoodandSafety@swansea.gov.uk,Swansea,http://www.swansea.gov.uk,-4.21022900000000,SA3 1NN,2014-10-02,fhrs_5_en-GB,5,,FHRS,0
481417,,217 Oxford Street,City Centre,Swansea,Bouchon De Rossi,Restaurant/Cafe/Canteen,1,5,,61265,5,,51.61887600000000,134384,568,FoodandSafety@swansea.gov.uk,Swansea,http://www.swansea.gov.uk,-3.94910600000000,SA1 3BG,2014-06-13,fhrs_5_en-GB,5,,FHRS,5
481418,Unit 2,18-20 Morfa Road,Hafod,Swansea,Brian West Mobile,Retailers - other,4613,10,,62991,5,,51.62969400000000,139430,568,FoodandSafety@swansea.gov.uk,Swansea,http://www.swansea.gov.uk,-3.93552500000000,SA1 2EN,2014-02-19,fhrs_3_en-GB,3,,FHRS,10
481419,Britannia Inn,Llanmadoc,Swansea,,Britannia Inn,Pub/bar/nightclub,7843,5,,96786,0,,51.61657800000000,2972,568,FoodandSafety@swansea.gov.uk,Swansea,http://www.swansea.gov.uk,-4.24709900000000,SA3 1DB,2015-01-22,fhrs_5_en-GB,5,,FHRS,0
481420,,29-31 Princess Way,Swansea,,British Home Store Restaurant,Restaurant/Cafe/Canteen,1,0,,90497,0,,51.62065700000000,24674,568,FoodandSafety@swansea.gov.uk,Swansea,http://www.swansea.gov.uk,-3.94362000000000,SA1 5HB,2012-04-04,fhrs_5_en-GB,5,,FHRS,5
481421,,35 Wern Road,Landore,Swansea,Browns Newsagent,Retailers - other,4613,5,,118104,5,,51.64336100000000,474,568,FoodandSafety@swansea.gov.uk,Swansea,http://www.swansea.gov.uk,-3.94158500000000,SA1 2PA,2014-07-29,fhrs_4_en-GB,4,,FHRS,10
481422,,1 Capel Buildings,Clydach,Swansea,Brownsters,Restaurant/Cafe/Canteen,1,0,,559642,0,,51.69633700000000,153773,568,FoodandSafety@swansea.gov.uk,Swansea,http://www.swansea.gov.uk,-3.89077500000000,SA6 5LW,2015-01-13,fhrs_5_en-GB,5,,FHRS,5
481423,,3 Duke Street,Swansea,,Brunswick Arms,Pub/bar/nightclub,7843,5,,61217,5,,51.61875600000000,1342,568,FoodandSafety@swansea.gov.uk,Swansea,http://www.swansea.gov.uk,-3.95629500000000,SA1 4HS,2014-09-29,fhrs_4_en-GB,4,,FHRS,10
481424,,6 High Street,Grovesend,Swansea,Bryn Lliw,Pub/bar/nightclub,7843,5,,64306,0,,51.68791300000000,142623,568,FoodandSafety@swansea.gov.uk,Swansea,http://www.swansea.gov.uk,-4.03949900000000,SA4 4GT,2014-10-10,fhrs_4_en-GB,4,,FHRS,10
481425,,42 Brynfield Road,Langland,Swansea,Brynfield Manor Nursing Home,Hospitals/Childcare/Caring Premises,5,5,,147401,0,,51.57073800000000,9184,568,FoodandSafety@swansea.gov.uk,Swansea,http://www.swansea.gov.uk,-4.01517200000000,SA3 4SX,2014-09-18,fhrs_5_en-GB,5,,FHRS,5
481426,Brynhyfryd Junior School,Llangyfelach Road,Brynhyfryd,Swansea,Brynhyfryd Infants,School/college/university,7845,0,,56515,10,,51.64324500000000,12782,568,FoodandSafety@swansea.gov.uk,Swansea,http://www.swansea.gov.uk,-3.94424000000000,SA5 9LN,2013-10-08,fhrs_4_en-GB,4,,FHRS,0
481427,Brynhyfryd Junior School,Llangyfelach Road,Brynhyfryd,Swansea,Brynhyfryd Junior School,School/college/university,7845,0,,54287,0,,51.64324500000000,12238,568,FoodandSafety@swansea.gov.uk,Swansea,http://www.swansea.gov.uk,-3.94424000000000,SA5 9LN,2012-04-24,fhrs_5_en-GB,5,,FHRS,5
481428,,130 Eaton Road,Brynhyfryd,Swansea,Brynhyfryd Palace,Takeaway/sandwich shop,7844,5,,60897,5,,51.64180300000000,133225,568,FoodandSafety@swansea.gov.uk,Swansea,http://www.swansea.gov.uk,-3.94662000000000,SA5 9JL,2013-07-04,fhrs_5_en-GB,5,,FHRS,5
481429,Brynmill Primary School,Trafalgar Place,Brynmill,Swansea,Brynmill After School Club,School/college/university,7845,0,,56393,0,,51.61276800000000,127471,568,FoodandSafety@swansea.gov.uk,Swansea,http://www.swansea.gov.uk,-3.97127500000000,SA2 0BU,2010-11-16,fhrs_5_en-GB,5,,FHRS,0
481430,Brynmill Primary School,Trafalgar Place,Brynmill,Swansea,Brynmill Primary School,School/college/university,7845,0,,45266,0,,51.61276800000000,10984,568,FoodandSafety@swansea.gov.uk,Swansea,http://www.swansea.gov.uk,-3.97127500000000,SA2 0BU,2010-12-08,fhrs_5_en-GB,5,,FHRS,0
481431,,114 Marlborough Road,Brynmill,Swansea,Brynmill Stores,Retailers - other,4613,5,,585569,0,,51.61443900000000,152702,568,FoodandSafety@swansea.gov.uk,Swansea,http://www.swansea.gov.uk,-3.97088500000000,SA2 0DY,2014-12-17,fhrs_5_en-GB,5,,FHRS,5
481432,,36 Oxford Street,Swansea,,Builders Arms,Pub/bar/nightclub,7843,10,,138781,5,,51.61840900000000,741,568,FoodandSafety@swansea.gov.uk,Swansea,http://www.swansea.gov.uk,-3.95070400000000,SA1 3HT,2011-10-10,fhrs_3_en-GB,3,,FHRS,10
481433,,48 Mariner Street,Waun Wen,Swansea,Buon Appetito,Restaurant/Cafe/Canteen,1,20,,654821,15,,51.62545300000000,155420,568,FoodandSafety@swansea.gov.uk,Swansea,http://www.swansea.gov.uk,-3.94181700000000,SA1 5BA,2014-04-09,fhrs_1_en-GB,1,,FHRS,10
481434,,2 Union Street,City Centre,Swansea,Burger King,Restaurant/Cafe/Canteen,1,0,,134426,0,,51.61916100000000,678,568,FoodandSafety@swansea.gov.uk,Swansea,http://www.swansea.gov.uk,-3.94599800000000,SA1 3EE,2014-01-13,fhrs_5_en-GB,5,,FHRS,0
481435,Burger King (Uk) Ltd,Heron Way,Morriston,Swansea,Burger King,Restaurant/Cafe/Canteen,1,0,,52823,0,,51.66373800000000,119569,568,FoodandSafety@swansea.gov.uk,Swansea,http://www.swansea.gov.uk,-3.91255300000000,SA6 8PS,2013-02-21,fhrs_5_en-GB,5,,FHRS,5
481436,"Burger King, Swansea West Services",M4 Motorway,Penllergaer,Swansea,Burger King,Restaurant/Cafe/Canteen,1,0,,107784,5,,51.67925300000000,3816,568,FoodandSafety@swansea.gov.uk,Swansea,http://www.swansea.gov.uk,-3.99505000000000,SA4 9GT,2013-10-18,fhrs_5_en-GB,5,,FHRS,5
481437,Burrows Hall Residential & Nursing Home,Burrows Lane,Llangennith,Swansea,Burrows Hall Nursing Home,Hospitals/Childcare/Caring Premises,5,5,,83405,0,,51.60276400000000,20408,568,FoodandSafety@swansea.gov.uk,Swansea,http://www.swansea.gov.uk,-4.27518400000000,SA3 1JB,2014-08-07,fhrs_5_en-GB,5,,FHRS,0
481438,,Fabian Way,Port Tennant,Swansea,Burrows Service Station,Retailers - other,4613,0,,87263,0,,51.62149200000000,2249,568,FoodandSafety@swansea.gov.uk,Swansea,http://www.swansea.gov.uk,-3.90868100000000,SA1 8PA,2011-05-23,fhrs_5_en-GB,5,,FHRS,0
481439,Village Hall,Pontardulais Road,Penllergaer,Swansea,Busy Bees Day Nursery,Hospitals/Childcare/Caring Premises,5,5,,68353,0,,51.67434400000000,15281,568,FoodandSafety@swansea.gov.uk,Swansea,http://www.swansea.gov.uk,-4.00342500000000,SA4 9AY,2015-01-08,fhrs_5_en-GB,5,,FHRS,5
481440,Blaenymaes Primary School,Broughton Avenue,Blaenymaes,Swansea,Butterflies Flying Start Childcare,Hospitals/Childcare/Caring Premises,5,0,,65077,0,,51.65464400000000,145753,568,FoodandSafety@swansea.gov.uk,Swansea,http://www.swansea.gov.uk,-3.97406100000000,SA5 5LW,2014-12-11,fhrs_5_en-GB,5,,FHRS,0
481441,"Unit 6, St Johns Court",Upper Fforest Way,Swansea Enterprise Park,Swansea,Byrons Butchers,Retailers - other,4613,0,,634951,0,,51.66709700000000,154739,568,FoodandSafety@swansea.gov.uk,Swansea,http://www.swansea.gov.uk,-3.91169700000000,SA6 8QQ,2014-02-14,fhrs_5_en-GB,5,,FHRS,0
481442,Cadle Primary School,Middle Road,Ravenhill,Swansea,Cadle After School Club,School/college/university,7845,5,,59175,0,,51.64705900000000,130561,568,FoodandSafety@swansea.gov.uk,Swansea,http://www.swansea.gov.uk,-3.98291000000000,SA5 5DU,2011-06-14,fhrs_5_en-GB,5,,FHRS,0
481443,Cadle Primary School,Middle Road,Ravenhill,Swansea,Cadle Primary School,School/college/university,7845,5,,120625,0,,51.64705900000000,4955,568,FoodandSafety@swansea.gov.uk,Swansea,http://www.swansea.gov.uk,-3.98291000000000,SA5 5DU,2014-11-26,fhrs_5_en-GB,5,,FHRS,5
481444,,565 Pentregethin Road,Ravenhill,Swansea,Caereithin Cafe,Takeaway/sandwich shop,7844,5,,122489,10,,51.64688300000000,5097,568,FoodandSafety@swansea.gov.uk,Swansea,http://www.swansea.gov.uk,-3.97307300000000,SA5 5ET,2014-11-04,fhrs_4_en-GB,4,,FHRS,5
481445,,32 The Kingsway,City Centre,Swansea,Cafe 32,Restaurant/Cafe/Canteen,1,10,,682962,10,,51.62079800000000,156410,568,FoodandSafety@swansea.gov.uk,Swansea,http://www.swansea.gov.uk,-3.94651600000000,SA1 5LE,2014-07-04,fhrs_3_en-GB,3,,FHRS,5
481446,"Unit 66, Swansea Market",Oxford Street,City Centre,Swansea,Cafe Beka,Restaurant/Cafe/Canteen,1,10,,682957,10,,51.61933200000000,154704,568,FoodandSafety@swansea.gov.uk,Swansea,http://www.swansea.gov.uk,-3.94652500000000,SA1 3AG,2014-07-03,fhrs_3_en-GB,3,,FHRS,5
481447,"C E M Day Ltd, Plasmarl Industrial Estate",Beaufort Road,Swansea Enterprise Park,Swansea,Cafe Chino,Restaurant/Cafe/Canteen,1,5,,87203,0,,51.65253300000000,22451,568,FoodandSafety@swansea.gov.uk,Swansea,http://www.swansea.gov.uk,-3.92580000000000,SA6 8HR,2013-10-23,fhrs_5_en-GB,5,,FHRS,0
481448,,37 Castle Street,City Centre,Swansea,Cafe Continental,Restaurant/Cafe/Canteen,1,10,,372152,10,,51.62087800000000,151981,568,FoodandSafety@swansea.gov.uk,Swansea,http://www.swansea.gov.uk,-3.94172300000000,SA1 1HZ,2014-12-12,fhrs_3_en-GB,3,,FHRS,10
481449,,10 Picton Arcade,City Centre,Swansea,Cafe Del Mar,Restaurant/Cafe/Canteen,1,0,,665457,0,,51.61931300000000,154082,568,FoodandSafety@swansea.gov.uk,Swansea,http://www.swansea.gov.uk,-3.94876300000000,SA1 3BE,2014-04-29,fhrs_5_en-GB,5,,FHRS,5
481450,Institute Of Life Science 1,,Sketty,Swansea,Cafe Glas,Restaurant/Cafe/Canteen,1,0,,62682,0,,51.60962500000000,138552,568,FoodandSafety@swansea.gov.uk,Swansea,http://www.swansea.gov.uk,-3.98064200000000,SA2 8PP,2012-12-10,fhrs_5_en-GB,5,,FHRS,0
481451,,270-276 Oxford Street,Swansea,,Cafe Marks,Restaurant/Cafe/Canteen,1,0,,56509,0,,51.62019400000000,127800,568,FoodandSafety@swansea.gov.uk,Swansea,http://www.swansea.gov.uk,-3.94443800000000,SA1 3BB,2010-11-22,fhrs_5_en-GB,5,,FHRS,0
481452,,128 Woodfield Street,Morriston,Swansea,Cafe Memo,Restaurant/Cafe/Canteen,1,5,,59863,5,,51.66625800000000,131214,568,FoodandSafety@swansea.gov.uk,Swansea,http://www.swansea.gov.uk,-3.92505200000000,SA6 8AL,2014-04-10,fhrs_5_en-GB,5,,FHRS,5
481453,Gower College Swansea,Tycoch Road,Sketty,Swansea,Cafe Metro,School/college/university,7845,5,,84146,0,,51.62238700000000,20826,568,FoodandSafety@swansea.gov.uk,Swansea,http://www.swansea.gov.uk,-3.98377000000000,SA2 9EB,2014-03-07,fhrs_5_en-GB,5,,FHRS,0
481454,Mount Pleasant Campus,Mount Pleasant,Mount Pleasant,Swansea,Cafe Metro,Restaurant/Cafe/Canteen,1,5,,63864,5,,51.62466100000000,141014,568,FoodandSafety@swansea.gov.uk,Swansea,http://www.swansea.gov.uk,-3.94944000000000,SA1 6ED,2013-12-16,fhrs_5_en-GB,5,,FHRS,5
481455,,11 Wind Street,City Centre,Swansea,Cafe Nisse,Restaurant/Cafe/Canteen,1,5,,623545,5,,51.61957300000000,154964,568,FoodandSafety@swansea.gov.uk,Swansea,http://www.swansea.gov.uk,-3.93957200000000,SA1 1DP,2014-01-06,fhrs_5_en-GB,5,,FHRS,5
481456,Cafe Ole,240 Oxford Street,City Centre,Swansea,Cafe Ole,Restaurant/Cafe/Canteen,1,10,,703598,0,,51.61943200000000,156054,568,FoodandSafety@swansea.gov.uk,Swansea,http://www.swansea.gov.uk,-3.94700600000000,SA1 3BL,2014-09-09,fhrs_4_en-GB,4,,FHRS,5
481457,"Bentleys, Castleton Walk Arcade",26 Newton Road,Mumbles,Swansea,Cafe Play,Restaurant/Cafe/Canteen,1,10,,577240,10,,51.57562400000000,152014,568,FoodandSafety@swansea.gov.uk,Swansea,http://www.swansea.gov.uk,-4.00026300000000,SA3 4AX,2014-08-20,fhrs_3_en-GB,3,,FHRS,5
481458,"C E M Day Ltd, Plasmarl Industrial Estate",Beaufort Road,Swansea Enterprise Park,Swansea,Cafe Stralis,Restaurant/Cafe/Canteen,1,5,,87205,0,,51.65253300000000,22453,568,FoodandSafety@swansea.gov.uk,Swansea,http://www.swansea.gov.uk,-3.92580000000000,SA6 8HR,2011-04-14,fhrs_5_en-GB,5,,FHRS,0
481459,Singleton Hospital,Sketty Lane,Sketty,Swansea,Cafe Swansea,Restaurant/Cafe/Canteen,1,5,,64883,10,,51.60922300000000,145103,568,FoodandSafety@swansea.gov.uk,Swansea,http://www.swansea.gov.uk,-3.98527500000000,SA2 8QA,2014-10-01,fhrs_4_en-GB,4,,FHRS,0
481460,J Shed,Kings Road,Swansea Docks,Swansea,Cafe Two Cann,Restaurant/Cafe/Canteen,1,0,,62101,0,,51.61968600000000,136933,568,FoodandSafety@swansea.gov.uk,Swansea,http://www.swansea.gov.uk,-3.93111200000000,SA1 8PL,2011-06-03,fhrs_5_en-GB,5,,FHRS,0
481461,,50 Newton Road,Mumbles,Swansea,Cafe Valance,Restaurant/Cafe/Canteen,1,0,,55511,10,,51.57558100000000,125209,568,FoodandSafety@swansea.gov.uk,Swansea,http://www.swansea.gov.uk,-4.00226700000000,SA3 4BQ,2013-11-18,fhrs_4_en-GB,4,,FHRS,5
481462,Canolfan Gorseinon Centre,Millers Drive,Gorseinon,Swansea,Cafe Zest for life,Restaurant/Cafe/Canteen,1,0,,63834,0,,51.66616700000000,140999,568,FoodandSafety@swansea.gov.uk,Swansea,http://www.swansea.gov.uk,-4.03755300000000,SA4 4QN,2014-12-17,fhrs_5_en-GB,5,,FHRS,5
481463,Americano Jazz Cafe,Kings Road,Swansea Docks,Swansea,Caffe Americano,Restaurant/Cafe/Canteen,1,5,,616068,10,,51.61884700000000,153544,568,FoodandSafety@swansea.gov.uk,Swansea,http://www.swansea.gov.uk,-3.93016600000000,SA1 8PP,2013-11-15,fhrs_4_en-GB,4,,FHRS,5
481464,,1 Nelson Street,City Centre,Swansea,Caffe Latte,Restaurant/Cafe/Canteen,1,0,,665466,0,,,154508,568,FoodandSafety@swansea.gov.uk,Swansea,http://www.swansea.gov.uk,,,2014-04-29,fhrs_5_en-GB,5,,FHRS,5
481465,,12-14 White Walls,City Centre,Swansea,Caffe Lucia,Restaurant/Cafe/Canteen,1,10,,585568,10,,51.61948500000000,152630,568,FoodandSafety@swansea.gov.uk,Swansea,http://www.swansea.gov.uk,-3.94437900000000,SA1 3AB,2014-06-18,fhrs_2_en-GB,2,,FHRS,15
481466,,2b Dunns Lane,Mumbles,Swansea,Cake with Slate Gallery,Restaurant/Cafe/Canteen,1,10,,119575,10,,51.57486900000000,48733,568,FoodandSafety@swansea.gov.uk,Swansea,http://www.swansea.gov.uk,-3.99969600000000,SA3 4AA,2013-03-01,fhrs_3_en-GB,3,,FHRS,10
481467,Swansea University,Singleton Park Internal Access,Sketty,Swansea,Callaghans,Restaurant/Cafe/Canteen,1,0,,372146,5,,51.60962500000000,121647,568,FoodandSafety@swansea.gov.uk,Swansea,http://www.swansea.gov.uk,-3.98064200000000,SA2 8PP,2013-11-01,fhrs_5_en-GB,5,,FHRS,0
481468,Calon Fawr Nursing Home,Lon Masarn,Sketty,Swansea,Calon Fawr Nursing Home Ltd,Hospitals/Childcare/Caring Premises,5,5,,95931,0,,51.62534300000000,2887,568,FoodandSafety@swansea.gov.uk,Swansea,http://www.swansea.gov.uk,-3.98976400000000,SA2 9EX,2014-10-13,fhrs_5_en-GB,5,,FHRS,5
481469,,6 Shoppers Walk,City Centre,Swansea,Campanilismo,Restaurant/Cafe/Canteen,1,0,,665476,0,,51.61865600000000,154828,568,FoodandSafety@swansea.gov.uk,Swansea,http://www.swansea.gov.uk,-3.94827300000000,SA1 3AZ,2014-05-09,fhrs_5_en-GB,5,,FHRS,0
481470,Campion Gardens Retirement Vil,Mayals Road Clyne Common,Mayals,Swansea,Campion Gardens,Hospitals/Childcare/Caring Premises,5,10,,59288,10,,51.58499100000000,13068,568,FoodandSafety@swansea.gov.uk,Swansea,http://www.swansea.gov.uk,-4.03136300000000,SA3 3JB,2014-11-10,fhrs_3_en-GB,3,,FHRS,10
481471,Townhill Campus,Townhill Road,Cockett,Swansea,Campus Cafe,Restaurant/Cafe/Canteen,1,5,,62328,0,,51.62512800000000,137618,568,FoodandSafety@swansea.gov.uk,Swansea,http://www.swansea.gov.uk,-3.97425300000000,SA2 0UT,2012-11-22,fhrs_5_en-GB,5,,FHRS,0
481472,Captains Table,,Port Eynon,Swansea,Captains Table,Takeaway/sandwich shop,7844,5,,99475,0,,51.54481400000000,3147,568,FoodandSafety@swansea.gov.uk,Swansea,http://www.swansea.gov.uk,-4.21022900000000,SA3 1NN,2014-10-02,fhrs_5_en-GB,5,,FHRS,5
481473,,Fabian Way,Port Tennant,Swansea,Car Wash Cafe,Restaurant/Cafe/Canteen,1,5,,665482,5,,51.62149200000000,155927,568,FoodandSafety@swansea.gov.uk,Swansea,http://www.swansea.gov.uk,-3.90868100000000,SA1 8PA,2014-05-16,fhrs_5_en-GB,5,,FHRS,5
481474,,1-2 Belle Vue,Penclawdd,Swansea,Cariad Cafe,Restaurant/Cafe/Canteen,1,0,,665480,5,,51.64261300000000,155205,568,FoodandSafety@swansea.gov.uk,Swansea,http://www.swansea.gov.uk,-4.10393700000000,SA4 3YE,2014-05-14,fhrs_5_en-GB,5,,FHRS,5
481475,Cockle Rotunda 1 & 2,Oxford Street,City Centre,Swansea,Carol Watts,Retailers - other,4613,5,,53292,5,,51.61912200000000,120059,568,FoodandSafety@swansea.gov.uk,Swansea,http://www.swansea.gov.uk,-3.94512900000000,SA1 3PE,2014-01-09,fhrs_5_en-GB,5,,FHRS,5
481476,Carreglwyd,,Port Eynon,Swansea,Carreglwyd Caravan Park,Retailers - other,4613,10,,99546,5,,51.54669700000000,3153,568,FoodandSafety@swansea.gov.uk,Swansea,http://www.swansea.gov.uk,-4.21290300000000,SA3 1NL,2011-09-19,fhrs_4_en-GB,4,,FHRS,0
481477,Caslwchwr Primary School,Castle Street,Loughor,Swansea,Casllwchwr Primary School,School/college/university,7845,5,,114751,0,,51.66330100000000,4390,568,FoodandSafety@swansea.gov.uk,Swansea,http://www.swansea.gov.uk,-4.07286600000000,SA4 6TU,2014-12-10,fhrs_5_en-GB,5,,FHRS,5
481478,Castellamare Restaurant Admiral Benbow,Bracelet Bay,Mumbles,Swansea,Castellamare,Restaurant/Cafe/Canteen,1,5,,218995,5,,51.56599800000000,30314,568,FoodandSafety@swansea.gov.uk,Swansea,http://www.swansea.gov.uk,-3.98141400000000,SA3 4JT,2014-12-11,fhrs_5_en-GB,5,,FHRS,5
481479,,41 Clase Road,Morriston,Swansea,Castle Bingo,Restaurant/Cafe/Canteen,1,0,,129306,0,,51.66519800000000,5993,568,FoodandSafety@swansea.gov.uk,Swansea,http://www.swansea.gov.uk,-3.92279500000000,SA6 8DS,2014-01-29,fhrs_5_en-GB,5,,FHRS,5
481480,,93 Salem Road,Plasmarl,Swansea,Castle Graig Nursing Home,Hospitals/Childcare/Caring Premises,5,10,,83584,5,,51.64882400000000,20525,568,FoodandSafety@swansea.gov.uk,Swansea,http://www.swansea.gov.uk,-3.94129800000000,SA6 8NN,2015-01-06,fhrs_3_en-GB,3,,FHRS,10
481481,Castle Inn,Swansea Road,Pontlliw,Swansea,Castle Inn,Pub/bar/nightclub,7843,10,,641659,0,,51.69171100000000,3779,568,FoodandSafety@swansea.gov.uk,Swansea,http://www.swansea.gov.uk,-4.01170100000000,SA4 9EE,2014-02-27,fhrs_4_en-GB,4,,FHRS,5
481482,,44a Newton Road,Mumbles,Swansea,Castle News and Mumbles Video,Retailers - other,4613,0,,103337,0,,51.57558100000000,3470,568,FoodandSafety@swansea.gov.uk,Swansea,http://www.swansea.gov.uk,-4.00226700000000,SA3 4BQ,2015-01-29,fhrs_5_en-GB,5,,FHRS,0
481483,Cefn Coed Hospital,Waunarlwydd Road,Cockett,Swansea,Cefn Coed Hospital,Hospitals/Childcare/Caring Premises,5,5,,89480,5,,51.62818000000000,2394,568,FoodandSafety@swansea.gov.uk,Swansea,http://www.swansea.gov.uk,-3.98896400000000,SA2 0GH,2014-10-07,fhrs_5_en-GB,5,,FHRS,5
481484,Cefn Hengoed Community School,Caldicot Road,Bonymaen,Swansea,Cefn Hengoed Comprehensive School,School/college/university,7845,5,,218993,0,,51.64466300000000,2153,568,FoodandSafety@swansea.gov.uk,Swansea,http://www.swansea.gov.uk,-3.90494200000000,SA1 7HX,2011-12-15,fhrs_5_en-GB,5,,FHRS,0
481485,,77 Uplands Crescent,Uplands,Swansea,Celebration Cakes,Manufacturers/packers,7839,5,,89010,5,,51.61828800000000,2362,568,FoodandSafety@swansea.gov.uk,Swansea,http://www.swansea.gov.uk,-3.96760000000000,SA2 0EX,2014-08-12,fhrs_5_en-GB,5,,FHRS,0
481486,,113 Woodfield Street,Morriston,Swansea,Central Fish Bar,Takeaway/sandwich shop,7844,5,,128787,0,,51.66563600000000,5904,568,FoodandSafety@swansea.gov.uk,Swansea,http://www.swansea.gov.uk,-3.92572000000000,SA6 8AR,2014-09-10,fhrs_5_en-GB,5,,FHRS,5
481487,,85 Newton Road,Mumbles,Swansea,Chai Tea Room,Restaurant/Cafe/Canteen,1,5,,577242,10,,51.57534300000000,152794,568,FoodandSafety@swansea.gov.uk,Swansea,http://www.swansea.gov.uk,-4.00251600000000,SA3 4BL,2013-11-13,fhrs_4_en-GB,4,,FHRS,0
481488,,602 Mumbles Road,Mumbles,Swansea,Chaplins Steakhouse Mumbles,Restaurant/Cafe/Canteen,1,0,,634937,0,,51.57314900000000,152626,568,FoodandSafety@swansea.gov.uk,Swansea,http://www.swansea.gov.uk,-3.99565200000000,SA3 4DL,2014-02-05,fhrs_5_en-GB,5,,FHRS,0
481489,,38 High Street,Clydach,Swansea,Charlies Snacks,Takeaway/sandwich shop,7844,10,,594908,5,,51.69530600000000,153227,568,FoodandSafety@swansea.gov.uk,Swansea,http://www.swansea.gov.uk,-3.89614400000000,SA6 5LG,2013-10-01,fhrs_4_en-GB,4,,FHRS,5
481490,,18 Brynymor Road,Brynmill,Swansea,Checkers,Restaurant/Cafe/Canteen,1,0,,616066,10,,51.61660900000000,153404,568,FoodandSafety@swansea.gov.uk,Swansea,http://www.swansea.gov.uk,-3.95943800000000,SA1 4JH,2013-11-19,fhrs_2_en-GB,2,,FHRS,15
481491,,30 Newton Road,Mumbles,Swansea,Cheers Wine Merchants Ltd,Retailers - other,4613,0,,732779,0,,51.57562400000000,145756,568,FoodandSafety@swansea.gov.uk,Swansea,http://www.swansea.gov.uk,-4.00026200000000,SA3 4AX,2013-08-05,fhrs_5_en-GB,5,,FHRS,0
481492,,223 High Street,City Centre,Swansea,Chicago Pizza,Takeaway/sandwich shop,7844,10,,594919,10,,51.62315800000000,154382,568,FoodandSafety@swansea.gov.uk,Swansea,http://www.swansea.gov.uk,-3.94192100000000,SA1 1NW,2013-09-24,fhrs_3_en-GB,3,,FHRS,10
481493,,36 St Helens Road,Sandfields,Swansea,Chicken Cottage Swansea,Takeaway/sandwich shop,7844,10,,665461,5,,51.61775300000000,154315,568,FoodandSafety@swansea.gov.uk,Swansea,http://www.swansea.gov.uk,-3.95334800000000,SA1 4AY,2014-05-13,fhrs_3_en-GB,3,,FHRS,10
481494,,79-80 The Kingsway,City Centre,Swansea,Chicken Diner,Restaurant/Cafe/Canteen,1,5,,63001,5,,51.61958300000000,139464,568,FoodandSafety@swansea.gov.uk,Swansea,http://www.swansea.gov.uk,-3.94877500000000,SA1 5JE,2015-01-07,fhrs_5_en-GB,5,,FHRS,0
481495,,9 Mayhill Road,Mayhill,Swansea,Chicken King,Takeaway/sandwich shop,7844,10,,676524,5,,51.62957600000000,156303,568,FoodandSafety@swansea.gov.uk,Swansea,http://www.swansea.gov.uk,-3.95670200000000,SA1 6SZ,2014-09-18,fhrs_4_en-GB,4,,FHRS,0
481496,,25 Neath Road,Hafod,Swansea,Chicken on the Road,Takeaway/sandwich shop,7844,10,,62254,15,,51.63213200000000,137378,568,FoodandSafety@swansea.gov.uk,Swansea,http://www.swansea.gov.uk,-3.93928500000000,SA1 2ES,2013-07-30,fhrs_2_en-GB,2,,FHRS,10
481497,,62 Wind Street,City Centre,Swansea,Chick-o-land,Takeaway/sandwich shop,7844,10,,539887,5,,51.61931200000000,149127,568,FoodandSafety@swansea.gov.uk,Swansea,http://www.swansea.gov.uk,-3.94071700000000,SA1 1EG,2014-03-27,fhrs_4_en-GB,4,,FHRS,5
481498,,18 St Teilo Street,Pontarddulais,Swansea,Chilli Restaurant,Restaurant/Cafe/Canteen,1,5,,247511,0,,51.71571400000000,136082,568,FoodandSafety@swansea.gov.uk,Swansea,http://www.swansea.gov.uk,-4.04439800000000,SA4 8TH,2013-12-16,fhrs_5_en-GB,5,,FHRS,5
481499,,53 High Street,Clydach,Swansea,Chilli Too,Restaurant/Cafe/Canteen,1,5,,676502,5,,51.69525500000000,151683,568,FoodandSafety@swansea.gov.uk,Swansea,http://www.swansea.gov.uk,-3.89488300000000,SA6 5LH,2014-02-25,fhrs_5_en-GB,5,,FHRS,5
481500,,42 St Helens Road,Sandfields,Swansea,China Deli and Bakery,Other catering premises,7841,5,,585574,10,,51.61730100000000,153521,568,FoodandSafety@swansea.gov.uk,Swansea,http://www.swansea.gov.uk,-3.95402200000000,SA1 4AZ,2013-09-18,fhrs_3_en-GB,3,,FHRS,10
481501,,20 St Helens Road,Sandfields,Swansea,China Garden,Takeaway/sandwich shop,7844,10,,67495,10,,51.61824900000000,150632,568,FoodandSafety@swansea.gov.uk,Swansea,http://www.swansea.gov.uk,-3.95221400000000,SA1 4AP,2013-07-25,fhrs_3_en-GB,3,,FHRS,10
481502,,430 Gower Road,Killay,Swansea,China Kitchen,Takeaway/sandwich shop,7844,5,,91551,5,,51.61794300000000,2537,568,FoodandSafety@swansea.gov.uk,Swansea,http://www.swansea.gov.uk,-4.01864900000000,SA2 7AJ,2013-09-19,fhrs_5_en-GB,5,,FHRS,5
481503,Gower Holiday Village,Monksland Road,Reynoldston,Swansea,Chips Ahoy,Takeaway/sandwich shop,7844,5,,698970,5,,51.56605800000000,156675,568,FoodandSafety@swansea.gov.uk,Swansea,http://www.swansea.gov.uk,-4.21817200000000,SA3 1AY,2014-07-30,fhrs_5_en-GB,5,,FHRS,5
481504,Chiquitos,Little Wind Street,City Centre,Swansea,Chiquitos,Restaurant/Cafe/Canteen,1,0,,61601,5,,51.61863300000000,135421,568,FoodandSafety@swansea.gov.uk,Swansea,http://www.swansea.gov.uk,-3.93879600000000,SA1 1ED,2014-01-14,fhrs_4_en-GB,4,,FHRS,10
481505,,18-20 Woodfield Street,Morriston,Swansea,Choice Mobile Catering,Other catering premises,7841,20,,492477,15,,51.66396900000000,21439,568,FoodandSafety@swansea.gov.uk,Swansea,http://www.swansea.gov.uk,-3.92536000000000,SA6 8AG,2014-07-07,fhrs_1_en-GB,1,,FHRS,15
481506,,124-136 Manselton Road,Manselton,Swansea,Christ Well United Reformed Church,Other catering premises,7841,5,,65226,0,,51.64157900000000,14625,568,FoodandSafety@swansea.gov.uk,Swansea,http://www.swansea.gov.uk,-3.95412600000000,SA5 8PW,2013-05-08,fhrs_5_en-GB,5,,FHRS,0
481507,Newton Court Christadelphian Rest Home,Highpool Lane,Newton,Swansea,Christadelphian Rest Home,Hospitals/Childcare/Caring Premises,5,5,,73669,0,,51.57845700000000,16975,568,FoodandSafety@swansea.gov.uk,Swansea,http://www.swansea.gov.uk,-4.01912100000000,SA3 4UX,2014-01-20,fhrs_5_en-GB,5,,FHRS,5
481508,Christchurch Primary School,Rodney Street,Sandfields,Swansea,Christchurch Primary School,School/college/university,7845,0,,79440,0,,51.61341000000000,19092,568,FoodandSafety@swansea.gov.uk,Swansea,http://www.swansea.gov.uk,-3.95713300000000,SA1 3UA,2011-10-10,fhrs_5_en-GB,5,,FHRS,0
481509,,2 Mirador Crescent,Uplands,Swansea,Christmaspie Bed and Breakfast,Hotel/bed & breakfast/guest house,7842,0,,61870,5,,51.61894700000000,136272,568,FoodandSafety@swansea.gov.uk,Swansea,http://www.swansea.gov.uk,-3.96481100000000,SA2 0QX,2011-07-21,fhrs_5_en-GB,5,,FHRS,0
481510,,89 Newton Road,Mumbles,Swansea,Chutney,Restaurant/Cafe/Canteen,1,5,,55382,5,,51.57534300000000,124988,568,FoodandSafety@swansea.gov.uk,Swansea,http://www.swansea.gov.uk,-4.00251600000000,SA3 4BL,2014-01-29,fhrs_5_en-GB,5,,FHRS,5
481511,,577 Gower Road,Upper Killay,Swansea,Cila Primary School,School/college/university,7845,5,,80099,0,,51.61318200000000,19346,568,FoodandSafety@swansea.gov.uk,Swansea,http://www.swansea.gov.uk,-4.02928600000000,SA2 7DR,2011-09-22,fhrs_5_en-GB,5,,FHRS,0
481512,,6 Miers Street,St. Thomas,Swansea,City Bar,Pub/bar/nightclub,7843,5,,676507,0,,51.62283000000000,152940,568,FoodandSafety@swansea.gov.uk,Swansea,http://www.swansea.gov.uk,-3.93240100000000,SA1 8BZ,2014-03-06,fhrs_4_en-GB,4,,FHRS,10
481513,,2 The Kingsway,City Centre,Swansea,City Day Nursery,Hospitals/Childcare/Caring Premises,5,5,,577241,5,,51.61954900000000,152732,568,FoodandSafety@swansea.gov.uk,Swansea,http://www.swansea.gov.uk,-3.95082500000000,SA1 5JQ,2014-12-19,fhrs_5_en-GB,5,,FHRS,5
481514,Civic Centre,Oystermouth Road,Swansea,,Civic Centre Staff Canteen,Restaurant/Cafe/Canteen,1,10,,80629,0,,51.61372600000000,19538,568,FoodandSafety@swansea.gov.uk,Swansea,http://www.swansea.gov.uk,-3.94836500000000,SA1 3SN,2014-03-25,fhrs_4_en-GB,4,,FHRS,5
481515,,135 Mumbles Road,Mumbles,Swansea,CJ's Restaurant and Wine Bar,Restaurant/Cafe/Canteen,1,10,,247493,10,,51.57483700000000,3516,568,FoodandSafety@swansea.gov.uk,Swansea,http://www.swansea.gov.uk,-3.99787600000000,SA3 4DN,2013-09-03,fhrs_3_en-GB,3,,FHRS,5
481516,,24 Nelson Street,City Centre,Swansea,CKs Coffee Shop and Bistro,Restaurant/Cafe/Canteen,1,5,,442808,0,,51.61879900000000,150585,568,FoodandSafety@swansea.gov.uk,Swansea,http://www.swansea.gov.uk,-3.94670400000000,SA1 3QE,2013-12-04,fhrs_5_en-GB,5,,FHRS,5
481517,,106 Sterry Road,Gowerton,Swansea,CKs Supermarket,Retailers - other,4613,0,,54019,0,,51.64767300000000,121701,568,FoodandSafety@swansea.gov.uk,Swansea,http://www.swansea.gov.uk,-4.03837200000000,SA4 3BW,2014-09-03,fhrs_5_en-GB,5,,FHRS,5
481518,,73-74 High Street,City Centre,Swansea,CKs Supermarket,Retailers - other,4613,5,,51725,5,,51.62570700000000,116050,568,FoodandSafety@swansea.gov.uk,Swansea,http://www.swansea.gov.uk,-3.94168300000000,SA1 1LN,2014-08-15,fhrs_5_en-GB,5,,FHRS,5
481519,,11 Station Road,Penclawdd,Swansea,CKs Supermarket,Retailers - other,4613,0,,66726,10,,51.64180400000000,14980,568,FoodandSafety@swansea.gov.uk,Swansea,http://www.swansea.gov.uk,-4.10141300000000,SA4 3XN,2014-07-21,fhrs_4_en-GB,4,,FHRS,5
481520,,1 Bridge Street,Waun Wen,Swansea,CKs Supermarket,Retailers - other,4613,0,,65000,0,,51.63061400000000,145512,568,FoodandSafety@swansea.gov.uk,Swansea,http://www.swansea.gov.uk,-3.94131500000000,SA1 2BL,2014-12-08,fhrs_5_en-GB,5,,FHRS,0
481521,Unit 3,Heol Nant Bran,Birchgrove,Swansea,CKs Supermarket,Retailers - other,4613,5,,62015,5,,51.67046000000000,136677,568,FoodandSafety@swansea.gov.uk,Swansea,http://www.swansea.gov.uk,-3.87830100000000,SA7 9LS,2014-12-05,fhrs_5_en-GB,5,,FHRS,5
481522,,6-8 Park Way,Sketty,Swansea,CK's Supermarket,Retailers - other,4613,10,,56193,5,,51.61617600000000,12694,568,FoodandSafety@swansea.gov.uk,Swansea,http://www.swansea.gov.uk,-3.99998000000000,SA2 8JJ,2014-08-05,fhrs_3_en-GB,3,,FHRS,10
481523,,60-68 Pentregethin Road,Gendros,Swansea,CK's Supermarket,Retailers - other,4613,10,,77760,15,,51.63691500000000,18336,568,FoodandSafety@swansea.gov.uk,Swansea,http://www.swansea.gov.uk,-3.95343400000000,SA5 8BA,2014-09-15,fhrs_2_en-GB,2,,FHRS,10
481524,,38-39 Swansea Road,Waunarlwydd,Swansea,CK's Supermarket,Retailers - other,4613,10,,57610,5,,51.63881900000000,129379,568,FoodandSafety@swansea.gov.uk,Swansea,http://www.swansea.gov.uk,-4.01107900000000,SA5 4TQ,2013-11-13,fhrs_4_en-GB,4,,FHRS,5
481525,Clase Primary School,Rheidol Avenue,Clase,Swansea,Clase Primary After School Club,Other catering premises,7841,10,,65895,0,,51.66405400000000,148363,568,FoodandSafety@swansea.gov.uk,Swansea,http://www.swansea.gov.uk,-3.94527500000000,SA6 7JX,2011-07-14,fhrs_4_en-GB,4,,FHRS,0
481526,Clase Primary School,Rheidol Avenue,Clase,Swansea,Clase Primary School,School/college/university,7845,5,,711670,0,,51.66405400000000,5818,568,FoodandSafety@swansea.gov.uk,Swansea,http://www.swansea.gov.uk,-3.94527500000000,SA6 7JX,2014-10-02,fhrs_4_en-GB,4,,FHRS,10
481527,Clase Social Club,Pengwern Road,Clase,Swansea,Clase Social Club,Pub/bar/nightclub,7843,10,,128292,0,,51.66409300000000,5821,568,FoodandSafety@swansea.gov.uk,Swansea,http://www.swansea.gov.uk,-3.94780700000000,SA6 7LW,2014-11-18,fhrs_4_en-GB,4,,FHRS,10
481528,,Solva Road,Clase,Swansea,Clase Supermarket,Retailers - other,4613,5,,56448,5,,51.66059900000000,127675,568,FoodandSafety@swansea.gov.uk,Swansea,http://www.swansea.gov.uk,-3.94598000000000,SA6 7NU,2013-01-08,fhrs_4_en-GB,4,,FHRS,10
481529,,3 Gellionnen Close,Clydach,Swansea,Close Care Limited,Hospitals/Childcare/Caring Premises,5,5,,49819,5,,51.69950100000000,110660,568,FoodandSafety@swansea.gov.uk,Swansea,http://www.swansea.gov.uk,-3.89590000000000,SA6 5HS,2011-01-04,fhrs_5_en-GB,5,,FHRS,0
481530,,118 Owls Lodge Lane,Mayals,Swansea,Club House Restaurant at Clyne,Restaurant/Cafe/Canteen,1,5,,559641,0,,51.59548700000000,153631,568,FoodandSafety@swansea.gov.uk,Swansea,http://www.swansea.gov.uk,-4.01352400000000,SA3 5DP,2014-12-04,fhrs_5_en-GB,5,,FHRS,5
481531,,Castell Close,Enterprise Park,Llansamlet,Club Life Cafe Ltd,Restaurant/Cafe/Canteen,1,0,,61757,0,,51.65637700000000,135953,568,FoodandSafety@swansea.gov.uk,Swansea,http://www.swansea.gov.uk,-3.90731300000000,SA7 9FH,2013-07-04,fhrs_5_en-GB,5,,FHRS,0
481532,Clwyd Primary School,Eppynt Road,Penlan,Swansea,Clwyd Primary School,School/college/university,7845,0,,121093,0,,51.64510900000000,4986,568,FoodandSafety@swansea.gov.uk,Swansea,http://www.swansea.gov.uk,-3.96513300000000,SA5 7AZ,2014-12-12,fhrs_4_en-GB,4,,FHRS,10
481533,,14 Hebron Road,Clydach,Swansea,Clydach Chinese Takeaway,Takeaway/sandwich shop,7844,5,,55578,10,,51.69400400000000,125376,568,FoodandSafety@swansea.gov.uk,Swansea,http://www.swansea.gov.uk,-3.89882400000000,SA6 5EJ,2013-01-17,fhrs_4_en-GB,4,,FHRS,5
481534,Clydach Cricket Club,Waverley Park,Clydach,Swansea,Clydach Cricket Club,Pub/bar/nightclub,7843,5,,682964,5,,51.69868500000000,19505,568,FoodandSafety@swansea.gov.uk,Swansea,http://www.swansea.gov.uk,-3.89181400000000,SA6 5LT,2014-07-15,fhrs_4_en-GB,4,,FHRS,10
481535,,6 Capel Buildings,Clydach,Swansea,Clydach Fish Bar,Takeaway/sandwich shop,7844,10,,126796,10,,51.69633700000000,5590,568,FoodandSafety@swansea.gov.uk,Swansea,http://www.swansea.gov.uk,-3.89077500000000,SA6 5LW,2013-07-15,fhrs_3_en-GB,3,,FHRS,10
481536,Clydach Infants School,Sybil Street,Clydach,Swansea,Clydach Infants School,School/college/university,7845,0,,126204,0,,51.69603400000000,5510,568,FoodandSafety@swansea.gov.uk,Swansea,http://www.swansea.gov.uk,-3.89561000000000,SA6 5EU,2011-07-11,fhrs_5_en-GB,5,,FHRS,0
481537,Clydach Junior School,Twyn Bedw Road,Clydach,Swansea,Clydach Junior School,School/college/university,7845,0,,126184,0,,51.69771900000000,5507,568,FoodandSafety@swansea.gov.uk,Swansea,http://www.swansea.gov.uk,-3.89762000000000,SA6 5ET,2011-07-11,fhrs_5_en-GB,5,,FHRS,5
481538,,11 Capel Buildings,Clydach,Swansea,Clydach Kebab House,Takeaway/sandwich shop,7844,5,,61127,0,,51.69633700000000,133908,568,FoodandSafety@swansea.gov.uk,Swansea,http://www.swansea.gov.uk,-3.89077500000000,SA6 5LW,2014-12-04,fhrs_5_en-GB,5,,FHRS,5
481539,Clyne Farm Activity & Training Centre,Westport Avenue,Mayals,Swansea,Clyne Farm Centre,Restaurant/Cafe/Canteen,1,5,,106110,0,,51.59894600000000,3675,568,FoodandSafety@swansea.gov.uk,Swansea,http://www.swansea.gov.uk,-4.01002400000000,SA3 5AR,2014-11-13,fhrs_5_en-GB,5,,FHRS,0
481540,,5 Newton Road,Mumbles,Swansea,Coakleys,Retailers - other,4613,10,,60597,5,,51.57557700000000,132347,568,FoodandSafety@swansea.gov.uk,Swansea,http://www.swansea.gov.uk,-3.99933700000000,SA3 4AR,2011-07-19,fhrs_3_en-GB,3,,FHRS,10
481541,Civic Centre,Oystermouth Road,City Centre,Swansea,Coast Line Cafe,Restaurant/Cafe/Canteen,1,5,,63821,0,,51.61372600000000,140919,568,FoodandSafety@swansea.gov.uk,Swansea,http://www.swansea.gov.uk,-3.94836500000000,SA1 3SN,2014-10-01,fhrs_5_en-GB,5,,FHRS,0
481542,Cocktails,23-24 Neath Road,Hafod,Swansea,Cocktails,Retailers - other,4613,10,,107281,0,,51.63213200000000,378,568,FoodandSafety@swansea.gov.uk,Swansea,http://www.swansea.gov.uk,-3.93928500000000,SA1 2ES,2011-05-13,fhrs_4_en-GB,4,,FHRS,0
481543,,105 Mynydd Garnllwyd Road,Morriston,Swansea,Cod Box,Takeaway/sandwich shop,7844,10,,676526,5,,51.66039700000000,25614,568,FoodandSafety@swansea.gov.uk,Swansea,http://www.swansea.gov.uk,-3.94296400000000,SA6 7NZ,2014-05-06,fhrs_4_en-GB,4,,FHRS,5
481544,The Range,Trallwn Road,Llansamlet,Swansea,Coffee House,Restaurant/Cafe/Canteen,1,0,,65629,0,,51.65194700000000,147662,568,FoodandSafety@swansea.gov.uk,Swansea,http://www.swansea.gov.uk,-3.89216500000000,SA7 9WL,2015-01-27,fhrs_5_en-GB,5,,FHRS,5
481545,Gower College Swansea,Tycoch Road,Sketty,Swansea,Coffee Shop,Restaurant/Cafe/Canteen,1,0,,95841,5,,51.62238700000000,28771,568,FoodandSafety@swansea.gov.uk,Swansea,http://www.swansea.gov.uk,-3.98377000000000,SA2 9EB,2014-06-11,fhrs_5_en-GB,5,,FHRS,0
481546,,9 Alderwood Road,West Cross,Swansea,Coffee Tree,Restaurant/Cafe/Canteen,1,5,,247539,0,,51.58669800000000,139250,568,FoodandSafety@swansea.gov.uk,Swansea,http://www.swansea.gov.uk,-4.00106700000000,SA3 5JD,2014-12-15,fhrs_5_en-GB,5,,FHRS,0
481547,Unit 4a,26-36 Princess Way,City Centre,Swansea,Coffee#1,Restaurant/Cafe/Canteen,1,0,,676520,5,,51.62103500000000,154975,568,FoodandSafety@swansea.gov.uk,Swansea,http://www.swansea.gov.uk,-3.94310200000000,SA1 5HE,2014-05-09,fhrs_5_en-GB,5,,FHRS,0
481548,,55 Walter Road,City Centre,Swansea,Coffees Been,Restaurant/Cafe/Canteen,1,5,,55593,5,,51.61882900000000,125421,568,FoodandSafety@swansea.gov.uk,Swansea,http://www.swansea.gov.uk,-3.95839200000000,SA1 5PY,2014-08-01,fhrs_5_en-GB,5,,FHRS,5
481549,,55 Wind Street,Swansea,,Coggers Newsagent,Retailers - other,4613,5,,106470,5,,51.61931200000000,37,568,FoodandSafety@swansea.gov.uk,Swansea,http://www.swansea.gov.uk,-3.94071700000000,SA1 1EG,2014-08-18,fhrs_4_en-GB,4,,FHRS,10
481550,,135-137 Colwyn Avenue,Winch Wen,Swansea,Colwyn Fish Bar,Takeaway/sandwich shop,7844,0,,676522,0,,51.64641600000000,155992,568,FoodandSafety@swansea.gov.uk,Swansea,http://www.swansea.gov.uk,-3.90715500000000,SA1 7EW,2014-07-29,fhrs_4_en-GB,4,,FHRS,10
481551,Commercial Hotel,Station Road,Gowerton,Swansea,Commercial Hotel,Pub/bar/nightclub,7843,5,,115174,0,,51.64807400000000,4432,568,FoodandSafety@swansea.gov.uk,Swansea,http://www.swansea.gov.uk,-4.03601900000000,SA4 3AJ,2012-05-24,fhrs_5_en-GB,5,,FHRS,5
481552,,294 Llangyfelach Road,Brynhyfryd,Swansea,Commercial Inn,Pub/bar/nightclub,7843,5,,65688,0,,51.63960700000000,147896,568,FoodandSafety@swansea.gov.uk,Swansea,http://www.swansea.gov.uk,-3.94454600000000,SA5 9LG,2011-06-06,fhrs_5_en-GB,5,,FHRS,5
481553,,311 Neath Road,Plasmarl,Swansea,Commercial Inn,Pub/bar/nightclub,7843,5,,129858,5,,51.64811800000000,6085,568,FoodandSafety@swansea.gov.uk,Swansea,http://www.swansea.gov.uk,-3.93506700000000,SA6 8JU,2011-05-27,fhrs_5_en-GB,5,,FHRS,5
481554,Portland House,58-60 The Kingsway,City Centre,Swansea,Co-operative Food,Retailers - supermarkets/hypermarkets,7840,0,,63924,0,,51.62042600000000,141230,568,FoodandSafety@swansea.gov.uk,Swansea,http://www.swansea.gov.uk,-3.94561800000000,SA1 5HN,2011-05-17,fhrs_5_en-GB,5,,FHRS,0
481555,,84 St Teilo Street,Pontarddulais,Swansea,Co-operative Wholesale Service,Retailers - supermarkets/hypermarkets,7840,10,,110109,0,,51.71428200000000,3988,568,FoodandSafety@swansea.gov.uk,Swansea,http://www.swansea.gov.uk,-4.04138100000000,SA4 8ST,2013-10-22,fhrs_4_en-GB,4,,FHRS,5
481556,,512 Mumbles Road,Mumbles,Swansea,Co-operative Wholesale Service,Retailers - supermarkets/hypermarkets,7840,10,,103467,5,,51.58057000000000,3478,568,FoodandSafety@swansea.gov.uk,Swansea,http://www.swansea.gov.uk,-4.00134600000000,SA3 5TN,2015-01-13,fhrs_4_en-GB,4,,FHRS,5
481557,,287 Neath Road,Plasmarl,Swansea,Coopers Arms,Pub/bar/nightclub,7843,10,,129837,0,,51.64811800000000,6081,568,FoodandSafety@swansea.gov.uk,Swansea,http://www.swansea.gov.uk,-3.93506700000000,SA6 8JU,2014-07-23,fhrs_4_en-GB,4,,FHRS,10
481558,,15-16 Castle Street,City Centre,Swansea,Cosmo,Restaurant/Cafe/Canteen,1,5,,442803,5,,51.62077900000000,145642,568,FoodandSafety@swansea.gov.uk,Swansea,http://www.swansea.gov.uk,-3.94222400000000,SA1 1JF,2015-01-19,fhrs_5_en-GB,5,,FHRS,5
481559,,10-12 Alderwood Road,West Cross,Swansea,Cost Cutters,Retailers - other,4613,5,,106270,5,,51.58669800000000,3685,568,FoodandSafety@swansea.gov.uk,Swansea,http://www.swansea.gov.uk,-4.00106700000000,SA3 5JD,2011-01-31,fhrs_5_en-GB,5,,FHRS,0
481560,,9-11 White Walls,City Centre,Swansea,Costa Coffee,Restaurant/Cafe/Canteen,1,10,,338692,0,,51.61942300000000,138548,568,FoodandSafety@swansea.gov.uk,Swansea,http://www.swansea.gov.uk,-3.94431900000000,SA1 3AA,2013-08-13,fhrs_4_en-GB,4,,FHRS,10
481561,Fulton House,Singleton Park,Sketty,Swansea,Costa Coffee,Restaurant/Cafe/Canteen,1,5,,372147,0,,51.60962500000000,143028,568,FoodandSafety@swansea.gov.uk,Swansea,http://www.swansea.gov.uk,-3.98064200000000,SA2 8PP,2012-03-30,fhrs_5_en-GB,5,,FHRS,5
481562,Swansea Bus Station,Unit 3 Plymouth Street,City Centre,Swansea,Costa Coffee,Restaurant/Cafe/Canteen,1,0,,66537,5,,51.61882600000000,149574,568,FoodandSafety@swansea.gov.uk,Swansea,http://www.swansea.gov.uk,-3.94721100000000,SA1 3QQ,2011-08-23,fhrs_5_en-GB,5,,FHRS,0
481563,"Unit 2, Swansea Railway Station",High Street,City Centre,Swansea,Costa Coffee,Restaurant/Cafe/Canteen,1,5,,585572,0,,51.62518900000000,153374,568,FoodandSafety@swansea.gov.uk,Swansea,http://www.swansea.gov.uk,-3.94092500000000,SA1 1NU,2013-09-12,fhrs_5_en-GB,5,,FHRS,0
481564,Hendrefoilan House,Hendrefoilan Avenue,Sketty,Swansea,Costa Coffee at Hendrefoilan,School/college/university,7845,0,,65052,0,,51.62363800000000,145687,568,FoodandSafety@swansea.gov.uk,Swansea,http://www.swansea.gov.uk,-4.00379000000000,SA2 7NB,2011-11-08,fhrs_5_en-GB,5,,FHRS,5
481565,,132 Townhill Road,Mayhill,Swansea,Costcutter,Retailers - other,4613,5,,338708,0,,51.62686900000000,2497,568,FoodandSafety@swansea.gov.uk,Swansea,http://www.swansea.gov.uk,-3.97234900000000,SA2 0UU,2014-04-01,fhrs_5_en-GB,5,,FHRS,0
481566,,6 St Helens Road,Sandfields,Swansea,Costcutter,Retailers - other,4613,0,,62114,5,,51.61900500000000,136963,568,FoodandSafety@swansea.gov.uk,Swansea,http://www.swansea.gov.uk,-3.95052700000000,SA1 4AN,2011-01-18,fhrs_5_en-GB,5,,FHRS,5
481567,"Unit 11 To 13, Swansea Market",Oxford Street,City Centre,Swansea,Country Kitchen,Restaurant/Cafe/Canteen,1,5,,145880,5,,51.61912200000000,876,568,FoodandSafety@swansea.gov.uk,Swansea,http://www.swansea.gov.uk,-3.94512900000000,SA1 3PE,2014-08-21,fhrs_5_en-GB,5,,FHRS,0
481568,"Unit 49b, Swansea Market",Oxford Street,City Centre,Swansea,Country Quality Meats,Retailers - other,4613,5,,149687,0,,51.61912200000000,965,568,FoodandSafety@swansea.gov.uk,Swansea,http://www.swansea.gov.uk,-3.94512900000000,SA1 3PQ,2015-01-14,fhrs_5_en-GB,5,,FHRS,5
481569,,6 Rhyddwen Road,Craig Cefn Parc,Swansea,Craig Cefn Parc Post Office,Retailers - other,4613,10,,247541,5,,51.70728100000000,5617,568,FoodandSafety@swansea.gov.uk,Swansea,http://www.swansea.gov.uk,-3.91465000000000,SA6 5RA,2012-07-05,fhrs_4_en-GB,4,,FHRS,5
481570,Craig Cefn Parc County School,,Craig Cefn Parc,Swansea,Craig Cefn Parc Primary School,School/college/university,7845,0,,127293,0,,51.71586400000000,5647,568,FoodandSafety@swansea.gov.uk,Swansea,http://www.swansea.gov.uk,-3.91824100000000,SA6 5TE,2012-05-17,fhrs_5_en-GB,5,,FHRS,5
481571,Craigfelen Cp School,Woodside Crescent,Clydach,Swansea,Craigfelen Caterpillars Flying Start,Hospitals/Childcare/Caring Premises,5,0,,665469,0,,51.69740100000000,154530,568,FoodandSafety@swansea.gov.uk,Swansea,http://www.swansea.gov.uk,-3.90505900000000,SA6 5DP,2014-05-23,fhrs_5_en-GB,5,,FHRS,5
481572,Craigfelen Cp School,Woodside Crescent,Clydach,Swansea,Craigfelen Primary School,School/college/university,7845,5,,126094,0,,51.69740100000000,5492,568,FoodandSafety@swansea.gov.uk,Swansea,http://www.swansea.gov.uk,-3.90505900000000,SA6 5DP,2013-11-26,fhrs_5_en-GB,5,,FHRS,5
481573,,50 Pencaerfenni Lane,Crofty,Swansea,Crofty Supermarket,Retailers - other,4613,10,,116586,5,,51.63386700000000,4578,568,FoodandSafety@swansea.gov.uk,Swansea,http://www.swansea.gov.uk,-4.13019300000000,SA4 3SW,2013-10-11,fhrs_4_en-GB,4,,FHRS,5
481574,Cross Keys Garage,Glebe Road,Loughor,Swansea,Cross Keys Service Station,Retailers - other,4613,5,,114677,0,,51.66355100000000,4380,568,FoodandSafety@swansea.gov.uk,Swansea,http://www.swansea.gov.uk,-4.06019600000000,SA4 6SR,2014-10-24,fhrs_4_en-GB,4,,FHRS,10
481575,,4 Swansea Road,Penllergaer,Swansea,Cross Service Station,Retailers - other,4613,0,,665483,5,,51.67108700000000,3746,568,FoodandSafety@swansea.gov.uk,Swansea,http://www.swansea.gov.uk,-3.99983900000000,SA4 9AQ,2014-05-09,fhrs_4_en-GB,4,,FHRS,10
481576,,561 Pentregethin Road,Ravenhill,Swansea,Cross Stores,Retailers - other,4613,10,,122467,0,,51.64548500000000,5096,568,FoodandSafety@swansea.gov.uk,Swansea,http://www.swansea.gov.uk,-3.97059900000000,SA5 8AB,2011-08-17,fhrs_4_en-GB,4,,FHRS,0
481577,,344 Birchgrove Road,Birchgrove,Swansea,Crown Inn,Pub/bar/nightclub,7843,0,,133828,0,,51.67023900000000,6679,568,FoodandSafety@swansea.gov.uk,Swansea,http://www.swansea.gov.uk,-3.87295600000000,SA7 9NA,2011-11-10,fhrs_5_en-GB,5,,FHRS,0
481578,,2 Gwydr Square,Uplands,Swansea,Crumbs Kitchen,Restaurant/Cafe/Canteen,1,10,,654811,5,,51.61784000000000,154156,568,FoodandSafety@swansea.gov.uk,Swansea,http://www.swansea.gov.uk,-3.96643900000000,SA2 0HD,2014-04-23,fhrs_4_en-GB,4,,FHRS,0
481579,,39 Singleton Street,City Centre,Swansea,Crusts,Takeaway/sandwich shop,7844,0,,247524,0,,51.61855400000000,150842,568,FoodandSafety@swansea.gov.uk,Swansea,http://www.swansea.gov.uk,-3.94793600000000,SA1 3QN,2015-01-06,fhrs_5_en-GB,5,,FHRS,5
481580,Crwys County Primary School,Chapel Road,Three Crosses,Swansea,Crwys Primary After School Club,School/college/university,7845,5,,64831,0,,51.62710200000000,144940,568,FoodandSafety@swansea.gov.uk,Swansea,http://www.swansea.gov.uk,-4.06592700000000,SA4 3PU,2011-05-24,fhrs_5_en-GB,5,,FHRS,0
481581,Crwys County Primary School,Chapel Road,Three Crosses,Swansea,Crwys Primary School,School/college/university,7845,0,,80081,5,,51.62710200000000,19340,568,FoodandSafety@swansea.gov.uk,Swansea,http://www.swansea.gov.uk,-4.06592700000000,SA4 3PU,2014-06-12,fhrs_4_en-GB,4,,FHRS,10
481582,,685 Pentregethin Road,Portmead,Swansea,Curry Pot,Takeaway/sandwich shop,7844,5,,56639,0,,51.65117800000000,128131,568,FoodandSafety@swansea.gov.uk,Swansea,http://www.swansea.gov.uk,-3.97911400000000,SA5 5EY,2014-07-08,fhrs_5_en-GB,5,,FHRS,5
481583,Cwm Glas Primary School,Colwyn Avenue,Winch Wen,Swansea,Cwm Glas Primary School,School/college/university,7845,0,,60629,0,,51.64701100000000,13241,568,FoodandSafety@swansea.gov.uk,Swansea,http://www.swansea.gov.uk,-3.90707900000000,SA1 7EN,2014-10-03,fhrs_4_en-GB,4,,FHRS,10
481584,,73 Hebron Road,Clydach,Swansea,Cwm Stores,Retailers - other,4613,10,,551394,0,,51.69280500000000,5493,568,FoodandSafety@swansea.gov.uk,Swansea,http://www.swansea.gov.uk,-3.90068400000000,SA6 5EH,2014-10-31,fhrs_4_en-GB,4,,FHRS,5
481585,,93 Stepney Street,Cwmbwrla,Swansea,Cwmbwrla Bakehouse,Takeaway/sandwich shop,7844,5,,51613,5,,51.63617200000000,11575,568,FoodandSafety@swansea.gov.uk,Swansea,http://www.swansea.gov.uk,-3.95484800000000,SA5 8BD,2014-01-16,fhrs_5_en-GB,5,,FHRS,5
481586,Cwmbwrla Day Centre,Heol Y Gors,Townhill,Swansea,Cwmbwrla Day Centre,Other catering premises,7841,5,,123478,0,,51.63394700000000,5191,568,FoodandSafety@swansea.gov.uk,Swansea,http://www.swansea.gov.uk,-3.95725200000000,SA5 8LT,2013-12-03,fhrs_5_en-GB,5,,FHRS,5
481587,Cwmbwrla Primary School,Stepney Street,Cwmbwrla,Swansea,Cwmbwrla Primary School,School/college/university,7845,5,,127509,0,,51.63617200000000,56896,568,FoodandSafety@swansea.gov.uk,Swansea,http://www.swansea.gov.uk,-3.95484800000000,SA5 8BD,2014-12-05,fhrs_5_en-GB,5,,FHRS,5
481588,Cwmdonkin Park,Park Drive,Uplands,Swansea,Cwmdonkin Park Kiosk,Restaurant/Cafe/Canteen,1,5,,654808,0,,51.62060600000000,153915,568,FoodandSafety@swansea.gov.uk,Swansea,http://www.swansea.gov.uk,-3.96936100000000,SA2 0PP,2014-04-14,fhrs_5_en-GB,5,,FHRS,0
481589,Cwmfelin Social Welfare Club,Courtney Street,Manselton,Swansea,Cwmfelin Social Club,Pub/bar/nightclub,7843,0,,138754,0,,51.63609400000000,7408,568,FoodandSafety@swansea.gov.uk,Swansea,http://www.swansea.gov.uk,-3.94870200000000,SA5 9NR,2014-12-12,fhrs_5_en-GB,5,,FHRS,5
481590,Cwmrhydyceirw Primary School,Maes Y Gwernen Road,Cwmrhydyceirw,Swansea,Cwmrhydyceirw Primary School,School/college/university,7845,0,,127701,0,,51.67875400000000,5723,568,FoodandSafety@swansea.gov.uk,Swansea,http://www.swansea.gov.uk,-3.93073200000000,SA6 6LL,2014-01-24,fhrs_5_en-GB,5,,FHRS,5
481591,Ysgol Gynradd Gymraeg Gellionen,Gellionen Road,Clydach,Swansea,Cylch Meithrin Clydach,Hospitals/Childcare/Caring Premises,5,5,,665463,0,,51.70074600000000,154424,568,FoodandSafety@swansea.gov.uk,Swansea,http://www.swansea.gov.uk,-3.89451900000000,SA6 5HE,2014-05-06,fhrs_5_en-GB,5,,FHRS,0
481592,Fairview,Railway Terrace,Gorseinon,Swansea,D Danter and Sons,Retailers - other,4613,5,,61578,0,,51.66715400000000,135361,568,FoodandSafety@swansea.gov.uk,Swansea,http://www.swansea.gov.uk,-4.03353400000000,SA4 4EN,2013-02-21,fhrs_5_en-GB,5,,FHRS,0
481593,,90 Mansel Street,Mount Pleasant,Swansea,Dagwoods Sandwich Bar and Cafe,Restaurant/Cafe/Canteen,1,5,,654810,10,,51.62110400000000,154038,568,FoodandSafety@swansea.gov.uk,Swansea,http://www.swansea.gov.uk,-3.94869600000000,SA1 5TZ,2014-04-15,fhrs_3_en-GB,3,,FHRS,10
481594,,5 Llanllienwen Road,Cwmrhydyceirw,Swansea,Dalling Stores,Retailers - other,4613,5,,338713,0,,51.67721700000000,5730,568,FoodandSafety@swansea.gov.uk,Swansea,http://www.swansea.gov.uk,-3.91756200000000,SA6 6NB,2012-06-26,fhrs_5_en-GB,5,,FHRS,0
481595,The Lynch,Llanmorlais,Swansea,,Dani Foods,Manufacturers/packers,7839,0,,539886,0,,51.62886500000000,130830,568,FoodandSafety@swansea.gov.uk,Swansea,http://www.swansea.gov.uk,-4.13474200000000,SA4 3TN,2014-10-02,fhrs_5_en-GB,5,,FHRS,5
481596,Danycoed House,Huntington Close,West Cross,Swansea,Danycoed Education Centre,Other catering premises,7841,0,,114753,0,,51.59110800000000,43900,568,FoodandSafety@swansea.gov.uk,Swansea,http://www.swansea.gov.uk,-3.99929700000000,SA3 5AL,2014-11-04,fhrs_5_en-GB,5,,FHRS,0
481597,,176 Danygraig Road,Port Tennant,Swansea,Danygraig General Stores,Retailers - other,4613,5,,338706,10,,51.62415500000000,2243,568,FoodandSafety@swansea.gov.uk,Swansea,http://www.swansea.gov.uk,-3.90968900000000,SA1 8NL,2014-12-16,fhrs_4_en-GB,4,,FHRS,5
481598,Danygraig Primary School,Ysgol Street,Port Tennant,Swansea,Danygraig Primary School,School/college/university,7845,5,,338703,0,,51.62131500000000,18006,568,FoodandSafety@swansea.gov.uk,Swansea,http://www.swansea.gov.uk,-3.91510200000000,SA1 8LE,2012-03-27,fhrs_5_en-GB,5,,FHRS,0
481599,Danygraig Primary School,Ysgol Street,Port Tennant,Swansea,Danygraig Primary School Breakfast Club,School/college/university,7845,0,,64754,0,,51.62131500000000,144583,568,FoodandSafety@swansea.gov.uk,Swansea,http://www.swansea.gov.uk,-3.91510200000000,SA1 8LE,2012-01-23,fhrs_5_en-GB,5,,FHRS,0
481600,,17 Alexandra Road,Gorseinon,Swansea,David Richards Butcher,Retailers - other,4613,5,,114379,5,,51.66961100000000,4342,568,FoodandSafety@swansea.gov.uk,Swansea,http://www.swansea.gov.uk,-4.04274100000000,SA4 4NW,2015-01-21,fhrs_5_en-GB,5,,FHRS,5
481601,,222 Gors Avenue,Townhill,Swansea,Davies of Mumbles,Retailers - other,4613,0,,585573,5,,51.63145500000000,153518,568,FoodandSafety@swansea.gov.uk,Swansea,http://www.swansea.gov.uk,-3.97234600000000,SA1 6RT,2015-01-12,fhrs_5_en-GB,5,,FHRS,5
481602,,95 Eversley Road,Sketty,Swansea,Davies of Mumbles,Retailers - other,4613,5,,51582,5,,51.61827800000000,115669,568,FoodandSafety@swansea.gov.uk,Swansea,http://www.swansea.gov.uk,-3.98424000000000,SA2 9DE,2014-01-30,fhrs_5_en-GB,5,,FHRS,0
481603,Unit 13 T & G Davies (Mumbles) Ltd,The Precinct,Killay,Swansea,Davies of Mumbles,Retailers - other,4613,5,,91515,0,,51.61806700000000,2533,568,FoodandSafety@swansea.gov.uk,Swansea,http://www.swansea.gov.uk,-4.01820700000000,SA2 7BA,2012-05-16,fhrs_5_en-GB,5,,FHRS,0
481604,"Unit 36b And 36c, Swansea Market",Oxford Street,City Centre,Swansea,Davies of Mumbles,Retailers - other,4613,5,,56820,0,,51.61912200000000,128590,568,FoodandSafety@swansea.gov.uk,Swansea,http://www.swansea.gov.uk,-3.94512900000000,SA1 3PF,2014-09-03,fhrs_4_en-GB,4,,FHRS,10
481605,"Unit 42a, Swansea Market",Oxford Street,City Centre,Swansea,Davies of Mumbles,Retailers - other,4613,5,,60850,0,,51.61912200000000,133108,568,FoodandSafety@swansea.gov.uk,Swansea,http://www.swansea.gov.uk,-3.94512900000000,SA1 3PQ,2014-09-03,fhrs_5_en-GB,5,,FHRS,0
481606,,17 Walter Road,City Centre,Swansea,Day Day Store,Retailers - other,4613,10,,634938,0,,51.61976100000000,152724,568,FoodandSafety@swansea.gov.uk,Swansea,http://www.swansea.gov.uk,-3.95425800000000,SA1 5NG,2014-02-05,fhrs_4_en-GB,4,,FHRS,5
481607,,22 The Quadrant,Swansea,,Debenhams Restaurant,Restaurant/Cafe/Canteen,1,0,,74105,0,,51.61788700000000,17020,568,FoodandSafety@swansea.gov.uk,Swansea,http://www.swansea.gov.uk,-3.94532200000000,SA1 3QX,2010-11-22,fhrs_5_en-GB,5,,FHRS,0
481608,Ygg Tan Y Lan,Tan Y Lan Terrace,Morriston,Swansea,Dechrau Disglair Tan-y-Lan,Hospitals/Childcare/Caring Premises,5,0,,665464,0,,51.66421800000000,154426,568,FoodandSafety@swansea.gov.uk,Swansea,http://www.swansea.gov.uk,-3.93209500000000,SA6 7DU,2014-05-20,fhrs_5_en-GB,5,,FHRS,0
481609,Tesco Extra Store,Parc Fforestfach,Cadle,Swansea,DECKS Swansea,Restaurant/Cafe/Canteen,1,0,,728128,0,,51.65078100000000,156497,568,FoodandSafety@swansea.gov.uk,Swansea,http://www.swansea.gov.uk,-3.98716300000000,SA5 4BA,2015-01-07,fhrs_5_en-GB,5,,FHRS,0
481610,Gower College Swansea,Tycoch Road,Sketty,Swansea,Deli Espangol,Restaurant/Cafe/Canteen,1,5,,54759,0,,51.62238700000000,123451,568,FoodandSafety@swansea.gov.uk,Swansea,http://www.swansea.gov.uk,-3.98377000000000,SA2 9EB,2011-01-24,fhrs_5_en-GB,5,,FHRS,0
481611,,455 Llangyfelach Road,Brynhyfryd,Swansea,Deshi Spice,Takeaway/sandwich shop,7844,0,,61520,0,,51.64324500000000,135157,568,FoodandSafety@swansea.gov.uk,Swansea,http://www.swansea.gov.uk,-3.94424000000000,SA5 9LN,2015-01-15,fhrs_5_en-GB,5,,FHRS,0
481612,,37-38 St Helens Road,Swansea,,Desi Foods,Retailers - other,4613,20,,64526,5,,51.61775300000000,143573,568,FoodandSafety@swansea.gov.uk,Swansea,http://www.swansea.gov.uk,-3.95334800000000,SA1 4AY,2013-07-30,fhrs_1_en-GB,1,,FHRS,15
481613,Unit 1,West Street,Gorseinon,Swansea,Design A Cake,Other catering premises,7841,5,,665465,0,,51.66799100000000,154428,568,FoodandSafety@swansea.gov.uk,Swansea,http://www.swansea.gov.uk,-4.04123600000000,SA4 4AA,2014-05-20,fhrs_5_en-GB,5,,FHRS,0
481614,,394-396 Oystermouth Road,Swansea,,Devon View,Hotel/bed & breakfast/guest house,7842,0,,51698,5,,51.61295900000000,1160,568,FoodandSafety@swansea.gov.uk,Swansea,http://www.swansea.gov.uk,-3.95717200000000,SA1 3UL,2010-11-18,fhrs_5_en-GB,5,,FHRS,0
481615,,100 Sterry Road,Gowerton,Swansea,Dhoniya Takeaway,Takeaway/sandwich shop,7844,5,,616067,5,,51.64767300000000,153520,568,FoodandSafety@swansea.gov.uk,Swansea,http://www.swansea.gov.uk,-4.03837200000000,SA4 3BW,2013-11-19,fhrs_4_en-GB,4,,FHRS,10
481616,,16 Alderwood Road,West Cross,Swansea,Dick Bartons Fish and Chip Shop,Takeaway/sandwich shop,7844,5,,106229,0,,51.58669800000000,3682,568,FoodandSafety@swansea.gov.uk,Swansea,http://www.swansea.gov.uk,-4.00106700000000,SA3 5JD,2013-10-23,fhrs_5_en-GB,5,,FHRS,0
481617,,Rhodfa Fadog,Cwmrhydyceirw,Swansea,Dicksy's Fish Bar,Takeaway/sandwich shop,7844,0,,56649,0,,51.68330000000000,128169,568,FoodandSafety@swansea.gov.uk,Swansea,http://www.swansea.gov.uk,-3.92440100000000,SA6 6LQ,2014-12-10,fhrs_5_en-GB,5,,FHRS,5
481618,,56 St Helens Road,Swansea,,Didier and Stephanie,Restaurant/Cafe/Canteen,1,5,,51615,0,,51.61661400000000,115763,568,FoodandSafety@swansea.gov.uk,Swansea,http://www.swansea.gov.uk,-3.95589900000000,SA1 4BE,2013-09-20,fhrs_5_en-GB,5,,FHRS,5
481619,,3 Dillwyn Road,Sketty,Swansea,Dillys Kitchen,Restaurant/Cafe/Canteen,1,5,,608118,0,,51.61777800000000,151819,568,FoodandSafety@swansea.gov.uk,Swansea,http://www.swansea.gov.uk,-3.98668900000000,SA2 9AQ,2014-11-10,fhrs_4_en-GB,4,,FHRS,10
481620,1 Anchor Court,Victoria Quay,Maritime Quarter,Swansea,Dilwyns Cafe,Restaurant/Cafe/Canteen,1,5,,608125,0,,51.61594600000000,153371,568,FoodandSafety@swansea.gov.uk,Swansea,http://www.swansea.gov.uk,-3.94029900000000,SA1 3XA,2013-03-24,fhrs_5_en-GB,5,,FHRS,0
481621,"The Discovery Centre, Brynmill Park",Glanbrydan Avenue,Uplands,Swansea,Discovery Visitor Centre,Other catering premises,7841,5,,62349,0,,51.61530500000000,137697,568,FoodandSafety@swansea.gov.uk,Swansea,http://www.swansea.gov.uk,-3.97498200000000,SA2 0JQ,2011-03-23,fhrs_5_en-GB,5,,FHRS,0
481622,,6 West Street,Gorseinon,Swansea,Dominos,Takeaway/sandwich shop,7844,0,,65055,0,,51.66799100000000,145692,568,FoodandSafety@swansea.gov.uk,Swansea,http://www.swansea.gov.uk,-4.04123600000000,SA4 4AA,2014-10-03,fhrs_5_en-GB,5,,FHRS,0
481623,,10 Dillwyn Street,City Centre,Swansea,Domino's Pizza,Takeaway/sandwich shop,7844,0,,50066,0,,51.61828300000000,11133,568,FoodandSafety@swansea.gov.uk,Swansea,http://www.swansea.gov.uk,-3.94962900000000,SA1 4AE,2014-02-10,fhrs_4_en-GB,4,,FHRS,10
481624,,83-84 Woodfield Street,Morriston,Swansea,Domino's Pizza,Takeaway/sandwich shop,7844,0,,63995,0,,51.66360200000000,141480,568,FoodandSafety@swansea.gov.uk,Swansea,http://www.swansea.gov.uk,-3.92583600000000,SA6 8BA,2011-03-01,fhrs_5_en-GB,5,,FHRS,0
481625,,358a Oystermouth Road,City Centre,Swansea,Double Luck,Takeaway/sandwich shop,7844,10,,619660,10,,51.61295900000000,154861,568,FoodandSafety@swansea.gov.uk,Swansea,http://www.swansea.gov.uk,-3.95717200000000,SA1 3UL,2013-12-04,fhrs_3_en-GB,3,,FHRS,10
481626,,104 St Teilo Street,Pontarddulais,Swansea,Double Luck Chinese Takeaway,Takeaway/sandwich shop,7844,0,,247517,10,,51.71437700000000,144826,568,FoodandSafety@swansea.gov.uk,Swansea,http://www.swansea.gov.uk,-4.04058900000000,SA4 8SS,2013-11-13,fhrs_4_en-GB,4,,FHRS,10
481627,,606 Mumbles Road,Mumbles,Swansea,Dragon Boat,Takeaway/sandwich shop,7844,10,,79802,10,,51.57318400000000,19235,568,FoodandSafety@swansea.gov.uk,Swansea,http://www.swansea.gov.uk,-3.99566800000000,SA3 4DL,2013-10-30,fhrs_3_en-GB,3,,FHRS,10
481628,,88 Rheidol Avenue,Clase,Swansea,Dragon Palace,Takeaway/sandwich shop,7844,10,,128227,5,,51.66315800000000,5809,568,FoodandSafety@swansea.gov.uk,Swansea,http://www.swansea.gov.uk,-3.94403700000000,SA6 7JS,2013-10-07,fhrs_4_en-GB,4,,FHRS,5
481629,,556 Neath Road,Morriston,Swansea,Dukes Arms,Pub/bar/nightclub,7843,0,,676497,0,,51.65715600000000,148021,568,FoodandSafety@swansea.gov.uk,Swansea,http://www.swansea.gov.uk,-3.92628600000000,SA6 8HG,2014-03-04,fhrs_4_en-GB,4,,FHRS,10
481630,"Unit 9, Pontardulais Retail Park",Pontardulais Road,Cadle,Swansea,Dunelm,Restaurant/Cafe/Canteen,1,0,,62109,0,,51.65078100000000,136950,568,FoodandSafety@swansea.gov.uk,Swansea,http://www.swansea.gov.uk,-3.98716300000000,SA5 4BA,2012-12-05,fhrs_5_en-GB,5,,FHRS,0
481631,Dunvant Primary School,Dunvant Road,Dunvant,Swansea,Dunvant Primary School,School/college/university,7845,0,,247505,0,,51.62323700000000,137094,568,FoodandSafety@swansea.gov.uk,Swansea,http://www.swansea.gov.uk,-4.02191800000000,SA2 7SN,2014-12-05,fhrs_4_en-GB,4,,FHRS,10
481632,Dunvant Primary School,Dunvant Road,Dunvant,Swansea,Dunvant Primary Wrap Around Club,Other catering premises,7841,5,,634940,0,,51.62323700000000,152729,568,FoodandSafety@swansea.gov.uk,Swansea,http://www.swansea.gov.uk,-4.02191800000000,SA2 7SN,2014-02-13,fhrs_5_en-GB,5,,FHRS,5
481633,Driver And Vehicle Licensing Agency,Long View Road,Clase,Swansea,DVLA Canteen,Restaurant/Cafe/Canteen,1,0,,69056,5,,51.67000400000000,15487,568,FoodandSafety@swansea.gov.uk,Swansea,http://www.swansea.gov.uk,-3.94545800000000,SA6 7JL,2011-05-25,fhrs_5_en-GB,5,,FHRS,0
481634,"Dvla Day Nursery, Driver And Vehicle Licensing Agency",Long View Road,Clase,Swansea,DVLA Day Nursery,Hospitals/Childcare/Caring Premises,5,5,,64353,0,,51.67000400000000,142848,568,FoodandSafety@swansea.gov.uk,Swansea,http://www.swansea.gov.uk,-3.94545800000000,SA6 7JL,2014-03-24,fhrs_5_en-GB,5,,FHRS,5
481635,,125 Samlet Road,Swansea Enterprise Park,Swansea,Dylan Thomas,Pub/bar/nightclub,7843,5,,51827,5,,51.66067800000000,11643,568,FoodandSafety@swansea.gov.uk,Swansea,http://www.swansea.gov.uk,-3.90163800000000,SA7 9AQ,2013-07-02,fhrs_4_en-GB,4,,FHRS,10
481636,Dylan Thomas Centre,Somerset Place,Maritime Quarter,Swansea,Dylan Thomas Centre,Pub/bar/nightclub,7843,5,,56656,0,,51.61875900000000,128189,568,FoodandSafety@swansea.gov.uk,Swansea,http://www.swansea.gov.uk,-3.93604200000000,SA1 1RR,2013-07-30,fhrs_4_en-GB,4,,FHRS,10
481637,Dylan Thomas Community School,John Street,Cockett,Swansea,Dylan Thomas Community School,School/college/university,7845,0,,120183,0,,51.63309900000000,4920,568,FoodandSafety@swansea.gov.uk,Swansea,http://www.swansea.gov.uk,-3.98312500000000,SA2 0FR,2011-10-13,fhrs_5_en-GB,5,,FHRS,5
481638,,16-18 Hebron Road,Clydach,Swansea,Dynamic Rock Ltd,Other catering premises,7841,5,,338691,0,,51.69400400000000,135365,568,FoodandSafety@swansea.gov.uk,Swansea,http://www.swansea.gov.uk,-3.89882400000000,SA6 5EJ,2012-03-20,fhrs_5_en-GB,5,,FHRS,0
481639,Dynevor Centre For Art Design And Media,De La Beche Street,City Centre,Swansea,Dynevor Centre,School/college/university,7845,5,,61112,5,,51.62170800000000,133827,568,FoodandSafety@swansea.gov.uk,Swansea,http://www.swansea.gov.uk,-3.94590400000000,SA1 3EU,2014-10-06,fhrs_5_en-GB,5,,FHRS,5
481640,Eagle Self Serve,Llangyfelach Road,Treboeth,Swansea,Eagle Service Station,Retailers - other,4613,5,,124168,0,,51.65561800000000,5267,568,FoodandSafety@swansea.gov.uk,Swansea,http://www.swansea.gov.uk,-3.94919300000000,SA5 9AX,2013-05-15,fhrs_5_en-GB,5,,FHRS,0
481641,,76-78 Port Tennant Road,Port Tennant,Swansea,Eastern Express Takeaway,Takeaway/sandwich shop,7844,10,,86575,5,,51.62198800000000,2206,568,FoodandSafety@swansea.gov.uk,Swansea,http://www.swansea.gov.uk,-3.92566200000000,SA1 8JF,2015-01-07,fhrs_4_en-GB,4,,FHRS,5
481642,,110 Swansea Road,Waunarlwydd,Swansea,Eastern Kitchen,Takeaway/sandwich shop,7844,5,,577250,5,,51.64059400000000,154122,568,FoodandSafety@swansea.gov.uk,Swansea,http://www.swansea.gov.uk,-4.01503100000000,SA5 4SS,2013-11-20,fhrs_5_en-GB,5,,FHRS,5
481643,,137 Eaton Road,Brynhyfryd,Swansea,Eaton Road Fish Bar Limited,Takeaway/sandwich shop,7844,5,,124797,0,,51.64052800000000,5324,568,FoodandSafety@swansea.gov.uk,Swansea,http://www.swansea.gov.uk,-3.94597300000000,SA5 9JU,2014-03-13,fhrs_4_en-GB,4,,FHRS,10
481644,York Chambers,York Street,City Centre,Swansea,Eddie Rockets,Pub/bar/nightclub,7843,5,,63095,0,,51.61809400000000,139709,568,FoodandSafety@swansea.gov.uk,Swansea,http://www.swansea.gov.uk,-3.93932200000000,SA1 3LZ,2014-01-29,fhrs_5_en-GB,5,,FHRS,5
481645,Hillend Caravan And Camping Park,,Llangennith,Swansea,Eddys Cafe and Bistro,Restaurant/Cafe/Canteen,1,5,,717448,5,,51.59619200000000,156944,568,FoodandSafety@swansea.gov.uk,Swansea,http://www.swansea.gov.uk,-4.28385100000000,SA3 1JD,2014-10-10,fhrs_5_en-GB,5,,FHRS,5
481646,,33 Walter Road,City Centre,Swansea,EET Sandwich Cafe,Restaurant/Cafe/Canteen,1,10,,623544,10,,51.61922900000000,154929,568,FoodandSafety@swansea.gov.uk,Swansea,http://www.swansea.gov.uk,-3.95650300000000,SA1 5NW,2014-12-16,fhrs_3_en-GB,3,,FHRS,10
481647,,24-25 Oxford Street,Swansea,,Eli Jenkins,Pub/bar/nightclub,7843,5,,65884,0,,51.61908500000000,148347,568,FoodandSafety@swansea.gov.uk,Swansea,http://www.swansea.gov.uk,-3.94736700000000,SA1 3AQ,2014-09-24,fhrs_5_en-GB,5,,FHRS,5
481648,National Waterfront Museum Of Wales,Oystermouth Road,City Centre,Swansea,Eliance Digby Trout Restaurants,Restaurant/Cafe/Canteen,1,0,,61689,0,,51.61642500000000,135740,568,FoodandSafety@swansea.gov.uk,Swansea,http://www.swansea.gov.uk,-3.93857100000000,SA1 3RD,2010-12-13,fhrs_5_en-GB,5,,FHRS,5
481649,Admiral Group House,Langdon Road,Swansea Docks,Swansea,Elior Catering,Restaurant/Cafe/Canteen,1,5,,62337,5,,51.62055600000000,137650,568,FoodandSafety@swansea.gov.uk,Swansea,http://www.swansea.gov.uk,-3.93070100000000,SA1 8AG,2013-05-17,fhrs_5_en-GB,5,,FHRS,5
481650,,2 Sandringham Park,Swansea Vale,Swansea,Elior UK Ltd,Restaurant/Cafe/Canteen,1,0,,616065,0,,51.66831700000000,149020,568,FoodandSafety@swansea.gov.uk,Swansea,http://www.swansea.gov.uk,-3.90414200000000,SA6 8AJ,2013-11-20,fhrs_5_en-GB,5,,FHRS,5
481651,,59-60 High Street,City Centre,Swansea,Espresso Bar,Restaurant/Cafe/Canteen,1,10,,64145,5,,51.62570700000000,142,568,FoodandSafety@swansea.gov.uk,Swansea,http://www.swansea.gov.uk,-3.94168300000000,SA1 1LN,2014-07-09,fhrs_3_en-GB,3,,FHRS,10
481652,,39-43 Samlet Road,Swansea Enterprise Park,Swansea,Esso Morriston Service Station,Retailers - other,4613,0,,132397,0,,51.66233500000000,6434,568,FoodandSafety@swansea.gov.uk,Swansea,http://www.swansea.gov.uk,-3.90760700000000,SA7 9AD,2011-06-07,fhrs_5_en-GB,5,,FHRS,0
481653,,58 St Helens Road,Sandfields,Swansea,Exotica,Retailers - other,4613,20,,61756,10,,51.61661400000000,135950,568,FoodandSafety@swansea.gov.uk,Swansea,http://www.swansea.gov.uk,-3.95589900000000,SA1 4BE,2014-08-28,fhrs_1_en-GB,1,,FHRS,15
481654,,33 St Helens Road,Sandfields,Swansea,Exotica 2,Retailers - other,4613,20,,634955,10,,51.61775300000000,155199,568,FoodandSafety@swansea.gov.uk,Swansea,http://www.swansea.gov.uk,-3.95334800000000,SA1 4AY,2014-02-07,fhrs_1_en-GB,1,,FHRS,15
481655,The Liberty Stadium,,Landore,Swansea,Facilities Management Catering Ltd,Retailers - other,4613,5,,63824,5,,51.64216232299805,140936,568,FoodandSafety@swansea.gov.uk,Swansea,http://www.swansea.gov.uk,-3.93513107299805,SA1 2FA,2014-12-02,fhrs_5_en-GB,5,,FHRS,5
481656,Fairdeal Cafe,Melrose Close,Swansea Enterprise Park,Swansea,Fairdeal Cafe,Restaurant/Cafe/Canteen,1,0,,66258,0,,51.65971000000000,149084,568,FoodandSafety@swansea.gov.uk,Swansea,http://www.swansea.gov.uk,-3.91359800000000,SA6 8QE,2014-11-13,fhrs_5_en-GB,5,,FHRS,5
481657,,25-27 Sketty Road,Uplands,Swansea,Fairleigh House,Hospitals/Childcare/Caring Premises,5,0,,247504,0,,51.61820700000000,9412,568,FoodandSafety@swansea.gov.uk,Swansea,http://www.swansea.gov.uk,-3.96872300000000,SA2 0EU,2014-10-09,fhrs_5_en-GB,5,,FHRS,0
481658,Fairwood Park Golf Club,Blackhills Lane,Fairwood,Swansea,Fairwood Park Golf Club Ltd,Restaurant/Cafe/Canteen,1,5,,92462,10,,51.60242600000000,2604,568,FoodandSafety@swansea.gov.uk,Swansea,http://www.swansea.gov.uk,-4.04438700000000,SA2 7JN,2014-02-19,fhrs_3_en-GB,3,,FHRS,10
481659,,728 Gower Road,Upper Killay,Swansea,Fairwood Stores,Retailers - other,4613,5,,608124,0,,51.61523000000000,153119,568,FoodandSafety@swansea.gov.uk,Swansea,http://www.swansea.gov.uk,-4.04448600000000,SA2 7HQ,2014-10-06,fhrs_5_en-GB,5,,FHRS,0
481660,Fairyhill Hotel,Reynoldston,Swansea,,Fairyhill Hotel,Hotel/bed & breakfast/guest house,7842,5,,96677,0,,51.63547897338867,2960,568,FoodandSafety@swansea.gov.uk,Swansea,http://www.swansea.gov.uk,-4.12053489685059,SA3 1BS,2014-07-24,fhrs_5_en-GB,5,,FHRS,5
481661,,57 Crwys Terrace,Penlan,Swansea,Family Kebab House,Takeaway/sandwich shop,7844,20,,676509,10,,51.65424800000000,153140,568,FoodandSafety@swansea.gov.uk,Swansea,http://www.swansea.gov.uk,-3.95367400000000,SA5 9AH,2014-03-04,fhrs_1_en-GB,1,,FHRS,15
481662,,19-20 North Hill Road,Mount Pleasant,Swansea,Farmers Arms,Pub/bar/nightclub,7843,5,,65839,0,,51.62636300000000,148266,568,FoodandSafety@swansea.gov.uk,Swansea,http://www.swansea.gov.uk,-3.94824200000000,SA1 6XS,2011-06-07,fhrs_4_en-GB,4,,FHRS,10
481663,Fforestfach Adult Training Centre,Abergelly Road,Fforestfach,Swansea,Fforestfach ATC,Other catering premises,7841,5,,118853,10,,51.64721000000000,4812,568,FoodandSafety@swansea.gov.uk,Swansea,http://www.swansea.gov.uk,-3.99148800000000,SA5 4DY,2013-12-04,fhrs_4_en-GB,4,,FHRS,5
481664,Ffynone House School,St James Crescent,Swansea,,Ffynone House School,School/college/university,7845,0,,69063,0,,51.61943800000000,15489,568,FoodandSafety@swansea.gov.uk,Swansea,http://www.swansea.gov.uk,-3.95961800000000,SA1 6DR,2014-11-25,fhrs_5_en-GB,5,,FHRS,5
481665,,89 Broughton Avenue,Blaenymaes,Swansea,Fil Fil,Takeaway/sandwich shop,7844,10,,732783,5,,51.65383700000000,153047,568,FoodandSafety@swansea.gov.uk,Swansea,http://www.swansea.gov.uk,-3.97499400000000,SA5 5LN,2015-01-07,fhrs_4_en-GB,4,,FHRS,5
481666,"Unit 2, Garngoch Industrial Estate",Phoenix Way,Gorseinon,Swansea,Finks Diner,Restaurant/Cafe/Canteen,1,5,,502318,0,,51.66667300000000,153037,568,FoodandSafety@swansea.gov.uk,Swansea,http://www.swansea.gov.uk,-4.01553700000000,SA4 9WG,2014-08-12,fhrs_5_en-GB,5,,FHRS,0
481667,,132 Marcroft Road,Port Tennant,Swansea,Fired up Feasts,Retailers - other,4613,0,,585576,5,,51.62418300000000,153526,568,FoodandSafety@swansea.gov.uk,Swansea,http://www.swansea.gov.uk,-3.90352100000000,SA1 8NH,2013-07-13,fhrs_5_en-GB,5,,FHRS,0
481668,,47 High Street,City Centre,Swansea,First Call Coffee,Restaurant/Cafe/Canteen,1,0,,97366,0,,51.62313900000000,30172,568,FoodandSafety@swansea.gov.uk,Swansea,http://www.swansea.gov.uk,-3.94255600000000,SA1 1LG,2012-05-09,fhrs_5_en-GB,5,,FHRS,0
481669,,216-217 Neath Road,Landore,Swansea,Flamers,Takeaway/sandwich shop,7844,10,,55093,5,,51.64118900000000,124275,568,FoodandSafety@swansea.gov.uk,Swansea,http://www.swansea.gov.uk,-3.93808100000000,SA1 2JT,2014-03-19,fhrs_4_en-GB,4,,FHRS,5
481670,,96 Woodfield Street,Morriston,Swansea,Flying Pizza,Takeaway/sandwich shop,7844,0,,219021,0,,51.66360200000000,26843,568,FoodandSafety@swansea.gov.uk,Swansea,http://www.swansea.gov.uk,-3.92583600000000,SA6 8BA,2014-10-07,fhrs_5_en-GB,5,,FHRS,5
481671,Seaview Community Primary School,Creidiol Road,Mayhill,Swansea,Flying Start,Hospitals/Childcare/Caring Premises,5,0,,682956,0,,51.62785900000000,143279,568,FoodandSafety@swansea.gov.uk,Swansea,http://www.swansea.gov.uk,-3.95183200000000,SA1 6TZ,2014-07-16,fhrs_5_en-GB,5,,FHRS,0
481672,Hafod Primary School,Odo Street,Hafod,Swansea,Flying Start Nursery,Hospitals/Childcare/Caring Premises,5,5,,64128,0,,51.63430600000000,141946,568,FoodandSafety@swansea.gov.uk,Swansea,http://www.swansea.gov.uk,-3.94099600000000,SA1 2LT,2011-06-14,fhrs_5_en-GB,5,,FHRS,0
481673,,1 St Helens Road,Sandfields,Swansea,Food 2 Go,Takeaway/sandwich shop,7844,10,,63168,10,,51.61900500000000,139949,568,FoodandSafety@swansea.gov.uk,Swansea,http://www.swansea.gov.uk,-3.95052700000000,SA1 4AN,2014-03-27,fhrs_3_en-GB,3,,FHRS,5
481674,"Food For Thought, Create Solutions",Courtney Street,Manselton,Swansea,Food for Thought,Restaurant/Cafe/Canteen,1,5,,447586,0,,51.63573100000000,136469,568,FoodandSafety@swansea.gov.uk,Swansea,http://www.swansea.gov.uk,-3.94943800000000,SA5 9NS,2014-02-12,fhrs_5_en-GB,5,,FHRS,0
481675,,93 High Street,Gorseinon,Swansea,Food Net,Takeaway/sandwich shop,7844,20,,616073,10,,51.66920200000000,154774,568,FoodandSafety@swansea.gov.uk,Swansea,http://www.swansea.gov.uk,-4.04092900000000,SA4 4BL,2014-10-28,fhrs_1_en-GB,1,,FHRS,15
481676,Grand Theatre,Singleton Street,City Centre,Swansea,Footlights and Roof Top Cafe and Lavazza Coffee Shop,Restaurant/Cafe/Canteen,1,5,,40198,0,,51.61802300000000,1009,568,FoodandSafety@swansea.gov.uk,Swansea,http://www.swansea.gov.uk,-3.94792800000000,SA1 3QJ,2014-01-10,fhrs_5_en-GB,5,,FHRS,5
481677,,815 Llangyfelach Road,Treboeth,Swansea,Fords Sports and Social Club,Pub/bar/nightclub,7843,5,,124162,0,,51.65561800000000,5266,568,FoodandSafety@swansea.gov.uk,Swansea,http://www.swansea.gov.uk,-3.94919300000000,SA5 9AX,2014-02-24,fhrs_5_en-GB,5,,FHRS,5
481678,,Hebron Road,Clydach,Swansea,Forge Fach Cafe,Other catering premises,7841,5,,410377,5,,51.69400400000000,138797,568,FoodandSafety@swansea.gov.uk,Swansea,http://www.swansea.gov.uk,-3.89882400000000,SA6 5EJ,2013-06-12,fhrs_4_en-GB,4,,FHRS,10
481679,Forge Fach Community Resource Centre,Hebron Road,Clydach,Swansea,Forge Fach Day Nursery,Hospitals/Childcare/Caring Premises,5,10,,63894,5,,51.69400400000000,141148,568,FoodandSafety@swansea.gov.uk,Swansea,http://www.swansea.gov.uk,-3.89882400000000,SA6 5EJ,2014-06-05,fhrs_4_en-GB,4,,FHRS,5
481680,Fortes Ice Cream Parlour,Mumbles Road,Mumbles,Swansea,Fortes Ice Cream Parlour,Restaurant/Cafe/Canteen,1,5,,104873,0,,51.56599800000000,3588,568,FoodandSafety@swansea.gov.uk,Swansea,http://www.swansea.gov.uk,-3.98141400000000,SA3 4JT,2013-12-04,fhrs_5_en-GB,5,,FHRS,5
481681,,70 King Edwards Road,Brynmill,Swansea,Fortune House,Takeaway/sandwich shop,7844,10,,62173,10,,51.61383300000000,137132,568,FoodandSafety@swansea.gov.uk,Swansea,http://www.swansea.gov.uk,-3.96464800000000,SA1 4LX,2014-01-22,fhrs_3_en-GB,3,,FHRS,10
481682,,111 Bolgoed Road,Pontarddulais,Swansea,Fountain Inn,Pub/bar/nightclub,7843,5,,108125,0,,51.70880000000000,3844,568,FoodandSafety@swansea.gov.uk,Swansea,http://www.swansea.gov.uk,-4.02613800000000,SA4 8JP,2014-11-19,fhrs_5_en-GB,5,,FHRS,5
481683,,12 Nelson Street,City Centre,Swansea,Francos,Restaurant/Cafe/Canteen,1,0,,61892,10,,51.61879900000000,136317,568,FoodandSafety@swansea.gov.uk,Swansea,http://www.swansea.gov.uk,-3.94670400000000,SA1 3QE,2014-10-16,fhrs_4_en-GB,4,,FHRS,10
481684,"Unit 19b, Morfa Shopping Park",Brunel Way,Landore,Swansea,Frankie & Bennys,Restaurant/Cafe/Canteen,1,5,,60972,10,,51.64340000000000,133418,568,FoodandSafety@swansea.gov.uk,Swansea,http://www.swansea.gov.uk,-3.92995200000000,SA1 7BP,2014-09-18,fhrs_4_en-GB,4,,FHRS,5
481685,Frankie & Benny's,Wind Street,Swansea,,Frankie and Bennys,Restaurant/Cafe/Canteen,1,0,,60303,5,,51.61890100000000,131700,568,FoodandSafety@swansea.gov.uk,Swansea,http://www.swansea.gov.uk,-3.93892300000000,SA1 1EE,2012-05-11,fhrs_5_en-GB,5,,FHRS,0
481686,,654-656 Mumbles Road,Mumbles,Swansea,Fredericks Restaurant,Hotel/bed & breakfast/guest house,7842,5,,83564,5,,51.57257000000000,20515,568,FoodandSafety@swansea.gov.uk,Swansea,http://www.swansea.gov.uk,-3.99320200000000,SA3 4EA,2013-11-29,fhrs_5_en-GB,5,,FHRS,0
481687,"Unit 3, National Waterfront Museum",Oystermouth Road,City Centre,Swansea,Fresco,Other catering premises,7841,5,,432589,0,,51.61642500000000,143178,568,FoodandSafety@swansea.gov.uk,Swansea,http://www.swansea.gov.uk,-3.93857100000000,SA1 3RD,2014-03-19,fhrs_5_en-GB,5,,FHRS,5
481688,The Carriage House,Rheidol Avenue,Clase,Swansea,Fresco Coffee House,Restaurant/Cafe/Canteen,1,20,,641654,10,,51.66315800000000,153514,568,FoodandSafety@swansea.gov.uk,Swansea,http://www.swansea.gov.uk,-3.94403700000000,SA6 7JS,2014-02-27,fhrs_1_en-GB,1,,FHRS,5
481689,,39 High Street,Clydach,Swansea,Fresh 2 Lips Cafe,Restaurant/Cafe/Canteen,1,5,,64427,0,,51.69509100000000,143160,568,FoodandSafety@swansea.gov.uk,Swansea,http://www.swansea.gov.uk,-3.89558500000000,SA6 5LQ,2015-01-27,fhrs_5_en-GB,5,,FHRS,5
481690,"Fujitsu, Ffynnon Menter",Phoenix Way,Swansea Enterprise Park,Swansea,Fujitsu,Restaurant/Cafe/Canteen,1,0,,641655,0,,51.65242300000000,153517,568,FoodandSafety@swansea.gov.uk,Swansea,http://www.swansea.gov.uk,-3.91600900000000,SA7 9HW,2014-02-18,fhrs_5_en-GB,5,,FHRS,0
481691,,143-144 High Street,City Centre,Swansea,Full Moon,Pub/bar/nightclub,7843,10,,247518,0,,51.62696600000000,176,568,FoodandSafety@swansea.gov.uk,Swansea,http://www.swansea.gov.uk,-3.94117400000000,SA1 1NE,2012-02-29,fhrs_4_en-GB,4,,FHRS,10
481692,,7 Dunvant Square,Dunvant,Swansea,Full Moon Cantonese Takeaway,Takeaway/sandwich shop,7844,0,,93411,0,,51.62532100000000,2682,568,FoodandSafety@swansea.gov.uk,Swansea,http://www.swansea.gov.uk,-4.03406100000000,SA2 7TA,2014-03-14,fhrs_5_en-GB,5,,FHRS,5
481693,,746 Mumbles Road,Mumbles,Swansea,Galley Catering,Restaurant/Cafe/Canteen,1,0,,676508,0,,51.57139500000000,153091,568,FoodandSafety@swansea.gov.uk,Swansea,http://www.swansea.gov.uk,-3.98773900000000,SA3 4EL,2014-03-19,fhrs_5_en-GB,5,,FHRS,5
481694,Unit 3,Fishmarket Quay,Maritime Quarter,Swansea,Gallinis Restaurant,Restaurant/Cafe/Canteen,1,5,,665453,10,,51.61586500000000,153878,568,FoodandSafety@swansea.gov.uk,Swansea,http://www.swansea.gov.uk,-3.93486400000000,SA1 1UP,2014-05-15,fhrs_3_en-GB,3,,FHRS,10
481695,Unit 1,Altamar,Swansea,,Garbos Cafe Bar Ltd,Restaurant/Cafe/Canteen,1,0,,665455,5,,51.61884700000000,153944,568,FoodandSafety@swansea.gov.uk,Swansea,http://www.swansea.gov.uk,-3.93016600000000,SA1 8PP,2014-11-05,fhrs_5_en-GB,5,,FHRS,5
481696,,18 St Helens Road,Sandfields,Swansea,Garuda Indonesian Restaurant,Restaurant/Cafe/Canteen,1,10,,53291,5,,51.61824900000000,120052,568,FoodandSafety@swansea.gov.uk,Swansea,http://www.swansea.gov.uk,-3.95221400000000,SA1 4AP,2014-10-30,fhrs_4_en-GB,4,,FHRS,5
481697,Gendros Primary School,Armine Road,Fforestfach,Swansea,Gendros Primary School,School/college/university,7845,5,,122701,5,,51.64025700000000,5115,568,FoodandSafety@swansea.gov.uk,Swansea,http://www.swansea.gov.uk,-3.97350800000000,SA5 8DB,2014-10-09,fhrs_4_en-GB,4,,FHRS,10
481698,,11 The Precinct,Killay,Swansea,George Chaplin and Sons,Retailers - other,4613,10,,59687,0,,51.61806700000000,13106,568,FoodandSafety@swansea.gov.uk,Swansea,http://www.swansea.gov.uk,-4.01820700000000,SA2 7BA,2014-10-14,fhrs_4_en-GB,4,,FHRS,5
481699,,1376 Neath Road,Hafod,Swansea,Gerells Coppermill Cafe,Restaurant/Cafe/Canteen,1,5,,66242,5,,51.63292800000000,149036,568,FoodandSafety@swansea.gov.uk,Swansea,http://www.swansea.gov.uk,-3.93845200000000,SA1 2HL,2014-10-23,fhrs_5_en-GB,5,,FHRS,5
481700,,14 Nelson Street,City Centre,Swansea,Gershwins Coffee House Ltd,Restaurant/Cafe/Canteen,1,5,,39806,5,,51.61879900000000,1003,568,FoodandSafety@swansea.gov.uk,Swansea,http://www.swansea.gov.uk,-3.94670400000000,SA1 3QE,2013-10-01,fhrs_5_en-GB,5,,FHRS,0
481701,,615 Birchgrove Road,Glais,Swansea,Glais House Nursing Home,Hospitals/Childcare/Caring Premises,5,5,,641643,5,,51.68898100000000,150611,568,FoodandSafety@swansea.gov.uk,Swansea,http://www.swansea.gov.uk,-3.87789600000000,SA7 9EN,2014-03-06,fhrs_5_en-GB,5,,FHRS,5
481702,Glais Primary School,School Road,Glais,Swansea,Glais Primary School,School/college/university,7845,5,,85126,0,,51.68824400000000,21278,568,FoodandSafety@swansea.gov.uk,Swansea,http://www.swansea.gov.uk,-3.87954400000000,SA7 9EY,2014-10-09,fhrs_5_en-GB,5,,FHRS,5
481703,,230 Cockett Road,Cockett,Swansea,Glasfryn House,Hospitals/Childcare/Caring Premises,5,10,,247522,0,,51.63428900000000,14967,568,FoodandSafety@swansea.gov.uk,Swansea,http://www.swansea.gov.uk,-3.98131200000000,SA2 0FN,2014-08-04,fhrs_4_en-GB,4,,FHRS,10
481704,,362 Oystermouth Road,City Centre,Swansea,Glevdon Hotel,Hotel/bed & breakfast/guest house,7842,5,,51255,0,,51.61295900000000,1147,568,FoodandSafety@swansea.gov.uk,Swansea,http://www.swansea.gov.uk,-3.95717200000000,SA1 3UL,2014-09-05,fhrs_4_en-GB,4,,FHRS,10
481705,,83-85 Glebe Road,Loughor,Swansea,Globe Inn,Pub/bar/nightclub,7843,5,,63632,0,,51.66317100000000,140442,568,FoodandSafety@swansea.gov.uk,Swansea,http://www.swansea.gov.uk,-4.05669400000000,SA4 6QD,2014-11-18,fhrs_5_en-GB,5,,FHRS,0
