,businessname,ratingvalue,structural,hygiene,confidenceinmanagement,ratingdate,latitude,longitude
289565,"""11A""",4,10,5,5,2014-09-03,50.619177,-3.41129
289566,1 Clarence Road,5,5,5,5,2015-01-16,,
289567,1 Scoop Or 2,4,10,5,5,2014-03-06,,
289568,3 Hollishead,5,5,5,5,2014-12-12,,
289569,A J Coles And Son,0,20,15,20,2014-06-12,50.629233,-3.326247
289570,A La Ronde Tearoom,5,5,5,5,2014-10-27,50.6428,-3.405506
289571,A Slice Of Lyme,3,10,10,5,2013-10-17,50.628973,-3.325363
289572,A35 Pit Stop (Cafe Restaurant),2,15,5,5,2014-07-14,50.778949,-3.03213
289573,AB Vending,Exempt,nan,nan,nan,2012-02-17,50.635329,-3.329515
289574,Abbeyfield,5,0,5,5,2014-05-21,50.680952,-3.245636
289575,Abbeyfield (Colyton) Society,5,0,5,0,2013-10-21,50.741359,-3.070888
289576,Abbeyfield (Exmouth) Society,5,5,5,5,2014-05-14,50.624775,-3.389968
289577,Abbeyfield Honiton Society Ltd,5,5,5,5,2014-08-11,50.800324,-3.186341
289578,Abbeyfield House,5,5,5,5,2014-02-24,50.781031,-2.99846
289579,Abbeyfield Sidmouth Society,5,5,5,5,2014-08-05,50.678463,-3.240404
289580,Abbeyfield Sidmouth Society,5,0,5,5,2014-01-29,50.684675,-3.238062
289581,Abbeyfield Society Hill House,5,5,0,5,2014-10-22,50.821697,-3.198056
289582,Aby's,5,5,5,5,2013-12-04,50.615543,-3.412778
289583,Ace Catering,5,5,5,5,2014-03-24,50.621668,-3.411294
289584,Acorn Kindergarten,5,0,0,0,2013-10-18,50.639124,-3.399343
289585,Adelaide Lodge Residential Home,4,10,5,5,2013-10-01,50.799791,-3.178523
289586,Age Concern,5,5,5,5,2013-11-06,50.630469,-3.328982
289587,Albion Cafe,2,15,10,10,2014-09-09,50.620618,-3.411121
289588,Alchemy,4,0,10,5,2013-03-25,,
289589,Aldi Stores Ltd,5,0,0,0,2013-07-15,50.794589,-3.207962
289590,Alex's Homemade,5,5,5,5,2015-01-22,,
289591,Alfington Stores And Service Station,5,5,5,5,2014-07-24,50.770972,-3.259925
289592,Ali`s Kebab House,4,10,5,5,2013-04-11,50.79949,-3.19052
289593,Alice Emily And Kate's Shop,5,5,5,5,2014-10-10,,
289594,Ali's Kebab Shop,4,10,5,5,2013-09-18,50.622428,-3.410892
289595,All Saints Pre-School,5,5,5,5,2014-11-10,,
289596,All Saints Wise Owls,5,5,5,5,2014-02-04,,
289597,Aller Farm,5,5,5,5,2014-04-10,50.827982,-3.070512
289598,Amore,5,nan,nan,nan,2013-09-25,50.704283,-3.065851
289599,Anchor Inn,3,10,10,10,2014-06-11,50.679614,-3.237901
289600,Anchoring Bed And Breakfast,4,5,5,10,2013-06-24,50.617246,-3.420674
289601,Andrewshayes Caravan Site,4,10,5,5,2014-04-10,50.784681,-3.070643
289602,Angela Court,5,5,5,0,2014-07-29,50.718788,-3.293316
289603,Angell Cakes,5,5,5,0,2014-09-03,,
289604,Angels Day Care,Exempt,nan,nan,nan,2012-12-12,50.797291,-3.198013
289605,Anja Von Muhlenen Dunn,4,5,5,10,2013-06-10,,
289606,Annie's Tea Bar Devonshire House Picnic Area A303 Upottery,4,10,5,5,2013-03-27,,
289607,Antonia's Kitchen,5,5,5,0,2013-09-26,50.699424,-3.390305
289608,Antonio's,5,0,0,5,2013-10-29,50.620327,-3.414363
289609,Apple Blossom Day Nursery,4,10,5,5,2014-06-05,50.751685,-3.346504
289610,Apple Tree Galleries,5,5,0,5,2013-02-06,50.782643,-2.998253
289611,Apple Tree Pre-School,Exempt,nan,nan,nan,2014-05-08,50.696401,-3.240721
289612,Applemead,5,5,5,5,2013-05-09,50.768439,-3.354316
289613,Appletree Cottage Bed And Breakfast,4,5,5,10,2013-06-28,50.628825,-3.328837
289614,Argos Limited,Exempt,nan,nan,nan,2012-01-20,50.793082,-3.207596
289615,Arts Cafe,4,10,5,5,2013-09-12,50.781231,-2.999315
289616,Ash Restaurant,4,5,10,5,2014-12-08,50.619103,-3.415853
289617,Ashdale House,1,5,5,20,2013-03-28,50.698124,-3.093846
289618,Ashfield Rest Home,5,5,5,5,2014-09-10,50.621717,-3.407959
289619,Ashton Court Hotel,2,15,10,10,2013-11-13,50.615362,-3.410709
289620,Aspens Services Ltd,4,5,5,10,2013-04-25,50.697498,-3.233048
289621,Avanti,1,10,5,20,2014-09-17,50.618254,-3.413199
289622,Axe Valley Bird And Animal Park,5,5,5,5,2013-10-30,50.778994,-3.031053
289623,Axe Valley Childrfens Centre,Exempt,nan,nan,nan,2014-09-30,50.708778,-3.069862
289624,Axminster Conservative Club,5,nan,nan,nan,2014-04-14,50.781031,-2.99846
289625,Axminster Country Market,4,5,5,10,2011-10-06,,
289626,Axminster Country Market,5,5,5,5,2013-09-25,,
289627,Axminster Country Market,5,0,0,0,2012-05-22,,
289628,Axminster Country Market,5,5,5,5,2015-01-12,,
289629,Axminster Country Market,5,5,5,5,2015-01-12,,
289630,Axminster Country Market,5,5,5,5,2015-01-21,,
289631,Axminster Country Market,5,5,0,0,2015-01-21,,
289632,Axminster Hospital,5,0,0,0,2013-03-05,50.783901,-2.996279
289633,Axminster Methodist Church,1,5,5,20,2014-02-27,50.781572,-2.995194
289634,Axminster Playgroup,Exempt,nan,nan,nan,2013-04-19,50.7806,-2.99211
289635,Axminster Tools And Machinery,5,5,5,5,2014-02-04,50.790434,-2.980926
289636,Axminster United Reform Church,Exempt,nan,nan,nan,2014-02-20,,
289637,Axmouth Camping Site Axe Farm,5,5,5,5,2013-04-02,50.714398,-3.053176
289638,Bake My Day,4,5,5,10,2014-02-25,50.629017,-3.324615
289639,Bank House Bed And Breakfast,5,nan,nan,nan,2014-05-19,50.698048,-3.092287
289640,Baraza,4,10,5,5,2013-04-05,50.682111,-3.238108
289641,Bargain Booze,3,10,5,10,2014-12-04,50.62002,-3.413718
289642,Barley Close Farm Bed And Breakfast,5,5,5,5,2014-06-09,50.790526,-2.943615
289643,Bartlett Mitchell Ltd,5,0,0,5,2014-04-30,50.703019,-3.448161
289644,Bartletts Farm Shop,4,5,5,10,2014-02-20,50.790821,-3.215767
289645,Barton Cross Restaurant And Hotel,3,10,10,10,2013-09-04,50.770889,-3.495299
289646,Bassetts Farm Pre-school,Exempt,nan,nan,nan,2012-12-06,50.634284,-3.385172
289647,Bassetts Farm School,5,0,0,0,2014-12-08,50.634284,-3.385172
289648,Bay Tree Sals,4,5,10,5,2013-08-12,50.751006,-3.281503
289649,Bay View Tea Rooms And Guest House,4,5,5,10,2013-10-31,50.697425,-3.091678
289650,Bayleaf Cafe,4,10,5,5,2014-04-24,50.619781,-3.414856
289651,Beach Belles,5,5,5,5,2013-07-15,50.704066,-3.066936
289652,Beach Hotel,4,10,5,5,2014-08-01,50.617622,-3.420855
289653,Beacon Church Of England VA Primary School,5,0,0,0,2014-02-26,50.617835,-3.412946
289654,Beacon Vaults,4,10,5,5,2014-11-26,50.617977,-3.413841
289655,Bea's Best Ever,5,5,5,5,2013-11-23,50.742968,-3.346027
289656,Bedford Hotel,5,5,5,5,2013-03-14,50.677948,-3.239739
289657,Beehive Catering,4,10,5,5,2014-03-11,,
289658,Beer Fish And Chip Shop,4,10,5,5,2014-08-18,50.698573,-3.092894
289659,Beer Head Bistro,5,5,5,5,2014-04-07,50.693048,-3.099023
289660,Beer Newsagents Ltd,4,5,5,10,2014-06-20,50.699056,-3.093202
289661,Beer Pharmacy Ltd,Exempt,nan,nan,nan,2012-12-05,50.699034,-3.093598
289662,Beer Quarry Caves,5,5,5,5,2014-04-11,,
289663,Beer Sailing Club,1,5,10,20,2014-05-13,50.694095,-3.096712
289664,Beer Village Store,4,5,5,10,2013-11-08,50.69927,-3.093434
289665,Bees Knees,4,5,5,10,2014-10-16,,
289666,Bekkisbakes,4,5,5,10,2014-05-14,,
289667,Bella Pizza,5,5,5,5,2014-01-29,50.800324,-3.186341
289668,Belmont Hotel,5,5,5,5,2014-06-09,50.677544,-3.243111
289669,Bernaville Nurseries,5,0,5,5,2014-02-18,50.754234,-3.557118
289670,Berry Farm,4,5,5,10,2014-12-19,50.791826,-3.382248
289671,Berwick Guest House,5,5,5,5,2014-03-12,50.682999,-3.236631
289672,Bespoke Catering Services And Bespoke Buffet,5,5,5,0,2013-12-12,50.630469,-3.328982
289673,Best Kebabs,1,10,15,20,2014-04-14,50.62002,-3.413718
289674,Bickwell Meadow Bed And Breakfast,5,5,5,5,2012-04-24,50.685969,-3.256598
289675,Bicton College,4,10,5,5,2014-07-07,50.670278,-3.316705
289676,Bicton Inn,3,10,10,10,2013-01-03,50.618586,-3.409547
289677,Bicton Park Botanical Gardens,5,5,5,5,2014-11-11,50.672119,-3.317761
289678,Billie's Bakes,4,5,5,10,2013-07-09,,
289679,Bindon Care,5,5,5,5,2014-02-11,50.690155,-3.237796
289680,Birds Nest,3,10,5,10,2014-07-22,50.800324,-3.186341
289681,Biscuits To Banquets,5,5,0,5,2014-10-02,,
289682,Bites,5,0,5,5,2014-01-20,50.620073,-3.412334
289683,Bites N Brews,4,10,5,5,2013-05-31,,
289684,Black Dog,5,5,5,5,2013-03-28,50.733103,-2.950679
289685,Black Dog Tea Room,4,5,5,10,2014-09-01,50.733103,-2.950679
289686,Black Horse,3,nan,nan,nan,2014-07-29,50.679536,-3.237545
289687,Blackmore Theatre,Exempt,nan,nan,nan,2014-04-07,50.618586,-3.409547
289688,Blacksmith Arms,5,5,5,5,2013-02-14,50.817548,-3.346751
289689,Blinis Cafe Bar,4,10,5,5,2013-05-21,50.678551,-3.237151
289690,Bloaters,5,5,5,5,2013-08-22,50.70331,-3.226884
289691,Blondinis,3,10,5,10,2014-06-18,50.789957,-2.9852
289692,Blue Ball Inn,5,5,5,5,2014-08-13,50.710362,-3.462155
289693,Blue Ball Inn,5,5,5,5,2014-12-11,50.701983,-3.21967
289694,Blue Coast Catering Ltd,3,nan,nan,nan,2014-06-10,50.700674,-3.254825
289695,Bon Gout Catering,5,5,5,5,2013-09-25,50.699424,-3.390305
289696,Boots,Exempt,nan,nan,nan,2012-08-29,50.79949,-3.19052
289697,Boots,Exempt,nan,nan,nan,2012-08-24,50.693735,-3.239391
289698,Boots,4,10,5,5,2015-01-08,50.620073,-3.412334
289699,Boots,Exempt,nan,nan,nan,2012-03-14,50.751289,-3.279497
289700,Boots,Exempt,nan,nan,nan,2012-03-14,50.679091,-3.237123
289701,Boots,Exempt,nan,nan,nan,2014-01-09,50.782295,-2.998997
289702,Boots,Exempt,nan,nan,nan,2014-07-30,50.704356,-3.070582
289703,Bowd Inn,3,10,5,10,2014-07-21,50.702926,-3.266171
289704,Brandon Care Ltd,5,0,0,0,2014-04-29,50.61783,-3.391643
289705,Brandon Care Ltd,5,0,0,0,2014-12-11,50.614471,-3.403318
289706,Brandon Trust,Exempt,nan,nan,nan,2014-08-12,,
289707,Brandon Trust,Exempt,nan,nan,nan,2014-08-11,,
289708,Branscombe Pre-school,Exempt,nan,nan,nan,2013-01-21,50.69186,-3.139345
289709,Brasserie 16 Ltd,5,5,5,5,2013-12-04,50.614566,-3.399109
289710,Breken,5,5,5,5,2013-04-15,50.618142,-3.418001
289711,Briar House,5,5,5,5,2015-01-13,50.732368,-3.434684
289712,Bristol Schools,5,5,5,5,2014-06-04,50.61186,-3.384004
289713,Brixington Parade Fish And Chip Shop,5,5,0,0,2014-06-11,50.636872,-3.391428
289714,Brixington Primary School,5,5,5,5,2014-02-12,50.638125,-3.393416
289715,Broadhembury Post Office Stores,5,5,5,5,2014-07-24,50.835792,-3.277391
289716,Bronte Residential Home,5,5,5,5,2014-05-08,50.681494,-3.439006
289717,Brookfields,5,5,5,5,2013-03-28,50.699796,-3.303725
289718,Broom Wagon Coffee,5,5,5,5,2014-06-23,50.705752,-3.071294
289719,Budgens,5,5,5,5,2013-11-01,50.799153,-3.190029
289720,Budleigh Salterton Club,4,5,5,10,2014-04-22,50.629019,-3.322084
289721,Budleigh Salterton Cottage Hospital,5,0,0,0,2015-01-14,50.6316,-3.32053
289722,Budleigh Salterton Cricket Club,4,0,5,10,2013-07-04,,
289723,Budleigh Salterton Football Club,5,5,5,5,2011-04-04,50.636296,-3.329854
289724,Budleigh Salterton Games Club,5,0,0,0,2011-09-05,50.632685,-3.323134
289725,Budleigh Salterton Riding School & Bucking Hungry Cafe,5,5,5,5,2012-12-11,50.642052,-3.354781
289726,Bull Farm Rare Breeds,5,5,5,5,2012-11-21,,
289727,Bulstone Hotel,4,10,5,5,2014-05-19,50.70074,-3.165361
289728,Bumble And Bee,5,5,5,5,2014-12-17,50.617104,-3.416062
289729,Burger King,5,5,0,0,2014-05-22,50.614961,-3.366624
289730,Burgers And Fries,5,0,5,5,2014-11-27,50.71139,-3.439553
289731,Burrow Farm Gardens,4,10,5,5,2014-08-06,50.788461,-3.076078
289732,Busy Bees Pre-School,Exempt,nan,nan,nan,2011-12-09,50.801464,-3.18559
289733,Busy Otters Pre School Playgroup,5,5,5,5,2015-01-30,50.75027,-3.271489
289734,C H Baker And Son,3,10,5,10,2013-10-31,50.800155,-3.187898
289735,Cabin News,3,10,5,10,2014-11-27,50.620792,-3.41384
289736,"Cafe Bar ""102""",3,10,10,10,2013-12-10,50.799153,-3.190029
289737,Cafe Napoli And Pauls Bakery,5,5,5,5,2014-07-09,50.697425,-3.091678
289738,Cafe Rosa,5,0,5,5,2014-11-27,50.71139,-3.439553
289739,Cafe@ Car Wash,5,5,5,5,2014-05-02,50.632155,-3.399334
289740,Caffe Nero,5,5,5,5,2014-06-02,50.620073,-3.412334
289741,Cake N Shape,4,10,5,5,2014-04-23,,
289742,Cakes By Karen,5,5,5,5,2012-05-03,,
289743,Cakes By Kiki,4,10,5,5,2014-10-20,,
289744,Camp Shop,5,5,5,5,2013-05-08,50.710815,-3.068421
289745,Cannon Inn,3,10,10,10,2013-06-11,50.700053,-3.297558
289746,Capels,5,5,5,5,2014-11-20,50.620486,-3.41458
289747,Cara's Diner,5,5,5,5,2014-02-13,50.699424,-3.390305
289748,Card Factory,Exempt,nan,nan,nan,2012-05-03,50.620073,-3.412334
289749,Cat And Fiddle (Leisure) Ltd,5,5,5,5,2014-08-12,50.710001,-3.423081
289750,Caterers,5,0,5,5,2013-11-08,50.785286,-3.173179
289751,Caterplus Services,5,5,0,0,2014-09-23,,
289752,Catherine's Kitchen,4,10,5,5,2014-10-30,,
289753,Cavendish Hotel,5,5,0,0,2013-02-05,50.616607,-3.417786
289754,Celebration Cakes,4,5,5,10,2012-05-25,,
289755,Celebrations,Exempt,nan,nan,nan,2015-02-12,50.62104,-3.411911
289756,Chadni Express,3,10,10,10,2013-07-31,50.636872,-3.391428
289757,Champers Deli,4,10,5,5,2013-03-11,50.798889,-3.188533
289758,Chapples Tea Hut,5,5,5,5,2013-05-23,,
289759,Charcoal Grill,2,15,10,10,2013-03-22,50.751006,-3.281503
289760,Charcoal Grill,4,nan,nan,nan,2014-09-03,50.781226,-2.997783
289761,Chatfield,5,5,5,5,2014-05-16,50.674691,-3.441529
289762,Check House Nursing Home,5,5,0,0,2013-09-12,50.704057,-3.078662
289763,Cheeky Cow Catering,4,5,5,10,2013-09-27,50.777945,-3.284338
289764,Cheeseboard Ltd,5,5,5,5,2013-11-21,50.681176,-3.237262
289765,Cheriton Guest House,5,5,5,5,2014-04-15,50.685531,-3.237094
289766,China Chef,3,10,10,10,2013-11-01,50.751575,-3.278839
289767,China Garden,4,10,5,5,2013-06-27,50.620312,-3.415579
289768,Chippee,5,5,0,0,2013-08-07,50.798432,-3.192849
289769,Chippie Joes,3,10,10,5,2013-09-30,50.798661,-3.188002
289770,Chippy Fish And Chips Take Away,3,10,5,10,2013-12-04,50.689529,-3.236534
289771,Choccie Bar,5,0,0,5,2013-01-10,,
289772,Christine Gibbs,4,10,5,5,2013-08-19,50.628548,-3.333467
289773,Christopher Walton,4,5,5,10,2012-08-16,,
289774,Chrystel Cakes,3,10,5,10,2013-06-11,,
289775,Church Of England Pensions Board,5,0,0,0,2013-08-02,50.764311,-3.439901
289776,Cinnamon Tree Restaurant,1,10,15,20,2014-06-18,50.683023,-3.238642
289777,Cinnamons,3,10,5,10,2014-05-27,50.781226,-2.997783
289778,Claire Makes Cakes,5,5,5,5,2011-11-04,,
289779,Clare Humphreys,4,5,10,5,2013-01-07,,
289780,Cliff's Diner,5,5,5,5,2013-10-29,50.79849,-3.199463
289781,Cliffside Cabin,5,0,0,0,2013-03-28,50.701911,-3.08599
289782,Clocktower Cafe,4,10,5,5,2014-01-21,50.676299,-3.244267
289783,Coach House Restaurant,5,5,5,5,2013-11-08,50.777313,-3.298391
289784,Coast,4,5,5,10,2014-05-14,50.703764,-3.070385
289785,Coast Takeaway,5,5,5,5,2014-05-19,50.659729,-3.27961
289786,Coastal Coffee Lounge,5,5,5,5,2014-01-06,50.678673,-3.237565
289787,Cobblers Restaurant,3,10,5,10,2014-04-04,50.740982,-3.068852
289788,Colcombe Castle Hotel,4,10,5,5,2014-09-07,50.740935,-3.070127
289789,Coleridge Pre-School Playgroup,Exempt,nan,nan,nan,2013-02-08,50.751153,-3.277934
289790,Coles Card And News,Exempt,nan,nan,nan,2012-03-15,50.680763,-3.237223
289791,Colyford Butchers Ltd,5,5,5,5,2013-12-06,50.726821,-3.064648
289792,Colyford Post Office And General Stores,1,10,5,20,2014-06-11,50.725704,-3.063843
289793,Colyton Butchers,2,15,5,10,2014-09-02,50.740938,-3.07075
289794,Colyton Caterpillars,5,5,5,5,2013-08-29,50.736691,-3.066105
289795,Colyton Grammar School,3,5,10,10,2015-01-13,50.727024,-3.071949
289796,Colyton Pharmacy Ltd,Exempt,nan,nan,nan,2013-12-11,50.740935,-3.070127
289797,Colyton Takeaway,5,5,5,5,2013-08-29,50.740935,-3.070127
289798,Combe House Hotel,5,5,5,5,2014-05-07,50.774069,-3.217304
289799,Come Dine With Us 1,5,5,5,5,2014-03-17,,
289800,Come Dine With Us 2,4,10,5,5,2014-03-17,,
289801,Come Dine With Us 3,5,5,5,5,2014-03-17,,
289802,Common Loaf Bakery,4,10,5,5,2014-03-04,50.882393,-3.233971
289803,Complete Meats Ltd,4,0,10,5,2012-05-24,50.799216,-3.189988
289804,Complete Meats Ltd,5,nan,nan,nan,2014-10-07,50.781226,-2.997783
289805,Complete Meats Ltd - Bakery,5,5,5,5,2014-08-11,50.781226,-2.997783
289806,Confectionary Unit,5,0,5,5,2014-11-27,50.71139,-3.439553
289807,Connect Catering,4,10,5,5,2013-11-21,50.685537,-3.250783
289808,Connetts Farm,Exempt,nan,nan,nan,2014-12-10,,
289809,Cookie Kingdom,4,5,5,10,2014-02-11,,
289810,Cooks Farm Preserves,4,5,5,10,2012-06-20,,
289811,Cooks Fish And Chips,5,5,5,5,2014-05-22,50.614961,-3.366624
289812,Coombe Cottage Bed And Breakfast,4,5,5,10,2013-07-15,50.713391,-3.045194
289813,Copper Hill Farm Meats,3,10,10,10,2014-11-19,50.694152,-3.241597
289814,Corrymoor Farm,Exempt,nan,nan,nan,2010-07-02,50.850581,-3.097622
289815,Cost Cutters,3,10,10,10,2014-05-08,50.751199,-3.281182
289816,Cost Cutters And Seaton Post Office,3,10,10,10,2014-06-13,50.705691,-3.072156
289817,Costa Coffee,5,5,0,0,2012-12-06,50.799974,-3.188887
289818,Costa Coffee,5,5,0,0,2014-02-26,50.620073,-3.412334
289819,Costa Coffee,5,5,0,0,2014-12-09,50.716891,-3.073616
289820,Costa Coffee,5,5,0,0,2013-11-05,50.679614,-3.237901
289821,Costcutter,4,10,5,5,2014-10-20,50.624224,-3.411116
289822,Country Farm,5,5,5,5,2014-10-23,50.750833,-3.279244
289823,Country House Inn,4,10,5,5,2014-09-30,50.629402,-3.398658
289824,Countrywide Farmers,Exempt,nan,nan,nan,2012-12-12,50.792121,-3.208309
289825,Court Healthcare Ltd,5,0,5,5,2013-07-12,50.629941,-3.330367
289826,Court Residential Retirement Home,5,5,5,5,2014-07-09,50.74896,-3.390227
289827,Courtlands House,5,5,5,5,2013-04-26,50.640338,-3.417977
289828,Courtneys Creative Cakes,4,5,5,10,2014-10-20,,
289829,Cranberrie Cakes,5,5,5,5,2015-01-15,,
289830,Cranbrook Cafe,4,5,5,10,2014-10-21,50.756839,-3.401363
289831,Cranbrook Cakes And Bakes,5,5,5,5,2014-07-08,,
289832,Cranford Newsagency,Exempt,nan,nan,nan,2014-04-10,50.624148,-3.387489
289833,Cranford Nursing Home,5,0,5,5,2014-04-24,50.618809,-3.394824
289834,Cranford Sports Club,5,5,5,5,2014-01-29,50.620904,-3.397813
289835,Crealy Great Adventure Park,5,5,5,0,2013-06-05,50.707237,-3.415207
289836,Creations By Susie Gambie,4,5,5,10,2013-09-12,,
289837,Crossways Tavern,5,5,5,5,2013-09-24,50.810648,-3.424122
289838,Culshaw Catering,5,5,5,5,2013-12-09,50.676843,-3.253934
289839,Cupcakes By Baking Maid,5,5,5,5,2012-06-26,,
289840,Cupsa Daisy Cakes,5,5,5,5,2015-01-20,,
289841,D J'S Catering,1,10,10,20,2015-01-06,50.731028,-3.414068
289842,D.J.' S Diner,5,5,5,5,2013-11-05,50.613426,-3.409421
289843,Daffy Down Dilly,4,nan,nan,nan,2014-06-11,50.681162,-3.237743
289844,Dairy World,5,5,5,5,2013-08-19,50.620327,-3.414363
289845,Daisys,4,5,5,10,2013-11-06,50.70429,-3.068924
289846,Darts Farm Shopping Village (Food Hall And Restaurant),5,5,5,5,2013-11-06,50.684743,-3.448292
289847,Davey Court,5,5,5,5,2014-09-12,50.622646,-3.385989
289848,David Drew And Sons,4,10,5,5,2013-12-10,50.719177,-3.220626
289849,Deanswood Bed And Breakfast,Exempt,nan,nan,nan,2015-02-10,50.778974,-2.93873
289850,Deer Park Hotel,5,5,5,0,2014-02-20,50.794489,-3.233868
289851,Deli On The Strand,5,5,5,5,2013-11-19,50.620064,-3.414553
289852,Delytes Delicatessen,5,5,5,5,2013-12-03,50.629459,-3.326069
289853,Devon And Somerset Fire And Rescue Service,5,0,5,5,2014-04-17,50.690156,-3.446165
289854,Devon Deli,3,10,10,10,2013-10-10,50.699424,-3.390305
289855,Devon Drivers Centre,Exempt,nan,nan,nan,2014-08-18,50.71139,-3.439553
289856,Devon Fayre Bakery,1,20,10,20,2014-10-10,50.705691,-3.072156
289857,Devon Fish Cakes,3,10,10,10,2014-06-03,50.791695,-3.209547
289858,Devon Norse Ltd,4,10,5,5,2015-01-14,50.781988,-2.992834
289859,Devon Norse Ltd,5,5,5,5,2013-07-09,50.776442,-3.524141
289860,Devon Norse Ltd,4,10,5,5,2014-07-21,50.767692,-3.442103
289861,Devon Norse Ltd,5,5,5,5,2013-09-24,50.787403,-3.279689
289862,Devon Norse Ltd,5,5,5,5,2014-07-22,50.690851,-3.440878
289863,Devon Norse Ltd,4,10,5,5,2014-09-29,50.790857,-3.190457
289864,Devon Norse Ltd,4,10,5,5,2014-10-14,50.698986,-3.294867
289865,Devon Norse Ltd,5,5,5,5,2013-07-03,50.75027,-3.271489
289866,Devon Norse Ltd,5,5,5,5,2014-02-25,50.745854,-3.391269
289867,Devon Norse Ltd,5,nan,nan,nan,2013-06-26,50.747516,-3.414579
289868,Devon Norse Ltd,5,5,5,5,2014-03-05,50.783454,-2.994922
289869,Devon Norse Ltd,4,5,5,10,2014-03-20,50.87115,-3.135895
289870,Devon Norse Ltd,5,5,5,5,2014-07-22,,
289871,Devon Norse Ltd,5,5,5,0,2014-03-05,,
289872,Devon Scone Company,Exempt,nan,nan,nan,2015-01-15,,
289873,Devon Sheltered Homes,4,10,5,5,2014-01-15,50.643278,-3.381335
289874,Devonshire Dumplings,4,5,5,10,2014-05-29,50.76631,-3.354142
289875,Di Collings Catering,4,5,5,10,2013-10-01,,
289876,Diggers Rest,5,5,5,5,2014-01-13,50.693633,-3.400809
289877,Dillys Florists,Exempt,nan,nan,nan,2013-05-29,50.751199,-3.281182
289878,Dine At Home,3,10,5,10,2014-06-03,,
289879,Dish,4,10,5,5,2013-05-10,,
289880,Divine Ices,5,5,5,5,2014-03-18,,
289881,Dockside Cafe,1,10,5,20,2014-09-11,50.616895,-3.423618
289882,Dolphin Hotel,5,5,5,5,2015-01-14,50.618142,-3.418001
289883,Dolphin Hotel,2,15,5,10,2015-01-16,50.69776,-3.092393
289884,Domino's Pizza,5,0,0,0,2013-10-15,50.620486,-3.41458
289885,Doorsteps Streetfood,5,5,5,5,2013-07-15,,
289886,Doughnut Deli,3,10,10,5,2014-08-13,50.678319,-3.237824
289887,Dovecourt Care Home,5,0,5,0,2015-01-16,50.711997,-3.083575
289888,Doveridge Care Home,4,5,5,10,2014-10-17,50.738834,-3.067755
289889,Dower House Hotel,5,5,5,5,2013-05-21,50.717229,-3.002415
289890,Drakes Primary School,5,5,5,5,2014-06-04,50.653036,-3.321669
289891,Ducky's Beer Ltd,5,5,5,5,2014-10-07,,
289892,Dukes,5,5,5,5,2013-08-21,50.67845,-3.238266
289893,Dunkeswell Pre-School,Exempt,nan,nan,nan,2013-12-11,50.854232,-3.223326
289894,Durham House Hotel,5,0,5,0,2014-01-03,50.699301,-3.09393
289895,E3 Cafe,5,5,5,5,2013-04-25,50.670278,-3.316705
289896,Earthrise Foods,Exempt,nan,nan,nan,2014-11-19,50.740219,-3.070748
289897,East Devon Golf Club,4,10,5,5,2013-11-06,50.62724,-3.337699
289898,East Devon Tennis Centre,5,5,5,5,2015-01-26,50.627957,-3.403621
289899,East Hill Pride Farm Shop,5,5,5,5,2014-02-06,50.699797,-3.274343
289900,Eastcote House Bed And Breakfast,4,10,5,5,2014-05-27,50.801143,-3.184517
289901,Eastcote Luxury Guest House,5,5,5,5,2015-01-15,50.708599,-3.444878
289902,Eastcott Barn,4,5,5,10,2012-09-19,50.870335,-3.251617
289903,Eat The Smoke,4,10,5,5,2014-03-18,,
289904,Eat With Englands,4,10,5,5,2014-03-26,50.682412,-3.376468
289905,Echoes Childcare,5,0,5,5,2014-09-02,50.746777,-3.430914
289906,Edgintons Pantry,3,nan,nan,nan,2014-06-12,50.705056,-3.070768
289907,Edinburgh Woollen Mill,Exempt,nan,nan,nan,2010-11-18,50.679536,-3.237545
289908,El Olivo,5,5,5,5,2014-11-26,50.618781,-3.414289
289909,Elm Cottage Residential Home,5,5,5,5,2013-05-08,50.709655,-3.073295
289910,Elmwood Residential Home Ltd,5,0,0,0,2013-09-23,50.726821,-3.064648
289911,Emily And Harry,Exempt,nan,nan,nan,2014-12-17,50.731113,-3.024277
289912,Emily's Of Devon,3,10,5,10,2014-06-09,50.67877,-3.237723
289913,Emmanuel Baptist Church,Exempt,nan,nan,nan,2014-05-21,50.698047,-3.238981
289914,Exe Sailing Club,5,5,0,5,2013-12-17,50.619188,-3.424408
289915,Exeter Inn,3,10,10,10,2013-08-02,50.733353,-3.436485
289916,Exeter Road Community Primary School,5,5,5,5,2014-11-10,50.622358,-3.411484
289917,Exeter Road Community School Caterer For Lympstone Primary S,Exempt,nan,nan,nan,2014-10-10,50.649313,-3.42539
289918,Exeter Road Sandwich Bar And Coffee Shop,5,5,5,5,2013-07-12,50.622428,-3.410892
289919,Exmouth AFC,4,5,5,10,2013-06-25,,
289920,Exmouth Archers,5,5,5,5,2014-04-16,,
289921,Exmouth Arms,3,10,5,10,2014-12-11,50.62104,-3.411911
289922,Exmouth Care Ltd,5,5,5,5,2014-05-01,50.632653,-3.41093
289923,Exmouth Community Cafe,5,5,5,5,2014-05-01,50.619103,-3.415853
289924,Exmouth Community College,5,5,5,5,2014-01-30,50.62717,-3.406227
289925,Exmouth Community College,5,5,5,5,2014-01-30,50.626674,-3.402621
289926,Exmouth Delicatessen,4,5,5,10,2014-07-04,50.618256,-3.411615
289927,Exmouth Fisheries Ltd,4,10,5,5,2013-10-22,50.616853,-3.423391
289928,Exmouth Fun Park,3,10,10,10,2014-06-04,50.613087,-3.408464
289929,Exmouth Hospital,5,0,0,0,2014-01-09,50.62096,-3.402918
289930,Exmouth House,5,5,5,5,2014-10-10,50.619897,-3.403056
289931,Exmouth Kebab House,3,10,5,10,2014-11-26,50.62002,-3.413718
289932,Exmouth Masonic Club,Exempt,nan,nan,nan,2014-11-27,50.618677,-3.415459
289933,Exmouth Pavilion,4,10,5,5,2014-10-30,50.615543,-3.412778
289934,Exmouth Town Football Club,4,10,5,5,2013-01-16,50.626586,-3.412925
289935,Exmouth Youth Centre (The Hive),Exempt,nan,nan,nan,2012-08-30,50.617633,-3.416205
289936,Experteas,5,5,5,5,2014-01-10,,
289937,Eyre Court Hotel,5,5,5,5,2013-08-16,50.705059,-3.071363
289938,Fairtrade Coffee Unit,5,5,5,5,2014-11-27,50.71139,-3.439553
289939,Fairwater Head Hotel,4,10,5,5,2014-03-07,50.791909,-2.929228
289940,Famous Old Barrel,4,10,5,5,2013-05-01,50.619776,-3.410813
289941,Famous Ship Inn,5,5,5,5,2011-12-08,50.618653,-3.412984
289942,Fancy That,4,10,5,5,2013-05-09,,
289943,Farmer Lee's Food Barn,5,5,5,5,2014-06-11,50.619151,-3.365898
289944,Farmhouse Inn,3,10,5,10,2014-10-10,50.637483,-3.392223
289945,Farway Under Fives,Exempt,nan,nan,nan,2012-07-12,50.762294,-3.178247
289946,Fats Lounge,4,10,5,5,2013-05-29,50.620792,-3.41384
289947,Feniton Bowling Club,5,5,5,5,2009-12-16,50.786685,-3.267185
289948,Feniton Post Office Stores,5,5,5,5,2013-08-28,50.786685,-3.267185
289949,Feniton Sports And Social Club,4,5,5,10,2013-11-22,50.787379,-3.281873
289950,Fernihurst Nursing Home,5,5,5,5,2014-11-13,50.615701,-3.396697
289951,Fields Of Sidmouth,5,5,0,0,2015-02-11,50.67845,-3.238266
289952,Fine Country Lifestyle,3,10,10,10,2014-02-24,,
289953,Finishing Touches,3,10,5,10,2014-09-05,50.70429,-3.068924
289954,Firs Residential Home,5,5,5,0,2014-04-29,50.62987,-3.336586
289955,Fish And Chip Bar,5,nan,nan,nan,2014-02-25,50.624148,-3.387489
289956,Fish Stall,5,5,5,5,2015-01-13,50.67845,-3.238266
289957,Fishmonger,4,5,5,10,2013-08-21,50.798889,-3.188533
289958,Five Bells Inn,5,0,5,5,2013-11-01,50.804247,-3.381394
289959,Flamingo Pool,Exempt,nan,nan,nan,2014-10-10,50.764428,-2.975391
289960,Flippy Chippy,3,10,10,10,2014-08-04,,
289961,Flutterby Cakes,5,5,5,5,2012-04-10,,
289962,Fluxton Farm,3,10,10,10,2014-08-12,50.73036,-3.295179
289963,Fordwater Guesthouse,5,5,5,5,2013-03-18,50.81639,-2.974159
289964,Fort Cafe,4,10,5,5,2013-10-14,50.677565,-3.24113
289965,Fortes At Foxholes Ltd,4,5,5,10,2013-08-19,50.613087,-3.408464
289966,Fortescue Masonic Lodge,5,5,5,5,2013-04-08,,
289967,Fountain Head Inn,1,20,10,20,2014-10-08,50.693911,-3.151189
289968,Four Elms Fruit Farm,5,5,5,5,2013-11-01,50.704044,-3.28641
289969,Fourways Residential Home,5,5,5,5,2013-08-06,50.679667,-3.246409
289970,Frandie Macaron,5,5,5,5,2012-09-18,,
289971,Franklins,5,5,5,5,2013-12-04,50.619462,-3.413701
289972,Fresh,5,5,5,5,2014-07-16,,
289973,Fresh Organic,5,5,5,5,2013-08-15,50.694664,-3.426283
289974,Friends Of Axecliff Golf Club Ltd,1,10,5,20,2014-11-06,50.704801,-3.056332
289975,Fring House Bed And Breakfast,4,5,5,10,2014-03-20,50.705585,-3.076827
289976,Froginwell Vineyard And Cider Barn,5,5,5,5,2014-05-15,50.705326,-3.383356
289977,Frozen Assetts Ltd,3,10,5,10,2013-05-07,,
289978,Frydays,5,5,0,0,2014-01-02,50.703876,-3.070033
289979,Frydays,5,5,5,5,2014-12-05,50.640421,-3.393993
289980,Furzeleigh Down Dairy,Exempt,nan,nan,nan,2014-07-15,50.766637,-2.95947
289981,G W Meats,4,nan,nan,nan,2014-03-18,50.705691,-3.072156
289982,G.K Sanders,3,10,5,10,2013-01-09,50.629564,-3.327939
289983,Ganesha Wholefoods,4,5,5,10,2014-07-11,50.680361,-3.237779
289984,Gatcombe Farm Bed And Breakfast,5,0,0,5,2013-02-12,50.720341,-3.106745
289985,Gateshayes Partnership,Exempt,nan,nan,nan,2014-12-19,50.762565,-3.337344
289986,George Inn,1,10,5,20,2014-03-07,50.835721,-2.982003
289987,Gerrard Arms,4,10,5,5,2014-04-09,50.742128,-3.070381
289988,Gilly's,5,nan,nan,nan,2014-02-17,50.782924,-2.998018
289989,Ginas Restaurant,5,5,5,5,2013-09-27,50.698832,-3.093155
289990,Gittisham Hill House,4,5,10,5,2014-04-30,50.781082,-3.202734
289991,Glebe House,5,5,5,5,2014-03-25,50.740077,-3.123069
289992,Glendevon Hotel,5,5,5,5,2013-03-05,50.681124,-3.247226
289993,Globe Inn,3,10,10,10,2013-06-25,50.64712,-3.431844
289994,Golden Dragon,4,5,5,10,2013-06-27,50.617209,-3.413365
289995,Golden House Chinese Restaurant,5,5,5,5,2013-08-29,50.782089,-2.996737
289996,Golden Lion,5,0,0,5,2012-12-20,50.718382,-3.288574
289997,Golden Pond,3,10,10,10,2013-08-01,50.751005,-3.385397
289998,Golden Sea,4,nan,nan,nan,2014-07-09,50.629459,-3.326069
289999,Good Food To Go,4,5,5,10,2013-11-29,50.799153,-3.190029
290000,Gossips Coffee Shop,5,5,5,5,2014-05-15,50.619162,-3.413989
290001,Graeme Draper,5,5,5,5,2012-06-27,,
290002,Graham Barden And Cheryl Smith,3,10,5,10,2014-08-14,50.854504,-3.261109
290003,Grand Hotel,5,5,0,0,2013-12-04,50.616607,-3.417786
290004,Grange Court Hotel,5,5,5,5,2014-10-01,50.751221,-3.38614
290005,Grape Tree,5,0,0,5,2013-11-07,50.619672,-3.411955
290006,Graze,3,10,5,10,2013-02-21,50.680214,-3.237251
290007,Graze,4,5,5,10,2014-06-27,50.684577,-3.24644
290008,Great Moor Farmhouse Catering,5,5,5,0,2013-05-03,50.847819,-3.307195
290009,Green Door,4,10,5,5,2012-02-29,50.674007,-3.404768
290010,Greendale Farm Shop,2,10,15,10,2015-01-19,50.704625,-3.398347
290011,Greenfingers Garden Centre,5,5,5,5,2013-12-05,50.634825,-3.403118
290012,Greenway Lane Post Office And Stores,3,10,5,10,2014-08-11,50.636296,-3.329854
290013,Greggs,5,0,0,0,2013-07-09,50.620471,-3.412869
290014,Grosvenor Tearoom And Gifts,5,5,5,5,2014-04-07,50.679075,-3.238623
290015,Guinness Care And Support,5,5,5,5,2014-05-27,50.692029,-3.239927
290016,Half Moon Inn,5,5,5,5,2014-07-09,50.709988,-3.456124
290017,Halfway Inn,5,5,5,5,2014-04-23,50.708244,-3.352368
290018,Halsdown Nursing Home,5,5,5,5,2014-03-11,50.634588,-3.41086
290019,Hampton By Hilton And Marcos New York Italian,5,0,5,5,2013-06-24,50.730273,-3.4126
290020,Hands - On Heather's Chocolates,4,5,5,10,2013-07-19,,
290021,Happy Days Nursery,5,5,5,5,2013-09-13,50.62717,-3.406227
290022,Harbour Inn,4,10,5,5,2014-03-03,50.714398,-3.053176
290023,Harbour News And Gifts,Exempt,nan,nan,nan,2013-04-26,50.616895,-3.423618
290024,Harbour View Cafe,3,10,10,10,2013-07-31,50.613087,-3.408464
290025,Hare And Hounds,5,5,5,0,2014-10-28,50.76067,-3.218984
290026,Harepath Farm,5,5,5,5,2014-11-06,50.722766,-3.072433
290027,Harepath Holidays Ltd,4,10,5,5,2014-05-06,50.721965,-3.077316
290028,Harlequinns Leisure Centre,5,0,0,5,2013-08-14,50.613087,-3.408464
290029,Hawkchurch Community Shop,5,5,5,5,2014-07-31,50.79958,-2.934843
290030,Hawkchurch Country Park,5,5,5,5,2014-02-21,50.782661,-2.930832
290031,Hay House Nursing Home,5,5,0,5,2015-01-28,50.77723,-3.440921
290032,Haydons Farmhouse,4,10,5,5,2013-10-18,50.680159,-3.442277
290033,Hayloft Restaurant,5,5,5,5,2013-11-12,50.697659,-3.190814
290034,Hayman's Butchers,3,10,5,10,2013-12-02,50.678971,-3.239158
290035,Hazelbrook Lodge Bed And Breakfast,5,5,5,5,2014-05-07,50.713076,-3.048189
290036,Health And Local Food For Families,5,0,0,5,2013-09-27,50.781226,-2.997783
290037,Healthclose Bed And Breakfast,5,5,5,5,2013-07-09,50.631578,-3.346816
290038,Hedgehog Corner,5,5,5,5,2015-01-22,50.758883,-2.970696
290039,Hembury Fort House,4,10,5,5,2014-03-17,50.815946,-3.256564
290040,High Street Fruit and Veg,3,10,5,10,2014-06-24,50.629459,-3.326069
290041,Higher Coombe Farm Bed And Breakfast,4,10,5,5,2013-10-24,50.720277,-3.276584
290042,Highfield Garage Store,3,10,5,10,2014-03-07,50.850808,-3.227327
290043,Highfield Stores,3,10,10,10,2014-12-10,50.854232,-3.223326
290044,Highfield Stores Post Office,3,10,5,10,2013-05-30,50.854232,-3.223326
290045,Highlands Farm Shop,3,10,5,10,2013-11-01,50.889755,-3.141537
290046,Hillcrest,5,5,5,5,2014-08-13,50.805885,-3.221736
290047,Hillcrest Bed And Breakfast,4,10,5,5,2013-07-05,50.695909,-3.306251
290048,Hilltop Free Range Pork,5,nan,nan,nan,2014-03-18,50.862465,-3.096196
290049,Holbrook Farm Bed And Breakfast,5,5,5,5,2013-03-27,50.719879,-3.427176
290050,Hollies Trout Farm And Fishery,3,10,5,10,2014-06-03,50.866828,-3.255743
290051,Hollytree Inn,4,10,5,5,2011-01-21,50.629009,-3.400669
290052,Holmesley Nursing And Residential Home,5,5,5,5,2014-03-10,50.697529,-3.223335
290053,Holmleigh Bed And Breakfast House,4,10,5,5,2014-04-17,50.704746,-3.072234
290054,Holmleigh Guest House,5,5,5,5,2014-11-12,,
290055,Home Direct,Exempt,nan,nan,nan,2014-06-10,50.619672,-3.411955
290056,Home Farm Hotel,4,10,5,5,2014-02-20,50.793429,-3.118686
290057,Homemade in Exmouth,5,0,0,5,2013-02-11,,
290058,Honey Town Cakes,4,5,5,10,2012-08-14,,
290059,Hong Kong,2,15,15,10,2014-11-19,50.680763,-3.237223
290060,Hong Kong Chinese Restaurant,3,10,5,10,2014-09-05,50.704522,-3.062288
290061,Honiton Baptist Church,4,10,5,5,2014-04-22,,
290062,Honiton Childrens Centre,Exempt,nan,nan,nan,2012-12-12,50.791052,-3.191654
290063,Honiton Chocolate Company,3,10,5,10,2014-07-31,,
290064,Honiton Country Market,4,10,5,5,2014-07-10,,
290065,Honiton Country Market,4,5,5,10,2014-01-20,,
290066,Honiton Country Market,4,5,5,10,2012-07-20,,
290067,Honiton Country Market,4,5,5,10,2012-07-24,,
290068,Honiton Country Market,5,5,5,5,2012-07-09,,
290069,Honiton Dairy Ltd,4,5,5,10,2014-04-24,50.800045,-3.187214
290070,Honiton Garden Centre,4,nan,nan,nan,2013-09-18,50.798395,-3.160878
290071,Honiton Hospital,5,0,0,5,2013-11-01,50.794934,-3.186588
290072,Honiton Inn,5,5,5,5,2013-12-10,50.807799,-3.229535
290073,Honiton Manor Nursing Home,5,5,5,5,2014-01-08,50.796712,-3.198325
290074,Honiton Methodist Church,Exempt,nan,nan,nan,2014-03-27,,
290075,Honiton Pottery Shop And Milk Shake Bar,4,10,5,5,2013-06-07,50.800958,-3.184073
290076,Honiton Primary School,4,5,5,10,2013-09-27,50.801464,-3.18559
290077,Honiton Rugby Football Club,3,10,5,10,2011-04-04,50.802306,-3.192082
290078,Honiton Wine Bar,4,10,5,5,2014-03-10,50.800155,-3.187898
290079,Honiton Worx,4,10,5,5,2013-08-16,50.798862,-3.191214
290080,Honiton Youth Centre,Exempt,nan,nan,nan,2012-08-14,50.802306,-3.192082
290081,Hook And Parrot,1,10,5,20,2014-07-08,50.703764,-3.070385
290082,Hoop Farmhouse Fayre,5,5,5,5,2013-10-30,,
290083,Hot Chocolate Italian Style,4,5,5,10,2012-12-06,,
290084,Hotel Elizabeth,5,nan,nan,nan,2013-12-04,50.678214,-3.238472
290085,Hotel Riviera,5,5,0,0,2014-11-12,50.678085,-3.239516
290086,Hughsies Cafe,5,nan,nan,nan,2014-05-07,50.705258,-3.070348
290087,Hunters Lodge Inn,5,0,0,0,2013-03-04,50.761741,-2.963254
290088,Hunters Moon Hotel,5,5,5,5,2013-10-11,50.685107,-3.23377
290089,Hurfords Post Office And Stores,4,5,5,10,2013-06-04,50.774813,-3.032011
290090,Ice Cream Paradise,4,5,5,10,2013-05-07,50.678319,-3.237824
290091,Iceland,5,5,5,5,2014-11-20,50.620819,-3.413106
290092,Icing Occasions,4,10,5,5,2014-01-17,50.800611,-3.186391
290093,IKB Support (Franchise Kitchen Of Grapevine),5,5,0,5,2013-07-23,50.619103,-3.415853
290094,Imperial Hotel,5,5,5,5,2014-02-10,50.616727,-3.414524
290095,Indian Ocean Ltd,3,10,5,10,2014-10-08,50.621668,-3.411294
290096,Innovate Services Ltd,5,0,0,0,2014-05-15,50.802306,-3.192082
290097,Istanbul Restaurant  Including Stone Willys Pizza,3,nan,nan,nan,2014-08-27,50.798889,-3.188533
290098,J R And A L Smith,Exempt,nan,nan,nan,2012-03-13,50.62899,-3.400739
290099,Jack In The Green,5,0,5,5,2014-12-10,50.750759,-3.393186
290100,Jacobs Ladder Kiosk,3,10,10,10,2013-06-03,50.676299,-3.244267
290101,Janes Baps,2,15,10,10,2013-11-19,,
290102,Jane's Kiosk,3,10,5,10,2014-04-22,,
290103,Jarvishayes Farm Guest House,4,10,5,5,2014-07-24,50.758973,-3.444685
290104,Jennifer And Graeme Oram-Walker,5,5,5,5,2013-11-06,,
290105,Jennifer Thomas And Jessica Hartnell,4,5,5,10,2014-07-25,,
290106,JET,3,10,10,5,2013-01-14,50.795219,-3.206218
290107,JMM Fisheries Limited,2,15,10,10,2014-07-09,,
290108,Joshuas Harvest Store,3,10,10,10,2014-05-29,50.761206,-3.273132
290109,Jotty's,4,5,5,10,2013-03-14,50.629564,-3.327939
290110,Judy Chard Cake Maker,4,5,5,10,2012-07-23,,
290111,Julia's Cakes,5,5,5,5,2014-05-15,,
290112,Jurassic Baked Potato Co,3,10,5,10,2014-12-17,50.766637,-2.95947
290113,Just Fish,3,10,5,10,2014-07-30,50.70429,-3.068924
290114,Just Fish,5,5,5,5,2012-01-13,50.736724,-3.320297
290115,Just Jools Breakfast Bar,5,5,5,5,2014-07-28,,
290116,K And M Butchers Ltd,5,5,5,5,2014-10-14,50.750833,-3.279244
290117,Katies Cakes,5,5,5,5,2012-08-14,,
290118,Kelly Kefford,5,5,5,5,2013-08-02,,
290119,Kenniford Farm Shop,4,10,5,5,2014-06-04,50.69793,-3.432754
290120,Kennos,5,5,5,5,2014-04-14,,
290121,Kentucky Fried Chicken,5,5,0,5,2015-01-05,50.620486,-3.41458
290122,Kerrington House,5,5,5,5,2013-04-19,50.776875,-3.001803
290123,Kev's Combat Kitchen,4,10,5,5,2014-04-24,,
290124,Khusi Kitchen,3,10,5,10,2014-10-16,,
290125,Kiddicott Farm Bed And Breakfast,4,5,5,10,2013-07-10,50.702761,-3.43191
290126,Kilmington Baptist Church,Exempt,nan,nan,nan,2013-01-31,,
290127,Kilmington Motor Services Ltd,5,5,5,5,2014-05-08,50.778949,-3.03213
290128,Kilmington Pre-School,4,5,5,10,2014-01-29,,
290129,Kilve Marchant,Exempt,nan,nan,nan,2013-11-05,50.674425,-3.403634
290130,Kings Arms,3,10,10,10,2014-09-09,50.708778,-3.069862
290131,Kings Arms Hotel,3,10,5,10,2014-01-13,50.751913,-3.27838
290132,Kings Garden And Leisure,5,0,5,0,2013-08-28,50.648229,-3.397577
290133,Kings School,5,0,0,5,2013-07-08,50.750343,-3.292669
290134,Kingswood And Devoran Hotel,5,nan,nan,nan,2013-11-19,50.67819,-3.238981
290135,Kingswood Nursery School,Exempt,nan,nan,nan,2014-06-10,50.708732,-3.177229
290136,Kitchen On The Corner,5,5,5,5,2014-02-03,50.800155,-3.187898
290137,Kits Been Jamming,5,5,5,5,2014-10-15,,
290138,Knappe Cross Care Centre,3,10,10,10,2014-06-18,50.640243,-3.390071
290139,Koppers Retirement Home,4,10,5,5,2014-12-22,50.776305,-3.034115
290140,Krispies Hog Roasts,4,0,0,10,2014-04-23,50.622821,-3.411158
290141,"Krispies Pizza Pan, Fish And Chip Shop",5,0,5,0,2014-06-02,50.622821,-3.411158
290142,La Rosetta,5,5,5,5,2013-11-06,50.700053,-3.297558
290143,Lacemakers Cafe,3,10,10,10,2013-04-25,50.800324,-3.186341
290144,Lakeside Cafe,5,5,5,5,2014-05-02,50.731113,-3.024277
290145,Lakeview Manor,5,nan,nan,nan,2014-02-21,50.860795,-3.208848
290146,Lamb And Flag Inn,5,5,5,5,2013-08-23,50.751814,-3.277569
290147,Lancercombe Farm Bed And Breakfast,4,5,5,10,2014-03-05,,
290148,Lap Food And Bars,5,5,5,5,2014-04-09,,
290149,Lathys Farm,3,10,10,5,2014-08-11,50.762464,-3.469734
290150,Lazy Days Lemonade,5,5,5,5,2012-05-14,,
290151,Le Pisani,3,nan,nan,nan,2014-05-27,50.781312,-3.00031
290152,Leisure East Devon Ltd,Exempt,nan,nan,nan,2012-07-20,50.781572,-2.995194
290153,Lemon Plaice,3,10,5,10,2014-02-10,50.782089,-2.996737
290154,Lemongrass Thai Restaurant,5,5,5,0,2014-03-25,50.618254,-3.413199
290155,Les Saveurs At The Seafood,5,5,0,5,2014-04-11,50.618737,-3.413468
290156,Liddens Dairy Tearoom,5,5,5,5,2014-04-23,50.742944,-3.063851
290157,Lidl,5,5,5,5,2014-07-24,50.793455,-3.209777
290158,Lidl UK,5,0,0,5,2014-10-27,,
290159,Lidl UK Ltd,5,5,5,5,2013-02-13,50.693735,-3.239391
290160,Lily Farm,5,5,5,5,2014-10-16,50.638976,-3.345542
290161,Linda Meddings,4,10,5,5,2015-01-15,,
290162,Linksway Nursing Home,5,5,0,5,2014-09-16,50.614601,-3.398431
290163,Liquid Assets,Exempt,nan,nan,nan,2012-02-23,50.79867,-3.193252
290164,Little Acorns Pre School,Exempt,nan,nan,nan,2013-09-13,50.692547,-3.399885
290165,Little Chef,4,10,5,5,2014-04-14,50.814199,-3.165897
290166,Little Chef,2,15,5,5,2014-04-14,50.780554,-3.073443
290167,Little China,3,10,5,10,2014-10-01,50.674425,-3.403634
290168,Little Dragons Pre-School/After Sch.,Exempt,nan,nan,nan,2013-02-25,50.690851,-3.440878
290169,Little Ones Childcare,5,5,5,0,2014-10-07,50.793419,-3.203661
290170,Little Ones Day Nursery,5,5,5,0,2013-09-05,50.792103,-3.440357
290171,Little Otters Pre School,Exempt,nan,nan,nan,2014-01-09,50.654924,-3.322528
290172,Little Treasures Pre-School,Exempt,nan,nan,nan,2013-04-26,,
290173,Littleham Church Of England School,5,5,5,5,2014-10-09,50.623315,-3.377356
290174,Littletown C P School,4,5,5,10,2014-03-13,50.7918,-3.190623
290175,Liverton Copse Community Centre,3,10,10,10,2012-02-02,50.63146,-3.383675
290176,Lizzies Kitchen,5,nan,nan,nan,2014-04-14,50.781801,-2.963638
290177,Lloyd Maunder Ltd,5,5,5,5,2013-10-22,50.620928,-3.411512
290178,Lloyds Pharmacy,Exempt,nan,nan,nan,2011-08-22,50.629233,-3.326247
290179,Lloyds Pharmacy,Exempt,nan,nan,nan,2012-02-27,50.629459,-3.326069
290180,Lloyds Pharmacy,Exempt,nan,nan,nan,2012-12-07,50.705691,-3.072156
290181,Lloyds Pharmacy,Exempt,nan,nan,nan,2012-03-14,50.70331,-3.226884
290182,Lloyds Pharmacy,Exempt,nan,nan,nan,2014-10-02,50.794587,-3.188055
290183,Lloyds Pharmacy,Exempt,nan,nan,nan,2013-03-18,50.713083,-3.074124
290184,Lloyds Pharmacy Ltd,Exempt,nan,nan,nan,2014-10-07,50.681527,-3.238093
290185,Londis,5,5,5,5,2013-12-06,50.74078,-3.070364
290186,London Inn,4,10,5,5,2014-03-31,50.751913,-3.27838
290187,Long Range Hotel,5,5,5,0,2013-05-01,50.634037,-3.318152
290188,Long Range Hotel,5,5,5,5,2013-11-08,50.756046,-3.330169
290189,Love Donuts / Catering,5,5,5,5,2014-03-17,,
290190,Lower Comberoy Farm,Exempt,nan,nan,nan,2014-08-19,,
290191,Lunch 4 U,5,5,0,0,2012-03-27,50.624996,-3.382015
290192,Lunch 4 U,5,5,0,0,2012-02-09,50.634721,-3.39152
290193,Lunch 4 U,5,5,0,0,2012-03-27,50.630192,-3.403221
290194,Lunches Direct,4,5,5,10,2012-03-08,,
290195,Lunchies,4,5,5,10,2013-04-17,,
290196,Lyme Bay Barbacoa Ltd,Exempt,nan,nan,nan,2014-07-29,,
290197,Lyme Bay Field Kitchen,5,5,5,5,2014-04-23,50.745082,-3.076784
290198,Lyme Bay Fish Shack,4,5,5,10,2015-01-14,50.7807,-3.032325
290199,Lyme Tree House Bed And Breakfast,5,5,5,0,2013-05-14,50.765459,-2.958439
290200,Lyme Wood Care Home,4,10,5,5,2014-07-31,50.742468,-2.965637
290201,Lympstone Church Lunch Club,5,0,5,5,2013-10-02,,
290202,Lympstone Newsagents,Exempt,nan,nan,nan,2014-08-14,50.64712,-3.431844
290203,Lympstone Pre-School,Exempt,nan,nan,nan,2014-11-07,50.649313,-3.42539
290204,Lympstone Sailing Club,5,5,5,5,2014-09-19,50.647757,-3.431963
290205,Lympstone Village Jams,5,5,5,5,2012-11-20,,
290206,Lympstone Youth Centre,Exempt,nan,nan,nan,2015-01-09,,
290207,M And J Care Homes Ltd,4,10,5,5,2014-08-12,50.702851,-3.080673
290208,Mac Sorsons,4,10,5,5,2014-05-15,50.781031,-2.99846
290209,Magnolia Coffee Shop,4,10,5,5,2014-12-17,50.620471,-3.412869
290210,Magnolia House Residential Home,2,15,5,10,2014-09-03,50.779215,-2.98896
290211,Maid In Devon,4,10,5,5,2015-01-16,50.675813,-3.401863
290212,Malden House Residential Care Home,5,5,5,5,2015-02-10,50.698524,-3.234717
290213,Maltsters Arms,5,5,5,5,2013-08-01,50.674746,-3.403106
290214,Manor Farm Caravan Park,5,5,5,5,2013-05-08,50.712663,-3.08257
290215,Manor Lodge (Devon) Ltd,5,0,5,5,2014-12-04,50.616423,-3.403235
290216,Manor Pavilion Theatre And Arts Centre,4,10,5,5,2014-04-30,50.67993,-3.242821
290217,Mariners Hotel,5,5,5,5,2013-08-30,50.703812,-3.066194
290218,Marjorie Joans Cakes 'n' Bakes,5,5,5,5,2014-09-10,,
290219,Marpool Primary School,5,0,5,5,2014-10-23,50.628084,-3.396074
290220,Marshlands Community Care Centre,5,5,5,5,2013-05-08,50.7039,-3.068391
290221,Martin McColl,3,10,5,10,2014-03-11,50.640421,-3.393993
290222,Martins,Exempt,nan,nan,nan,2012-08-15,50.679765,-3.237183
290223,Mash And Barrel,5,5,0,0,2014-05-22,50.614961,-3.366624
290224,Masons Arms,4,10,5,5,2014-01-21,50.693712,-3.129281
290225,Master Fryer,1,10,5,20,2013-08-28,50.618897,-3.412836
290226,Maureens Country Kitchen,Exempt,nan,nan,nan,2014-12-12,,
290227,McColls,1,10,10,20,2015-01-13,50.736724,-3.320297
290228,McDonalds,5,0,0,0,2014-01-06,50.631264,-3.375977
290229,McMillans Delicatessen,5,5,5,5,2013-05-29,50.629233,-3.326247
290230,Membury Post Office Stores,3,10,5,10,2014-04-30,50.823034,-3.02775
290231,Merchants Tea Rooms,5,0,5,5,2014-10-02,50.74078,-3.070364
290232,Mercury Catering,5,5,5,5,2013-10-31,50.744407,-3.415095
290233,Methodist Church And Hall,Exempt,nan,nan,nan,2010-08-19,50.681162,-3.237743
290234,Michael's Cafe And Restaurant,5,5,0,0,2013-06-04,50.618737,-3.413468
290235,Michael's Event Catering,4,5,5,10,2013-04-04,,
290236,Milestones Services,4,10,5,5,2014-01-30,50.754989,-3.356338
290237,Millers Farm Shop,1,10,5,20,2014-01-29,50.7807,-3.032325
290238,Millwater House Bed And Breakfast,5,5,5,5,2014-02-24,50.784666,-2.990848
290239,Mind In Exeter And East Devon,3,5,10,10,2014-06-16,50.800958,-3.184073
290240,Minnies Eateries,4,5,5,10,2014-10-22,50.620327,-3.414363
290241,Miramar Rest Home,4,5,5,10,2013-10-29,50.627927,-3.409869
290242,Mocha Restaurant Ltd,4,10,5,5,2013-04-19,50.678319,-3.237824
290243,Monday Lunch Club,4,10,5,5,2014-04-28,50.635229,-3.330375
290244,Monica's Country Kitchen,5,0,0,0,2013-04-16,,
290245,Monkton Court Hotel,5,5,5,5,2013-08-28,50.821545,-3.155149
290246,Monsoon,5,5,5,5,2013-09-27,50.704554,-3.067655
290247,Moores Newsagents,4,5,5,10,2014-02-10,50.619034,-3.414918
290248,Moores Restaurant,4,10,5,5,2014-02-04,50.699842,-3.297199
290249,Mooreways,5,0,5,5,2012-10-04,50.631264,-3.375977
290250,Moreys,5,nan,nan,nan,2014-07-16,50.623089,-3.41053
290251,Mount Charles Group,5,5,5,5,2014-10-20,50.731265,-3.41681
290252,Mount Pleasant Hotel,5,nan,nan,nan,2014-03-31,50.683514,-3.234733
290253,Mountbatten Park Sports Club,3,10,5,10,2011-02-24,,
290254,Mr Derek Hurst,4,5,10,5,2012-05-24,,
290255,"Mr Duncan Woods, Caterer",4,5,5,10,2012-11-23,50.680271,-3.24123
290256,Mrs Gill Hodge,4,10,5,5,2014-06-05,50.678849,-3.242098
290257,Mrs Herbert,4,5,5,10,2012-07-23,,
290258,Mrs Isobel Entwisle,4,5,5,10,2015-01-12,,
290259,Mrs Jennifer Anning,Exempt,nan,nan,nan,2015-01-07,,
290260,Mrs Mary Perkins,4,5,5,10,2012-11-29,,
290261,MT T BBQ Man,4,5,5,10,2013-04-16,,
290262,Munch 2 Go,4,5,10,5,2014-04-17,50.704254,-3.070948
290263,Munch And Lunch,3,10,10,10,2015-01-19,50.861834,-3.229024
290264,Munchies,5,5,5,5,2014-07-22,50.62002,-3.413718
290265,Musbury Garage Ltd,5,5,0,0,2013-12-12,50.74704,-3.032279
290266,Musbury Moles Preschool,5,5,5,5,2014-09-11,50.745621,-3.02903
290267,Mustard Seed,5,0,0,5,2011-11-25,50.682025,-3.23945
290268,Namaste Himalya Restaurant,2,15,10,10,2015-01-16,50.618254,-3.413199
290269,National Trust,5,5,5,0,2014-04-24,50.791417,-3.453588
290270,Neetswitch,Exempt,nan,nan,nan,2009-09-01,50.693487,-3.206452
290271,Neils Restaurant,5,5,5,5,2013-11-05,50.683023,-3.238642
290272,Nettlebank,5,nan,nan,nan,2014-04-25,50.750177,-2.96863
290273,New Blue Dragon Express,3,10,10,10,2014-07-23,50.620479,-3.409986
290274,New Fountain Inn Ltd,4,10,5,5,2013-08-14,50.765448,-3.357094
290275,New Inn,5,nan,nan,nan,2014-08-04,50.764319,-3.432626
290276,Noble House,3,nan,nan,nan,2014-05-28,50.622063,-3.391881
290277,Nog Inn,3,10,5,10,2014-03-12,50.786638,-3.28547
290278,Nomad Coffee,5,5,5,5,2012-02-16,,
290279,Norwood Stores Ltd,3,10,10,10,2014-07-01,50.647857,-3.430424
290280,Norwyn,5,5,5,5,2014-06-09,50.762958,-2.969419
290281,Novi Survat Charity,4,10,5,5,2009-09-02,,
290282,Number 9,5,5,5,5,2014-09-18,50.618413,-3.415663
290283,Nutwell Lodge Hotel,5,5,5,5,2014-10-27,50.662323,-3.429336
290284,Nyree's Celebration Cakes,4,5,5,10,2013-11-13,,
290285,Oak Barn Furnishings,5,5,5,5,2014-03-13,50.63221,-3.349662
290286,Oak House Care Home,5,5,5,5,2013-09-12,50.783287,-2.996493
290287,Oakdown Touring Caravan Park,5,5,5,5,2014-08-06,50.704937,-3.180802
290288,Oaklands Farm Shop And Cafe,4,nan,nan,nan,2014-08-14,50.821545,-3.155149
290289,Oasis Wholefoods,3,10,5,10,2014-12-11,50.620064,-3.414553
290290,Ocean Blue Catering,0,5,5,30,2015-01-12,,
290291,Ocean Garden Takeaway,3,10,10,5,2013-09-02,50.629009,-3.400669
290292,Ocean House Cafe And Deli,5,5,5,5,2013-08-30,50.629233,-3.326247
290293,Octagon Kiosk,4,10,5,5,2013-05-23,50.615543,-3.412778
290294,Offwell Village Shop,4,5,5,10,2014-03-13,50.791064,-3.141004
290295,Oh Crumbs,4,5,5,10,2014-03-13,,
290296,Okie Dokie Foods,5,5,5,5,2013-03-22,50.620794,-3.41213
290297,Old London Bed And Breakfast,4,5,5,10,2013-07-09,50.647857,-3.430424
290298,Osbornes Coffee And Wine Bar,5,5,5,5,2014-04-07,,
290299,Osbornes Tea Shop,4,10,5,5,2014-01-07,50.679091,-3.237123
290300,Otter Inn,4,10,5,5,2014-08-06,50.795281,-3.21838
290301,Otter Nurseries,5,0,0,5,2014-07-22,50.76323,-3.273882
290302,Otter Produce,3,10,5,10,2013-07-08,50.750833,-3.279244
290303,Otters Childcare,Exempt,nan,nan,nan,2014-07-23,50.696401,-3.240721
290304,Otterton C Of E Primary School,5,5,5,5,2014-06-02,50.65904,-3.302808
290305,Otterton Community Shop Ltd,5,5,5,5,2015-01-06,,
290306,Otterton Mill Ltd,5,5,0,0,2013-07-31,50.659504,-3.303161
290307,Ottertots Day Nursery,5,5,0,5,2014-07-21,50.74501,-3.254054
290308,Ottery St Mary Football Club,3,10,5,10,2012-01-05,50.756018,-3.273899
290309,Ottery St Mary Hospital,5,0,0,0,2014-07-29,50.750121,-3.291585
290310,Oxfam,Exempt,nan,nan,nan,2013-08-13,50.620794,-3.41213
290311,Oxfam,Exempt,nan,nan,nan,2011-07-11,50.629844,-3.327862
290312,P J's Social Club,1,15,10,20,2014-08-26,50.704074,-3.070987
290313,P.J.Hayman Ltd (Retail),3,5,10,10,2013-08-05,50.762073,-3.242812
290314,Papa John's,5,5,5,5,2014-05-22,50.614961,-3.366624
290315,Papadom,2,15,10,10,2013-10-31,50.751199,-3.281182
290316,Paper Doyleys,5,5,5,5,2012-11-12,,
290317,Party Cup Cakes,5,5,5,5,2014-10-14,,
290318,Pastamania Catering Ltd,4,5,10,5,2012-06-26,50.766167,-3.471325
290319,Patandra Cafe,3,10,10,10,2013-08-07,50.748771,-3.426723
290320,Patricia Vaughan,5,5,5,5,2014-03-25,,
290321,Pauls Bakery,3,10,10,10,2014-04-17,50.704356,-3.070582
290322,Payhembury Provisions,5,5,5,5,2014-11-13,50.808178,-3.295074
290323,Peanut Lolly Pops,4,10,5,5,2014-06-12,50.619709,-3.41484
290324,Pearsons News,Exempt,nan,nan,nan,2014-10-07,50.751951,-3.279005
290325,Pebbles,4,5,5,10,2013-07-05,50.629017,-3.324615
290326,Pebbles Bed And Breakfast,4,5,5,10,2012-06-18,50.704068,-3.071567
290327,Pebbles Coffee House,4,10,5,5,2014-04-15,50.703955,-3.071182
290328,Pebbles Restaurant,5,5,5,0,2014-05-14,50.659729,-3.27961
290329,Pecorama Including Garden Room Restaurant,3,10,5,10,2014-04-08,50.69722,-3.101046
290330,Peek Hall,4,10,5,5,2014-01-07,50.717407,-2.998382
290331,Penelope Duffelen Personalised Hand Painted Cakes,4,5,5,10,2012-08-01,,
290332,Peradon Farm,5,5,5,5,2013-05-16,,
290333,Peter Bayliss,5,5,5,5,2015-01-23,50.616957,-3.409654
290334,PGL Training Ltd,3,10,10,10,2013-07-26,50.703984,-3.465893
290335,Pharie Cakes,5,5,5,5,2009-09-15,,
290336,Phear Park Cafe,5,5,5,5,2011-07-19,50.625473,-3.407477
290337,Pinewood Nursing Home,5,5,0,5,2014-04-29,50.628825,-3.328837
290338,Ping's Chinese Takeaway,5,5,5,5,2014-07-22,50.622821,-3.411158
290339,Pink Hippo Day Nursery And Preschool,5,5,5,5,2014-04-22,50.713448,-3.069628
290340,Pinn Barton Farm Bed And Breakfast,5,5,5,5,2012-04-25,50.674302,-3.27344
290341,Pinnacle Icing,4,10,5,5,2014-05-19,50.720497,-3.294171
290342,Pitmans Farm,4,10,5,5,2014-03-31,50.845688,-3.322277
290343,Pitt Farm Bed And Breakfast,5,5,5,5,2014-08-18,50.761941,-3.293003
290344,Pizza Buona,5,nan,nan,nan,2014-10-04,,
290345,Pizza Dragon,5,5,5,5,2014-03-05,,
290346,Pizza Pronto,3,10,10,5,2014-07-18,50.682631,-3.238306
290347,Pizza Rebels,5,5,5,5,2014-08-12,,
290348,Pizza Time,5,5,5,5,2013-06-27,50.787379,-3.281873
290349,Plane View,5,5,5,5,2013-07-05,50.731265,-3.41681
290350,Playdome Ltd,4,5,5,10,2013-10-03,50.793826,-3.20526
290351,Plymtree Playgroup,5,5,5,5,2015-01-30,50.817548,-3.346751
290352,Police Social Club,4,10,5,5,2009-08-03,50.618654,-3.41215
290353,Pop Goes The Weasel Ltd,4,5,5,10,2013-04-04,,
290354,Popplefords,5,5,5,5,2014-02-26,50.699044,-3.316972
290355,Poppy's,5,5,5,5,2013-11-04,50.75116,-3.279791
290356,Porkies The Family Butchers,3,10,10,10,2014-05-15,50.799197,-3.188384
290357,Porky Down Ltd,5,nan,nan,nan,2015-01-05,50.619672,-3.411955
290358,Portlocks Pantry (Caterer For St Andrews Primary School),5,0,5,0,2013-03-15,50.833645,-2.978708
290359,Posh Nosh - Lime Tree Cafe,3,10,10,5,2014-06-02,50.71139,-3.439553
290360,Posh Nosh (East Devon) Limited,5,5,5,5,2014-10-30,50.615543,-3.412778
290361,Posh Nosh Event Catering Ltd,5,0,0,0,2013-08-14,50.683156,-3.450763
290362,Post Office Stores,1,10,10,20,2014-07-24,50.771539,-3.506991
290363,Post Office Stores,4,10,5,5,2014-01-17,50.700047,-3.295689
290364,Prattshayes Farm,5,5,5,5,2014-05-14,50.61854,-3.379634
290365,Premier,4,5,5,10,2013-08-29,50.74078,-3.070364
290366,Premier Cafe,5,0,5,5,2014-01-30,50.629748,-3.325173
290367,Pretty Sweet Bakes,4,10,5,5,2013-10-15,,
290368,Prezzo,5,5,0,0,2014-08-27,50.618781,-3.414289
290369,Priory Residential Care Home,5,5,5,0,2014-01-29,50.753349,-3.277824
290370,Pritchard Patent Product Company,4,10,5,5,2014-01-03,50.69722,-3.101046
290371,Proof Of The Pudding,5,5,5,5,2014-11-13,,
290372,Prospect Newsagency,Exempt,nan,nan,nan,2014-08-13,50.678319,-3.237824
290373,Prospect Plaice,3,10,5,10,2013-12-05,50.678319,-3.237824
290374,Puddleduck Pre-school,Exempt,nan,nan,nan,2013-01-22,50.804247,-3.381394
290375,Puffing Billy Inn,3,10,5,10,2014-03-28,50.668116,-3.442361
290376,Puffins At Beer Preschool,Exempt,nan,nan,nan,2013-04-18,50.69819,-3.098223
290377,Puffins Club,Exempt,nan,nan,nan,2012-11-29,50.709431,-3.453939
290378,Pulse8,5,5,0,5,2013-01-09,50.620792,-3.41384
290379,Punch And Judy Bakery,4,10,5,5,2014-02-24,50.781946,-2.999869
290380,Pura Vida And JFE Catering,5,0,5,5,2013-11-29,,
290381,Q Club,4,10,5,5,2009-10-08,50.619622,-3.416095
290382,Quentance Farm,4,5,10,5,2013-11-18,50.631636,-3.372608
290383,R And L Pepper Catering,5,0,0,5,2010-08-25,,
290384,R Norman,5,5,5,5,2014-03-24,50.705056,-3.070768
290385,Rachel's Chocolate Kitchen,5,5,5,5,2014-09-30,,
290386,Radway Cinema,Exempt,nan,nan,nan,2012-05-22,50.683023,-3.238642
290387,Radway Inn,5,5,5,5,2013-04-10,50.682631,-3.238306
290388,Radway Lodge Partnership,5,5,5,5,2013-11-20,50.683426,-3.23793
290389,Rain Nutirence,Exempt,nan,nan,nan,2014-10-22,50.866154,-3.2227
290390,Rainbow Nursery,Exempt,nan,nan,nan,2013-01-15,50.620478,-3.404062
290391,Rainbow Under 5's Playgroup,5,5,5,5,2014-02-24,50.781988,-2.992834
290392,Raymonds Hill Stores And Post Office,4,5,10,5,2013-12-11,50.761741,-2.963254
290393,Real Meat Sausage Company (Van1),4,5,10,5,2012-06-26,50.766167,-3.471325
290394,Real Meat Sausage Company (Van2),5,5,5,5,2013-08-15,50.766167,-3.471325
290395,Red Lion,5,5,5,5,2014-04-15,50.766323,-3.44372
290396,Red Lion Inn,5,5,5,5,2012-01-20,50.719177,-3.220626
290397,Redwing Inn Bar And Dining,4,5,5,10,2013-07-09,50.648667,-3.428143
290398,Resthaven Residential Home,5,0,0,5,2014-08-19,50.618637,-3.407626
290399,Reynolds Butchers Ltd,5,5,5,0,2014-11-17,50.622428,-3.410892
290400,Rickshaw Express,3,10,10,10,2013-09-26,50.700053,-3.297558
290401,Ridgeway Country Hotel,3,10,5,10,2014-04-04,50.803525,-2.991829
290402,Ridgeway Residential Home,4,10,5,5,2014-03-12,50.684018,-3.2305
290403,Rising Sun Inn,3,10,10,10,2013-11-08,50.704128,-3.227769
290404,River Cottage - Park Farm,4,5,5,10,2014-10-30,50.744207,-2.98774
290405,River Cottage Stores Ltd,5,5,5,5,2013-09-27,50.782209,-2.998527
290406,Rivermead Post Office And Stores,4,5,5,10,2014-09-03,50.638439,-3.409166
290407,RNLI,Exempt,nan,nan,nan,2014-07-09,50.613087,-3.408464
290408,Rock 'n' Rolls,4,5,5,10,2014-07-16,50.618737,-3.413468
290409,Rohaven Bed And Breakfast,4,5,5,10,2012-01-31,50.63081,-3.409432
290410,Rolle Arms,4,5,5,10,2013-08-14,50.651757,-3.318648
290411,Roly's Fudge Pantry,4,5,5,10,2014-08-13,50.679765,-3.237183
290412,Roots,3,10,10,10,2013-11-06,50.67845,-3.238266
290413,Rose Cottage Guest House,5,0,5,5,2013-03-21,50.71781,-3.223155
290414,Rose Lawn Residential Home,5,5,5,0,2015-02-11,50.681777,-3.240803
290415,Rose Lodge,3,10,10,10,2014-03-18,50.616189,-3.398789
290416,Rosehill Rooms And Cookery,4,5,5,10,2013-06-28,50.629532,-3.333848
290417,Rosey's,5,0,0,5,2013-01-11,50.750719,-3.278163
290418,Route 303,5,5,0,5,2014-05-12,50.873561,-3.095391
290419,Route 66,2,15,10,10,2014-07-31,50.782128,-2.998497
290420,Route 66 Express,3,10,10,5,2014-01-09,50.782214,-2.997946
290421,Royal Beacon Hotel (incorporating Donato's Restaurant),3,10,5,10,2013-12-09,50.616508,-3.412609
290422,Royal Clarence,4,10,5,5,2014-08-26,50.70429,-3.068924
290423,Royal Glen Hotel,4,10,5,5,2014-06-17,50.679667,-3.246409
290424,Royal York And Faulkner Hotel,5,5,5,5,2014-12-02,50.678551,-3.237151
290425,Rupert's Under 5's,Exempt,nan,nan,nan,2013-10-31,50.713378,-3.074287
290426,Rydon Farm,5,5,5,5,2014-03-11,50.673376,-3.418208
290427,S J Storey Catering,5,5,5,5,2012-07-03,,
290428,Saddlers Arms,4,5,5,10,2014-01-09,50.647541,-3.416524
290429,Saffron,3,10,10,10,2014-04-02,50.62104,-3.411911
290430,Sainsbury's Supermarkets,5,5,0,5,2013-11-04,50.751286,-3.280589
290431,Sally Willcocks,4,0,10,5,2013-03-06,50.710109,-3.391003
290432,Salterton Arms,2,15,10,10,2013-10-04,50.629748,-3.325173
290433,Sambati's,4,10,5,5,2013-11-26,50.681792,-3.237689
290434,Samosas Lady,4,5,5,10,2015-01-08,50.750833,-3.279244
290435,Sams Funhouse,5,0,5,5,2014-04-16,50.618677,-3.415459
290436,Saplings Childrens Centre,5,5,0,5,2013-11-06,50.670278,-3.316705
290437,Sarah Jordan,3,10,5,10,2015-01-08,,
290438,Sara's Bakery,5,5,5,5,2014-04-23,50.620327,-3.414363
290439,Savoy Cinema,Exempt,nan,nan,nan,2009-09-02,50.62002,-3.413718
290440,Sawatdee,5,nan,nan,nan,2014-04-09,50.798432,-3.192849
290441,Scallywags Pre-School,Exempt,nan,nan,nan,2012-04-27,50.787403,-3.279689
290442,School Dinners,5,0,0,5,2013-07-10,50.817548,-3.346751
290443,Sea Shanty Restaurant,4,10,5,5,2014-10-07,50.68948,-3.12329
290444,Sea Swift House,5,nan,nan,nan,2014-09-30,50.704746,-3.072234
290445,Seafood Platter,2,15,5,10,2014-04-24,50.69776,-3.092393
290446,Seasons Traditional Tea Rooms,5,5,0,5,2015-02-02,50.751951,-3.279005
290447,Seaton Bowling Club,Exempt,nan,nan,nan,2013-05-08,50.704913,-3.073555
290448,Seaton Fish Bar,3,10,5,10,2014-12-10,50.705059,-3.071363
290449,Seaton Hospital,5,5,5,5,2014-02-19,50.711812,-3.071517
290450,Seaton Kebab House,5,5,5,5,2013-08-08,50.704074,-3.070987
290451,Seaton Methodist Church,Exempt,nan,nan,nan,2010-11-17,50.71674,-3.072479
290452,Seaton Nursing And Residential Home,4,10,5,5,2014-08-21,50.708778,-3.069862
290453,Seaton PCC / Freedom Cafe / Charity Cafe,Exempt,nan,nan,nan,2013-11-08,,
290454,Seaton Primary School,5,0,0,0,2013-03-19,50.713378,-3.074287
290455,Seaton Town Football Club,4,5,5,10,2011-03-17,50.710815,-3.068421
290456,Seaton United Reform Church,Exempt,nan,nan,nan,2014-01-31,,
290457,Seaton's Voice,1,10,5,20,2014-04-09,50.705899,-3.070051
290458,Selley's Coffee Shop,3,10,10,10,2015-01-12,50.678749,-3.237128
290459,Serenity Cake House,5,0,0,5,2013-11-05,,
290460,Shakers,5,5,5,5,2014-06-18,,
290461,Shandford Residential Home,5,5,0,0,2013-09-25,50.633694,-3.328508
290462,Shaul Bakery And Coffee Shop,4,5,10,5,2014-08-27,50.679765,-3.237183
290463,Shauls Bakery And Coffee Shop,4,5,10,5,2014-07-07,50.799727,-3.188412
290464,Sian Ellen John,4,5,5,10,2013-06-13,,
290465,Sid Valley Cakes,4,5,5,10,2014-07-21,,
290466,Sid Valley Country House Hotel,3,10,5,10,2013-11-12,50.735445,-3.215508
290467,Sidbury United AFC,3,10,10,10,2012-08-23,,
290468,Sidholme Hotel,4,10,5,5,2013-03-04,50.68565,-3.239376
290469,Sidmouth Conservative Club - Catering Franchisee,4,10,5,0,2013-12-12,50.683023,-3.238642
290470,Sidmouth Cricket Club,4,10,5,5,2014-06-05,50.678849,-3.242098
290471,Sidmouth Day Care Nursery,4,5,5,10,2014-01-29,50.682386,-3.239389
290472,Sidmouth Golf Club,4,10,5,5,2013-05-15,50.676843,-3.253934
290473,Sidmouth Nursing Home Ltd,5,0,5,5,2015-01-12,50.690675,-3.241321
290474,Sidmouth Pre School Playgroup,Exempt,nan,nan,nan,2013-05-07,50.684333,-3.237232
290475,Sidmouth Primary School,5,5,5,5,2014-05-08,50.696401,-3.240721
290476,Sidmouth Primary School,4,10,5,5,2014-07-18,50.694941,-3.243557
290477,Sidmouth Rugby Club,5,5,5,5,2013-04-10,50.680271,-3.24123
290478,Sidmouth Sailing And Angling Club,4,5,5,10,2014-06-04,50.679194,-3.235073
290479,Sidmouth Tandoori,2,15,15,10,2014-08-26,50.682631,-3.238306
290480,Sidmouth Town AFC,4,5,5,10,2012-03-12,,
290481,Sidmouth Trawlers,3,10,5,10,2014-04-08,,
290482,Sidmouth Voluntary Services,5,5,5,5,2013-08-14,50.680106,-3.241509
290483,Sidmouth War Memorial Servicemens Club,3,10,5,10,2014-07-11,50.678971,-3.239158
290484,Sidmouth Youth Centre,Exempt,nan,nan,nan,2012-07-24,50.696059,-3.237357
290485,Silver King,3,10,10,10,2014-01-28,50.682398,-3.238243
290486,Silver Sea House,5,5,5,5,2013-11-07,50.622428,-3.410892
290487,Silverleigh Residential Home,5,nan,nan,nan,2015-02-11,50.780608,-2.99855
290488,Simcoe House,4,5,5,10,2013-06-28,50.629762,-3.321582
290489,Simply Hog Roasts,3,10,5,10,2012-11-21,,
290490,Sir Walter Raleigh Inn,5,5,5,5,2014-01-10,50.656088,-3.322151
290491,Site Shop,5,5,5,5,2013-04-02,50.708732,-3.177229
290492,Six Bells Inn,3,10,5,10,2013-09-25,50.808178,-3.295074
290493,SM Homemade,5,5,5,5,2014-02-19,50.620327,-3.414363
290494,Smallicombe Farm Bed And Breakfast,4,5,10,5,2010-11-11,50.772637,-3.129054
290495,Smileys,5,5,5,5,2013-08-07,,
290496,Sodexo,5,0,0,0,2014-08-17,50.664205,-3.434939
290497,Soup Kitchen,Exempt,nan,nan,nan,2014-10-09,,
290498,South Beach Cafe,5,0,0,0,2014-05-22,50.614961,-3.366624
290499,South Garth Residential Home,5,5,5,5,2015-01-26,50.620014,-3.394832
290500,Southern Cross Tea Rooms,3,10,10,10,2013-08-05,50.698922,-3.302271
290501,Spar,4,10,5,5,2014-01-06,50.688587,-3.237203
290502,Spar,5,5,5,5,2015-01-07,50.629017,-3.324615
290503,Spar,5,5,0,0,2010-12-08,50.70331,-3.226884
290504,Spice And Rice,3,nan,nan,nan,2014-07-31,,
290505,Spillers Farm Tea Rooms,5,5,5,5,2013-08-14,50.745452,-3.033902
290506,Spoken,4,10,5,5,2013-11-21,50.619162,-3.413989
290507,Spong Bakes,5,5,5,5,2014-10-07,,
290508,Spot On Kiosk,3,10,5,10,2014-10-24,,
290509,St Andrews Dairy,5,5,5,5,2013-04-03,50.617577,-3.419327
290510,St Andrews Early Year Centre,Exempt,nan,nan,nan,2013-03-18,50.835721,-2.982003
290511,St Andrews News Store And Carols Bakery,3,10,10,10,2013-09-25,50.617886,-3.416891
290512,St George And Dragon,5,5,5,0,2014-03-11,50.686308,-3.446104
290513,St Marys,5,5,5,5,2013-01-10,50.716754,-3.286206
290514,St Marys Church,Exempt,nan,nan,nan,2014-02-11,50.781946,-2.999869
290515,St Michaels Honiton,5,5,5,5,2014-07-07,50.799131,-3.186013
290516,St Nicholas Care Home,5,5,5,5,2014-03-18,50.721965,-3.077316
290517,St Peter's Church,Exempt,nan,nan,nan,2011-10-28,50.630406,-3.327453
290518,St Peters Church Of England Primary School,5,0,0,5,2013-09-19,50.6357,-3.333188
290519,St Peters School,5,5,0,5,2014-11-20,50.65182,-3.412975
290520,St Rita's Seminary,5,5,5,5,2013-05-23,50.796935,-3.200246
290521,St Saviours Residential Home,5,5,0,5,2014-09-10,50.618142,-3.418001
290522,St. Peters School - ABC Day Nursery,4,5,5,10,2014-06-04,50.627927,-3.409869
290523,Stacey's Do-Nuts  And Classic Confectionery,5,0,5,5,2014-11-27,50.71139,-3.439553
290524,Stallcombe House Farm Ltd,5,5,5,5,2013-10-01,50.693567,-3.361631
290525,Star Coffee,5,5,5,5,2013-09-13,50.620618,-3.411121
290526,Star Inn,5,0,0,5,2013-08-07,50.798246,-3.188119
290527,Star of India,4,10,5,5,2014-03-25,50.751199,-3.281182
290528,Starbucks,5,0,0,0,2014-05-27,50.614961,-3.366624
290529,Station Cafe,1,15,10,20,2014-07-16,50.779253,-3.004535
290530,Steamers,4,10,5,5,2014-08-27,50.698793,-3.093437
290531,Steves Print And Design Ltd,Exempt,nan,nan,nan,2013-12-22,50.706507,-3.070433
290532,Stockland And Yarcombe Pre-school,5,5,5,5,2014-04-30,50.836022,-3.072414
290533,Stoke Canon Church Of England Primary School,5,5,0,0,2013-09-23,50.771234,-3.506216
290534,Stoke Canon Inn,4,5,5,10,2014-12-10,50.771539,-3.506991
290535,Strete Ralegh Farm,4,5,5,10,2014-08-11,50.750588,-3.35115
290536,Stretford Cottage,4,5,5,10,2012-10-02,50.7948,-2.98465
290537,Stuart Line Cruises,Exempt,nan,nan,nan,2012-08-07,,
290538,Sublyme Cafe,5,5,5,5,2014-04-25,50.781716,-3.000403
290539,Subway Sandwiches,5,0,0,5,2014-03-21,50.620327,-3.414363
290540,Sue Ryder Care,Exempt,nan,nan,nan,2010-09-17,50.798889,-3.188533
290541,Sue's Pantry,3,10,10,10,2014-11-10,50.680214,-3.237251
290542,Sugar Bowl,5,5,5,5,2015-01-15,,
290543,Summerleaze Residential Home,5,0,0,0,2014-03-18,50.622615,-3.393905
290544,Sundial Garden,4,5,5,10,2013-08-16,50.796447,-3.146882
290545,Sunningdale Residential Home,5,nan,nan,nan,2015-01-20,50.799791,-3.178523
290546,Sunnyhaye Bed And Breakfast,5,0,5,5,2011-11-16,50.693567,-3.361631
290547,Sunshine Pre-school,Exempt,nan,nan,nan,2014-10-10,50.620903,-3.398689
290548,Superdrug Stores PLC,Exempt,nan,nan,nan,2012-02-21,50.620073,-3.412334
290549,Susan Moxey,5,5,5,5,2013-10-17,50.620792,-3.41384
290550,Susie's Devonshire Cakes,5,5,5,5,2014-03-18,,
290551,Swallows Eaves Hotel,5,5,0,5,2013-10-31,50.726821,-3.064648
290552,Swan Hill House Bed And Breakfast,5,5,5,5,2014-03-07,50.727247,-3.062277
290553,Swan Inn,5,nan,nan,nan,2014-04-08,50.680433,-3.236096
290554,Sweet Chilli Sauce Catering Co,4,5,5,10,2014-03-05,50.765955,-3.442234
290555,Sweet Satisfaction,5,0,0,5,2013-02-12,,
290556,Sweet Stuff,4,5,5,10,2014-09-30,50.62899,-3.400739
290557,Sweet Treats,5,5,5,5,2013-04-11,50.629017,-3.324615
290558,Sweetlands Country Fare,4,10,5,5,2014-06-10,50.745927,-3.179934
290559,Syon House Bed And Breakfast,4,10,5,5,2013-06-28,50.653426,-3.318172
290560,Taj Mahal,3,10,10,10,2013-08-30,50.629233,-3.326247
290561,Talaton Inn,4,10,5,5,2013-06-27,50.788579,-3.323389
290562,Talaton Village Shop And Post Office,5,5,5,5,2014-03-24,50.788579,-3.323389
290563,Talbot Arms Hotel,4,5,5,10,2013-10-31,50.735475,-2.957571
290564,Tandoori Nights,1,15,10,20,2014-10-02,50.620327,-3.414363
290565,Tandoori Tonight,5,5,5,5,2013-08-06,50.70429,-3.068924
290566,Tanias Tots Daycare,5,5,5,0,2015-01-14,50.631952,-3.398974
290567,Taste Of Gurkhas,3,10,10,10,2014-03-14,50.798432,-3.192849
290568,Taste Of Sidmouth,4,10,5,5,2014-04-04,50.679035,-3.23814
290569,Tasti Mana,4,10,5,5,2014-05-21,50.620618,-3.411121
290570,Tasty Baguette,4,10,5,5,2014-05-07,50.678673,-3.237565
290571,Taylor Shaw Ltd,5,5,5,5,2013-09-27,50.758538,-3.439865
290572,Tea and Tittle Tattle,4,10,5,5,2013-08-14,50.629017,-3.324615
290573,Tea Caddy,3,10,5,10,2014-05-07,50.704564,-3.06066
290574,Temptations,2,15,5,10,2014-08-28,50.705258,-3.070348
290575,Tesco Superstore,5,5,5,5,2014-09-03,50.627748,-3.385785
290576,Tesco Superstore,5,5,0,0,2014-04-28,50.78999,-3.202196
290577,Tesco Superstore,5,0,0,0,2013-10-31,50.716891,-3.073616
290578,Tesco Superstore,5,5,0,0,2014-12-09,50.780875,-3.00301
290579,The Adelaide Lodge Care Home Ltd,3,10,5,10,2014-08-26,50.705258,-3.070348
290580,The Anchor Inn,4,nan,nan,nan,2013-12-20,50.697198,-3.091885
290581,The Apple Tree,4,nan,nan,nan,2014-03-28,50.79972,-3.190867
290582,The Aviator Coffee Bar And Restaurant,3,10,10,10,2013-07-02,50.864271,-3.227326
290583,The Axminster Inn,5,5,5,5,2013-12-23,50.781031,-2.99846
290584,The Aylesbeare Inn,3,10,10,10,2012-05-15,50.718138,-3.363008
290585,The Bakery,5,5,5,5,2014-05-22,50.614961,-3.366624
290586,The Balfour Arms,2,15,10,10,2014-07-17,50.694152,-3.241597
290587,The Bamboo Restaurant,5,5,5,5,2013-09-18,50.619034,-3.414918
290588,The Bank,5,5,5,5,2014-09-16,50.618677,-3.415459
290589,The Barn,3,10,5,10,2013-08-19,50.611685,-3.393426
290590,The Barn And Pinn Cottage,5,0,0,5,2014-01-31,50.702926,-3.266171
290591,The Bath House,3,10,10,5,2014-06-04,50.615543,-3.412778
290592,The Bay Tree Guest House,5,5,5,5,2013-07-15,50.704913,-3.073555
290593,The Bean Machine Cafe,4,5,5,10,2013-06-10,,
290594,The Bear's Sweet Shop,Exempt,nan,nan,nan,2014-06-18,,
290595,The Beehive,5,5,5,5,2014-04-14,50.801087,-3.19611
290596,The Belfry Restaurant Rooms,5,nan,nan,nan,2014-08-28,50.8687,-3.074642
290597,The Bitter Sweet Bakery,4,0,5,10,2012-05-10,,
290598,The Black Horse Inn,1,10,5,20,2014-12-10,50.731435,-3.447635
290599,The Bloom Berry Juice Company,5,0,5,0,2010-07-12,,
290600,The Book Rest,3,10,10,10,2014-12-10,50.620471,-3.412869
290601,The Boston Tea Party,3,10,10,5,2013-04-23,50.800611,-3.186391
290602,The Brit Cafe,4,10,5,5,2013-11-07,50.620327,-3.414363
290603,The Britannia Inn,4,5,5,10,2013-03-07,50.635234,-3.343993
290604,The Butchers At Darts Farm,3,10,10,10,2014-07-21,50.684743,-3.448292
290605,The Cafe At The Garden Shop,5,nan,nan,nan,2014-08-06,50.741633,-3.072439
290606,The Cake Cottage,4,5,5,10,2014-05-07,,
290607,The Cake Lady,4,5,5,10,2015-01-08,50.620794,-3.412129
290608,The Captains Cottage,5,5,5,0,2013-08-05,50.697425,-3.091678
290609,The Caravan Club,Exempt,nan,nan,nan,2013-04-26,50.76067,-3.218984
290610,The Castle Inn,3,10,10,10,2014-02-14,50.783093,-2.998191
290611,The Chattery,4,10,5,5,2013-08-23,50.681162,-3.237743
290612,The Chippy,3,10,10,10,2013-04-19,50.624224,-3.411116
290613,The Chronicle,5,5,5,5,2014-07-31,50.618532,-3.414041
290614,The Clinton Arms,4,5,5,10,2014-04-01,50.621636,-3.374904
290615,The Clipper,4,10,5,5,2014-11-17,50.619034,-3.414918
290616,The Codfather,5,5,5,5,2013-09-05,50.745873,-3.389639
290617,The Coffee House,5,0,5,5,2014-11-11,50.708599,-3.444878
290618,The Coffee Stop,3,10,10,10,2014-07-17,50.681456,-3.237978
290619,The Co-operative,5,0,0,5,2014-09-10,50.632503,-3.409935
290620,The Co-operative Food,4,10,5,5,2015-01-14,50.781226,-2.997783
290621,The Co-operative Food,4,5,10,5,2013-10-01,50.751313,-3.276507
290622,The Co-operative Food,5,5,5,5,2014-01-20,50.619429,-3.412767
290623,The Co-operative Food,4,10,5,5,2014-12-17,50.624224,-3.411116
290624,The Co-operative Food,5,5,5,5,2014-11-24,50.681354,-3.237451
290625,The Co-operative Food,5,5,5,5,2014-12-11,50.624448,-3.388785
290626,The Co-operative Food,5,5,5,5,2015-01-13,50.780616,-3.001756
290627,The Co-operative Food,5,5,5,5,2013-09-12,50.79972,-3.190867
290628,The Co-operative Food,5,5,5,5,2014-02-17,50.704846,-3.069092
290629,The Co-operative Pharmacy,Exempt,nan,nan,nan,2014-12-10,50.751781,-3.283791
290630,The Cosy Teapot,5,5,5,5,2013-04-10,50.628954,-3.323086
290631,The Cottage Cooks,5,5,5,5,2014-03-20,,
290632,The Cream Shop,5,5,5,5,2013-04-02,50.698048,-3.092287
290633,The Creamery,5,5,5,5,2014-08-18,50.628954,-3.323086
290634,The Crusty Cob,5,0,0,0,2013-11-19,50.619709,-3.41484
290635,The Crusty Cob,3,10,5,10,2014-03-12,50.751243,-3.278801
290636,The Crusty Cob,3,10,5,10,2014-10-09,50.61957,-3.413012
290637,The Crusty Cob,5,5,5,5,2013-08-28,50.624448,-3.388785
290638,The Crusty Cob,3,10,10,5,2014-03-06,50.799727,-3.188412
290639,The Crusty Cob,4,10,5,5,2012-07-25,50.629867,-3.327353
290640,The Crusty Cob,4,10,5,5,2014-04-07,50.680214,-3.237251
290641,The Crusty Cob Cafe,5,5,5,5,2014-06-24,50.729672,-3.40877
290642,The Cupcake Fairy,5,5,5,5,2014-02-19,,
290643,The Dairy Shop,4,10,5,5,2014-03-24,50.678971,-3.239158
290644,The Dairy Wagon,5,nan,nan,nan,2014-03-25,50.705258,-3.070348
290645,The Dolphin,5,5,0,0,2015-01-06,50.629459,-3.326069
290646,The Dolphin Pre School And Nursery,4,10,5,5,2014-07-29,50.618389,-3.405753
290647,The Drewe Arms,4,5,5,10,2013-12-12,50.835064,-3.277342
290648,The Earl Of Gravy,5,5,5,5,2014-08-14,50.777313,-3.298391
290649,The Electric Lemon,5,5,5,5,2014-03-20,,
290650,The Farm Shop,4,5,5,10,2014-01-20,50.619672,-3.411955
290651,The Feathers Hotel,4,5,5,10,2013-08-14,50.629564,-3.327939
290652,The Filling Station,4,5,5,10,2013-11-22,50.679102,-3.237845
290653,The Fish Shed,4,5,5,10,2014-03-11,50.684743,-3.448292
290654,The Flintlock Inn,5,5,5,5,2014-02-20,50.889958,-3.05999
290655,The Folly Nursery,4,10,5,5,2014-11-07,50.795756,-3.074997
290656,The Fore Street Tearoom,5,nan,nan,nan,2014-07-30,50.706507,-3.070433
290657,The Fountain Cafe,3,10,5,10,2014-09-09,50.617977,-3.413841
290658,The Galley,5,5,5,5,2013-09-25,,
290659,The Golden Hind,5,5,5,5,2014-02-21,50.746723,-3.031549
290660,The Granary,5,5,5,5,2014-03-20,50.627957,-3.403621
290661,The Grapevine,5,0,0,5,2014-01-24,50.619103,-3.415853
290662,The Greyhound Inn,5,5,5,5,2014-04-15,50.777838,-3.264563
290663,The Grove,5,5,5,5,2015-01-26,50.616765,-3.420321
290664,The H H,4,5,5,10,2014-11-07,50.764933,-3.444089
290665,The Heathfield Inn,4,5,10,5,2013-04-29,50.790479,-3.204493
290666,The Hideaway Cafe,5,5,5,5,2013-09-23,50.707237,-3.415207
290667,The Holt,5,nan,nan,nan,2013-08-06,50.798086,-3.194103
290668,The Homestead,5,0,5,5,2014-11-07,50.620014,-3.394832
290669,The King Billy,5,5,5,5,2014-04-29,50.629564,-3.327939
290670,The Kingfisher,3,10,5,10,2014-06-04,50.740982,-3.068852
290671,The Kings Arms,4,5,10,5,2014-10-01,50.660157,-3.299401
290672,The Kitchen @ Cloakham,5,5,5,5,2014-07-15,50.789482,-2.988255
290673,The Kitchen Shed,4,10,5,5,2014-05-14,,
290674,The Lamb Inn,5,5,5,5,2013-09-10,50.7806,-2.99211
290675,The Lazy Toad,5,0,0,5,2014-04-30,50.773876,-3.523703
290676,The Loft,5,5,5,5,2013-09-18,50.67931,-3.237666
290677,The Long House,5,5,5,5,2014-07-28,50.685092,-3.219855
290678,The Longboat Cafe,5,5,0,5,2013-04-18,50.62964,-3.319698
290679,The Lucky House,5,5,5,5,2013-10-30,50.782089,-2.996737
290680,The Malt House,3,10,5,10,2014-04-15,50.704821,-3.070834
290681,The Manor Hotel,5,nan,nan,nan,2014-02-17,50.617209,-3.413365
290682,The Manor House,5,nan,nan,nan,2014-11-07,50.706507,-3.070433
290683,The Manor Inn,5,5,5,5,2013-10-29,50.618677,-3.415459
290684,The Marine,3,10,10,5,2013-08-22,50.678152,-3.23915
290685,The Mexican,5,0,5,5,2014-10-20,50.620792,-3.41384
290686,The New Inn,5,5,5,5,2015-01-29,50.778938,-3.040442
290687,The New Look News,5,5,5,5,2012-08-22,50.70429,-3.068924
290688,The Old Bakehouse,5,5,5,5,2014-02-27,50.741455,-3.069274
290689,The Old Bakery,4,10,5,5,2014-04-24,50.69275,-3.13754
290690,The Old Coach House,4,5,5,10,2013-04-09,,
290691,The Old Dairy,5,5,5,5,2014-10-22,50.755989,-3.00656
290692,The Old Farmhouse,5,5,5,5,2013-04-10,50.682685,-3.233225
290693,The Old Inn,5,5,5,5,2014-01-09,50.798833,-2.932672
290694,The Old Inn,4,10,5,5,2014-04-01,50.778949,-3.03213
290695,The Old Kennels Stentwood Alpacas B And B,5,5,5,5,2014-09-30,50.882393,-3.233971
290696,The Old Rectory Residential Home,5,0,0,0,2013-03-19,50.745976,-3.030611
290697,The Old Vicarage,4,5,5,10,2014-06-12,50.8687,-3.074642
290698,The Old Vicarage Retirement Home,5,0,5,5,2013-12-19,50.65913,-3.300377
290699,The Old Watch House,5,5,5,5,2011-10-13,50.751006,-3.281503
290700,The Olde Corner Shoppe,5,5,5,5,2014-03-24,50.74091,-3.069914
290701,The Open Door Centre,5,5,5,5,2013-11-07,50.619177,-3.41129
290702,The Original Factory Shop,Exempt,nan,nan,nan,2012-12-11,50.79972,-3.190867
290703,The Original Factory Shop,Exempt,nan,nan,nan,2013-04-10,50.681527,-3.238093
290704,The Otter,5,5,5,5,2015-02-04,50.677394,-3.308553
290705,The Park,5,5,5,5,2013-10-18,50.624403,-3.410471
290706,The Parsnipship,5,5,5,5,2011-09-14,,
290707,The Pavilion,Exempt,nan,nan,nan,2014-05-08,50.736691,-3.066105
290708,The Pea Green Boat,4,10,5,5,2014-04-07,50.678152,-3.23915
290709,The Phoenix,4,5,5,10,2010-08-17,50.62178,-3.411707
290710,The Pinhay Partnership,3,10,5,10,2014-09-01,50.716935,-2.971316
290711,The Pit Club,3,10,5,10,2013-10-04,50.800434,-3.191367
290712,The Place,5,5,5,5,2014-04-11,50.620064,-3.414553
290713,The Point Bar and Grill,4,10,5,5,2014-11-05,50.617186,-3.423358
290714,The Powder Monkey,5,5,0,5,2014-01-06,50.620309,-3.413614
290715,The Railway Bar And Resturant,4,5,5,10,2014-03-05,50.798417,-3.186378
290716,The Railway Carriage,0,20,15,20,2014-09-03,50.613426,-3.409421
290717,The Red Lion,3,5,10,10,2014-01-06,50.782089,-2.996737
290718,The Rendezvous,5,5,5,5,2014-04-25,50.679491,-3.237544
290719,The Rousdon Village Bakery,1,20,10,20,2015-01-08,50.717407,-2.998382
290720,The Rusty Pig,4,5,5,10,2014-09-25,50.751313,-3.276507
290721,The Salty Monk,5,0,5,5,2014-06-19,50.703092,-3.223692
290722,The Salvation Army,5,5,5,5,2012-02-24,50.751286,-3.280589
290723,The Shed Steakhouse And Grill,5,0,0,0,2013-06-06,50.70395,-3.069766
290724,The Ship Inn,4,10,5,5,2014-04-01,50.714398,-3.053176
290725,The Sidmouth Arms,5,5,5,5,2012-07-27,50.862959,-3.135753
290726,The Slade Centre,Exempt,nan,nan,nan,2012-02-20,50.697659,-3.190814
290727,The Snack Shack,5,5,5,5,2014-07-22,,
290728,The Spanish Shop,5,nan,nan,nan,2013-09-23,50.620327,-3.414363
290729,The Spanish Shop,4,5,5,10,2013-04-12,,
290730,The Spice Lounge,4,10,5,5,2014-10-16,50.63146,-3.383675
290731,The Spice Merchant,4,10,5,5,2014-10-09,50.698549,-3.092582
290732,The Stable Club,Exempt,nan,nan,nan,2009-09-01,50.703019,-3.448161
290733,The Stables,5,5,5,5,2014-04-17,50.754635,-3.553332
290734,The Stores Shop,3,10,10,5,2013-11-06,50.709988,-3.456124
290735,The Strand Coffee House,4,10,5,0,2014-10-23,50.619162,-3.413989
290736,The Strand Fish Bar,3,10,5,10,2014-10-22,50.618781,-3.414289
290737,The Summer Shop,4,5,5,10,2013-05-07,50.678266,-3.2403
290738,The Swallows Guest House,5,5,5,5,2013-09-23,50.615195,-3.40816
290739,The Swan Inn,5,5,5,5,2015-01-29,50.647833,-3.431654
290740,The Tea Hut,5,5,5,5,2014-06-11,50.613087,-3.408464
290741,The Terrace Arts Cafe,2,15,10,10,2014-02-18,50.704074,-3.070987
290742,The Thirsty Farmer,5,nan,nan,nan,2014-01-30,50.769013,-3.355255
290743,The Tuckers Arms,5,5,5,5,2013-08-05,50.799104,-3.067766
290744,The Vault Bar,5,5,5,5,2013-06-05,50.703764,-3.070385
290745,The Vine Inn And Tea Room,4,nan,nan,nan,2014-03-28,50.799995,-3.190391
290746,The Vineyards,5,5,5,5,2012-12-17,50.799693,-2.939897
290747,The Waterfront,4,0,0,10,2014-04-23,50.616853,-3.423391
290748,The Welcome Centre,4,10,5,5,2015-01-15,,
290749,The West Hill Village Butchers,5,0,5,5,2014-07-22,50.741531,-3.312708
290750,The Wheelwright Inn,1,10,15,20,2014-06-03,50.727247,-3.062277
290751,The White Cottage,5,0,5,5,2014-06-11,50.740982,-3.068852
290752,The Woodland Education Centre,Exempt,nan,nan,nan,2012-12-10,50.779109,-3.133068
290753,Thornfield Residential Care Home,5,nan,nan,nan,2015-01-07,50.71674,-3.072479
290754,Three Tuns,4,5,5,10,2014-04-14,50.79949,-3.19052
290755,Thyme Takeaway And Coffee Shop,4,10,5,5,2013-02-19,50.798862,-3.191214
290756,Tick Tocks Day Nursery,5,5,5,5,2014-02-04,,
290757,Tidwell Manor,4,0,0,10,2012-06-11,50.641715,-3.330968
290758,Tina Page,4,10,5,5,2014-04-24,,
290759,Tiny Tots Play Cafe,4,5,5,10,2014-10-16,50.679793,-3.241288
290760,Tipton St John Village Stores,4,10,5,5,2014-07-22,50.718382,-3.288574
290761,T-J's Candy Shop,5,5,5,5,2015-02-05,,
290762,Toast,5,5,5,5,2013-09-12,50.799046,-3.191744
290763,Tower Services,5,5,0,5,2013-01-18,50.717755,-3.088141
290764,Tracy's Snack Bar Mobile,4,5,10,5,2014-07-14,,
290765,Tramstop Restaurant,4,nan,nan,nan,2014-04-07,50.741901,-3.062765
290766,Treat Bags,4,5,5,10,2012-09-17,,
290767,Treehouse Pre-school,Exempt,nan,nan,nan,2014-05-15,50.622358,-3.411484
290768,Trianon Care Home,4,10,5,5,2009-10-08,50.63137,-3.391986
290769,Trinity House,1,10,5,20,2014-11-14,50.782295,-2.998997
290770,Trotters Cafe,4,nan,nan,nan,2014-08-12,50.704356,-3.070582
290771,Tucker Bran,5,5,5,5,2014-03-17,,
290772,Tucker Bran Donuts,5,5,5,5,2014-03-17,,
290773,Tudor Cottage,3,10,5,10,2014-11-19,50.781226,-2.997783
290774,Tumbling Weir Hotel,4,5,5,10,2014-11-11,50.751781,-3.283792
290775,Twisted Willow Corporate And Private Catering,5,5,5,5,2012-07-27,,
290776,Tythe Cottage Restaurant And Tea Rooms,4,10,5,5,2014-05-16,50.622165,-3.373492
290777,Tytherleigh Arms Hotel,5,5,5,5,2013-08-28,50.826211,-2.968642
290778,Uplyme Cricket Club,Exempt,nan,nan,nan,2010-06-01,,
290779,Uplyme Pre-School,Exempt,nan,nan,nan,2014-03-07,,
290780,Uplyme Services Including Uplyme Stores,4,5,5,10,2014-09-30,50.736408,-2.95888
290781,Upper Crust Bakery,4,10,5,5,2014-10-07,50.678673,-3.237565
290782,Upper Crust Bakery,1,15,10,20,2014-01-13,50.693735,-3.239391
290783,Upton Farm Bed And Breakfast,5,5,5,5,2014-02-19,50.796338,-3.390015
290784,Upton Pyne Club,4,10,5,5,2013-12-03,50.767995,-3.546854
290785,Viceroy,3,10,10,10,2013-04-09,50.854232,-3.223326
290786,Vicky's Cakes And Bakes,5,5,5,5,2013-04-04,,
290787,Victoria Cottage Hospital,5,0,5,0,2015-02-10,50.681618,-3.239666
290788,Victoria Hotel,5,5,0,5,2014-01-28,50.677192,-3.244079
290789,Victoria Montague,4,10,5,5,2014-11-17,,
290790,Vinnicombes Bakery,3,10,10,10,2014-03-27,50.681176,-3.237262
290791,Vintage Hill,4,10,5,5,2013-11-05,,
290792,Volunteer Inn,1,15,10,20,2013-11-12,50.687524,-3.237401
290793,Volunteer Inn,1,10,10,20,2014-05-20,50.79867,-3.193252
290794,Volunteer Inn,4,10,5,5,2013-09-27,50.750833,-3.279244
290795,VW Celebrations,4,5,5,10,2012-07-25,,
290796,W H Smith,Exempt,nan,nan,nan,2012-08-10,50.799974,-3.188887
290797,W H Smith,5,5,5,5,2013-02-20,50.731265,-3.41681
290798,Waitrose Ltd,5,5,0,0,2014-03-10,50.700086,-3.244274
290799,Warrens Bakery,4,10,5,5,2014-03-06,50.79972,-3.190867
290800,Warrens Bakery,5,5,5,5,2015-01-05,50.620794,-3.41213
290801,Ways Cottage Bed And Breakfast,5,5,5,5,2014-04-14,50.774813,-3.032011
290802,Webbers Farm Caravan Park,Exempt,nan,nan,nan,2012-04-23,50.676763,-3.39548
290803,Wellfield House Bed And Breakfast,5,5,5,5,2013-05-08,50.707669,-3.082823
290804,Wendys House,3,10,10,10,2013-08-21,50.679614,-3.237901
290805,West End Beach Kiosk,4,10,5,5,2014-07-30,50.628973,-3.325363
290806,West Hill Pre-School,Exempt,nan,nan,nan,2014-07-22,,
290807,Westcliff Hotel,3,10,10,5,2014-02-17,50.676657,-3.245296
290808,Westhayes Caravan Park,5,5,5,5,2013-05-21,50.721874,-3.013309
290809,Westley Bed And Breakfast,5,5,5,5,2015-01-22,50.736408,-2.95888
290810,Weycroft Mill House,5,5,5,5,2014-08-06,50.7948,-2.98465
290811,Wheatfields Bakery,5,5,5,5,2015-01-09,50.781225,-2.997782
290812,Whimple Pre-School,Exempt,nan,nan,nan,2012-03-14,,
290813,Whimple Stores,5,5,5,5,2014-03-20,50.766216,-3.357599
290814,White Hart Inn,2,10,15,10,2014-10-02,50.67539,-3.403464
290815,White Hart Inn,1,10,15,20,2014-12-01,50.728608,-3.058964
290816,White Horse Cafe,5,5,5,5,2014-02-04,50.679614,-3.237901
290817,White Horse Inn,5,5,5,5,2013-11-07,50.705326,-3.383356
290818,Whites Pharmacy,Exempt,nan,nan,nan,2014-12-01,50.61957,-3.413012
290819,Wild Thyme,5,5,5,5,2014-03-13,,
290820,William Hill,Exempt,nan,nan,nan,2012-02-21,50.620794,-3.41213
290821,Willow Bridge,5,5,5,5,2014-05-01,50.682668,-3.235646
290822,Willow Tree,4,10,5,5,2014-01-07,50.679075,-3.238623
290823,Windmill Garage (Texaco),4,5,5,10,2010-10-15,50.796859,-3.153447
290824,Windsor Lodge,5,5,5,5,2013-10-29,50.622767,-3.388735
290825,Wine of Araby,3,10,10,10,2013-11-05,50.619672,-3.411955
290826,Wing Hong Takeaway,3,10,10,5,2014-03-06,50.799046,-3.191744
290827,Wing Sing Takeaway,5,5,5,5,2014-01-07,50.624448,-3.388785
290828,Winstons (Seaton) Ltd,3,10,5,10,2014-12-05,50.704066,-3.066936
290829,With Sugar On Top,4,5,5,10,2014-07-29,,
290830,Withalls House,5,0,0,5,2013-04-25,50.649026,-3.427489
290831,Withycombe Fish Bar,5,5,5,5,2014-09-02,50.62899,-3.400739
290832,Withycombe Raleigh C Of E Primary School,5,5,5,5,2014-09-30,50.629956,-3.401206
290833,Withycombe Rugby Club,Exempt,nan,nan,nan,2014-11-17,50.629631,-3.406498
290834,Woodbury After School Club,Exempt,nan,nan,nan,2014-05-15,50.676763,-3.39548
290835,Woodbury Park Hotel,5,5,5,5,2014-07-21,50.685895,-3.368571
290836,Woodfield Stores,4,5,5,10,2013-03-05,50.717295,-3.069843
290837,Woodland View Pork And Bacon,4,10,5,5,2014-03-06,50.77806,-3.088293
290838,Woodlands Hotel,4,5,5,10,2013-08-07,50.682472,-3.243921
290839,Woodpecker Jams,5,5,5,5,2014-08-20,,
290840,Woods Village Shop,4,5,5,10,2014-03-25,50.679556,-3.307425
290841,Woolbrook News,Exempt,nan,nan,nan,2012-05-25,50.694152,-3.241597
290842,Woozies Deli,3,10,5,10,2014-08-12,50.698573,-3.092894
290843,World Duty Free,5,5,5,5,2013-11-04,50.731265,-3.41681
290844,Wyke Farm,5,0,0,0,2013-03-15,50.763676,-2.995226
290845,X Line Coaches,Exempt,nan,nan,nan,2015-01-23,,
290846,Xylem Water Solutions UK Ltd,5,5,5,5,2014-06-10,50.790346,-2.983932
290847,Yellingham Farm,5,5,5,0,2013-04-30,50.798245,-3.305158
290848,Yeomans Acre  Bed And Breakfast,5,5,5,5,2014-05-08,50.727247,-3.062277
290849,Yeungs House,4,10,5,5,2014-01-16,50.706507,-3.070433
290850,Ying Wah Takeaway,4,5,5,10,2013-08-15,50.798432,-3.192849
290851,Youth Hostel Association,5,5,5,5,2014-04-24,50.701223,-3.10182
290852,Zest,5,nan,nan,nan,2013-08-16,50.799244,-3.189024
