,businessname,ratingvalue,structural,hygiene,confidenceinmanagement,ratingdate,latitude,longitude
418792,12 Barn Park,Pass,nan,nan,nan,2009-11-13,56.226712,-5.079554
418793,1st Steps Day Nursery,Pass,nan,nan,nan,2011-11-16,56.420968,-5.469858
418794,4 Rowantree Cottages,Awaiting Inspection,nan,nan,nan,2014-06-03,56.309729,-5.588958
418795,40 Pier Road,Pass,nan,nan,nan,2010-04-22,55.62878,-6.188911
418796,6 Crosshill Avenue,Pass,nan,nan,nan,2010-05-28,55.41869,-5.609381
418797,Abbeyfield House,Pass,nan,nan,nan,2014-03-31,55.590414,-5.469107
418798,Abbeyfield Society Helensburgh,Pass,nan,nan,nan,2011-03-15,56.006308,-4.739663
418799,Abbots Brae Hotel,Pass,nan,nan,nan,2014-08-06,55.938143,-4.93566
418800,Achahoish Primary School,Pass,nan,nan,nan,2012-08-23,55.938739,-5.552244
418801,Achaleven Primary School,Exempt,nan,nan,nan,2010-10-08,56.451873,-5.375223
418802,Achamore House,Pass,nan,nan,nan,2009-09-10,55.666925,-5.749889
418803,Akash Restaurant,Pass,nan,nan,nan,2014-07-10,56.004559,-4.733411
418804,Alamein House,Pass,nan,nan,nan,2010-07-29,55.840602,-5.046792
418805,Alan's Snack Bar,Improvement Required,nan,nan,nan,2014-02-03,56.003378,-4.729109
418806,Albany Lodge,Pass,nan,nan,nan,2010-02-08,55.968805,-4.909485
418807,Alexandra Hotel,Pass and Eat Safe,nan,nan,nan,2011-09-09,56.41915,-5.477933
418808,All Stars Bowling Alley,Pass,nan,nan,nan,2014-03-19,56.053017,-4.817265
418809,Allt Na Craig,Pass,nan,nan,nan,2013-01-24,56.006732,-5.451307
418810,Amelias Cafe,Pass,nan,nan,nan,2014-10-30,55.425672,-5.607094
418811,An Roth Community Enterprise Centre,Exempt,nan,nan,nan,2012-05-17,56.46436,-5.696808
418812,An Taigh Osda @ Bruichladdich,Pass,nan,nan,nan,2012-10-03,55.768406,-6.359695
418813,An Tigh Seinsse,Pass,nan,nan,nan,2013-07-10,55.680318,-6.510137
418814,An Tobar Cafe,Pass,nan,nan,nan,2010-05-05,56.623148,-6.066605
418815,Anchor Hotel,Pass,nan,nan,nan,2012-10-30,55.863258,-5.413538
418816,Anselmo's Fish Restaurant,Pass,nan,nan,nan,2014-11-04,55.9473,-4.927816
418817,Appin Primary,Pass and Eat Safe,nan,nan,nan,2011-05-09,56.564196,-5.378147
418818,Ardardan Tearoom,Pass,nan,nan,nan,2014-01-07,55.967603,-4.67136
418819,Ardbeg Bowling Club,Pass,nan,nan,nan,2014-08-27,55.856993,-5.066216
418820,Ardencaple Hotel,Pass,nan,nan,nan,2014-04-07,56.013269,-4.76445
418821,Ardenlee Residential Home,Pass,nan,nan,nan,2014-02-26,55.938143,-4.93566
418822,Ardentinny Outdoor Centre,Pass,nan,nan,nan,2014-12-09,56.045483,-4.910553
418823,Ardfenaig Care Home,Pass and Eat Safe,nan,nan,nan,2014-03-26,56.006732,-5.451307
418824,Ardgartan Hotel,Pass,nan,nan,nan,2014-04-10,56.180518,-4.791231
418825,Ardifuir,Pass,nan,nan,nan,2015-01-13,56.087537,-5.538364
418826,Ardlamont Leisure LLP,Pass,nan,nan,nan,2010-05-11,55.852706,-5.232503
418827,Ardlui Hotel,Pass,nan,nan,nan,2014-12-15,56.304638,-4.720606
418828,Ardlussa House / Isle Of Jura Venison,Pass,nan,nan,nan,2010-08-31,,
418829,Ardmay Ltd Expeditions And Residential Courses,Pass,nan,nan,nan,2014-02-04,56.185416,-4.769666
418830,Ardnahein Care,Improvement Required,nan,nan,nan,2014-11-26,55.9427,-4.936022
418831,Ardrishaig Parish Church,Pass,nan,nan,nan,2009-11-30,56.006732,-5.451307
418832,Ardrishaig Primary School,Pass and Eat Safe,nan,nan,nan,2015-01-19,56.017628,-5.450674
418833,Ardroy Outdoor Education Centre,Pass,nan,nan,nan,2014-03-26,56.15725,-4.912917
418834,Ardshiel Hotel,Pass,nan,nan,nan,2014-03-05,55.421566,-5.600885
418835,Ardtully Hotel,Pass,nan,nan,nan,2010-06-04,55.972653,-4.911394
418836,Argyle House Hotel,Pass,nan,nan,nan,2014-12-10,55.841563,-5.062396
418837,Argyle Lodge Nursing Home And  Argyle House,Pass,nan,nan,nan,2014-03-06,56.006151,-4.735401
418838,Argyll And Bute Hospital,Pass and Eat Safe,nan,nan,nan,2013-07-29,56.04201,-5.418449
418839,Argyll Arms Hotel,Pass,nan,nan,nan,2014-02-11,55.423599,-5.605719
418840,Argyll Arms Hotel,Pass,nan,nan,nan,2014-12-17,56.014855,-5.447923
418841,Argyll Arms Hotel,Pass,nan,nan,nan,2014-08-13,55.316712,-5.637531
418842,Argyll Bar,Pass,nan,nan,nan,2010-03-24,56.002456,-4.729782
418843,Argyll Bowling Club,Pass,nan,nan,nan,2009-10-01,55.430004,-5.612027
418844,Argyll Cabins,Pass,nan,nan,nan,2014-04-16,56.180518,-4.791231
418845,Argyll Hog Roasts,Pass,nan,nan,nan,2014-10-27,56.200892,-5.555694
418846,Argyll Hotel,Pass,nan,nan,nan,2014-10-14,55.948941,-4.925344
418847,Argyll Hotel,Improvement Required,nan,nan,nan,2015-01-16,56.035547,-5.431029
418848,Argyll Hotel,Pass,nan,nan,nan,2013-08-27,55.526797,-5.705078
418849,Argyll Hotel,Pass,nan,nan,nan,2012-09-12,56.331092,-6.392862
418850,Argyll Hotel,Pass and Eat Safe,nan,nan,nan,2011-11-02,56.231703,-5.074064
418851,Argyll Social Club,Exempt,nan,nan,nan,2014-04-15,55.956345,-4.925118
418852,Arinagour School,Pass,nan,nan,nan,2007-11-13,56.621383,-6.526405
418853,Arlene's Coffee Shop,Pass,nan,nan,nan,2012-11-29,56.46436,-5.696808
418854,Army Cadet Training Centre,Pass,nan,nan,nan,2014-11-29,56.039623,-5.430283
418855,Arrochar Chippy,Pass,nan,nan,nan,2014-02-06,56.201867,-4.744586
418856,Arrochar Hotel,Pass,nan,nan,nan,2014-03-13,56.199507,-4.746029
418857,Arrochar Primary School,Pass,nan,nan,nan,2014-08-22,56.206081,-4.706796
418858,Arrochar Tearoom,Pass,nan,nan,nan,2014-08-01,56.201867,-4.744586
418859,Ashbank Hotel,Pass,nan,nan,nan,2011-11-18,55.590414,-5.469107
418860,Ashfield,Pass,nan,nan,nan,2010-03-25,56.005724,-4.740039
418861,Ashfield House,Pass,nan,nan,nan,2010-03-29,56.201867,-4.744586
418862,Ashfield Primary,Pass and Eat Safe,nan,nan,nan,2015-01-14,56.025187,-5.565999
418863,Ashgrove Care Home (New),Pass,nan,nan,nan,2014-04-25,55.959749,-4.912331
418864,Ashton Bar,Pass,nan,nan,nan,2010-03-23,56.004628,-4.736384
418865,Auchenbeag Bed And Breakfast,Pass,nan,nan,nan,2012-08-17,56.019607,-5.627788
418866,Auchindrain Museum,Pass,nan,nan,nan,2014-10-14,56.154758,-5.183897
418867,Auchinlee Residential Home,Pass,nan,nan,nan,2014-06-17,55.429088,-5.590929
418868,Aulays Bar,Pass,nan,nan,nan,2012-05-10,56.412592,-5.471674
418869,Aye Servus,Pass,nan,nan,nan,2011-05-18,56.204978,-4.713217
418870,Ayen Cottage B And B,Pass,nan,nan,nan,2010-04-23,55.811439,-6.179347
418871,Badden Farm Nursery,Pass,nan,nan,nan,2012-12-18,56.048557,-5.442932
418872,Ballet West,Exempt,nan,nan,nan,2012-07-26,56.424866,-5.229488
418873,Balliemeanoch Farmhouse And Steading,Pass,nan,nan,nan,2012-05-10,56.163118,-5.051099
418874,Ballygrant Inn,Improvement Required,nan,nan,nan,2014-09-04,55.819261,-6.159292
418875,Ballyhennan Guest House,Pass,nan,nan,nan,2010-10-27,56.203059,-4.723224
418876,Balmoral Inn,Exempt,nan,nan,nan,2009-07-13,56.415695,-5.471941
418877,Ban-Diuc Indian Resturant,Pass,nan,nan,nan,2013-01-08,56.231042,-5.07209
418878,Bangladesh Tandoori,Pass,nan,nan,nan,2014-02-25,55.951239,-4.925117
418879,Bangladesh Tandoori Restaurant,Pass,nan,nan,nan,2013-09-12,55.424756,-5.60554
418880,Barcaldine Primary School,Exempt,nan,nan,nan,2010-10-07,56.521808,-5.317153
418881,Barr Na Criche,Pass,nan,nan,nan,2013-03-08,55.796889,-5.527428
418882,Battery Lodge Guest House,Pass,nan,nan,nan,2014-12-04,55.840602,-5.046792
418883,Bay Claymore Hotel,Pass,nan,nan,nan,2014-02-06,56.197335,-4.747131
418884,Bay Cottage,Improvement Required,nan,nan,nan,2014-02-05,56.166711,-5.08198
418885,Bay House Hotel,Pass,nan,nan,nan,2010-09-28,55.945442,-4.928492
418886,Bay Tarbet Hotel,Pass,nan,nan,nan,2014-02-05,56.205042,-4.709884
418887,Bayview Hotel,Pass,nan,nan,nan,2013-09-03,55.843703,-5.038455
418888,Beechwood Home,Pass,nan,nan,nan,2013-03-25,55.973306,-4.914168
418889,Bell Catering Ardbrecknish House,Pass,nan,nan,nan,2012-10-03,56.346011,-5.121803
418890,Bellachroy Hotel,Improvement Required,nan,nan,nan,2014-08-26,56.585247,-6.179459
418891,Ben Arthur's Bothy,Pass,nan,nan,nan,2014-02-14,56.20133,-4.744918
418892,Ben Lora Craft And Coffee Shop,Pass,nan,nan,nan,2012-09-18,56.491298,-5.403412
418893,Benmore Outdoor Education Centre,Pass,nan,nan,nan,2014-02-10,56.025454,-4.98839
418894,Bertie Buttons,Pass,nan,nan,nan,2012-05-10,56.03744,-5.436336
418895,Big Jessies Tearoom,Pass,nan,nan,nan,2012-12-20,55.654546,-5.667164
418896,Birchwood Local Ltd,Pass,nan,nan,nan,2013-03-12,56.408578,-5.470513
418897,Bishop House,Pass,nan,nan,nan,2012-09-12,56.331092,-6.392862
418898,Black Bull Inn,Improvement Required,nan,nan,nan,2014-12-19,55.837548,-5.052847
418899,Blacks Of Dunoon Bakers Limited,Pass,nan,nan,nan,2014-04-17,55.949846,-4.926598
418900,"Blairvadach Childrens Home, Strathclyde Regional Council",Pass,nan,nan,nan,2010-03-29,56.029833,-4.794449
418901,Blairvadach Outdoor Centre,Pass and Eat Safe,nan,nan,nan,2014-12-16,56.029833,-4.794449
418902,Blethers,Pass,nan,nan,nan,2013-11-12,55.837726,-5.055098
418903,Boathouse Cafe Bar,Pass,nan,nan,nan,2013-08-12,55.682953,-5.737673
418904,Bossards Patisserie,Pass and Eat Safe,nan,nan,nan,2013-01-24,56.411569,-5.471272
418905,Bowmore Hotel,Pass,nan,nan,nan,2012-02-29,55.756613,-6.285453
418906,Bowmore Primary School,Pass,nan,nan,nan,2013-06-06,55.755463,-6.288995
418907,Braemore,Pass,nan,nan,nan,2014-04-07,56.026813,-4.980918
418908,Brambles Restaurant,Pass,nan,nan,nan,2015-01-08,56.230818,-5.073138
418909,Brander Lodge Hotel   Bistro,Pass,nan,nan,nan,2012-07-19,56.417853,-5.190309
418910,Brechin's Brasserie,Pass,nan,nan,nan,2014-03-25,55.837361,-5.057849
418911,Bridge Cafe,Pass,nan,nan,nan,2012-05-14,56.409885,-5.470714
418912,Bridge Of Orchy Hotel,Pass,nan,nan,nan,2012-08-09,56.517633,-4.76914
418913,Bridgend Hotel,Pass,nan,nan,nan,2012-04-19,55.780876,-6.249067
418914,Bunessan Primary School,Pass and Eat Safe,nan,nan,nan,2011-10-04,56.318365,-6.220881
418915,Burnside Bistro,Pass,nan,nan,nan,2011-11-03,55.90607,-5.233601
418916,Burnside Lodge Guest House,Pass,nan,nan,nan,2014-03-31,55.676228,-6.505176
418917,Bute Connections,Pass,nan,nan,nan,2014-09-24,55.835942,-5.054526
418918,Bute House Hotel,Pass,nan,nan,nan,2010-12-02,55.837311,-5.052621
418919,Bute Shinty Club,Pass,nan,nan,nan,2014-04-08,55.830338,-5.060827
418920,C Mauchline Childminding,Pass,nan,nan,nan,2013-07-16,55.413855,-5.694991
418921,Ca Dora Cafe,Pass,nan,nan,nan,2014-02-20,55.863786,-5.412002
418922,Cafaidh Blasta,Pass,nan,nan,nan,2014-03-31,55.762817,-6.265364
418923,Cafaidh Na Roinn,Pass,nan,nan,nan,2013-04-04,55.705227,-6.426462
418924,Cafe 19,Improvement Required,nan,nan,nan,2014-04-09,56.003211,-4.734647
418925,Cafe 35,Pass,nan,nan,nan,2013-07-04,56.03729,-5.433336
418926,Cafe Atlantis,Pass,nan,nan,nan,2011-12-12,56.418744,-5.470937
418927,Cafe Bluebell,Pass,nan,nan,nan,2014-04-29,55.424176,-5.603558
418928,Cafe Craft,Pass,nan,nan,nan,2014-02-03,56.079755,-4.829151
418929,Cafe Fish,Pass,nan,nan,nan,2012-08-29,56.623148,-6.066605
418930,Cafe Lochan,Pass,nan,nan,nan,2011-10-12,56.205042,-4.709884
418931,Cafe Rhu,Pass,nan,nan,nan,2014-03-05,56.014773,-4.774699
418932,Cafe Scientifique,Awaiting Inspection,nan,nan,nan,2014-04-03,56.451159,-5.440761
418933,Cafebarge,Pass,nan,nan,nan,2013-04-05,55.863786,-5.412002
418934,Cairnbaan Hotel,Pass,nan,nan,nan,2013-09-04,56.061194,-5.487207
418935,Cairndow Community Childcare,Pass,nan,nan,nan,2012-11-07,56.258131,-4.9346
418936,Cairndow Stagecoach Inn,Improvement Required,nan,nan,nan,2014-02-05,56.258334,-4.934389
418937,Calgary Farmhouse Tearoom,Pass,nan,nan,nan,2012-05-03,56.583077,-6.270709
418938,Callie Catering  / Coast To Coast Catering,Pass,nan,nan,nan,2013-11-21,55.430168,-5.61288
418939,Camerons Dairy,Pass,nan,nan,nan,2014-01-30,55.948969,-4.926051
418940,Campbeltown Grammar School,Pass,nan,nan,nan,2014-09-03,55.417808,-5.602677
418941,Campbeltown Hospital Kitchen,Pass,nan,nan,nan,2014-05-06,55.421406,-5.60691
418942,Campbeltown Nursery Centre,Pass,nan,nan,nan,2012-10-16,55.421406,-5.60691
418943,Camus Adventure Centre,Pass and Eat Safe,nan,nan,nan,2011-10-05,56.327009,-6.292722
418944,Cardross Bowling Club,Pass,nan,nan,nan,2014-02-27,55.962979,-4.655754
418945,Cardross Church Hall,Pass,nan,nan,nan,2010-03-29,55.961475,-4.652542
418946,Cardross Golf Club,Pass,nan,nan,nan,2014-04-10,55.960731,-4.647027
418947,Cardross Primary,Pass,nan,nan,nan,2013-12-03,55.968134,-4.656348
418948,Carolyn's Cafe,Awaiting Inspection,nan,nan,nan,2014-09-15,56.415937,-5.47326
418949,Carradale Hotel,Pass,nan,nan,nan,2012-04-16,55.590414,-5.469107
418950,Carradale Primary School,Pass and Eat Safe,nan,nan,nan,2013-02-13,55.586325,-5.494336
418951,Castle Isle Restaurant,Pass,nan,nan,nan,2014-02-03,55.999822,-4.775647
418952,Castle Stalker View Cafe And Gift Shop,Pass,nan,nan,nan,2013-03-05,56.572149,-5.378938
418953,Castlehill Primary School,Pass,nan,nan,nan,2014-02-05,55.421406,-5.60691
418954,Catherine's Coffee Shoppe,Improvement Required,nan,nan,nan,2014-04-09,56.003882,-4.738817
418955,Ceabhar,Pass and Eat Safe,nan,nan,nan,2009-07-30,56.482903,-6.970176
418956,Ceann Loch Diner,Pass,nan,nan,nan,2014-03-12,55.424756,-5.60554
418957,Central Perks,Pass,nan,nan,nan,2014-02-12,56.004024,-4.732828
418958,Centre 81,Pass,nan,nan,nan,2014-02-19,56.080879,-4.831886
418959,Chandlers,Pass,nan,nan,nan,2014-04-10,55.829923,-5.026024
418960,Chouxmake's Cakes,Pass,nan,nan,nan,2011-07-01,55.946452,-4.926085
418961,Civilian Staff Restaurant,Pass,nan,nan,nan,2014-03-12,56.045788,-4.87534
418962,Clachan Primary,Pass and Eat Safe,nan,nan,nan,2015-01-15,55.747779,-5.558858
418963,Clansman Bar (no 19),Pass,nan,nan,nan,2010-09-22,55.949471,-4.925753
418964,Claret Jug,Pass,nan,nan,nan,2014-02-05,56.031326,-4.637749
418965,Clyde Bar,Pass,nan,nan,nan,2010-03-25,56.003882,-4.738817
418966,Clyde Nursery,Pass,nan,nan,nan,2010-03-29,56.053017,-4.817265
418967,Clyde Street Cafe,Pass,nan,nan,nan,2014-03-18,56.002456,-4.729782
418968,Clyde View Bed And Breakfast,Pass,nan,nan,nan,2009-08-21,55.987598,-4.958301
418969,Clydeview Care Home,Pass,nan,nan,nan,2013-10-16,55.960706,-4.642715
418970,Clynder Stores And Cafe,Pass,nan,nan,nan,2014-05-20,56.018755,-4.812794
418971,Coach House Coffee House,Pass,nan,nan,nan,2014-01-21,56.101277,-4.637935
418972,Coach House Inn,Pass,nan,nan,nan,2014-02-04,55.960046,-4.646692
418973,Coast,Pass,nan,nan,nan,2012-03-14,56.416279,-5.472902
418974,Coast Coffee,Pass,nan,nan,nan,2014-07-29,55.946952,-4.922807
418975,Coastal Larder,Pass,nan,nan,nan,2012-07-26,56.622432,-6.525343
418976,Coasters,Pass,nan,nan,nan,2010-07-21,56.416599,-5.474018
418977,Cobbled Cow Tearoom,Pass,nan,nan,nan,2012-09-20,56.493178,-6.884427
418978,Coffee Ahoy,Pass,nan,nan,nan,2014-06-26,55.968805,-4.909485
418979,Coffee Corner,Pass,nan,nan,nan,2012-02-28,56.412483,-5.473951
418980,Coffee Pot,Pass,nan,nan,nan,2012-09-11,56.517392,-5.949194
418981,Colgrain Bowling Club,Pass,nan,nan,nan,2014-12-18,55.997687,-4.712893
418982,Colgrain Primary School/Catering Direct,Pass,nan,nan,nan,2014-02-06,56.000912,-4.710921
418983,Colintraive Village Hall,Exempt,nan,nan,nan,2014-02-18,56.040565,-5.189975
418984,Coll Hotel,Pass and Eat Safe,nan,nan,nan,2011-09-29,56.624859,-6.526528
418985,Colonsay Gardens Cafe,Improvement Required,nan,nan,nan,2014-06-25,56.092737,-6.189593
418986,Columba Hall,Pass,nan,nan,nan,2012-07-12,55.62878,-6.188911
418987,Columba Hotel,Pass,nan,nan,nan,2011-10-26,56.414564,-5.474449
418988,Commercial Bar,Pass,nan,nan,nan,2010-07-07,55.950691,-4.927383
418989,Commercial Inn,Pass,nan,nan,nan,2011-02-01,55.424121,-5.606019
418990,Commodore Hotel,Pass,nan,nan,nan,2014-02-11,56.005027,-4.744706
418991,Corachie Clematis Plant Centre,Pass,nan,nan,nan,2011-06-13,56.41803,-5.190762
418992,Coriander Indian And Chinese Restaurant,Pass,nan,nan,nan,2013-10-01,56.03729,-5.433336
418993,Corncrake Cottage B&B,Pass,nan,nan,nan,2009-10-14,56.073884,-6.23363
418994,Corranmor House,Pass,nan,nan,nan,2010-12-17,56.181349,-5.538054
418995,Corrie House Bed And Breakfast And Cook School,Pass,nan,nan,nan,2012-05-25,56.21028,-5.556257
418996,Corryvreckan,Pass,nan,nan,nan,2014-04-03,56.412219,-5.475678
418997,Costa,Awaiting Inspection,nan,nan,nan,2014-09-15,56.412348,-5.473955
418998,Costa Coffee,Pass,nan,nan,nan,2011-04-26,56.00422,-4.734125
418999,Cottage Restaurant,Pass,nan,nan,nan,2012-07-23,56.230101,-5.072709
419000,County Lodge Hotel,Pass,nan,nan,nan,2014-02-03,55.998964,-4.713704
419001,Cove Lunch Club,Pass,nan,nan,nan,2014-02-26,55.988395,-4.848978
419002,Cowal Community Hospital,Pass,nan,nan,nan,2015-01-23,55.956939,-4.92771
419003,Cowal Cottage Bakery,Pass,nan,nan,nan,2014-04-07,55.960346,-4.91103
419004,Cowal Golf Club,Pass,nan,nan,nan,2014-03-07,55.962954,-4.917428
419005,Craig Rowan Bed & Breakfast,Exempt,nan,nan,nan,2012-04-02,56.374084,-6.007291
419006,Craigard House,Pass,nan,nan,nan,2014-02-14,55.428117,-5.592454
419007,Craigard II,Pass,nan,nan,nan,2014-04-10,56.004559,-4.733411
419008,Craigard Residential Home,Pass,nan,nan,nan,2014-12-10,55.839225,-5.025037
419009,Craighelen Lawn Tennis And Squash Club,Pass,nan,nan,nan,2014-02-18,56.000199,-4.719212
419010,Craigieburn Hotel,Pass,nan,nan,nan,2014-02-17,55.954025,-4.919479
419011,Craigmore Bowling Club,Pass,nan,nan,nan,2010-05-06,55.844109,-5.031121
419012,Craignish Primary School,Pass,nan,nan,nan,2009-09-09,56.181349,-5.538054
419013,Craignure Inn,Improvement Required,nan,nan,nan,2014-08-19,56.46436,-5.696808
419014,Craobh Haven Watersports Ltd,Pass,nan,nan,nan,2012-05-25,56.21028,-5.556257
419015,Crarae Garden,Pass,nan,nan,nan,2011-07-25,56.130428,-5.2328
419016,Crinan Hotel,Pass,nan,nan,nan,2013-08-29,56.091451,-5.557315
419017,Crinan Hotel Coffee Shop,Pass,nan,nan,nan,2012-05-28,56.089053,-5.559426
419018,Crown House B&B,Pass,nan,nan,nan,2013-09-16,56.182446,-5.432613
419019,Cruin Restaurant,Pass and Eat Safe,nan,nan,nan,2014-02-14,56.021443,-4.628714
419020,Cruise Loch Lomond Ltd,Pass,nan,nan,nan,2013-10-10,56.206081,-4.706796
419021,Cuan Mor,Pass,nan,nan,nan,2011-10-28,56.414418,-5.471954
419022,Cuilfail Hotel,Pass,nan,nan,nan,2011-11-25,56.255345,-5.490907
419023,Culag Lochside Guest House,Pass,nan,nan,nan,2010-03-29,56.146253,-4.667664
419024,Cupan,Improvement Required,nan,nan,nan,2014-10-23,56.623148,-6.066605
419025,Curry Club,Pass,nan,nan,nan,2014-04-10,55.998964,-4.713704
419026,Cyber Bistro,Pass,nan,nan,nan,2014-07-08,55.629763,-6.183039
419027,Dalintober Primary School,Pass,nan,nan,nan,2014-03-26,55.431015,-5.609147
419028,Dalkusha House,Pass,nan,nan,nan,2010-03-29,56.201867,-4.744586
419029,Dalmally Hotel,Pass,nan,nan,nan,2012-04-18,56.402112,-4.971583
419030,Dalmally Primary,Pass and Eat Safe,nan,nan,nan,2012-05-29,56.401792,-4.963939
419031,Dalrannoch Tearoom,Pass,nan,nan,nan,2012-07-11,56.516339,-5.35341
419032,Dalriada B&B,Pass,nan,nan,nan,2012-06-09,56.023243,-5.446022
419033,Debbie MacRae (Child Minder),Pass,nan,nan,nan,2012-09-13,55.586325,-5.494336
419034,Dee-emm Bed And Breakfast,Exempt,nan,nan,nan,2012-04-02,56.46436,-5.696808
419035,Delicatessen,Exempt,nan,nan,nan,2011-07-14,,
419036,Dellwood Hotel,Pass,nan,nan,nan,2012-08-01,55.431683,-5.611185
419037,Dervaig Primary School Meals,Exempt,nan,nan,nan,2010-10-08,56.585247,-6.179459
419038,Dhailling Lodge Guest House,Pass,nan,nan,nan,2009-04-01,55.955609,-4.9175
419039,Dils Newsagents,Improvement Required,nan,nan,nan,2014-02-11,55.834454,-5.055096
419040,Dinos Radio Cafe,Improvement Required,nan,nan,nan,2014-01-31,56.003612,-4.736793
419041,Diors Diner,Pass,nan,nan,nan,2014-09-25,,
419042,Dolce Vita,Pass,nan,nan,nan,2013-02-12,56.414418,-5.471954
419043,Dorothy Biggins - Childminder,Pass,nan,nan,nan,2011-10-06,55.419402,-5.602316
419044,Drimsynie House Hotel,Pass,nan,nan,nan,2014-11-21,56.168324,-4.914449
419045,Drome Cafe,Pass,nan,nan,nan,2014-05-20,55.685448,-6.23766
419046,Drumfork Club,Pass,nan,nan,nan,2011-11-16,56.00792,-4.709455
419047,Drumlemble Primary,Pass,nan,nan,nan,2011-06-09,55.417992,-5.668424
419048,Duck Bay Hotel And Marina,Pass,nan,nan,nan,2014-03-14,56.01711,-4.613512
419049,Dunaverty Golf Club,Pass,nan,nan,nan,2011-11-10,55.313758,-5.644908
419050,Dunbeg School,Pass and Eat Safe,nan,nan,nan,2012-11-20,56.44454,-5.443117
419051,Dunchraigaig House,Pass and Eat Safe,nan,nan,nan,2010-09-01,56.11312,-5.483588
419052,Dunclutha Childrens Home,Improvement Required,nan,nan,nan,2014-03-13,55.963353,-4.910438
419053,Duncreggan House,Pass,nan,nan,nan,2009-02-04,55.993909,-4.897387
419054,Dungallan House Hotel,Exempt,nan,nan,nan,2010-08-17,56.408754,-5.487622
419055,Dunoon Argyll Bowling Club,Pass,nan,nan,nan,2015-01-09,55.948213,-4.934788
419056,Dunoon Grammar School,Pass,nan,nan,nan,2014-04-03,55.962032,-4.926381
419057,Dunoon Primary School Kitchen,Pass,nan,nan,nan,2014-06-23,55.947224,-4.927265
419058,Dunoon School Hostel,Pass,nan,nan,nan,2014-04-03,55.964365,-4.914793
419059,Dunoon Sheriff Court,Exempt,nan,nan,nan,2010-05-13,55.966689,-4.911538
419060,Dunvalanree,Pass and Eat Safe,nan,nan,nan,2011-10-06,55.585523,-5.465913
419061,Eadar Glinn Home,Pass and Eat Safe,nan,nan,nan,2013-01-09,56.402786,-5.472515
419062,Earadale Bed And Breakfast,Pass,nan,nan,nan,2010-04-14,55.424062,-5.604069
419063,Easdale Primary School,Pass and Eat Safe,nan,nan,nan,2011-05-31,56.294514,-5.641001
419064,Ecoyoga Limited - Inverliever Lodge,Pass,nan,nan,nan,2012-08-21,56.182418,-5.432626
419065,EE Usk,Pass and Eat Safe,nan,nan,nan,2013-03-06,56.414564,-5.474449
419066,Electric Bakery,Pass,nan,nan,nan,2014-01-14,55.837367,-5.05689
419067,Empire Travel Lodge,Pass,nan,nan,nan,2014-10-22,56.036928,-5.431473
419068,Enable Homes,Pass,nan,nan,nan,2011-04-11,55.947946,-4.927528
419069,ESCAPE,Pass,nan,nan,nan,2013-05-29,55.947224,-4.927265
419070,Esplanade Hotel,Improvement Required,nan,nan,nan,2014-07-22,55.945442,-4.928492
419071,Ettrick Bay Tearoom,Pass and Eat Safe,nan,nan,nan,2014-08-11,55.859669,-5.11462
419072,Falls Of Lora Hotel,Pass and Eat Safe,nan,nan,nan,2012-03-22,56.453358,-5.382076
419073,Fancy Fillings,Pass,nan,nan,nan,2014-04-09,56.003882,-4.738817
419074,Farmhouse Cafe,Pass and Eat Safe,nan,nan,nan,2012-06-28,56.466119,-6.896872
419075,Fascadail House,Pass,nan,nan,nan,2010-03-29,56.196265,-4.745136
419076,Feorlin B & B,Improvement Required,nan,nan,nan,2010-03-30,55.426526,-5.60861
419077,Fintastic,Pass,nan,nan,nan,2014-07-09,55.957242,-4.928967
419078,First Port Of Coll,Pass,nan,nan,nan,2010-04-26,56.623283,-6.52709
419079,Fish And Chips,Improvement Required,nan,nan,nan,2012-06-21,,
419080,Flamingo,Pass,nan,nan,nan,2014-10-29,56.003609,-4.732478
419081,Ford House,Improvement Required,nan,nan,nan,2013-08-06,56.182446,-5.432613
419082,Foxbank Guest House,Awaiting Inspection,nan,nan,nan,2010-09-28,55.968805,-4.909485
419083,Fresh Bytes,Pass,nan,nan,nan,2013-08-08,55.423599,-5.605719
419084,Furnace Primary School,Pass,nan,nan,nan,2014-03-12,56.154758,-5.183897
419085,Gails,Pass,nan,nan,nan,2012-06-19,56.13815,-5.218024
419086,Galley Of Lorne Inn,Pass,nan,nan,nan,2014-09-30,56.181349,-5.538054
419087,Gallimaufry,Pass,nan,nan,nan,2009-09-30,55.997486,-4.89589
419088,Gamba's Bar,Pass,nan,nan,nan,2014-12-10,55.837772,-5.056507
419089,Garelochhead Bowling Club,Pass,nan,nan,nan,2010-03-29,56.083315,-4.83229
419090,Garelochhead Primary School,Pass,nan,nan,nan,2014-01-30,56.083315,-4.83229
419091,Gigha Hotel,Improvement Required,nan,nan,nan,2014-09-02,55.682953,-5.737673
419092,Gigha Primary School,Pass and Eat Safe,nan,nan,nan,2012-08-22,55.682953,-5.737673
419093,Glenbarr Primary School,Pass,nan,nan,nan,2015-01-16,55.567567,-5.696479
419094,Glenburn Hotel,Pass and Eat Safe,nan,nan,nan,2014-01-30,55.840896,-5.043636
419095,Glencruitten Hostel,Pass and Eat Safe,nan,nan,nan,2013-01-23,56.407457,-5.461119
419096,Glenfinart Hotel,Pass,nan,nan,nan,2014-08-14,56.061132,-4.930708
419097,Glengorm Farming Partnership,Pass,nan,nan,nan,2013-04-23,56.63615,-6.163063
419098,Glenmorag Hotel,Pass,nan,nan,nan,2014-09-17,55.940972,-4.937621
419099,Glenorchy Lodge Hotel,Pass,nan,nan,nan,2014-09-01,56.401264,-4.984436
419100,Glenside Bed & Breakfast,Pass,nan,nan,nan,2009-07-28,56.172198,-4.903012
419101,Goil Inn,Pass,nan,nan,nan,2014-02-12,56.172198,-4.903012
419102,Golden Dragon,Pass,nan,nan,nan,2014-05-08,55.757338,-6.288627
419103,Golden Ocean,Pass,nan,nan,nan,2014-03-20,55.425672,-5.607094
419104,Golden Sea,Pass,nan,nan,nan,2014-09-26,55.948941,-4.925344
419105,Golden Valley Chinese Restaurant,Awaiting Inspection,nan,nan,nan,2014-02-13,56.079333,-4.827963
419106,Gortanvogie Residential Home,Pass,nan,nan,nan,2013-08-15,55.755373,-6.277421
419107,Great Western Hotel,Pass and Eat Safe,nan,nan,nan,2012-03-16,56.41768,-5.474263
419108,Green Apple Cafe,Pass,nan,nan,nan,2014-10-09,56.040132,-5.423293
419109,Green Kettle Inn,Pass,nan,nan,nan,2014-08-01,56.093878,-4.837327
419110,Greystones Guesthouse,Exempt,nan,nan,nan,2013-04-05,56.417098,-5.471274
419111,Harbour Inn And Restaurant,Pass,nan,nan,nan,2014-06-19,55.757544,-6.288139
419112,Harry Haw's,Pass,nan,nan,nan,2014-05-16,55.836836,-5.054037
419113,Hebridean Isles Trading Company,Pass,nan,nan,nan,2012-06-13,56.074461,-6.232279
419114,Helensburgh Bowling Club,Pass,nan,nan,nan,2014-04-23,56.010216,-4.728805
419115,Helensburgh Cricket/Rugby Club,Pass,nan,nan,nan,2011-02-24,,
419116,Helensburgh Golf Clubhouse,Pass,nan,nan,nan,2013-12-05,56.010159,-4.718789
419117,Helensburgh Lunch Club,Pass,nan,nan,nan,2014-02-25,56.00398,-4.734397
419118,Henry Bell,Pass,nan,nan,nan,2014-10-29,56.003977,-4.737798
419119,Hermitage Academy (Kitchen),Pass and Eat Safe,nan,nan,nan,2014-05-12,55.994694,-4.702659
419120,Hermitage Primary School,Pass,nan,nan,nan,2014-02-26,,
419121,Highland Cottage Hotel,Pass,nan,nan,nan,2010-08-27,56.62218,-6.072015
419122,Hollow Mountain Cafe,Pass and Eat Safe,nan,nan,nan,2012-09-17,56.394515,-5.116196
419123,Holy Loch Coffee Shop,Pass,nan,nan,nan,2014-09-12,55.982151,-4.947815
419124,Holy Loch Sailing Club,Exempt,nan,nan,nan,2015-01-19,55.981154,-4.946264
419125,Holy Trinity Episcopal Church,Exempt,nan,nan,nan,2011-01-06,55.944603,-4.938793
419126,Home Start MAJIK,Pass,nan,nan,nan,2011-02-16,55.425828,-5.605464
419127,Hong Kong Chinese Carry Out,Pass,nan,nan,nan,2015-01-22,55.955339,-4.922799
419128,Horseshoe Inn,Pass,nan,nan,nan,2012-03-15,56.081453,-5.450387
419129,Host Contract Management Civilian Staff Restaurant,Pass,nan,nan,nan,2014-07-01,56.053017,-4.817265
419130,Howie Memorial Hall,Exempt,nan,nan,nan,2010-03-29,56.009779,-4.801969
419131,Humbles Cafe Bar,Pass,nan,nan,nan,2014-09-16,56.003849,-4.735831
419132,Hunter's Quay Holiday Village (Dolphin Leisure Centre),Improvement Required,nan,nan,nan,2014-05-20,55.976158,-4.926566
419133,Hunters Quay Hotel,Improvement Required,nan,nan,nan,2014-02-27,55.968805,-4.909485
419134,Impress Weddings And Celebrations,Pass,nan,nan,nan,2012-08-20,55.979677,-4.945992
419135,India Pavillion,Improvement Required,nan,nan,nan,2014-10-09,55.838383,-5.058344
419136,Ingrams Bar,Improvement Required,nan,nan,nan,2014-02-06,55.948268,-4.925678
419137,Inn On Loch Lomond,Improvement Required,nan,nan,nan,2012-08-06,56.146253,-4.667664
419138,Innellan And Toward Family Centre,Improvement Required,nan,nan,nan,2014-04-29,55.894035,-4.958818
419139,Innellan Church & Scout Hall,Exempt,nan,nan,nan,2011-01-06,55.894035,-4.958818
419140,Innellan Golf Club,Pass,nan,nan,nan,2010-08-11,55.896149,-4.957251
419141,Innellan Primary School,Pass,nan,nan,nan,2014-01-30,55.894035,-4.958818
419142,Innellan Public Hall,Exempt,nan,nan,nan,2010-12-23,55.895353,-4.953719
419143,Inver Cottage Restaurant,Pass,nan,nan,nan,2014-06-03,56.099031,-5.215063
419144,Inveraray Castle Tea Room,Pass,nan,nan,nan,2012-04-05,56.237468,-5.073574
419145,Inveraray Primary School,Pass,nan,nan,nan,2014-12-09,56.22997,-5.075797
419146,Inverawe Smokehouse Cafe,Improvement Required,nan,nan,nan,2013-05-20,56.429968,-5.202973
419147,Invereck Home,Pass,nan,nan,nan,2014-03-21,56.002022,-4.971901
419148,Inveroran Hotel,Pass,nan,nan,nan,2013-04-04,56.532696,-4.808366
419149,Iona Abbey,Pass,nan,nan,nan,2012-09-12,56.335037,-6.391454
419150,Iona School Meals,Exempt,nan,nan,nan,2010-10-08,56.331092,-6.392862
419151,Islas Daycare,Pass,nan,nan,nan,2012-07-20,56.045252,-5.438959
419152,Islay Frigate Hotel,Pass,nan,nan,nan,2014-07-18,55.863786,-5.412002
419153,Islay High School,Pass,nan,nan,nan,2012-09-06,55.755267,-6.292306
419154,Islay Hospital (Kitchen),Pass,nan,nan,nan,2014-02-18,55.755807,-6.279415
419155,Islay Hotel,Improvement Required,nan,nan,nan,2013-04-09,55.630159,-6.18855
419156,Isle Of Bute Sailing Club,Pass,nan,nan,nan,2012-01-19,55.856744,-5.066804
419157,Isle Of Eriska Hotel,Pass and Eat Safe,nan,nan,nan,2011-12-21,56.523637,-5.417749
419158,Isle Of Mull Hotel,Pass and Eat Safe,nan,nan,nan,2012-05-17,56.476733,-5.715429
419159,J Ogden's Seafood Bar,Pass and Eat Safe,nan,nan,nan,2010-10-18,56.412219,-5.475678
419160,Jade Garden,Improvement Required,nan,nan,nan,2015-01-15,55.838025,-5.057901
419161,Jam Jar Kitchens,Pass,nan,nan,nan,2014-09-17,55.962917,-4.654003
419162,Java Walk,Improvement Required,nan,nan,nan,2014-02-27,55.960346,-4.91103
419163,Jean's Fresh Fish (Stall),Pass,nan,nan,nan,2010-06-04,55.756613,-6.285453
419164,John Logie Baird Primary School,Pass,nan,nan,nan,2014-01-28,56.00731,-4.711851
419165,Juicy Roast,Pass,nan,nan,nan,2012-02-02,56.414346,-5.471639
419166,Julies (Oban)Ltd.,Pass,nan,nan,nan,2009-11-12,56.415151,-5.472086
419167,Jura Hotel,Pass,nan,nan,nan,2013-08-28,55.832614,-5.950432
419168,Kanga Rhu Pre School,Pass,nan,nan,nan,2010-03-29,56.023905,-4.781533
419169,Kebabish Curry  House,Pass,nan,nan,nan,2012-02-15,56.415732,-5.473193
419170,Kelvin Hotel/Guest House,Exempt,nan,nan,nan,2010-09-30,56.411095,-5.475657
419171,Kennedy's Bar,Exempt,nan,nan,nan,2010-03-29,56.053017,-4.817265
419172,Kentaline Farm,Pass,nan,nan,nan,2010-09-02,56.5005,-5.413682
419173,Kentraw Farmhouse Bed And Breakfast,Pass,nan,nan,nan,2011-01-11,55.768406,-6.359695
419174,Kerrera Tea Garden And Bunkhouse,Pass,nan,nan,nan,2013-06-19,56.401142,-5.527539
419175,Kidstons,Pass,nan,nan,nan,2014-04-25,56.01673,-4.777615
419176,Kilberry Inn,Pass,nan,nan,nan,2012-11-23,55.819649,-5.650101
419177,Kilbowie Outdoor Centre,Pass and Eat Safe,nan,nan,nan,2012-11-26,56.403695,-5.5006
419178,Kilbrannan Bar,Pass,nan,nan,nan,2014-03-05,55.425672,-5.607094
419179,Kilchrenan Inn Ltd,Pass,nan,nan,nan,2013-06-27,56.367032,-5.18554
419180,Kilchrenan Primary School,Exempt,nan,nan,nan,2010-10-08,56.360065,-5.179274
419181,Kilcreggan Cafe,Pass,nan,nan,nan,2014-03-24,55.985613,-4.819494
419182,Kilcreggan Hotel,Pass,nan,nan,nan,2014-05-29,55.985703,-4.824599
419183,Kilcreggan Primary School,Pass and Eat Safe,nan,nan,nan,2014-12-15,55.988614,-4.841473
419184,Kilfinan Hall,Exempt,nan,nan,nan,2011-01-06,55.957438,-5.311444
419185,Kilfinan Parish Church,Exempt,nan,nan,nan,2011-01-06,55.957438,-5.311444
419186,Killoran Hotel,Exempt,nan,nan,nan,2010-04-28,56.582434,-6.199632
419187,Kilmartin Hotel,Pass,nan,nan,nan,2013-09-13,56.137223,-5.484901
419188,Kilmartin Museum Cafe,Pass,nan,nan,nan,2012-08-06,56.137223,-5.484901
419189,Kilmartin Primary School,Pass,nan,nan,nan,2012-09-18,56.110533,-5.502566
419190,Kilmodan Primary School Kitchen,Pass,nan,nan,nan,2014-04-25,56.009411,-5.214026
419191,Kilmory Staff Canteen,Pass,nan,nan,nan,2015-01-19,56.026443,-5.421213
419192,Kilninver Primary School,Pass,nan,nan,nan,2008-02-25,56.335822,-5.51655
419193,Kiloran Guest House,Pass,nan,nan,nan,2014-04-24,55.586325,-5.494336
419194,Kings Knoll Hotel,Pass,nan,nan,nan,2011-05-16,56.420544,-5.471491
419195,Kinloch Hotel,Pass,nan,nan,nan,2010-05-31,56.374084,-6.007291
419196,Kintyre Care Centre,Pass and Eat Safe,nan,nan,nan,2014-12-03,55.422951,-5.602387
419197,Kirkton House,Pass,nan,nan,nan,2010-03-29,55.972209,-4.658711
419198,Kirn & Hunters Quay Bowling Club,Exempt,nan,nan,nan,2011-07-05,55.962954,-4.917428
419199,Kirn Primary School,Pass and Eat Safe,nan,nan,nan,2014-02-28,55.959434,-4.922226
419200,Kitchen Garden,Pass,nan,nan,nan,2014-02-04,56.206168,-4.744006
419201,Kitchen Garden (Oban) Ltd,Pass,nan,nan,nan,2013-01-14,56.413483,-5.471934
419202,Knap Guest House,Pass,nan,nan,nan,2012-10-11,55.861683,-5.420083
419203,Knipoch House Hotel Ltd,Improvement Required,nan,nan,nan,2012-08-08,56.359078,-5.454381
419204,Knockderry House Hotel,Pass,nan,nan,nan,2014-04-10,56.01355,-4.86508
419205,Kronks,Pass,nan,nan,nan,2013-04-03,56.415059,-5.473131
419206,Kyles Parish Church,Pass,nan,nan,nan,2014-12-09,55.891841,-5.245791
419207,La Barca,Pass,nan,nan,nan,2014-04-24,56.003612,-4.736793
419208,Labels,Improvement Required,nan,nan,nan,2014-12-19,55.81527,-6.140321
419209,Lancaster Hotel,Pass,nan,nan,nan,2012-09-11,56.419614,-5.479338
419210,Largiemore Farmhouse Bed And  Breakfast,Pass,nan,nan,nan,2011-01-21,55.475706,-5.691617
419211,Laura's Cafe,Pass,nan,nan,nan,2014-01-15,55.962917,-4.654003
419212,Lee Garden Take Away,Improvement Required,nan,nan,nan,2015-01-16,56.03632,-5.431997
419213,Light Of India Tandoori Restaurant,Improvement Required,nan,nan,nan,2014-03-10,56.412758,-5.470878
419214,Lighthouse,Pass,nan,nan,nan,2010-03-24,55.985074,-4.820641
419215,Lios Beag Cafe,Improvement Required,nan,nan,nan,2014-07-23,56.532262,-5.472345
419216,Lismore Primary School,Pass and Eat Safe,nan,nan,nan,2013-11-21,56.514418,-5.503641
419217,Lite Bites,Pass,nan,nan,nan,2014-12-03,55.86329,-5.41498
419218,Little Angels Childcare,Pass,nan,nan,nan,2012-02-29,55.755373,-6.277421
419219,Little Angels Childcare,Pass,nan,nan,nan,2010-08-31,55.755267,-6.292306
419220,Little Bay Cafe,Pass,nan,nan,nan,2012-07-31,56.415059,-5.473131
419221,Little Learners Nursery,Pass,nan,nan,nan,2008-11-05,56.451159,-5.440761
419222,Little Treasures Day Care,Pass,nan,nan,nan,2013-01-09,56.085527,-5.444866
419223,Loch Fyne Fish Bar,Pass,nan,nan,nan,2014-12-03,55.863786,-5.412002
419224,Loch Fyne Hotel,Pass,nan,nan,nan,2014-02-04,56.199672,-5.111152
419225,Loch Fyne Oysters Restaurant,Pass,nan,nan,nan,2014-07-14,56.269604,-4.933314
419226,Loch Gorm House,Pass,nan,nan,nan,2010-06-10,55.768406,-6.359695
419227,Loch Lomond Arms Hotel,Pass,nan,nan,nan,2014-10-30,56.100947,-4.639874
419228,Loch Lomond Golf Club,Pass,nan,nan,nan,2014-05-23,56.073425,-4.638634
419229,Loch Lomond Outdoor Centre,Pass,nan,nan,nan,2014-02-24,56.304638,-4.720606
419230,Loch Long Hotel,Pass,nan,nan,nan,2014-02-04,56.20133,-4.744918
419231,Loch Melfort Hotel,Pass,nan,nan,nan,2012-04-19,56.235052,-5.554342
419232,Loch Na Keal Meals,Awaiting Inspection,nan,nan,nan,2014-05-30,56.498876,-6.000839
419233,Loch View Grill,Pass,nan,nan,nan,2014-05-08,56.263059,-5.27975
419234,Lochavullin Bar,Exempt,nan,nan,nan,2010-10-07,56.410718,-5.469573
419235,Lochavullin Snack Van,Pass,nan,nan,nan,2013-09-17,,
419236,Lochawe Hotel,Pass and Eat Safe,nan,nan,nan,2012-10-31,56.399993,-5.045886
419237,Lochdonhead Primary School,Pass,nan,nan,nan,2007-05-17,56.430528,-5.676714
419238,Lochgair Hotel,Pass,nan,nan,nan,2014-09-22,56.062153,-5.338936
419239,Lochgair Luncheon Club,Pass,nan,nan,nan,2012-11-16,56.065585,-5.336019
419240,Lochgoilhead Primary School,Pass,nan,nan,nan,2014-04-22,56.170991,-4.901181
419241,Lochindaal Hotel,Improvement Required,nan,nan,nan,2013-11-21,55.739533,-6.378391
419242,Lochnell Arms Hotel,Pass,nan,nan,nan,2014-10-08,56.458237,-5.396344
419243,Lochnell School,Pass and Eat Safe,nan,nan,nan,2011-04-20,56.5005,-5.413682
419244,Lochside Care Home,Pass,nan,nan,nan,2014-10-23,56.029833,-4.794449
419245,Lochside Guest House,Pass,nan,nan,nan,2010-03-29,56.201867,-4.744586
419246,Lochside Hotel,Pass,nan,nan,nan,2013-06-19,55.757529,-6.285984
419247,Lochview,Pass,nan,nan,nan,2010-03-23,56.204978,-4.713217
419248,"Lodge Rothesay St. John, No. 292",Pass,nan,nan,nan,2012-10-16,55.838051,-5.059404
419249,Lodge St George No. 503,Pass,nan,nan,nan,2010-03-25,56.004696,-4.738586
419250,Lodge St. Modan,Exempt,nan,nan,nan,2010-10-08,56.430112,-5.238256
419251,Lomond School,Pass and Eat Safe,nan,nan,nan,2014-02-28,56.009429,-4.736723
419252,Lord Of The Isles,Pass,nan,nan,nan,2014-11-28,56.21028,-5.556257
419253,Lorenzos,Pass,nan,nan,nan,2014-09-17,55.950389,-4.926479
419254,Lorn And Islands DGH,Pass and Eat Safe,nan,nan,nan,2015-01-08,56.4005,-5.475517
419255,Lorne Bar,Pass,nan,nan,nan,2011-01-27,56.014855,-5.447923
419256,Luing School,Pass,nan,nan,nan,2008-06-13,56.229738,-5.641739
419257,Luss Milk Bar Ltd,Improvement Required,nan,nan,nan,2013-10-15,56.101191,-4.637318
419258,Luss Primary,Pass,nan,nan,nan,2015-01-14,56.100925,-4.640098
419259,Lynn Of Lorne  Care Home,Pass and Eat Safe,nan,nan,nan,2012-11-28,56.489217,-5.404217
419260,M & P Miller,Pass,nan,nan,nan,2009-04-01,55.867476,-5.289163
419261,M Zavaronis Cafe,Pass,nan,nan,nan,2014-11-05,55.837548,-5.052847
419262,Macbraynes Office / KIOSK,Pass,nan,nan,nan,2013-05-08,56.324673,-6.36331
419263,MacClures Bar,Pass,nan,nan,nan,2010-07-07,55.948268,-4.925678
419264,Macdonald Arms,Pass,nan,nan,nan,2014-10-23,56.621604,-6.070109
419265,MacGillivrays Scottish Gifts,Pass,nan,nan,nan,2013-11-28,56.004154,-4.740329
419266,MacGochans,Improvement Required,nan,nan,nan,2014-10-17,56.620741,-6.069821
419267,MacGregors Roadhouse,Pass,nan,nan,nan,2012-06-19,56.46436,-5.696808
419268,Machrihanish Dunes Golf House,Pass,nan,nan,nan,2013-03-05,55.422993,-5.733396
419269,Machrihanish Golf Club,Pass,nan,nan,nan,2014-08-27,55.423094,-5.724172
419270,Macs Bar,Pass,nan,nan,nan,2014-02-20,55.837171,-5.055358
419271,Mad Anz Burger Vanz,Pass,nan,nan,nan,2014-06-21,55.736264,-6.38378
419272,Mandarin Chinese Restaurant,Pass,nan,nan,nan,2014-08-05,56.004906,-4.73804
419273,Manor House Oban,Pass and Eat Safe,nan,nan,nan,2011-11-28,56.410843,-5.480807
419274,Markie Dans,Pass and Eat Safe,nan,nan,nan,2012-09-17,56.418331,-5.474776
419275,Martyrs Bay Restaurant,Pass,nan,nan,nan,2013-05-08,56.331092,-6.392862
419276,Masonic Lodge,Pass,nan,nan,nan,2011-08-25,55.949844,-4.927078
419277,McCaigs Return,Pass,nan,nan,nan,2011-11-01,56.411976,-5.473418
419278,McGillvary Seafood Bar,Pass,nan,nan,nan,2010-10-04,,
419279,Meadows Under Fives,Pass,nan,nan,nan,2012-12-07,55.421406,-5.60691
419280,Meadowside B & B,Improvement Required,nan,nan,nan,2009-07-17,55.757009,-6.281046
419281,Mean Bean Internet Cafe,Pass,nan,nan,nan,2014-03-19,56.053017,-4.817265
419282,Mediterranea,Pass,nan,nan,nan,2011-10-05,56.517392,-5.949194
419283,Mehran Tandoori,Pass,nan,nan,nan,2014-08-21,56.078581,-4.82786
419284,Melfort House,Exempt,nan,nan,nan,2014-05-30,56.267287,-5.494629
419285,Middleton's Sandwich Bar,Improvement Required,nan,nan,nan,2014-02-20,55.837642,-5.051257
419286,Milton Tower Hotel,Pass,nan,nan,nan,2014-05-14,55.945442,-4.928492
419287,Minard Primary School,Pass,nan,nan,nan,2012-05-11,56.114772,-5.254512
419288,Morar Lodge Nursing Home,Pass and Eat Safe,nan,nan,nan,2015-01-20,56.010066,-4.741261
419289,Mount Stuart Restaurant Visitors Centre,Pass,nan,nan,nan,2014-04-08,55.791673,-5.018715
419290,Mount Stuart Trust Ltd Kitchen In Main House,Pass,nan,nan,nan,2013-08-21,55.791673,-5.018715
419291,Mr Kebab,Improvement Required,nan,nan,nan,2014-12-15,56.002065,-4.728727
419292,Mrs Kazumi Revie,Pass,nan,nan,nan,2011-10-14,56.181266,-5.537789
419293,Muirholm Hotel,Awaiting Inspection,nan,nan,nan,2013-12-13,55.964605,-4.657452
419294,Mulberry Bush Nursery,Pass,nan,nan,nan,2014-01-31,56.00503,-4.72799
419295,Munro's Bed And Breakfast,Pass,nan,nan,nan,2009-04-01,55.854587,-5.066426
419296,Musicker,Pass,nan,nan,nan,2014-02-19,55.83688,-5.054073
419297,Mussel Ebb Bistro,Pass,nan,nan,nan,2013-01-22,55.425828,-5.605464
419298,MV Clansman,Pass and Eat Safe,nan,nan,nan,2012-08-23,56.412227,-5.476036
419299,MV Finlaggan,Pass and Eat Safe,nan,nan,nan,2013-07-10,55.832996,-5.45341
419300,MV Glen Massan,Pass,nan,nan,nan,2014-02-28,55.982151,-4.947815
419301,MV Glen Tarsan,Pass,nan,nan,nan,2014-02-28,55.982151,-4.947815
419302,MV Hebridean Isles,Pass and Eat Safe,nan,nan,nan,2012-02-27,55.832996,-5.45341
419303,MV Hebridean Princess,Pass and Eat Safe,nan,nan,nan,2012-05-15,56.412219,-5.475678
419304,MV Isle Of Arran,Pass and Eat Safe,nan,nan,nan,2014-03-31,55.832996,-5.45341
419305,MV Isle Of Mull,Pass and Eat Safe,nan,nan,nan,2011-05-04,56.412219,-5.475678
419306,Nellie B's,Pass,nan,nan,nan,2014-08-20,55.586325,-5.494336
419307,Ninth Wave Restaurant,Pass and Eat Safe,nan,nan,nan,2012-09-12,56.324673,-6.36331
419308,Nippy Chippy,Pass,nan,nan,nan,2012-09-18,55.63199,-6.186313
419309,No 28,Pass,nan,nan,nan,2014-10-29,56.003609,-4.732478
419310,No 29 Restaurant,Improvement Required,nan,nan,nan,2014-02-20,55.838025,-5.057901
419311,No. 28,Pass,nan,nan,nan,2014-11-07,56.003609,-4.732478
419312,Nories Fish   Chips,Pass,nan,nan,nan,2012-01-19,56.415369,-5.472673
419313,North Argyll House,Pass and Eat Safe,nan,nan,nan,2013-01-21,56.422201,-5.469144
419314,North Bute Primary School,Pass,nan,nan,nan,2014-02-21,55.859806,-5.085284
419315,Northwood House,Pass,nan,nan,nan,2014-08-29,56.011551,-4.729011
419316,Nursery Rhymes,Pass,nan,nan,nan,2014-02-19,55.96374,-4.657953
419317,Oakbank Hotel,Pass,nan,nan,nan,2012-04-26,55.98276,-4.950154
419318,Oasis Day Care Centre,Pass,nan,nan,nan,2010-12-14,56.083877,-4.834035
419319,Oasis Snack Bar,Pass,nan,nan,nan,2012-08-02,56.51827,-4.76843
419320,Oban Bay Fish And Chip Shop,Pass,nan,nan,nan,2013-05-17,,
419321,Oban Bay Hotel,Pass and Eat Safe,nan,nan,nan,2011-12-13,56.419893,-5.479315
419322,Oban Caledonian Hotel,Pass and Eat Safe,nan,nan,nan,2011-11-02,56.412797,-5.472358
419323,Oban Filling Station,Pass,nan,nan,nan,2010-08-26,56.408578,-5.470513
419324,Oban Fish And Chip Shop,Pass,nan,nan,nan,2013-02-06,56.416279,-5.472902
419325,Oban High School,Pass and Eat Safe,nan,nan,nan,2011-10-31,56.407284,-5.467606
419326,Oban Joint Primary Campus,Pass and Eat Safe,nan,nan,nan,2012-05-17,56.398929,-5.470607
419327,Oban Sailing Club,Exempt,nan,nan,nan,2010-10-11,56.410843,-5.480807
419328,Oban Scottish Youth Hostel,Pass,nan,nan,nan,2012-03-15,56.420021,-5.480202
419329,Ocean City,Improvement Required,nan,nan,nan,2013-02-21,56.410718,-5.469573
419330,O'Donnell's,Exempt,nan,nan,nan,2010-10-11,56.418093,-5.472662
419331,Oriental Express,Improvement Required,nan,nan,nan,2013-09-25,56.003612,-4.736793
419332,Oscars Grill,Pass,nan,nan,nan,2014-11-19,55.421906,-5.738922
419333,Oyster Inn,Pass,nan,nan,nan,2012-08-28,56.453538,-5.394576
419334,Palm Court,Pass,nan,nan,nan,2014-12-10,55.849524,-5.063646
419335,Park Church,Pass,nan,nan,nan,2014-02-28,56.004624,-4.728459
419336,Park Lodge Hotel,Pass,nan,nan,nan,2012-08-28,56.624667,-6.065529
419337,Park Primary School,Pass and Eat Safe,nan,nan,nan,2012-06-15,56.4249,-5.470055
419338,Parklands School,Pass,nan,nan,nan,2014-02-26,56.006112,-4.727425
419339,Patchwork 2-5 Nursery,Pass,nan,nan,nan,2014-03-14,55.951561,-4.931998
419340,Pavilion At Playing Fields,Pass,nan,nan,nan,2011-05-17,,
419341,Pavilion Cafe,Pass,nan,nan,nan,2009-08-13,55.839715,-5.060414
419342,Pennyghael Hotel,Awaiting Inspection,nan,nan,nan,2014-04-01,56.374084,-6.007291
419343,Perk Up,Improvement Required,nan,nan,nan,2014-04-02,55.948268,-4.925678
419344,Persabus Pottery,Pass,nan,nan,nan,2012-05-31,55.850144,-6.106673
419345,Piazza,Pass and Eat Safe,nan,nan,nan,2012-04-25,56.414564,-5.474449
419346,Pier Shop Luss,Pass,nan,nan,nan,2014-07-10,56.100947,-4.639874
419347,Pokey Hat,Pass,nan,nan,nan,2014-02-21,55.837367,-5.05689
419348,Poppies Cafe,Pass,nan,nan,nan,2012-04-30,56.449004,-5.431265
419349,Port Askaig Hotel (incl. Apartment),Pass,nan,nan,nan,2013-11-04,55.84772,-6.105457
419350,Port Ban Holiday Park,Pass,nan,nan,nan,2013-05-02,55.819649,-5.650101
419351,Port Charlotte Hotel,Pass,nan,nan,nan,2014-11-19,55.740276,-6.378475
419352,Port Charlotte Primary School,Pass,nan,nan,nan,2012-09-04,55.73896,-6.379555
419353,Port Ellen Primary School,Pass and Eat Safe,nan,nan,nan,2012-06-19,55.629552,-6.182365
419354,Portavadie Marina,Pass,nan,nan,nan,2014-07-16,55.871592,-5.306317
419355,Portsonachan Hotel,Improvement Required,nan,nan,nan,2014-09-23,56.340385,-5.154393
419356,Primrose Cottage Bed And Breakfast,Pass,nan,nan,nan,2010-10-22,56.181266,-5.537789
419357,Prince Of India,Pass,nan,nan,nan,2014-08-11,55.837772,-5.056507
419358,Puffer Steamboat Holidays Ltd,Pass,nan,nan,nan,2012-05-25,56.089053,-5.559426
419359,Purdies Of Luss,Pass,nan,nan,nan,2013-10-03,56.101191,-4.637318
419360,Putechan Hotel,Improvement Required,nan,nan,nan,2014-10-09,55.526797,-5.705078
419361,Quarry View Coffee Shop And Garden Centre,Pass,nan,nan,nan,2014-09-24,56.130428,-5.2328
419362,Queen Street Chip Shop,Improvement Required,nan,nan,nan,2014-02-06,55.954858,-4.924493
419363,Queens Hotel,Pass,nan,nan,nan,2011-11-15,56.420899,-5.481272
419364,Rabs Fish Bar,Pass,nan,nan,nan,2013-08-13,55.424062,-5.604069
419365,Rafters Restaurant And Bar,Pass and Eat Safe,nan,nan,nan,2012-04-30,55.964098,-5.640444
419366,Red Dragon,Improvement Required,nan,nan,nan,2013-07-15,55.425672,-5.607094
419367,Rhu C.E. Centre,Pass,nan,nan,nan,2010-03-29,56.019019,-4.782129
419368,Rhu Parish Church & Shandon Lunch Club,Pass,nan,nan,nan,2011-06-20,56.018403,-4.782373
419369,Rhu Primary School,Pass and Eat Safe,nan,nan,nan,2014-12-16,56.018513,-4.781081
419370,Rhunahaorine Primary School,Pass,nan,nan,nan,2014-11-17,55.675042,-5.647141
419371,River Jade,Improvement Required,nan,nan,nan,2014-11-17,55.949957,-4.927231
419372,Riverbank,Pass,nan,nan,nan,2014-05-14,56.003612,-4.736793
419373,Riverhill Courtyard,Pass,nan,nan,nan,2014-08-22,56.00422,-4.734125
419374,Riverside,Pass and Eat Safe,nan,nan,nan,2014-04-07,55.949029,-4.924662
419375,Riverside Rascals,Pass,nan,nan,nan,2014-02-03,56.043811,-5.441304
419376,Roll With It,Improvement Required,nan,nan,nan,2013-09-02,,
419377,Rolland Butter,Pass,nan,nan,nan,2014-03-20,55.424049,-5.605111
419378,Rosneath Primary School,Pass and Eat Safe,nan,nan,nan,2014-04-22,56.011008,-4.803647
419379,Rosscairn Hotel,Pass,nan,nan,nan,2009-04-01,55.964365,-4.914793
419380,Rosslea Hall Hotel,Pass,nan,nan,nan,2014-12-17,56.017201,-4.783859
419381,Rothesay Bowling Club,Pass,nan,nan,nan,2014-04-17,55.836166,-5.063234
419382,Rothesay Golf Club,Pass,nan,nan,nan,2014-08-07,55.833314,-5.050678
419383,Rothesay Joint Campus,Pass,nan,nan,nan,2014-11-28,55.827414,-5.056956
419384,Rothesay Senior Citizens Lunch Club,Pass,nan,nan,nan,2014-02-11,55.836083,-5.052828
419385,Rowan House Bed & Breakfast,Pass,nan,nan,nan,2009-04-01,56.113839,-4.909618
419386,Rowan Tree Hotel,Pass,nan,nan,nan,2011-11-16,56.417157,-5.473031
419387,Rowantree Bank Bed And Breakfast,Pass,nan,nan,nan,2009-04-01,56.201867,-4.744586
419388,Roxy's Tearoom,Pass,nan,nan,nan,2013-01-15,56.412022,-5.47146
419389,Royal An Lochan,Pass,nan,nan,nan,2014-02-10,55.900054,-5.241501
419390,Royal Bar,Pass,nan,nan,nan,2010-03-23,56.003211,-4.734647
419391,Royal Hotel,Pass and Eat Safe,nan,nan,nan,2011-07-14,56.412265,-5.471774
419392,Royal Marine Hotel,Improvement Required,nan,nan,nan,2014-02-27,55.968805,-4.909485
419393,Royal Marines Messing Faciity,Exempt,nan,nan,nan,2014-06-26,56.045788,-4.87534
419394,Royal Northern Yacht Club,Pass,nan,nan,nan,2014-02-03,56.018549,-4.783844
419395,Royal Sailors' Rest Hostel,Pass,nan,nan,nan,2014-02-13,56.004797,-4.716584
419396,Ruby Chinese Restaurant,Pass,nan,nan,nan,2014-02-24,56.003612,-4.736793
419397,Rudha-na-Craige,Pass,nan,nan,nan,2013-04-24,56.223483,-5.08107
419398,Rumblin Tum Cafe,Pass,nan,nan,nan,2013-11-01,56.014953,-5.447964
419399,Saffron,Pass,nan,nan,nan,2014-12-10,55.948941,-4.925344
419400,Sagar Indian Cuisine,Improvement Required,nan,nan,nan,2013-04-29,56.623148,-6.066605
419401,Salen Hotel,Pass,nan,nan,nan,2013-01-29,56.51727,-5.946791
419402,Salen Primary School,Pass and Eat Safe,nan,nan,nan,2012-05-14,56.519518,-5.941705
419403,Salvation Army Hall,Pass,nan,nan,nan,2014-12-09,55.424329,-5.607208
419404,Samphire Seafood Restaurant,Pass,nan,nan,nan,2014-09-24,56.229827,-5.073962
419405,Sam's Tiree Takeaway,Pass,nan,nan,nan,2012-06-28,56.50107,-6.80727
419406,Sandbank Primary School Kitchen,Pass,nan,nan,nan,2014-04-03,55.970539,-4.941337
419407,Sandbank Village Hall,Exempt,nan,nan,nan,2011-03-28,55.979677,-4.945992
419408,Saulmore Farm Shop (Snack Bar),Pass,nan,nan,nan,2012-08-21,56.389431,-5.459515
419409,School Canteen - Lochgilphead Joint Campus,Pass and Eat Safe,nan,nan,nan,2013-02-13,56.029235,-5.427498
419410,Scottish Sea Farms,Exempt,nan,nan,nan,2012-12-17,56.519977,-5.403692
419411,Scotts,Pass,nan,nan,nan,2015-01-14,55.863786,-5.412002
419412,Sea Dragon Restaurant,Pass,nan,nan,nan,2014-10-09,55.837642,-5.051257
419413,Seafood Bar,Awaiting Inspection,nan,nan,nan,2014-07-03,,
419414,Seafood Shack,Pass,nan,nan,nan,2014-10-16,55.631908,-6.187894
419415,Seafood Temple,Pass,nan,nan,nan,2013-07-29,56.403695,-5.5006
419416,Seasons Coffee House,Pass,nan,nan,nan,2014-01-30,55.949029,-4.924662
419417,Sebright Guest House,Pass,nan,nan,nan,2014-12-08,55.951674,-4.923436
419418,Selborne Hotel,Pass and Eat Safe,nan,nan,nan,2014-12-08,55.945661,-4.928332
419419,Shiela's Diner,Pass,nan,nan,nan,2014-07-28,56.002022,-4.971901
419420,Shiloh Bed & Breakfast,Pass,nan,nan,nan,2010-03-25,56.00078,-4.7206
419421,Shore House Inn,Pass,nan,nan,nan,2014-03-13,56.172198,-4.903012
419422,Shoreline Coffee Shop,Pass and Eat Safe,nan,nan,nan,2012-01-25,56.516339,-5.35341
419423,Shower Of Herrring,Pass,nan,nan,nan,2014-05-14,56.267287,-5.494629
419424,Sinbad's/Captain's Lounge,Pass,nan,nan,nan,2010-09-22,55.948969,-4.926051
419425,Sinclair Guest House,Pass,nan,nan,nan,2010-03-25,56.006664,-4.732549
419426,Singh's Palace,Pass,nan,nan,nan,2014-08-08,56.004559,-4.733411
419427,Skerrols House,Pass,nan,nan,nan,2010-09-09,55.797437,-6.234939
419428,Skipness Castle Seafood Cabin,Pass,nan,nan,nan,2014-08-27,55.768841,-5.341479
419429,Skipness Primary,Pass,nan,nan,nan,2010-10-22,55.768236,-5.344537
419430,Skookum House,Pass,nan,nan,nan,2013-04-24,56.103054,-5.425343
419431,Slainte Bar,Pass,nan,nan,nan,2012-07-24,56.014953,-5.447964
419432,Small Isles Primary School,Pass,nan,nan,nan,2009-05-20,55.852665,-5.947737
419433,Snack Bar,Pass,nan,nan,nan,2012-02-28,56.396249,-5.4892
419434,Sonny Cupcakes,Exempt,nan,nan,nan,2014-05-21,56.168493,-4.90038
419435,Southend Primary School,Pass,nan,nan,nan,2011-03-07,55.32653,-5.631855
419436,Square Peg,Pass,nan,nan,nan,2013-07-30,56.036791,-5.433805
419437,Squat Lobster,Improvement Required,nan,nan,nan,2014-11-05,55.838761,-5.052878
419438,St Ebba Bed And Breakfast,Pass,nan,nan,nan,2012-08-22,55.843703,-5.038455
419439,St Ives Hotel,Pass,nan,nan,nan,2012-04-10,55.945442,-4.928492
419440,St John's Church,Exempt,nan,nan,nan,2012-04-11,,
419441,St Munn's Old Manse Bed And Breakfast,Pass,nan,nan,nan,2009-09-04,55.994832,-4.937393
419442,St Muns Primary School,Pass,nan,nan,nan,2014-06-03,55.953466,-4.926359
419443,St. Andrews Primary School,Pass,nan,nan,nan,2014-02-18,55.833767,-5.061016
419444,St. Columba Hotel,Pass and Eat Safe,nan,nan,nan,2010-01-26,56.333599,-6.393458
419445,St. Josephs Church Hall,Exempt,nan,nan,nan,2010-03-29,56.00486,-4.729598
419446,St. Josephs Primary School,Pass and Eat Safe,nan,nan,nan,2012-10-23,56.005734,-4.714837
419447,Staff Restaurant And Kitchen Commissariat,Exempt,nan,nan,nan,2013-04-19,56.073425,-4.638634
419448,Staffa House,Exempt,nan,nan,nan,2012-04-02,56.324673,-6.36331
419449,Stag Hotel,Pass,nan,nan,nan,2015-01-19,56.038521,-5.433028
419450,Starfish Restaurant,Pass,nan,nan,nan,2014-10-03,55.863007,-5.413164
419451,Stone Willy's Kitchen,Awaiting Inspection,nan,nan,nan,2014-11-25,,
419452,Stonefield Castle Hotel,Pass,nan,nan,nan,2014-04-09,55.888927,-5.418402
419453,Stonefield Farms,Pass,nan,nan,nan,2014-07-22,55.861683,-5.420083
419454,Strachur Primary School,Improvement Required,nan,nan,nan,2014-03-19,56.15763,-5.063614
419455,Strathclyde Fire Brigade,Pass,nan,nan,nan,2012-05-11,56.000591,-4.716112
419456,Strathclyde Fire Service Canteen,Exempt,nan,nan,nan,2010-10-08,56.408588,-5.46792
419457,Stratheck Holiday Park,Exempt,nan,nan,nan,2010-05-14,56.077015,-4.989184
419458,Strone Inn,Pass,nan,nan,nan,2009-07-14,55.984742,-4.905343
419459,Strone Primary School,Improvement Required,nan,nan,nan,2014-01-20,55.985977,-4.900225
419460,Struan Lodge,Pass,nan,nan,nan,2014-04-15,55.960673,-4.929483
419461,Subway,Pass,nan,nan,nan,2014-09-24,56.003609,-4.732478
419462,Subway,Pass,nan,nan,nan,2012-01-23,56.412592,-5.471674
419463,Sunnyside Guest House,Exempt,nan,nan,nan,2014-02-20,55.842916,-5.062918
419464,Supermess,Exempt,nan,nan,nan,2013-09-10,56.053017,-4.817265
419465,Susys Tearoom,Pass,nan,nan,nan,2013-09-27,55.90812,-5.23017
419466,Swallow Cafe,Improvement Required,nan,nan,nan,2014-07-23,55.950691,-4.927383
419467,Taj Mahal,Pass,nan,nan,nan,2013-12-17,55.424176,-5.603558
419468,Taj Mahal,Improvement Required,nan,nan,nan,2014-11-25,56.03632,-5.431997
419469,Taj Mahal,Pass,nan,nan,nan,2015-01-22,55.757529,-6.285984
419470,Tarbert Academy,Pass and Eat Safe,nan,nan,nan,2015-01-14,55.862088,-5.414251
419471,Tarbert After School Care,Pass,nan,nan,nan,2012-10-31,55.863176,-5.421013
419472,Tarbert Hotel,Pass,nan,nan,nan,2014-06-06,55.863258,-5.413538
419473,Tarbert Soup Group,Pass,nan,nan,nan,2013-02-11,55.863176,-5.421013
419474,Tarbert Tandoori Restaurant,Pass,nan,nan,nan,2013-08-13,55.863786,-5.412002
419475,Tarbet Tearoom,Pass,nan,nan,nan,2014-02-19,56.204978,-4.713217
419476,Tartan Tavern,Exempt,nan,nan,nan,2010-10-07,56.417036,-5.473474
419477,Taste Of Islay,Pass,nan,nan,nan,2014-06-19,55.756229,-6.290259
419478,Taverna Bar,Pass,nan,nan,nan,2012-11-06,55.836939,-5.053135
419479,Tavool House,Pass,nan,nan,nan,2011-10-12,56.369353,-6.100404
419480,Taychreggan Hotel,Improvement Required,nan,nan,nan,2012-06-26,56.344438,-5.16041
419481,Taylors Amusements,Pass,nan,nan,nan,2010-12-21,55.837529,-5.054363
419482,Taynuilt School,Pass,nan,nan,nan,2009-06-03,56.430112,-5.238256
419483,Tayvallich Inn,Pass,nan,nan,nan,2013-01-10,56.025852,-5.623333
419484,Tayvallich Lunch Club,Pass,nan,nan,nan,2014-01-16,56.023239,-5.626604
419485,Tayvallich Primary School,Pass,nan,nan,nan,2009-09-07,56.019607,-5.627788
419486,Terrace Coffee House,Improvement Required,nan,nan,nan,2014-08-20,56.003849,-4.735831
419487,Tesco Cafe,Pass and Eat Safe,nan,nan,nan,2012-02-23,56.409808,-5.473804
419488,The 51st State And La Cantina,Improvement Required,nan,nan,nan,2014-04-03,55.950691,-4.927383
419489,The Airds Hotel And Restaurant,Pass,nan,nan,nan,2009-10-15,56.554132,-5.407266
419490,The Anchor Inn,Pass,nan,nan,nan,2014-12-16,56.078581,-4.82786
419491,The Anchorage B & B,Pass,nan,nan,nan,2013-03-07,55.780489,-5.578993
419492,The Anchorage Restaurant,Pass,nan,nan,nan,2014-07-21,55.863786,-5.412002
419493,The Antlers,Pass,nan,nan,nan,2012-06-26,55.833676,-5.951802
419494,The Anvil Tearoom / Inveraray Woollen Mill,Pass and Eat Safe,nan,nan,nan,2013-08-05,56.2314,-5.072862
419495,The Apple Tree Nursery,Pass,nan,nan,nan,2014-02-12,55.8411,-5.0622
419496,The Ardyne Guesthouse,Pass,nan,nan,nan,2014-12-01,55.843703,-5.038455
419497,The Argyll Arms,Pass,nan,nan,nan,2012-01-24,55.836939,-5.053135
419498,The Barn,Pass,nan,nan,nan,2014-04-25,55.883782,-5.26935
419499,The Barn Bar,Pass,nan,nan,nan,2012-08-03,56.366703,-5.487404
419500,The Boat House,Pass,nan,nan,nan,2010-05-07,55.839527,-5.048449
419501,The Boathouse,Pass,nan,nan,nan,2013-05-20,56.479756,-6.164733
419502,The Bombay Indian Restaurant,Improvement Required,nan,nan,nan,2014-12-08,55.947529,-4.92426
419503,The Braes,Improvement Required,nan,nan,nan,2014-03-06,55.947745,-4.925382
419504,The Brewery,Pass,nan,nan,nan,2015-02-02,55.948101,-4.924768
419505,The Cara Cafe,Pass,nan,nan,nan,2012-05-17,55.675042,-5.647141
419506,The Cedars,Pass,nan,nan,nan,2010-05-27,55.951674,-4.923436
419507,The Celtic House,Pass,nan,nan,nan,2013-05-08,55.757279,-6.287998
419508,The China Restaurant,Pass,nan,nan,nan,2011-11-10,56.415151,-5.472086
419509,The Clachan Bar,Pass,nan,nan,nan,2010-04-20,56.167554,-5.067611
419510,The Coffee Club,Pass,nan,nan,nan,2014-02-03,56.003849,-4.735831
419511,The Coffee Stop,Improvement Required,nan,nan,nan,2014-02-12,55.836836,-5.054037
419512,The Colintraive Hotel,Improvement Required,nan,nan,nan,2014-02-20,55.917596,-5.137741
419513,The Colonsay,Pass,nan,nan,nan,2014-06-25,56.068929,-6.196267
419514,The Colonsay Pantry,Pass,nan,nan,nan,2014-06-25,56.070944,-6.189636
419515,The Commodore Guest House,Pass,nan,nan,nan,2014-02-20,55.839527,-5.048449
419516,The Cottage Kindergarten,Pass,nan,nan,nan,2010-06-16,56.004797,-4.716584
419517,The Cottage Restaurant,Pass,nan,nan,nan,2014-11-19,55.756691,-6.287582
419518,The Coylet Inn,Pass,nan,nan,nan,2014-09-15,56.077015,-4.989184
419519,The Crafty Kitchen,Pass,nan,nan,nan,2014-10-03,56.181384,-5.536204
419520,The Creagan Inn,Pass,nan,nan,nan,2012-04-11,56.551354,-5.284143
419521,The Creggans Inn,Pass,nan,nan,nan,2014-09-09,56.17443,-5.082099
419522,The Crew,Improvement Required,nan,nan,nan,2014-10-28,55.425672,-5.607094
419523,The Criterion Bar,Pass,nan,nan,nan,2009-09-24,55.838025,-5.057901
419524,The Crystal Palace,Improvement Required,nan,nan,nan,2014-03-28,56.416279,-5.472902
419525,The Crystal Palace,Improvement Required,nan,nan,nan,2014-05-16,,
419526,The Cuillins,Pass,nan,nan,nan,2011-03-10,55.863176,-5.421013
419527,The Dairy,Pass,nan,nan,nan,2014-06-18,55.837361,-5.057849
419528,The Esplanade Hotel,Pass,nan,nan,nan,2014-04-08,55.837076,-5.054136
419529,The Galleon Grill,Improvement Required,nan,nan,nan,2014-10-22,56.621604,-6.070109
419530,The Gallery,Improvement Required,nan,nan,nan,2013-09-05,56.621604,-6.070109
419531,The Galley And Chef Shop,Pass,nan,nan,nan,2014-01-10,55.863786,-5.412002
419532,The George Hotel (incl. First House B&B),Pass,nan,nan,nan,2012-05-09,56.230293,-5.072579
419533,The George Street Fish & Chip Shop,Pass,nan,nan,nan,2012-12-19,56.413176,-5.472327
419534,The Giving Tree,Pass,nan,nan,nan,2008-11-14,56.210473,-5.555485
419535,The Glen Restaurant,Pass,nan,nan,nan,2014-02-11,55.586325,-5.494336
419536,The Glendale Guest House,Pass,nan,nan,nan,2014-02-21,55.840602,-5.046792
419537,The Glenforsa Hotel,Pass,nan,nan,nan,2012-04-24,56.516121,-5.912399
419538,The Gogglebox,Pass,nan,nan,nan,2014-01-13,56.003206,-4.732433
419539,The Golfers Bar,Pass,nan,nan,nan,2010-05-14,55.837642,-5.051257
419540,The Grapes Bar,Pass,nan,nan,nan,2010-05-14,55.837683,-5.056851
419541,The Green Door,Pass,nan,nan,nan,2012-05-14,56.2314,-5.072862
419542,The Green Room,Pass,nan,nan,nan,2013-08-02,55.592038,-5.462217
419543,The Grey Gull,Pass,nan,nan,nan,2013-01-29,56.023243,-5.446022
419544,The Hebridean Lodge,Improvement Required,nan,nan,nan,2014-10-17,,
419545,The Hebridean Trust,Pass,nan,nan,nan,2012-09-20,56.447896,-6.894701
419546,The Hill House,Pass,nan,nan,nan,2010-03-25,56.017428,-4.729474
419547,The Islander Bar,Awaiting Inspection,nan,nan,nan,2010-09-13,55.837361,-5.057849
419548,The Kames Hotel,Pass,nan,nan,nan,2014-10-07,55.890495,-5.240591
419549,The Keel Row,Pass and Eat Safe,nan,nan,nan,2011-08-16,56.324673,-6.36331
419550,The Kettle,Pass,nan,nan,nan,2013-05-16,56.427758,-5.483879
419551,The Kilfinan Hotel,Pass,nan,nan,nan,2011-05-04,55.957438,-5.311444
419552,The Kingarth Hotel,Pass,nan,nan,nan,2014-03-26,55.762546,-5.035882
419553,The Kiosk,Improvement Required,nan,nan,nan,2014-02-12,55.838848,-5.059148
419554,The Lido Cafe,Pass,nan,nan,nan,2014-12-15,56.003211,-4.734647
419555,The Lochgoilhead Centre,Pass,nan,nan,nan,2014-03-13,56.170991,-4.901181
419556,The Lodge At Portavadie,Pass,nan,nan,nan,2014-07-16,55.871592,-5.306317
419557,The Lodge On Loch Lomond,Pass,nan,nan,nan,2014-08-01,56.101613,-4.639437
419558,The Lorne Bar,Pass,nan,nan,nan,2011-08-30,55.951488,-4.928244
419559,The Lorne Bar,Pass,nan,nan,nan,2012-05-09,56.412758,-5.470878
419560,The Macleod Centre,Pass,nan,nan,nan,2012-09-05,56.335545,-6.39514
419561,The Mishnish Hotel,Improvement Required,nan,nan,nan,2014-10-15,56.623148,-6.066605
419562,The Monachs B & B,Pass,nan,nan,nan,2011-05-25,55.705227,-6.426462
419563,The Moorings,Pass,nan,nan,nan,2014-12-17,55.842186,-5.042746
419564,The Munchie Box,Pass,nan,nan,nan,2014-07-30,55.755644,-6.28718
419565,The Old Clubhouse,Pass,nan,nan,nan,2014-06-24,55.423094,-5.724172
419566,The Old Excise House B&B,Pass,nan,nan,nan,2010-09-10,55.634804,-6.161525
419567,The Old Kiln At Ardbeg Coffee Shop,Pass,nan,nan,nan,2014-10-23,55.642086,-6.112079
419568,The Olive Garden,Pass,nan,nan,nan,2013-01-30,56.412219,-5.475678
419569,The Osborne,Pass,nan,nan,nan,2014-10-08,55.896743,-4.953105
419570,The Oyster Brewery Bar And Restaurant,Pass,nan,nan,nan,2012-09-25,56.294366,-5.64878
419571,The Oystercatcher,Pass,nan,nan,nan,2013-11-07,56.005907,-5.319027
419572,The Palace Bar,Pass,nan,nan,nan,2009-09-24,55.837642,-5.051257
419573,The Palace Restaurant,Pass,nan,nan,nan,2014-01-31,56.003211,-4.734647
419574,The Park Hotel,Pass,nan,nan,nan,2014-10-16,55.9427,-4.936022
419575,The Pier At Craigmore,Improvement Required,nan,nan,nan,2014-04-17,55.844357,-5.027609
419576,The Pier Coffee And Sandwich Shop,Improvement Required,nan,nan,nan,2014-10-22,56.621604,-6.070109
419577,The Pier Hotel,Pass,nan,nan,nan,2014-08-06,55.991555,-4.931178
419578,The Pier House Hotel,Pass and Eat Safe,nan,nan,nan,2012-06-11,56.555356,-5.408515
419579,The Pit Stop,Pass,nan,nan,nan,2014-02-06,55.956939,-4.92771
419580,The Port Inn,Pass,nan,nan,nan,2014-04-17,55.859807,-5.08239
419581,The Port Royal Hotel,Pass,nan,nan,nan,2013-05-03,55.859807,-5.08239
419582,"The Puffer Tearoom, Bar And Restaurant",Pass and Eat Safe,nan,nan,nan,2012-05-28,56.291514,-5.655541
419583,The Regent Hotel,Pass and Eat Safe,nan,nan,nan,2013-01-15,56.415653,-5.473429
419584,The Rhu Inn And Guest House,Pass,nan,nan,nan,2010-03-29,56.013269,-4.76445
419585,The Robins Nest,Pass,nan,nan,nan,2013-01-10,56.430112,-5.238256
419586,The Rock Cafe,Pass,nan,nan,nan,2014-09-08,55.947529,-4.92426
419587,The Royal Hotel,Pass,nan,nan,nan,2012-06-26,55.424808,-5.604675
419588,The Scullery,Pass,nan,nan,nan,2014-09-15,56.230818,-5.073138
419589,The Secret Kitchen,Pass,nan,nan,nan,2012-11-07,56.506228,-5.807846
419590,The Shore Cafe,Pass,nan,nan,nan,2015-01-21,55.960346,-4.91103
419591,The Smiddy Bistro,Pass and Eat Safe,nan,nan,nan,2015-01-14,56.037186,-5.434146
419592,The Stables Bed And Breakfast,Pass,nan,nan,nan,2011-03-14,56.025187,-5.565999
419593,The Station Bar,Pass,nan,nan,nan,2011-05-06,56.003609,-4.732478
419594,The Steadings,Exempt,nan,nan,nan,2012-04-02,56.377782,-6.077177
419595,The Sun,Pass,nan,nan,nan,2014-12-15,56.005182,-4.732493
419596,The Taj Mahal,Improvement Required,nan,nan,nan,2014-05-01,56.417157,-5.473031
419597,The Tighnabruaich Hotel,Pass,nan,nan,nan,2014-04-15,55.906819,-5.234175
419598,The Tree Shop Cafe,Improvement Required,nan,nan,nan,2014-03-27,56.269604,-4.933314
419599,The Ugadale Hotel,Pass,nan,nan,nan,2013-09-05,55.423094,-5.724172
419600,The Upper Crust,Pass,nan,nan,nan,2014-12-17,56.004153,-4.740328
419601,The Village Inn,Pass,nan,nan,nan,2014-02-04,56.193064,-4.751646
419602,The Village Rest,Pass,nan,nan,nan,2014-10-13,56.100947,-4.639874
419603,The Villager's Royal,Pass,nan,nan,nan,2015-01-16,55.895682,-4.953888
419604,The Waterfront,Pass,nan,nan,nan,2014-04-17,55.837642,-5.051257
419605,The Waterfront Restaurant,Pass and Eat Safe,nan,nan,nan,2011-05-09,,
419606,The Watering Can,Pass,nan,nan,nan,2014-04-24,55.567567,-5.696479
419607,The Wee Kelpie,Pass,nan,nan,nan,2014-10-02,,
419608,The Workshop UK Ltd,Pass,nan,nan,nan,2014-06-16,55.976117,-4.938506
419609,The Yachtsman,Pass,nan,nan,nan,2014-10-27,55.945442,-4.928492
419610,Thistle Do,Pass,nan,nan,nan,2012-06-15,56.114772,-5.254512
419611,Thistle House,Pass,nan,nan,nan,2009-04-01,56.223817,-5.026833
419612,Thomson Court,Pass,nan,nan,nan,2014-03-26,55.827414,-5.056956
419613,Three In One,Pass,nan,nan,nan,2014-09-24,55.948101,-4.924768
419614,Three In One,Pass,nan,nan,nan,2014-03-14,55.838383,-5.058344
419615,Three Villages Cafe,Pass,nan,nan,nan,2014-02-04,56.196265,-4.745136
419616,Tigh A Rhuda,Pass and Eat Safe,nan,nan,nan,2013-08-29,56.499626,-6.809261
419617,Tigh-An-Truish Hotel,Pass,nan,nan,nan,2013-09-25,56.31754,-5.585308
419618,Tighnabruaich Primary School,Pass,nan,nan,nan,2014-08-25,55.900054,-5.241501
419619,Tiree Scarinish Hotel,Pass,nan,nan,nan,2012-09-20,56.499626,-6.809261
419620,Tiree Schools And Pre 5 Unit,Pass and Eat Safe,nan,nan,nan,2012-06-28,56.51894,-6.91208
419621,Tobermory  Bakery,Pass,nan,nan,nan,2014-05-28,56.614439,-6.088109
419622,Tobermory High School,Pass and Eat Safe,nan,nan,nan,2012-05-31,56.622563,-6.070457
419623,Tobermory Hotel Ltd,Awaiting Inspection,nan,nan,nan,2014-10-23,56.621604,-6.070109
419624,Tobermory Ice Cream Van,Exempt,nan,nan,nan,2014-10-22,56.618183,-6.071584
419625,Tony's Super Softy (Vehicle Reg: HX08 ZYE,Exempt,nan,nan,nan,2008-06-27,56.065574,-3.876116
419626,Torosay Court,Pass and Eat Safe,nan,nan,nan,2013-01-08,56.400562,-5.477144
419627,Toward Sailing Club,Pass,nan,nan,nan,2012-08-10,55.864656,-4.995683
419628,Tralee Bay Fish And Chips,Pass and Eat Safe,nan,nan,nan,2012-07-05,56.498704,-5.41721
419629,Tregortha Bed And Breakfast,Pass,nan,nan,nan,2011-07-17,55.906366,-5.237738
419630,Trueeely Scrumptious Cakes,Exempt,nan,nan,nan,2012-03-22,56.413647,-5.439317
419631,Tudor Tearoom,Pass,nan,nan,nan,2014-01-22,55.949957,-4.927231
419632,Ulva Primary School Meals,Exempt,nan,nan,nan,2010-10-11,56.496876,-6.136354
419633,Undercliff Bed & Breakfast,Pass,nan,nan,nan,2014-12-08,55.972653,-4.911394
419634,Upper Cowal Bowling Club,Exempt,nan,nan,nan,2012-08-29,55.978985,-4.943742
419635,Victoria Bar,Pass,nan,nan,nan,2010-07-07,55.947224,-4.927265
419636,Victoria Halls,Pass,nan,nan,nan,2010-03-24,56.007803,-4.731009
419637,Victoria Hospital Pantry,Pass,nan,nan,nan,2014-05-09,55.830397,-5.055577
419638,Victoria Hotel,Pass,nan,nan,nan,2014-12-11,55.837772,-5.056507
419639,Victoria Hotel,Improvement Required,nan,nan,nan,2014-06-06,55.864408,-5.41519
419640,Volcano Pizza,Pass,nan,nan,nan,2014-11-19,55.423763,-5.604753
419641,Walker Home & Garden Centre,Pass,nan,nan,nan,2014-09-26,55.958575,-4.929597
419642,Warrant Officers / Senior Rates Bar,Exempt,nan,nan,nan,2010-03-29,56.053017,-4.817265
419643,Waters Edge Cottage,Pass,nan,nan,nan,2010-03-23,56.01711,-4.613512
419644,Wellpark Hotel,Pass,nan,nan,nan,2014-03-19,55.913535,-5.220809
419645,West Barravullin Bothy B And B,Pass,nan,nan,nan,2009-09-01,56.210406,-5.507516
419646,West End Cafe,Pass,nan,nan,nan,2014-12-10,55.837989,-5.057546
419647,West End Hotel,Pass,nan,nan,nan,2013-02-15,55.945442,-4.928492
419648,West Loch Hotel,Improvement Required,nan,nan,nan,2015-01-15,55.832996,-5.45341
419649,Western Hotel,Improvement Required,nan,nan,nan,2014-02-28,55.945442,-4.928492
419650,Western Isles Hotel,Pass,nan,nan,nan,2014-10-22,56.624171,-6.065313
419651,Whisky Macs,Improvement Required,nan,nan,nan,2015-01-06,55.424061,-5.604069
419652,White Hart Hotel,Improvement Required,nan,nan,nan,2014-11-18,55.665536,-6.178387
419653,White Hart Hotel,Pass,nan,nan,nan,2013-11-21,55.422872,-5.607518
419654,Wide Mouthed Frog Hotel   Restaurant,Pass,nan,nan,nan,2012-05-03,56.449004,-5.431265
419655,Wild Island Exploration,Improvement Required,nan,nan,nan,2014-09-04,56.251327,-5.65387
419656,William Harkins (SB06 ECY),Pass,nan,nan,nan,2010-05-12,55.949721,-4.546799
419657,Willowview Community Care Centre,Exempt,nan,nan,nan,2010-10-11,56.398929,-5.470607
419658,Wind Towers Ltd,Pass and Eat Safe,nan,nan,nan,2014-11-06,55.450235,-5.694171
419659,Woodlands Resource Centre,Exempt,nan,nan,nan,2011-02-16,55.419402,-5.602316
419660,WRVS Cafe And Shop,Pass,nan,nan,nan,2012-05-21,56.4005,-5.475517
419661,Yan's Kitchen,Pass,nan,nan,nan,2014-06-19,55.745011,-6.375083
419662,Younger Memorial Hall,Exempt,nan,nan,nan,2011-01-06,55.994832,-4.937393
419663,Yu Wu Chinese Restaurant,Pass,nan,nan,nan,2015-01-22,56.412219,-5.475678
419664,Zavaronis Cafe,Pass,nan,nan,nan,2014-02-21,55.838848,-5.059148
419665,Zebra Ices,Pass,nan,nan,nan,2013-07-15,55.425828,-5.605464
