,addressline1,addressline2,addressline3,addressline4,businessname,businesstype,businesstypeid,confidenceinmanagement,extractdate,fhrsid,hygiene,itemcount,latitude,localauthoritybusinessid,localauthoritycode,localauthorityemailaddress,localauthorityname,localauthoritywebsite,longitude,postcode,ratingdate,ratingkey,ratingvalue,returncode,schemetype,structural
418792,Inveraray Argyll PA32 8UP,,,,12 Barn Park,Hotel/bed & breakfast/guest house,7842,,,9416,,,56.22671200000000,04/00009/FS,763,envhealth@argyll-bute.gov.uk,Argyll and Bute,http://www.argyll-bute.gov.uk,-5.07955400000000,PA32 8UP,2009-11-13,fhis_pass_en-GB,Pass,,FHIS,
418793,St. Johns School  Croft Road Oban Argyll PA34 5JL,,,,1st Steps Day Nursery,Hospitals/Childcare/Caring Premises,5,,,16690,,,56.42096800000000,05200/2015/2/000,763,envhealth@argyll-bute.gov.uk,Argyll and Bute,http://www.argyll-bute.gov.uk,-5.46985800000000,PA34 5JL,2011-11-16,fhis_pass_en-GB,Pass,,FHIS,
418794,4 Rowantree Cottages Clachan Seil Isle Of Seil Oban Argyll And Bute PA34 4TP,,,,4 Rowantree Cottages,Other catering premises,7841,,,667596,,,56.30972900000000,14/00146/FS,763,envhealth@argyll-bute.gov.uk,Argyll and Bute,http://www.argyll-bute.gov.uk,-5.58895800000000,PA34 4TP,2014-06-03,fhis_awaiting_inspection_en-GB,Awaiting Inspection,,FHIS,
418795,40 Pier Road Frederick Crescent Port Ellen Isle Of Islay Argyll And Bute PA42 7DJ,,,,40 Pier Road,Hotel/bed & breakfast/guest house,7842,,,19771,,,55.62878000000000,06/00714/FS,763,envhealth@argyll-bute.gov.uk,Argyll and Bute,http://www.argyll-bute.gov.uk,-6.18891100000000,PA42 7DJ,2010-04-22,fhis_pass_en-GB,Pass,,FHIS,
418796,6 Crosshill Avenue Campbeltown Argyll And Bute PA28 6LH,,,,6 Crosshill Avenue,Hotel/bed & breakfast/guest house,7842,,,22074,,,55.41869000000000,07/00114/FS,763,envhealth@argyll-bute.gov.uk,Argyll and Bute,http://www.argyll-bute.gov.uk,-5.60938100000000,PA28 6LH,2010-05-28,fhis_pass_en-GB,Pass,,FHIS,
418797,Airds Carradale Campbeltown Argyll PA28 6RY,,,,Abbeyfield House,Hospitals/Childcare/Caring Premises,5,,,1426,,,55.59041400000000,00200/2000/2/000,763,envhealth@argyll-bute.gov.uk,Argyll and Bute,http://www.argyll-bute.gov.uk,-5.46910700000000,PA28 6RY,2014-03-31,fhis_pass_en-GB,Pass,,FHIS,
418798,Abbeyfield House  54 West King Street Helensburgh Dunbartonshire G84 8ED,,,,Abbeyfield Society Helensburgh,Hospitals/Childcare/Caring Premises,5,,,77727,,,56.00630800000000,18310/0054/2/000,763,envhealth@argyll-bute.gov.uk,Argyll and Bute,http://www.argyll-bute.gov.uk,-4.73966300000000,G84 8ED,2011-03-15,fhis_pass_en-GB,Pass,,FHIS,
418799,55 Bullwood Road Dunoon Argyll And Bute PA23 7QJ,,,,Abbots Brae Hotel,Hotel/bed & breakfast/guest house,7842,,,7337,,,55.93814300000000,02980/0055/0/000,763,envhealth@argyll-bute.gov.uk,Argyll and Bute,http://www.argyll-bute.gov.uk,-4.93566000000000,PA23 7QJ,2014-08-06,fhis_pass_en-GB,Pass,,FHIS,
418800,Achahoish Primary School Achahoish Lochgilphead Argyll And Bute PA31 8PD,,,,Achahoish Primary School,School/college/university,7845,,,1151,,,55.93873900000000,00090/2024/2/000,763,envhealth@argyll-bute.gov.uk,Argyll and Bute,http://www.argyll-bute.gov.uk,-5.55224400000000,PA31 8PD,2012-08-23,fhis_pass_en-GB,Pass,,FHIS,
418801,Achaleven Primary School Connel Oban Argyll And Bute PA37 1PF,,,,Achaleven Primary School,School/college/university,7845,,,150702,,,56.45187300000000,99/00004/FS,763,envhealth@argyll-bute.gov.uk,Argyll and Bute,http://www.argyll-bute.gov.uk,-5.37522300000000,PA37 1PF,2010-10-08,fhis_exempt_en-GB,Exempt,,FHIS,
418802,Achamore House Isle Of Gigha Argyll And Bute PA41 7AD,,,,Achamore House,Hotel/bed & breakfast/guest house,7842,,,15051,,,55.66692500000000,05/00094/FS,763,envhealth@argyll-bute.gov.uk,Argyll and Bute,http://www.argyll-bute.gov.uk,-5.74988900000000,PA41 7AD,2009-09-10,fhis_pass_en-GB,Pass,,FHIS,
418803,45A Sinclair Street Helensburgh Argyll And Bute G84 8TG,,,,Akash Restaurant,Restaurant/Cafe/Canteen,1,,,682745,,,56.00455900000000,13/00054/FS,763,envhealth@argyll-bute.gov.uk,Argyll and Bute,http://www.argyll-bute.gov.uk,-4.73341100000000,G84 8TG,2014-07-10,fhis_pass_en-GB,Pass,,FHIS,
418804,28 Battery Place Rothesay Isle Of Bute PA20 9DU,,,,Alamein House,Hotel/bed & breakfast/guest house,7842,,,5559,,,55.84060200000000,01940/0028/0/000,763,envhealth@argyll-bute.gov.uk,Argyll and Bute,http://www.argyll-bute.gov.uk,-5.04679200000000,PA20 9DU,2010-07-29,fhis_pass_en-GB,Pass,,FHIS,
418805,17 East Princes Street Helensburgh Argyll And Bute G84 7DE,,,,Alan's Snack Bar,Takeaway/sandwich shop,7844,,,20919,,,56.00337800000000,06600/0017/3/001,763,envhealth@argyll-bute.gov.uk,Argyll and Bute,http://www.argyll-bute.gov.uk,-4.72910900000000,G84 7DE,2014-02-03,fhis_improvement_required_en-GB,Improvement Required,,FHIS,
418806,201 Marine Parade Hunters Quay Dunoon Argyll PA23 8HJ,,,,Albany Lodge,Hotel/bed & breakfast/guest house,7842,,,55500,,,55.96880500000000,12520/0201/0/000,763,envhealth@argyll-bute.gov.uk,Argyll and Bute,http://www.argyll-bute.gov.uk,-4.90948500000000,PA23 8HJ,2010-02-08,fhis_pass_en-GB,Pass,,FHIS,
418807,Alexandra Hotel Corran Esplanade Oban Argyll And Bute PA34 5AA,,,,Alexandra Hotel,Hotel/bed & breakfast/guest house,7842,,,14105,,,56.41915000000000,04680/2000/2/000,763,envhealth@argyll-bute.gov.uk,Argyll and Bute,http://www.argyll-bute.gov.uk,-5.47793300000000,PA34 5AA,2011-09-09,fhis_pass_and_eat_safe_en-GB,Pass and Eat Safe,,FHIS,
418808,H M Naval Base Clyde Faslane Helensburgh Argyll And Bute G84 8HL,,,,All Stars Bowling Alley,Pub/bar/nightclub,7843,,,356551,,,56.05301700000000,12/00115/FS,763,envhealth@argyll-bute.gov.uk,Argyll and Bute,http://www.argyll-bute.gov.uk,-4.81726500000000,G84 8HL,2014-03-19,fhis_pass_en-GB,Pass,,FHIS,
418809,Allt-Na-Craig Tarbert Road Ardrishaig Lochgilphead Argyll And Bute PA30 8EP,,,,Allt Na Craig,Hotel/bed & breakfast/guest house,7842,,,74250,,,56.00673200000000,17090/2006/2/000,763,envhealth@argyll-bute.gov.uk,Argyll and Bute,http://www.argyll-bute.gov.uk,-5.45130700000000,PA30 8EP,2013-01-24,fhis_pass_en-GB,Pass,,FHIS,
418810,30 Longrow Campbeltown Argyll And Bute PA28 6DD,,,,Amelias Cafe,Restaurant/Cafe/Canteen,1,,,715474,,,55.42567200000000,14/00320/FS,763,envhealth@argyll-bute.gov.uk,Argyll and Bute,http://www.argyll-bute.gov.uk,-5.60709400000000,PA28 6DD,2014-10-30,fhis_pass_en-GB,Pass,,FHIS,
418811,An Roth Community Enterprise Centre Craignure Isle Of Mull PA65 6AY,,,,An Roth Community Enterprise Centre,Restaurant/Cafe/Canteen,1,,,510436,,,56.46436000000000,11/00235/FS,763,envhealth@argyll-bute.gov.uk,Argyll and Bute,http://www.argyll-bute.gov.uk,-5.69680800000000,PA65 6AY,2012-05-17,fhis_exempt_en-GB,Exempt,,FHIS,
418812,An Taigh Osda Bruichladdich Isle Of Islay Argyll And Bute PA49 7UN,,,,An Taigh Osda @ Bruichladdich,Hotel/bed & breakfast/guest house,7842,,,25589,,,55.76840600000000,08/00104/FS,763,envhealth@argyll-bute.gov.uk,Argyll and Bute,http://www.argyll-bute.gov.uk,-6.35969500000000,PA49 7UN,2012-10-03,fhis_pass_en-GB,Pass,,FHIS,
418813,An Tigh Seinnse Queen Street Portnahaven Isle Of Islay Argyll And Bute PA47 7SJ,,,,An Tigh Seinsse,Hotel/bed & breakfast/guest house,7842,,,33472,,,55.68031800000000,10/00046/FS,763,envhealth@argyll-bute.gov.uk,Argyll and Bute,http://www.argyll-bute.gov.uk,-6.51013700000000,PA47 7SJ,2013-07-10,fhis_pass_en-GB,Pass,,FHIS,
418814,An Tobar Back Brae Tobermory Isle Of Mull Argyll And Bute PA75 6NU,,,,An Tobar Cafe,Restaurant/Cafe/Canteen,1,,,508264,,,56.62314800000000,08/00633/FS,763,envhealth@argyll-bute.gov.uk,Argyll and Bute,http://www.argyll-bute.gov.uk,-6.06660500000000,PA75 6NU,2010-05-05,fhis_pass_en-GB,Pass,,FHIS,
418815,Anchor Hotel Harbour Street Tarbert Argyll And Bute PA29 6UB,,,,Anchor Hotel,Hotel/bed & breakfast/guest house,7842,,,46889,,,55.86325800000000,11/00091/FS,763,envhealth@argyll-bute.gov.uk,Argyll and Bute,http://www.argyll-bute.gov.uk,-5.41353800000000,PA29 6UB,2012-10-30,fhis_pass_en-GB,Pass,,FHIS,
418816,36 Hillfoot Street Dunoon Argyll And Bute PA23 7DT,,,,Anselmo's Fish Restaurant,Restaurant/Cafe/Canteen,1,,,31929,,,55.94730000000000,09060/0034/0/000,763,envhealth@argyll-bute.gov.uk,Argyll and Bute,http://www.argyll-bute.gov.uk,-4.92781600000000,PA23 7DT,2014-11-04,fhis_pass_en-GB,Pass,,FHIS,
418817,Appin Argyll PA38 4DD,,,,Appin Primary,School/college/university,7845,,,1908,,,56.56419600000000,00480/3015/2/000,763,envhealth@argyll-bute.gov.uk,Argyll and Bute,http://www.argyll-bute.gov.uk,-5.37814700000000,PA38 4DD,2011-05-09,fhis_pass_and_eat_safe_en-GB,Pass and Eat Safe,,FHIS,
418818,Ardardan Walled Garden Cardross Dumbarton Argyll And Bute G82 5HD,,,,Ardardan Tearoom,Restaurant/Cafe/Canteen,1,,,9006,,,55.96760300000000,03520/2144/2/000,763,envhealth@argyll-bute.gov.uk,Argyll and Bute,http://www.argyll-bute.gov.uk,-4.67136000000000,G82 5HD,2014-01-07,fhis_pass_en-GB,Pass,,FHIS,
418819,Ardbeg Bowling Club 7 The Terrace Ardbeg Road Rothesay Isle Of Bute Argyll And Bute PA20 0NP,,,,Ardbeg Bowling Club,Pub/bar/nightclub,7843,,,1979,,,55.85699300000000,00530/0007/0/000,763,envhealth@argyll-bute.gov.uk,Argyll and Bute,http://www.argyll-bute.gov.uk,-5.06621600000000,PA20 0NP,2014-08-27,fhis_pass_en-GB,Pass,,FHIS,
418820,Ardencaple Hotel Gareloch Road Rhu Helensburgh Argyll And Bute G84 8LA,,,,Ardencaple Hotel,Hotel/bed & breakfast/guest house,7842,,,24228,,,56.01326900000000,07520/2000/2/000,763,envhealth@argyll-bute.gov.uk,Argyll and Bute,http://www.argyll-bute.gov.uk,-4.76445000000000,G84 8LA,2014-04-07,fhis_pass_en-GB,Pass,,FHIS,
418821,72 Bullwood Road Dunoon Argyll And Bute PA23 7QJ,,,,Ardenlee Residential Home,Hospitals/Childcare/Caring Premises,5,,,7339,,,55.93814300000000,02980/2000/2/000,763,envhealth@argyll-bute.gov.uk,Argyll and Bute,http://www.argyll-bute.gov.uk,-4.93566000000000,PA23 7QJ,2014-02-26,fhis_pass_en-GB,Pass,,FHIS,
418822,Ardentinny Outdoor Centre Ardentinny Dunoon Argyll And Bute PA23 8TR,,,,Ardentinny Outdoor Centre,Hotel/bed & breakfast/guest house,7842,,,2192,,,56.04548300000000,00720/2057/2/000,763,envhealth@argyll-bute.gov.uk,Argyll and Bute,http://www.argyll-bute.gov.uk,-4.91055300000000,PA23 8TR,2014-12-09,fhis_pass_en-GB,Pass,,FHIS,
418823,Tarbert Road Ardrishaig Lochgilphead Argyll PA30 8EP,,,,Ardfenaig Care Home,Hospitals/Childcare/Caring Premises,5,,,74251,,,56.00673200000000,17090/2007/2/000,763,envhealth@argyll-bute.gov.uk,Argyll and Bute,http://www.argyll-bute.gov.uk,-5.45130700000000,PA30 8EP,2014-03-26,fhis_pass_and_eat_safe_en-GB,Pass and Eat Safe,,FHIS,
418824,Ardgartan Hotel Ardgartan Arrochar Argyll And Bute G83 7AR,,,,Ardgartan Hotel,Hotel/bed & breakfast/guest house,7842,,,466009,,,56.18051800000000,12/00299/FS,763,envhealth@argyll-bute.gov.uk,Argyll and Bute,http://www.argyll-bute.gov.uk,-4.79123100000000,G83 7AR,2014-04-10,fhis_pass_en-GB,Pass,,FHIS,
418825,Ardifuir Kilmartin Lochgilphead Argyll And Bute PA31 8QH,,,,Ardifuir,Hotel/bed & breakfast/guest house,7842,,,34361,,,56.08753700000000,10/00110/FS,763,envhealth@argyll-bute.gov.uk,Argyll and Bute,http://www.argyll-bute.gov.uk,-5.53836400000000,PA31 8QH,2015-01-13,fhis_pass_en-GB,Pass,,FHIS,
418826,Ardlamont House Kames Tighnabruaich Argyll And Bute PA21 2AH,,,,Ardlamont Leisure LLP,Restaurant/Cafe/Canteen,1,,,25819,,,55.85270600000000,08/00139/HELA,763,envhealth@argyll-bute.gov.uk,Argyll and Bute,http://www.argyll-bute.gov.uk,-5.23250300000000,PA21 2AH,2010-05-11,fhis_pass_en-GB,Pass,,FHIS,
418827,Ardlui Hotel Ardlui Arrochar Argyll And Bute G83 7EB,,,,Ardlui Hotel,Hotel/bed & breakfast/guest house,7842,,,2250,,,56.30463800000000,00770/0000/2/000,763,envhealth@argyll-bute.gov.uk,Argyll and Bute,http://www.argyll-bute.gov.uk,-4.72060600000000,G83 7EB,2014-12-15,fhis_pass_en-GB,Pass,,FHIS,
418828,Ardlussa House Ardlussa Isle Of Jura Argyll And Bute PA60 7XN,,,,Ardlussa House / Isle Of Jura Venison,Hotel/bed & breakfast/guest house,7842,,,24851,,,,08/00019/FS,763,envhealth@argyll-bute.gov.uk,Argyll and Bute,http://www.argyll-bute.gov.uk,,PA60 7XN,2010-08-31,fhis_pass_en-GB,Pass,,FHIS,
418829,Ardmay House Chalet  Arrochar Dunbartonshire G83 7AH,,,,Ardmay Ltd Expeditions And Residential Courses,School/college/university,7845,,,4641,,,56.18541600000000,01240/2056/2/000,763,envhealth@argyll-bute.gov.uk,Argyll and Bute,http://www.argyll-bute.gov.uk,-4.76966600000000,G83 7AH,2014-02-04,fhis_pass_en-GB,Pass,,FHIS,
418830,10 Glenmorag Avenue Dunoon Argyll PA23 7LG,,,,Ardnahein Care,Hospitals/Childcare/Caring Premises,5,,,27746,,,55.94270000000000,08190/0010/2/000,763,envhealth@argyll-bute.gov.uk,Argyll and Bute,http://www.argyll-bute.gov.uk,-4.93602200000000,PA23 7LG,2014-11-26,fhis_improvement_required_en-GB,Improvement Required,,FHIS,
418831,Ardrishaig Parish Church Tarbert Road Ardrishaig Argyll And Bute PA30 8EP,,,,Ardrishaig Parish Church,Other catering premises,7841,,,74252,,,56.00673200000000,17090/2023/2/000,763,envhealth@argyll-bute.gov.uk,Argyll and Bute,http://www.argyll-bute.gov.uk,-5.45130700000000,PA30 8EP,2009-11-30,fhis_pass_en-GB,Pass,,FHIS,
418832,Ardrishaig Primary Park Road Ardrishaig Lochgilphead Argyll And Bute PA30 8HD,,,,Ardrishaig Primary School,School/college/university,7845,,,2437,,,56.01762800000000,00900/2035/2/000,763,envhealth@argyll-bute.gov.uk,Argyll and Bute,http://www.argyll-bute.gov.uk,-5.45067400000000,PA30 8HD,2015-01-19,fhis_pass_and_eat_safe_en-GB,Pass and Eat Safe,,FHIS,
418833,Ardroy Outdoor Centre Lochgoilhead Cairndow Argyll And Bute PA24 8AE,,,,Ardroy Outdoor Education Centre,Hotel/bed & breakfast/guest house,7842,,,51443,,,56.15725000000000,11520/2035/2/0000,763,envhealth@argyll-bute.gov.uk,Argyll and Bute,http://www.argyll-bute.gov.uk,-4.91291700000000,PA24 8AE,2014-03-26,fhis_pass_en-GB,Pass,,FHIS,
418834,Ardshiel Hotel Kilkerran Road Campbeltown Argyll And Bute PA28 6JL,,,,Ardshiel Hotel,Hotel/bed & breakfast/guest house,7842,,,25903,,,55.42156600000000,08/00154/FS,763,envhealth@argyll-bute.gov.uk,Argyll and Bute,http://www.argyll-bute.gov.uk,-5.60088500000000,PA28 6JL,2014-03-05,fhis_pass_en-GB,Pass,,FHIS,
418835,297 Marine Parade Hunters Quay Dunoon Argyll PA23 8HN,,,,Ardtully Hotel,Hotel/bed & breakfast/guest house,7842,,,55503,,,55.97265300000000,12520/0297/2/000,763,envhealth@argyll-bute.gov.uk,Argyll and Bute,http://www.argyll-bute.gov.uk,-4.91139400000000,PA23 8HN,2010-06-04,fhis_pass_en-GB,Pass,,FHIS,
418836,3 Argyle Place Rothesay Isle Of Bute Argyll And Bute PA20 0AZ,,,,Argyle House Hotel,Hotel/bed & breakfast/guest house,7842,,,19178,,,55.84156300000000,06/00382/OTH,763,envhealth@argyll-bute.gov.uk,Argyll and Bute,http://www.argyll-bute.gov.uk,-5.06239600000000,PA20 0AZ,2014-12-10,fhis_pass_en-GB,Pass,,FHIS,
418837,21 West Argyle Street Helensburgh Dunbartonshire G84 8XP,,,,Argyle Lodge Nursing Home And  Argyle House,Hospitals/Childcare/Caring Premises,5,,,77422,,,56.00615100000000,18190/0021/0/000,763,envhealth@argyll-bute.gov.uk,Argyll and Bute,http://www.argyll-bute.gov.uk,-4.73540100000000,G84 8XP,2014-03-06,fhis_pass_en-GB,Pass,,FHIS,
418838,Argyll And Bute Hospital  Blarbuie Road Lochgilphead Argyll PA31 8LD,,,,Argyll And Bute Hospital,Hospitals/Childcare/Caring Premises,5,,,6669,,,56.04201000000000,02370/2017/3/001,763,envhealth@argyll-bute.gov.uk,Argyll and Bute,http://www.argyll-bute.gov.uk,-5.41844900000000,PA31 8LD,2013-07-29,fhis_pass_and_eat_safe_en-GB,Pass and Eat Safe,,FHIS,
418839,Argyll Arms Hotel 58 Main Street Campbeltown Argyll And Bute PA28 6AB,,,,Argyll Arms Hotel,Hotel/bed & breakfast/guest house,7842,,,19243,,,55.42359900000000,06/00415/FS,763,envhealth@argyll-bute.gov.uk,Argyll and Bute,http://www.argyll-bute.gov.uk,-5.60571900000000,PA28 6AB,2014-02-11,fhis_pass_en-GB,Pass,,FHIS,
418840,Argyll Arms Hotel Chalmers Street Ardrishaig Lochgilphead Argyll And Bute PA30 8DX,,,,Argyll Arms Hotel,Hotel/bed & breakfast/guest house,7842,,,370902,,,56.01485500000000,12/00177/FS,763,envhealth@argyll-bute.gov.uk,Argyll and Bute,http://www.argyll-bute.gov.uk,-5.44792300000000,PA30 8DX,2014-12-17,fhis_pass_en-GB,Pass,,FHIS,
418841,Argyll Arms Hotel Southend Campbeltown Argyll And Bute PA28 6RP,,,,Argyll Arms Hotel,Hotel/bed & breakfast/guest house,7842,,,48162,,,55.31671200000000,11/00223/FS,763,envhealth@argyll-bute.gov.uk,Argyll and Bute,http://www.argyll-bute.gov.uk,-5.63753100000000,PA28 6RP,2014-08-13,fhis_pass_en-GB,Pass,,FHIS,
418842,67 East Clyde Street Helensburgh Argyll And Bute G84 7PF,,,,Argyll Bar,Pub/bar/nightclub,7843,,,20860,,,56.00245600000000,06500/0067/0/000,763,envhealth@argyll-bute.gov.uk,Argyll and Bute,http://www.argyll-bute.gov.uk,-4.72978200000000,G84 7PF,2010-03-24,fhis_pass_en-GB,Pass,,FHIS,
418843,Argyll Bowling Club  Millknowe  Campbeltown Argyll PA28 6NJ,,,,Argyll Bowling Club,Pub/bar/nightclub,7843,,,510437,,,55.43000400000000,13160/2002/2/000,763,envhealth@argyll-bute.gov.uk,Argyll and Bute,http://www.argyll-bute.gov.uk,-5.61202700000000,PA28 6NJ,2009-10-01,fhis_pass_en-GB,Pass,,FHIS,
418844,Ardgartan Caravan Park Shop Ardgartan Arrochar Argyll And Bute G83 7AR,,,,Argyll Cabins,Restaurant/Cafe/Canteen,1,,,4647,,,56.18051800000000,01240/2134/3/001,763,envhealth@argyll-bute.gov.uk,Argyll and Bute,http://www.argyll-bute.gov.uk,-4.79123100000000,G83 7AR,2014-04-16,fhis_pass_en-GB,Pass,,FHIS,
418845,Lunga Heights Craobh Haven Lochgilphead Argyll And Bute PA31 8UU,,,,Argyll Hog Roasts,Mobile caterer,7846,,,725234,,,56.20089200000000,14/00305/FS,763,envhealth@argyll-bute.gov.uk,Argyll and Bute,http://www.argyll-bute.gov.uk,-5.55569400000000,PA31 8UU,2014-10-27,fhis_pass_en-GB,Pass,,FHIS,
418846,54 Argyll Street Dunoon Argyll And Bute PA23 7NE,,,,Argyll Hotel,Hotel/bed & breakfast/guest house,7842,,,4446,,,55.94894100000000,01110/5458/0/000,763,envhealth@argyll-bute.gov.uk,Argyll and Bute,http://www.argyll-bute.gov.uk,-4.92534400000000,PA23 7NE,2014-10-14,fhis_pass_en-GB,Pass,,FHIS,
418847,75 Lochnell Street Lochgilphead Argyll And Bute PA31 8JN,,,,Argyll Hotel,Hotel/bed & breakfast/guest house,7842,,,305330,,,56.03554700000000,12/00126/FS,763,envhealth@argyll-bute.gov.uk,Argyll and Bute,http://www.argyll-bute.gov.uk,-5.43102900000000,PA31 8JN,2015-01-16,fhis_improvement_required_en-GB,Improvement Required,,FHIS,
418848,Argyll Hotel Bellochantuy Campbeltown Argyll And Bute PA28 6QE,,,,Argyll Hotel,Hotel/bed & breakfast/guest house,7842,,,588716,,,55.52679700000000,13/00311/FS,763,envhealth@argyll-bute.gov.uk,Argyll and Bute,http://www.argyll-bute.gov.uk,-5.70507800000000,PA28 6QE,2013-08-27,fhis_pass_en-GB,Pass,,FHIS,
418849,Argyll Hotel Isle Of Iona Argyll And Bute PA76 6SJ,,,,Argyll Hotel,Hotel/bed & breakfast/guest house,7842,,,448265,,,56.33109200000000,12/00063/FS,763,envhealth@argyll-bute.gov.uk,Argyll and Bute,http://www.argyll-bute.gov.uk,-6.39286200000000,PA76 6SJ,2012-09-12,fhis_pass_en-GB,Pass,,FHIS,
418850,The Argyll Hotel Front Street Inveraray Argyll And Bute PA32 8XB,,,,Argyll Hotel,Hotel/bed & breakfast/guest house,7842,,,22255,,,56.23170300000000,07/00158/FS,763,envhealth@argyll-bute.gov.uk,Argyll and Bute,http://www.argyll-bute.gov.uk,-5.07406400000000,PA32 8XB,2011-11-02,fhis_pass_and_eat_safe_en-GB,Pass and Eat Safe,,FHIS,
418851,Dunoon Combined Services Club Union Street Dunoon Argyll And Bute PA23 8ER,,,,Argyll Social Club,Pub/bar/nightclub,7843,,,493614,,,55.95634500000000,06/00561/FS,763,envhealth@argyll-bute.gov.uk,Argyll and Bute,http://www.argyll-bute.gov.uk,-4.92511800000000,PA23 8ER,2014-04-15,fhis_exempt_en-GB,Exempt,,FHIS,
418852,Carnan Road Arinagour Isle Of Coll PA78 6TA,,,,Arinagour School,School/college/university,7845,,,9056,,,56.62138300000000,03580/2000/2/000,763,envhealth@argyll-bute.gov.uk,Argyll and Bute,http://www.argyll-bute.gov.uk,-6.52640500000000,PA78 6TA,2007-11-13,fhis_pass_en-GB,Pass,,FHIS,
418853,Arlene's Coffee Shop Craignure Isle Of Mull Argyll And Bute PA65 6AY,,,,Arlene's Coffee Shop,Restaurant/Cafe/Canteen,1,,,508276,,,56.46436000000000,11/00123/FS,763,envhealth@argyll-bute.gov.uk,Argyll and Bute,http://www.argyll-bute.gov.uk,-5.69680800000000,PA65 6AY,2012-11-29,fhis_pass_en-GB,Pass,,FHIS,
418854,Manse Brae Lochgilphead Argyll PA31 8RA,,,,Army Cadet Training Centre,Restaurant/Cafe/Canteen,1,,,54747,,,56.03962300000000,12340/2039/2/000,763,envhealth@argyll-bute.gov.uk,Argyll and Bute,http://www.argyll-bute.gov.uk,-5.43028300000000,PA31 8RA,2014-11-29,fhis_pass_en-GB,Pass,,FHIS,
418855,Main Street  Arrochar Dunbartonshire G83 7AA,,,,Arrochar Chippy,Restaurant/Cafe/Canteen,1,,,4645,,,56.20186700000000,01240/2126/2/000,763,envhealth@argyll-bute.gov.uk,Argyll and Bute,http://www.argyll-bute.gov.uk,-4.74458600000000,G83 7AA,2014-02-06,fhis_pass_en-GB,Pass,,FHIS,
418856,Arrochar Hotel Arrochar Argyll And Bute G83 7AU,,,,Arrochar Hotel,Hotel/bed & breakfast/guest house,7842,,,4642,,,56.19950700000000,01240/2109/2/000,763,envhealth@argyll-bute.gov.uk,Argyll and Bute,http://www.argyll-bute.gov.uk,-4.74602900000000,G83 7AU,2014-03-13,fhis_pass_en-GB,Pass,,FHIS,
418857,Tarbet Arrochar Dunbartonshire G83 7DG,,,,Arrochar Primary School,School/college/university,7845,,,74302,,,56.20608100000000,17110/2031/2/000,763,envhealth@argyll-bute.gov.uk,Argyll and Bute,http://www.argyll-bute.gov.uk,-4.70679600000000,G83 7DG,2014-08-22,fhis_pass_en-GB,Pass,,FHIS,
418858,Main Street Arrochar Argyll And Bute G83 7AA,,,,Arrochar Tearoom,Restaurant/Cafe/Canteen,1,,,508291,,,56.20186700000000,12/00305/FS,763,envhealth@argyll-bute.gov.uk,Argyll and Bute,http://www.argyll-bute.gov.uk,-4.74458600000000,G83 7AA,2014-08-01,fhis_pass_en-GB,Pass,,FHIS,
418859,Ashbank Hotel Airds Carradale Campbeltown Argyll And Bute PA28 6RY,,,,Ashbank Hotel,Hotel/bed & breakfast/guest house,7842,,,26881,,,55.59041400000000,08/00598/FS,763,envhealth@argyll-bute.gov.uk,Argyll and Bute,http://www.argyll-bute.gov.uk,-5.46910700000000,PA28 6RY,2011-11-18,fhis_pass_en-GB,Pass,,FHIS,
418860,38 William Street Helensburgh Dunbartonshire G84 8BJ,,,,Ashfield,Hotel/bed & breakfast/guest house,7842,,,78030,,,56.00572400000000,18470/0038/0/000,763,envhealth@argyll-bute.gov.uk,Argyll and Bute,http://www.argyll-bute.gov.uk,-4.74003900000000,G84 8BJ,2010-03-25,fhis_pass_en-GB,Pass,,FHIS,
418861,Arrochar Dunbartonshire G83 7AA,,,,Ashfield House,Hotel/bed & breakfast/guest house,7842,,,4633,,,56.20186700000000,01240/2001/2/000,763,envhealth@argyll-bute.gov.uk,Argyll and Bute,http://www.argyll-bute.gov.uk,-4.74458600000000,G83 7AA,2010-03-29,fhis_pass_en-GB,Pass,,FHIS,
418862,Ashfield School Achnamara Lochgilphead Argyll And Bute PA31 8PX,,,,Ashfield Primary,School/college/university,7845,,,1351,,,56.02518700000000,00140/2041/2/000,763,envhealth@argyll-bute.gov.uk,Argyll and Bute,http://www.argyll-bute.gov.uk,-5.56599900000000,PA31 8PX,2015-01-14,fhis_pass_and_eat_safe_en-GB,Pass and Eat Safe,,FHIS,
418863,Ashgrove 229 Alexandra Parade Kirn Dunoon Argyll And Bute PA23 8HD,,,,Ashgrove Care Home (New),Hospitals/Childcare/Caring Premises,5,,,28575,,,55.95974900000000,09/00009/FS,763,envhealth@argyll-bute.gov.uk,Argyll and Bute,http://www.argyll-bute.gov.uk,-4.91233100000000,PA23 8HD,2014-04-25,fhis_pass_en-GB,Pass,,FHIS,
418864,74 West Princes Street Helensburgh Argyll And Bute G84 8UG,,,,Ashton Bar,Pub/bar/nightclub,7843,,,77803,,,56.00462800000000,18360/0074/2/000,763,envhealth@argyll-bute.gov.uk,Argyll and Bute,http://www.argyll-bute.gov.uk,-4.73638400000000,G84 8UG,2010-03-23,fhis_pass_en-GB,Pass,,FHIS,
418865,Auchenbeag Tayvallich Lochgilphead Argyll And Bute PA31 8PW,,,,Auchenbeag Bed And Breakfast,Hotel/bed & breakfast/guest house,7842,,,25554,,,56.01960700000000,08/00099/FS,763,envhealth@argyll-bute.gov.uk,Argyll and Bute,http://www.argyll-bute.gov.uk,-5.62778800000000,PA31 8PW,2012-08-17,fhis_pass_en-GB,Pass,,FHIS,
418866,Auchindrain Museum  Furnace Inveraray Argyll PA32 8XN,,,,Auchindrain Museum,Restaurant/Cafe/Canteen,1,,,24140,,,56.15475800000000,07420/2002/2/000,763,envhealth@argyll-bute.gov.uk,Argyll and Bute,http://www.argyll-bute.gov.uk,-5.18389700000000,PA32 8XN,2014-10-14,fhis_pass_en-GB,Pass,,FHIS,
418867,Askomil Road Campbeltown Argyll PA28 6EN,,,,Auchinlee Residential Home,Hospitals/Childcare/Caring Premises,5,,,4712,,,55.42908800000000,01300/2005/2/000,763,envhealth@argyll-bute.gov.uk,Argyll and Bute,http://www.argyll-bute.gov.uk,-5.59092900000000,PA28 6EN,2014-06-17,fhis_pass_en-GB,Pass,,FHIS,
418868,8 Airds Place Oban Argyll And Bute PA34 5SQ,,,,Aulays Bar,Pub/bar/nightclub,7843,,,1459,,,56.41259200000000,00210/0008/0/000,763,envhealth@argyll-bute.gov.uk,Argyll and Bute,http://www.argyll-bute.gov.uk,-5.47167400000000,PA34 5SQ,2012-05-10,fhis_pass_en-GB,Pass,,FHIS,
418869,Tyneloan Road  Tarbet Arrochar Dunbartonshire G83 7DD,,,,Aye Servus,Hotel/bed & breakfast/guest house,7842,,,74300,,,56.20497800000000,17110/2009/2/000,763,envhealth@argyll-bute.gov.uk,Argyll and Bute,http://www.argyll-bute.gov.uk,-4.71321700000000,G83 7DD,2011-05-18,fhis_pass_en-GB,Pass,,FHIS,
418870,Ayen Ballygrant Isle Of Islay Argyll And Bute PA45 7QW,,,,Ayen Cottage B And B,Hotel/bed & breakfast/guest house,7842,,,25581,,,55.81143900000000,08/00103/FS,763,envhealth@argyll-bute.gov.uk,Argyll and Bute,http://www.argyll-bute.gov.uk,-6.17934700000000,PA45 7QW,2010-04-23,fhis_pass_en-GB,Pass,,FHIS,
418871,Badden Farm Nursery Lochgilphead Argyll And Bute PA31 8SF,,,,Badden Farm Nursery,Hospitals/Childcare/Caring Premises,5,,,51399,,,56.04855700000000,11510/2024/3/002,763,envhealth@argyll-bute.gov.uk,Argyll and Bute,http://www.argyll-bute.gov.uk,-5.44293200000000,PA31 8SF,2012-12-18,fhis_pass_en-GB,Pass,,FHIS,
418872,Ichrachan House Taynuilt Argyll  PA35 1HP,,,,Ballet West,School/college/university,7845,,,429017,,,56.42486600000000,12/00185/FS,763,envhealth@argyll-bute.gov.uk,Argyll and Bute,http://www.argyll-bute.gov.uk,-5.22948800000000,PA35 1HP,2012-07-26,fhis_exempt_en-GB,Exempt,,FHIS,
418873,Balliemeanoch Farmhouse Strachur Cairndow Argyll And Bute PA27 8DW,,,,Balliemeanoch Farmhouse And Steading,Hotel/bed & breakfast/guest house,7842,,,359613,,,56.16311800000000,12/00168/FS,763,envhealth@argyll-bute.gov.uk,Argyll and Bute,http://www.argyll-bute.gov.uk,-5.05109900000000,PA27 8DW,2012-05-10,fhis_pass_en-GB,Pass,,FHIS,
418874,Ballygrant Inn Ballygrant Isle Of Islay Argyll And Bute PA45 7QR,,,,Ballygrant Inn,Hotel/bed & breakfast/guest house,7842,,,5199,,,55.81926100000000,01630/2028/2/000,763,envhealth@argyll-bute.gov.uk,Argyll and Bute,http://www.argyll-bute.gov.uk,-6.15929200000000,PA45 7QR,2014-09-04,fhis_improvement_required_en-GB,Improvement Required,,FHIS,
418875,Tarbet Arrochar Dunbartonshire G83 7DA,,,,Ballyhennan Guest House,Hotel/bed & breakfast/guest house,7842,,,74299,,,56.20305900000000,17110/2001/2/000,763,envhealth@argyll-bute.gov.uk,Argyll and Bute,http://www.argyll-bute.gov.uk,-4.72322400000000,G83 7DA,2010-10-27,fhis_pass_en-GB,Pass,,FHIS,
418876,Craigard Road Oban Argyll PA34 5NP,,,,Balmoral Inn,Hotel/bed & breakfast/guest house,7842,,,14258,,,56.41569500000000,04860/2001/2/000,763,envhealth@argyll-bute.gov.uk,Argyll and Bute,http://www.argyll-bute.gov.uk,-5.47194100000000,PA34 5NP,2009-07-13,fhis_exempt_en-GB,Exempt,,FHIS,
418877,Ban-Diuc Restaurant Quay Close Ferry Land Inveraray Argyll And Bute PA32 8XA,,,,Ban-Diuc Indian Resturant,Restaurant/Cafe/Canteen,1,,,47195,,,56.23104200000000,11/00113/FS,763,envhealth@argyll-bute.gov.uk,Argyll and Bute,http://www.argyll-bute.gov.uk,-5.07209000000000,PA32 8XA,2013-01-08,fhis_pass_en-GB,Pass,,FHIS,
418878,10 John Street Dunoon Argyll And Bute PA23 8BN,,,,Bangladesh Tandoori,Restaurant/Cafe/Canteen,1,,,375954,,,55.95123900000000,12/00138/FS,763,envhealth@argyll-bute.gov.uk,Argyll and Bute,http://www.argyll-bute.gov.uk,-4.92511700000000,PA23 8BN,2014-02-25,fhis_pass_en-GB,Pass,,FHIS,
418879,24 Bolgam Street Campbeltown Argyll And Bute PA28 6HZ,,,,Bangladesh Tandoori Restaurant,Restaurant/Cafe/Canteen,1,,,29075,,,55.42475600000000,09/00050/FS,763,envhealth@argyll-bute.gov.uk,Argyll and Bute,http://www.argyll-bute.gov.uk,-5.60554000000000,PA28 6HZ,2013-09-12,fhis_pass_en-GB,Pass,,FHIS,
418880,Barcaldine Oban Argyll PA37 1SG,,,,Barcaldine Primary School,School/college/university,7845,,,5375,,,56.52180800000000,01780/2031/2/000,763,envhealth@argyll-bute.gov.uk,Argyll and Bute,http://www.argyll-bute.gov.uk,-5.31715300000000,PA37 1SG,2010-10-07,fhis_exempt_en-GB,Exempt,,FHIS,
418881,Barr-Na-Criche Dunmore Tarbert Argyll And Bute PA29 6XZ,,,,Barr Na Criche,Hotel/bed & breakfast/guest house,7842,,,516997,,,55.79688900000000,07/00146/FS,763,envhealth@argyll-bute.gov.uk,Argyll and Bute,http://www.argyll-bute.gov.uk,-5.52742800000000,PA29 6XZ,2013-03-08,fhis_pass_en-GB,Pass,,FHIS,
418882,25 Battery Place Rothesay Isle Of Bute PA20 9DU,,,,Battery Lodge Guest House,Hotel/bed & breakfast/guest house,7842,,,5558,,,55.84060200000000,01940/0025/2/000,763,envhealth@argyll-bute.gov.uk,Argyll and Bute,http://www.argyll-bute.gov.uk,-5.04679200000000,PA20 9DU,2014-12-04,fhis_pass_en-GB,Pass,,FHIS,
418883,Claymore Hotel Arrochar Argyll And Bute G83 7BB,,,,Bay Claymore Hotel,Hotel/bed & breakfast/guest house,7842,,,4644,,,56.19733500000000,01240/2112/2/000,763,envhealth@argyll-bute.gov.uk,Argyll and Bute,http://www.argyll-bute.gov.uk,-4.74713100000000,G83 7BB,2014-02-06,fhis_pass_en-GB,Pass,,FHIS,
418884,The Post Office Strachur Cairndow Argyll And Bute PA27 8DD,,,,Bay Cottage,Restaurant/Cafe/Canteen,1,,,655501,,,56.16671100000000,14/00075/FS,763,envhealth@argyll-bute.gov.uk,Argyll and Bute,http://www.argyll-bute.gov.uk,-5.08198000000000,PA27 8DD,2014-02-05,fhis_improvement_required_en-GB,Improvement Required,,FHIS,
418885,56 Victoria Parade Dunoon Argyll PA23 7HU,,,,Bay House Hotel,Hotel/bed & breakfast/guest house,7842,,,76333,,,55.94544200000000,17980/0056/0/000,763,envhealth@argyll-bute.gov.uk,Argyll and Bute,http://www.argyll-bute.gov.uk,-4.92849200000000,PA23 7HU,2010-09-28,fhis_pass_en-GB,Pass,,FHIS,
418886,Tarbet Hotel Tarbet Arrochar Argyll And Bute G83 7DE,,,,Bay Tarbet Hotel,Hotel/bed & breakfast/guest house,7842,,,74304,,,56.20504200000000,17110/2057/2/000,763,envhealth@argyll-bute.gov.uk,Argyll and Bute,http://www.argyll-bute.gov.uk,-4.70988400000000,G83 7DE,2014-02-05,fhis_pass_en-GB,Pass,,FHIS,
418887,22 Mountstuart Road Rothesay Isle Of Bute Argyll And Bute PA20 9EB,,,,Bayview Hotel,Hotel/bed & breakfast/guest house,7842,,,61747,,,55.84370300000000,13590/2002/2/000,763,envhealth@argyll-bute.gov.uk,Argyll and Bute,http://www.argyll-bute.gov.uk,-5.03845500000000,PA20 9EB,2013-09-03,fhis_pass_en-GB,Pass,,FHIS,
418888,31 Eccles Road Hunters Quay Dunoon Argyll PA23 8LB,,,,Beechwood Home,Hospitals/Childcare/Caring Premises,5,,,20952,,,55.97330600000000,06640/0031/0/000,763,envhealth@argyll-bute.gov.uk,Argyll and Bute,http://www.argyll-bute.gov.uk,-4.91416800000000,PA23 8LB,2013-03-25,fhis_pass_en-GB,Pass,,FHIS,
418889,Ardbrecknish Dalmally Argyll PA33 1BH,,,,Bell Catering Ardbrecknish House,Hotel/bed & breakfast/guest house,7842,,,349628,,,56.34601100000000,00540/2001/2/000,763,envhealth@argyll-bute.gov.uk,Argyll and Bute,http://www.argyll-bute.gov.uk,-5.12180300000000,PA33 1BH,2012-10-03,fhis_pass_en-GB,Pass,,FHIS,
418890,Bellachroy Hotel Dervaig Isle Of Mull Argyll And Bute PA75 6QW,,,,Bellachroy Hotel,Hotel/bed & breakfast/guest house,7842,,,631849,,,56.58524700000000,13/00395/FS,763,envhealth@argyll-bute.gov.uk,Argyll and Bute,http://www.argyll-bute.gov.uk,-6.17945900000000,PA75 6QW,2014-08-26,fhis_improvement_required_en-GB,Improvement Required,,FHIS,
418891,Ben Arthurs Bothy Arrochar Argyll And Bute G83 7AA,,,,Ben Arthur's Bothy,Pub/bar/nightclub,7843,,,4638,,,56.20133000000000,01240/2025/2/000,763,envhealth@argyll-bute.gov.uk,Argyll and Bute,http://www.argyll-bute.gov.uk,-4.74491800000000,G83 7AA,2014-02-14,fhis_pass_en-GB,Pass,,FHIS,
418892,Ben Lora Tearoom Benderloch Oban Argyll And Bute PA37 1QP,,,,Ben Lora Craft And Coffee Shop,Restaurant/Cafe/Canteen,1,,,454594,,,56.49129800000000,11120/2184/2/000,763,envhealth@argyll-bute.gov.uk,Argyll and Bute,http://www.argyll-bute.gov.uk,-5.40341200000000,PA37 1QP,2012-09-18,fhis_pass_en-GB,Pass,,FHIS,
418893,Benmore Dunoon Argyll PA23 8QX,,,,Benmore Outdoor Education Centre,Hotel/bed & breakfast/guest house,7842,,,6401,,,56.02545400000000,02160/2019/2/000,763,envhealth@argyll-bute.gov.uk,Argyll and Bute,http://www.argyll-bute.gov.uk,-4.98839000000000,PA23 8QX,2014-02-10,fhis_pass_en-GB,Pass,,FHIS,
418894,3 Thistle Way Lochgilphead Argyll And Bute PA31 8WD,,,,Bertie Buttons,Mobile caterer,7846,,,30529,,,56.03744000000000,09/00210/FS,763,envhealth@argyll-bute.gov.uk,Argyll and Bute,http://www.argyll-bute.gov.uk,-5.43633600000000,PA31 8WD,2012-05-10,fhis_pass_en-GB,Pass,,FHIS,
418895,Ferry Farm Tayinloan Tarbert Argyll And Bute PA29 6XQ,,,,Big Jessies Tearoom,Restaurant/Cafe/Canteen,1,,,32938,,,55.65454600000000,10/00014/FS,763,envhealth@argyll-bute.gov.uk,Argyll and Bute,http://www.argyll-bute.gov.uk,-5.66716400000000,PA29 6XQ,2012-12-20,fhis_pass_en-GB,Pass,,FHIS,
418896,Birchwood Service Station Soroba Road Oban Argyll And Bute PA34 4HY,,,,Birchwood Local Ltd,Takeaway/sandwich shop,7844,,,71531,,,56.40857800000000,16230/2067/2/000,763,envhealth@argyll-bute.gov.uk,Argyll and Bute,http://www.argyll-bute.gov.uk,-5.47051300000000,PA34 4HY,2013-03-12,fhis_pass_en-GB,Pass,,FHIS,
418897,Bishops House Isle Of Iona Argyll And Bute PA76 6SJ,,,,Bishop House,Hotel/bed & breakfast/guest house,7842,,,448264,,,56.33109200000000,12/00036/FS,763,envhealth@argyll-bute.gov.uk,Argyll and Bute,http://www.argyll-bute.gov.uk,-6.39286200000000,PA76 6SJ,2012-09-12,fhis_pass_en-GB,Pass,,FHIS,
418898,10 Albert Place Rothesay Isle Of Bute Argyll And Bute PA20 9AG,,,,Black Bull Inn,Restaurant/Cafe/Canteen,1,,,15043,,,55.83754800000000,05/00092/FS,763,envhealth@argyll-bute.gov.uk,Argyll and Bute,http://www.argyll-bute.gov.uk,-5.05284700000000,PA20 9AG,2014-12-19,fhis_improvement_required_en-GB,Improvement Required,,FHIS,
418899,144-148 Argyll Street Dunoon Argyll PA23 7NA,,,,Blacks Of Dunoon Bakers Limited,Restaurant/Cafe/Canteen,1,,,4439,,,55.94984600000000,01110/1441/3/000,763,envhealth@argyll-bute.gov.uk,Argyll and Bute,http://www.argyll-bute.gov.uk,-4.92659800000000,PA23 7NA,2014-04-17,fhis_pass_en-GB,Pass,,FHIS,
418900,Blairvadach Children's Unit Blairvadach  Shandon Helensburgh Dunbartonshire G84 8NN,,,,"Blairvadach Childrens Home, Strathclyde Regional Council",Hospitals/Childcare/Caring Premises,5,,,67306,,,56.02983300000000,15010/2054/2/000,763,envhealth@argyll-bute.gov.uk,Argyll and Bute,http://www.argyll-bute.gov.uk,-4.79444900000000,G84 8NN,2010-03-29,fhis_pass_en-GB,Pass,,FHIS,
418901,Rhu Helensburgh Dunbartonshire G84 8NN,,,,Blairvadach Outdoor Centre,School/college/university,7845,,,67309,,,56.02983300000000,15010/2066/2/000,763,envhealth@argyll-bute.gov.uk,Argyll and Bute,http://www.argyll-bute.gov.uk,-4.79444900000000,G84 8NN,2014-12-16,fhis_pass_and_eat_safe_en-GB,Pass and Eat Safe,,FHIS,
418902,7 Victoria Street Rothesay Isle Of Bute PA20 0AJ,,,,Blethers,Restaurant/Cafe/Canteen,1,,,77053,,,55.83772600000000,18020/0007/0/000,763,envhealth@argyll-bute.gov.uk,Argyll and Bute,http://www.argyll-bute.gov.uk,-5.05509800000000,PA20 0AJ,2013-11-12,fhis_pass_en-GB,Pass,,FHIS,
418903,Boathouse Ardminish Isle Of Gigha Argyll And Bute PA41 7AA,,,,Boathouse Cafe Bar,Restaurant/Cafe/Canteen,1,,,565346,,,55.68295300000000,13/00187/FS,763,envhealth@argyll-bute.gov.uk,Argyll and Bute,http://www.argyll-bute.gov.uk,-5.73767300000000,PA41 7AA,2013-08-12,fhis_pass_en-GB,Pass,,FHIS,
418904,Bossard's Patisserie Gibraltar Street Oban Argyll And Bute PA34 4AY,,,,Bossards Patisserie,Restaurant/Cafe/Canteen,1,,,24416,,,56.41156900000000,07710/2005/2/000,763,envhealth@argyll-bute.gov.uk,Argyll and Bute,http://www.argyll-bute.gov.uk,-5.47127200000000,PA34 4AY,2013-01-24,fhis_pass_and_eat_safe_en-GB,Pass and Eat Safe,,FHIS,
418905,30 Jamieson Street Bowmore Isle Of Islay Argyll And Bute PA43 7HL,,,,Bowmore Hotel,Hotel/bed & breakfast/guest house,7842,,,32511,,,55.75661300000000,09680/2002/2/000,763,envhealth@argyll-bute.gov.uk,Argyll and Bute,http://www.argyll-bute.gov.uk,-6.28545300000000,PA43 7HL,2012-02-29,fhis_pass_en-GB,Pass,,FHIS,
418906,Flora Street Bowmore Isle Of Islay PA43 7JX,,,,Bowmore Primary School,School/college/university,7845,,,24034,,,55.75546300000000,07260/2004/2/000,763,envhealth@argyll-bute.gov.uk,Argyll and Bute,http://www.argyll-bute.gov.uk,-6.28899500000000,PA43 7JX,2013-06-06,fhis_pass_en-GB,Pass,,FHIS,
418907,Benmore Botanic Gardens  Benmore Dunoon Argyll PA23 8QU,,,,Braemore,Restaurant/Cafe/Canteen,1,,,6397,,,56.02681300000000,02160/2002/2/000,763,envhealth@argyll-bute.gov.uk,Argyll and Bute,http://www.argyll-bute.gov.uk,-4.98091800000000,PA23 8QU,2014-04-07,fhis_pass_en-GB,Pass,,FHIS,
418908,Brambles Main Street West Inveraray Argyll And Bute PA32 8TU,,,,Brambles Restaurant,Restaurant/Cafe/Canteen,1,,,54422,,,56.23081800000000,12270/2012/2/000,763,envhealth@argyll-bute.gov.uk,Argyll and Bute,http://www.argyll-bute.gov.uk,-5.07313800000000,PA32 8TU,2015-01-08,fhis_pass_en-GB,Pass,,FHIS,
418909,Brander Lodge Hotel Bridge Of Awe Taynuilt Argyll And Bute PA35 1HT,,,,Brander Lodge Hotel   Bistro,Hotel/bed & breakfast/guest house,7842,,,427420,,,56.41785300000000,17130/2024/2/000,763,envhealth@argyll-bute.gov.uk,Argyll and Bute,http://www.argyll-bute.gov.uk,-5.19030900000000,PA35 1HT,2012-07-19,fhis_pass_en-GB,Pass,,FHIS,
418910,2 Bridgend Street Rothesay Isle Of Bute Argyll And Bute PA20 0HU,,,,Brechin's Brasserie,Restaurant/Cafe/Canteen,1,,,6899,,,55.83736100000000,02640/0002/0/000,763,envhealth@argyll-bute.gov.uk,Argyll and Bute,http://www.argyll-bute.gov.uk,-5.05784900000000,PA20 0HU,2014-03-25,fhis_pass_en-GB,Pass,,FHIS,
418911,Bridge Cafe Soroba Lane Oban Argyll PA34 4HX,,,,Bridge Cafe,Restaurant/Cafe/Canteen,1,,,395897,,,56.40988500000000,16190/2001/2/000,763,envhealth@argyll-bute.gov.uk,Argyll and Bute,http://www.argyll-bute.gov.uk,-5.47071400000000,PA34 4HX,2012-05-14,fhis_pass_en-GB,Pass,,FHIS,
418912,Bridge Of Orchy Hotel Bridge Of Orchy Argyll And Bute PA36 4AB,,,,Bridge Of Orchy Hotel,Hotel/bed & breakfast/guest house,7842,,,6920,,,56.51763300000000,02650/2001/2/000,763,envhealth@argyll-bute.gov.uk,Argyll and Bute,http://www.argyll-bute.gov.uk,-4.76914000000000,PA36 4AB,2012-08-09,fhis_pass_en-GB,Pass,,FHIS,
418913,Bridgend Isle Of Islay PA44 7PJ,,,,Bridgend Hotel,Hotel/bed & breakfast/guest house,7842,,,6898,,,55.78087600000000,02630/2040/2/000,763,envhealth@argyll-bute.gov.uk,Argyll and Bute,http://www.argyll-bute.gov.uk,-6.24906700000000,PA44 7PJ,2012-04-19,fhis_pass_en-GB,Pass,,FHIS,
418914,Bunessan Primary School Bunessan Isle Of Mull Argyll And Bute PA67 6DJ,,,,Bunessan Primary School,School/college/university,7845,,,8516,,,56.31836500000000,03000/2128/2/000,763,envhealth@argyll-bute.gov.uk,Argyll and Bute,http://www.argyll-bute.gov.uk,-6.22088100000000,PA67 6DJ,2011-10-04,fhis_pass_and_eat_safe_en-GB,Pass and Eat Safe,,FHIS,
418915,Burnside Bistro Tighnabruaich Argyll And Bute PA21 2BA,,,,Burnside Bistro,Restaurant/Cafe/Canteen,1,,,74937,,,55.90607000000000,17390/2002/2/000,763,envhealth@argyll-bute.gov.uk,Argyll and Bute,http://www.argyll-bute.gov.uk,-5.23360100000000,PA21 2BA,2011-11-03,fhis_pass_en-GB,Pass,,FHIS,
418916,Burnside Lodge Shore Street Port Wemyss Isle Of Islay Argyll And Bute PA47 7ST,,,,Burnside Lodge Guest House,Hotel/bed & breakfast/guest house,7842,,,28777,,,55.67622800000000,09/00025/FS,763,envhealth@argyll-bute.gov.uk,Argyll and Bute,http://www.argyll-bute.gov.uk,-6.50517600000000,PA47 7ST,2014-03-31,fhis_pass_en-GB,Pass,,FHIS,
418917,Moat Centre Stuart Street Rothesay Isle Of Bute Argyll And Bute PA20 0EP,,,,Bute Connections,Restaurant/Cafe/Canteen,1,,,528748,,,55.83594200000000,13/00138/FS,763,envhealth@argyll-bute.gov.uk,Argyll and Bute,http://www.argyll-bute.gov.uk,-5.05452600000000,PA20 0EP,2014-09-24,fhis_pass_en-GB,Pass,,FHIS,
418918,4 West Princes Street Rothesay Isle Of Bute PA20 9AF,,,,Bute House Hotel,Hotel/bed & breakfast/guest house,7842,,,14605,,,55.83731100000000,05/00026/FS,763,envhealth@argyll-bute.gov.uk,Argyll and Bute,http://www.argyll-bute.gov.uk,-5.05262100000000,PA20 9AF,2010-12-02,fhis_pass_en-GB,Pass,,FHIS,
418919,Bute Shinty Club Meadows Road Rothesay Isle Of Bute Argyll And Bute PA20 0ED,,,,Bute Shinty Club,Pub/bar/nightclub,7843,,,57639,,,55.83033800000000,12940/0003/2/000,763,envhealth@argyll-bute.gov.uk,Argyll and Bute,http://www.argyll-bute.gov.uk,-5.06082700000000,PA20 0ED,2014-04-08,fhis_pass_en-GB,Pass,,FHIS,
418920,29 Rhudal Cottages Drumlemble Campbeltown Argyll And Bute PA28 6PR,,,,C Mauchline Childminding,Hospitals/Childcare/Caring Premises,5,,,570860,,,55.41385500000000,10/00122/FS,763,envhealth@argyll-bute.gov.uk,Argyll and Bute,http://www.argyll-bute.gov.uk,-5.69499100000000,PA28 6PR,2013-07-16,fhis_pass_en-GB,Pass,,FHIS,
418921,Ca Dora Cafe  Harbour Street Tarbert Argyll PA29 6UD,,,,Ca Dora Cafe,Restaurant/Cafe/Canteen,1,,,28201,,,55.86378600000000,08720/2034/2/000,763,envhealth@argyll-bute.gov.uk,Argyll and Bute,http://www.argyll-bute.gov.uk,-5.41200200000000,PA29 6UD,2014-02-20,fhis_pass_en-GB,Pass,,FHIS,
418922,The Columba Centre Bowmore Isle Of Islay Argyll And Bute PA43 7LN,,,,Cafaidh Blasta,Restaurant/Cafe/Canteen,1,,,655505,,,55.76281700000000,14/00099/FS,763,envhealth@argyll-bute.gov.uk,Argyll and Bute,http://www.argyll-bute.gov.uk,-6.26536400000000,PA43 7LN,2014-03-31,fhis_pass_en-GB,Pass,,FHIS,
418923,Port Mor Port Charlotte Isle Of Islay Argyll And Bute PA48 7UE,,,,Cafaidh Na Roinn,Restaurant/Cafe/Canteen,1,,,34208,,,55.70522700000000,10/00098/FS,763,envhealth@argyll-bute.gov.uk,Argyll and Bute,http://www.argyll-bute.gov.uk,-6.42646200000000,PA48 7UE,2013-04-04,fhis_pass_en-GB,Pass,,FHIS,
418924,19 West Clyde Street Helensburgh Dunbartonshire G84 8SQ,,,,Cafe 19,Restaurant/Cafe/Canteen,1,,,77557,,,56.00321100000000,18240/0019/0/000,763,envhealth@argyll-bute.gov.uk,Argyll and Bute,http://www.argyll-bute.gov.uk,-4.73464700000000,G84 8SQ,2014-04-09,fhis_improvement_required_en-GB,Improvement Required,,FHIS,
418925,35 Argyll Street Lochgilphead Argyll And Bute PA31 8LZ,,,,Cafe 35,Restaurant/Cafe/Canteen,1,,,19721,,,56.03729000000000,06/00678/FS,763,envhealth@argyll-bute.gov.uk,Argyll and Bute,http://www.argyll-bute.gov.uk,-5.43333600000000,PA31 8LZ,2013-07-04,fhis_pass_en-GB,Pass,,FHIS,
418926,Atlantis Leisure  Dalriach Road Oban Argyll PA34 5JE,,,,Cafe Atlantis,Restaurant/Cafe/Canteen,1,,,502521,,,56.41874400000000,05570/2012/2/000,763,envhealth@argyll-bute.gov.uk,Argyll and Bute,http://www.argyll-bute.gov.uk,-5.47093700000000,PA34 5JE,2011-12-12,fhis_pass_en-GB,Pass,,FHIS,
418927,6 Hall Street Campbeltown Argyll And Bute PA28 6BU,,,,Cafe Bluebell,Restaurant/Cafe/Canteen,1,,,35413,,,55.42417600000000,10/00236/FS,763,envhealth@argyll-bute.gov.uk,Argyll and Bute,http://www.argyll-bute.gov.uk,-5.60355800000000,PA28 6BU,2014-04-29,fhis_pass_en-GB,Pass,,FHIS,
418928,Cafe Milano Garelochhead Helensburgh Argyll And Bute G84 0AN,,,,Cafe Craft,Restaurant/Cafe/Canteen,1,,,508273,,,56.07975500000000,11/00070/FS,763,envhealth@argyll-bute.gov.uk,Argyll and Bute,http://www.argyll-bute.gov.uk,-4.82915100000000,G84 0AN,2014-02-03,fhis_pass_en-GB,Pass,,FHIS,
418929,Restaurant Pier Port-A-Choit Pier Road Tobermory Isle Of Mull Argyll And Bute PA75 6NU,,,,Cafe Fish,Restaurant/Cafe/Canteen,1,,,18348,,,56.62314800000000,06/00110/FS,763,envhealth@argyll-bute.gov.uk,Argyll and Bute,http://www.argyll-bute.gov.uk,-6.06660500000000,PA75 6NU,2012-08-29,fhis_pass_en-GB,Pass,,FHIS,
418930,Tarbet Tourist Information Centre Tarbet Arrochar Argyll And Bute G83 7DE,,,,Cafe Lochan,Restaurant/Cafe/Canteen,1,,,508271,,,56.20504200000000,11/00012/FS,763,envhealth@argyll-bute.gov.uk,Argyll and Bute,http://www.argyll-bute.gov.uk,-4.70988400000000,G83 7DE,2011-10-12,fhis_pass_en-GB,Pass,,FHIS,
418931,Unit 4 Rhu Marina Pier Road Rhu Helensburgh Argyll And Bute G84 8LH,,,,Cafe Rhu,Restaurant/Cafe/Canteen,1,,,508279,,,56.01477300000000,11/00244/FS,763,envhealth@argyll-bute.gov.uk,Argyll and Bute,http://www.argyll-bute.gov.uk,-4.77469900000000,G84 8LH,2014-03-05,fhis_pass_en-GB,Pass,,FHIS,
418932,Cafe Ocean Explorer Centre Scottish Marine Institute Dunstaffnage Dunbeg Oban Argyll And Bute PA37 1QA,,,,Cafe Scientifique,Restaurant/Cafe/Canteen,1,,,655504,,,56.45115900000000,14/00092/FS,763,envhealth@argyll-bute.gov.uk,Argyll and Bute,http://www.argyll-bute.gov.uk,-5.44076100000000,PA37 1QA,2014-04-03,fhis_awaiting_inspection_en-GB,Awaiting Inspection,,FHIS,
418933,Street Record Harbour Street Tarbert Argyll And Bute PA29 6UD,,,,Cafebarge,Restaurant/Cafe/Canteen,1,,,418923,,,55.86378600000000,10/00022/FS,763,envhealth@argyll-bute.gov.uk,Argyll and Bute,http://www.argyll-bute.gov.uk,-5.41200200000000,PA29 6UD,2013-04-05,fhis_pass_en-GB,Pass,,FHIS,
418934,Cairnbaan Hotel Cairnbaan Lochgilphead Argyll And Bute PA31 8SJ,,,,Cairnbaan Hotel,Hotel/bed & breakfast/guest house,7842,,,8739,,,56.06119400000000,03220/2004/2/000,763,envhealth@argyll-bute.gov.uk,Argyll and Bute,http://www.argyll-bute.gov.uk,-5.48720700000000,PA31 8SJ,2013-09-04,fhis_pass_en-GB,Pass,,FHIS,
418935,Cairndow Village Hall Cairndow Argyll And Bute PA26 8BN,,,,Cairndow Community Childcare,Hospitals/Childcare/Caring Premises,5,,,17477,,,56.25813100000000,06/00001/HS,763,envhealth@argyll-bute.gov.uk,Argyll and Bute,http://www.argyll-bute.gov.uk,-4.93460000000000,PA26 8BN,2012-11-07,fhis_pass_en-GB,Pass,,FHIS,
418936,Cairndow Inn Cairndow Argyll And Bute PA26 8BN,,,,Cairndow Stagecoach Inn,Hotel/bed & breakfast/guest house,7842,,,8762,,,56.25833400000000,03250/2043/2/000,763,envhealth@argyll-bute.gov.uk,Argyll and Bute,http://www.argyll-bute.gov.uk,-4.93438900000000,PA26 8BN,2014-02-05,fhis_improvement_required_en-GB,Improvement Required,,FHIS,
418937,Calgary Carthouse Calgary Isle Of Mull Argyll And Bute PA75 6QQ,,,,Calgary Farmhouse Tearoom,Restaurant/Cafe/Canteen,1,,,356552,,,56.58307700000000,12/00170/FS,763,envhealth@argyll-bute.gov.uk,Argyll and Bute,http://www.argyll-bute.gov.uk,-6.27070900000000,PA75 6QQ,2012-05-03,fhis_pass_en-GB,Pass,,FHIS,
418938,26D Davaar Avenue Campbeltown Argyll And Bute PA28 6NG,,,,Callie Catering  / Coast To Coast Catering,Mobile caterer,7846,,,45570,,,55.43016800000000,11/00014/FS,763,envhealth@argyll-bute.gov.uk,Argyll and Bute,http://www.argyll-bute.gov.uk,-5.61288000000000,PA28 6NG,2013-11-21,fhis_pass_en-GB,Pass,,FHIS,
418939,Camerons Dairy  101 Argyll Street Dunoon Argyll PA23 7DH,,,,Camerons Dairy,Takeaway/sandwich shop,7844,,,4429,,,55.94896900000000,01110/0101/0/000,763,envhealth@argyll-bute.gov.uk,Argyll and Bute,http://www.argyll-bute.gov.uk,-4.92605100000000,PA23 7DH,2014-01-30,fhis_pass_en-GB,Pass,,FHIS,
418940,Hutcheon Road Campbeltown Argyll PA28 6JS,,,,Campbeltown Grammar School,School/college/university,7845,,,32156,,,55.41780800000000,09310/2005/2/000,763,envhealth@argyll-bute.gov.uk,Argyll and Bute,http://www.argyll-bute.gov.uk,-5.60267700000000,PA28 6JS,2014-09-03,fhis_pass_en-GB,Pass,,FHIS,
418941,Campbeltown Hospital Ralston Road Campbeltown Argyll And Bute PA28 6LE,,,,Campbeltown Hospital Kitchen,Hospitals/Childcare/Caring Premises,5,,,65907,,,55.42140600000000,14840/2003/2/000,763,envhealth@argyll-bute.gov.uk,Argyll and Bute,http://www.argyll-bute.gov.uk,-5.60691000000000,PA28 6LE,2014-05-06,fhis_pass_en-GB,Pass,,FHIS,
418942,Campbeltown Nursery Centre Ralston Road Campbeltown Argyll And Bute PA28 6LE,,,,Campbeltown Nursery Centre,Hospitals/Childcare/Caring Premises,5,,,510433,,,55.42140600000000,09/00123/FS,763,envhealth@argyll-bute.gov.uk,Argyll and Bute,http://www.argyll-bute.gov.uk,-5.60691000000000,PA28 6LE,2012-10-16,fhis_pass_en-GB,Pass,,FHIS,
418943,Camus  Bunessan Isle Of Mull PA67 6DX,,,,Camus Adventure Centre,Hotel/bed & breakfast/guest house,7842,,,8515,,,56.32700900000000,03000/2087/2/000,763,envhealth@argyll-bute.gov.uk,Argyll and Bute,http://www.argyll-bute.gov.uk,-6.29272200000000,PA67 6DX,2011-10-05,fhis_pass_and_eat_safe_en-GB,Pass and Eat Safe,,FHIS,
418944,Cardross Bowling Club Church Avenue Cardross Dumbarton Argyll And Bute G82 5NS,,,,Cardross Bowling Club,Pub/bar/nightclub,7843,,,13417,,,55.96297900000000,04060/2001/2/000,763,envhealth@argyll-bute.gov.uk,Argyll and Bute,http://www.argyll-bute.gov.uk,-4.65575400000000,G82 5NS,2014-02-27,fhis_pass_en-GB,Pass,,FHIS,
418945,Church Hall  Station Road Cardross Dumbarton G82 5NL,,,,Cardross Church Hall,Restaurant/Cafe/Canteen,1,,,72702,,,55.96147500000000,16570/2023/2/000,763,envhealth@argyll-bute.gov.uk,Argyll and Bute,http://www.argyll-bute.gov.uk,-4.65254200000000,G82 5NL,2010-03-29,fhis_pass_en-GB,Pass,,FHIS,
418946,Cardross Golf Club Main Road Cardross Dumbarton Argyll And Bute G82 5LB,,,,Cardross Golf Club,Pub/bar/nightclub,7843,,,53839,,,55.96073100000000,12120/2038/2/000,763,envhealth@argyll-bute.gov.uk,Argyll and Bute,http://www.argyll-bute.gov.uk,-4.64702700000000,G82 5LB,2014-04-10,fhis_pass_en-GB,Pass,,FHIS,
418947,Kirkton Road Cardross Dumbarton G82 5PN,,,,Cardross Primary,School/college/university,7845,,,44624,,,55.96813400000000,10820/2001/2/000,763,envhealth@argyll-bute.gov.uk,Argyll and Bute,http://www.argyll-bute.gov.uk,-4.65634800000000,G82 5PN,2013-12-03,fhis_pass_en-GB,Pass,,FHIS,
418948,5 John Street Oban Argyll And Bute PA34 5NS,,,,Carolyn's Cafe,Restaurant/Cafe/Canteen,1,,,706408,,,56.41593700000000,14/00292/FS,763,envhealth@argyll-bute.gov.uk,Argyll and Bute,http://www.argyll-bute.gov.uk,-5.47326000000000,PA34 5NS,2014-09-15,fhis_awaiting_inspection_en-GB,Awaiting Inspection,,FHIS,
418949,Carradale Hotel Airds Carradale Campbeltown Argyll And Bute PA28 6RY,,,,Carradale Hotel,Hotel/bed & breakfast/guest house,7842,,,1427,,,55.59041400000000,00200/2003/2/000,763,envhealth@argyll-bute.gov.uk,Argyll and Bute,http://www.argyll-bute.gov.uk,-5.46910700000000,PA28 6RY,2012-04-16,fhis_pass_en-GB,Pass,,FHIS,
418950,The Old Primary School Carradale Campbeltown Argyll And Bute PA28 6QG,,,,Carradale Primary School,School/college/university,7845,,,9082,,,55.58632500000000,03610/2018/2/000,763,envhealth@argyll-bute.gov.uk,Argyll and Bute,http://www.argyll-bute.gov.uk,-5.49433600000000,PA28 6QG,2013-02-13,fhis_pass_and_eat_safe_en-GB,Pass and Eat Safe,,FHIS,
418951,Rosneath Castle Caravan Park Ltd Rosneath Castle Caravan Park Rosneath Helensburgh Argyll And Bute G84 0QS,,,,Castle Isle Restaurant,Restaurant/Cafe/Canteen,1,,,68124,,,55.99982200000000,15230/0000/3/003,763,envhealth@argyll-bute.gov.uk,Argyll and Bute,http://www.argyll-bute.gov.uk,-4.77564700000000,G84 0QS,2014-02-03,fhis_pass_en-GB,Pass,,FHIS,
418952,Portnacroish Portnacroish Appin Argyll And Bute PA38 4BL,,,,Castle Stalker View Cafe And Gift Shop,Restaurant/Cafe/Canteen,1,,,1905,,,56.57214900000000,00480/2059/2/000,763,envhealth@argyll-bute.gov.uk,Argyll and Bute,http://www.argyll-bute.gov.uk,-5.37893800000000,PA38 4BL,2013-03-05,fhis_pass_en-GB,Pass,,FHIS,
418953,Ralston Road Campbeltown Argyll PA28 6LE,,,,Castlehill Primary School,School/college/university,7845,,,65906,,,55.42140600000000,14840/2001/2/000,763,envhealth@argyll-bute.gov.uk,Argyll and Bute,http://www.argyll-bute.gov.uk,-5.60691000000000,PA28 6LE,2014-02-05,fhis_pass_en-GB,Pass,,FHIS,
418954,60-61 West Clyde Street Helensburgh Argyll And Bute G84 8AX,,,,Catherine's Coffee Shoppe,Restaurant/Cafe/Canteen,1,,,19698,,,56.00388200000000,06/00665/FS,763,envhealth@argyll-bute.gov.uk,Argyll and Bute,http://www.argyll-bute.gov.uk,-4.73881700000000,G84 8AX,2014-04-09,fhis_improvement_required_en-GB,Improvement Required,,FHIS,
418955,Ceabhar Sandaig Isle Of Tiree Argyll And Bute PA77 6XQ,,,,Ceabhar,Restaurant/Cafe/Canteen,1,,,21975,,,56.48290300000000,07/00099/FS,763,envhealth@argyll-bute.gov.uk,Argyll and Bute,http://www.argyll-bute.gov.uk,-6.97017600000000,PA77 6XQ,2009-07-30,fhis_pass_and_eat_safe_en-GB,Pass and Eat Safe,,FHIS,
418956,24 Bolgam Street Campbeltown Argyll And Bute PA28 6HZ,,,,Ceann Loch Diner,Restaurant/Cafe/Canteen,1,,,29062,,,55.42475600000000,09/00049/FS,763,envhealth@argyll-bute.gov.uk,Argyll and Bute,http://www.argyll-bute.gov.uk,-5.60554000000000,PA28 6HZ,2014-03-12,fhis_pass_en-GB,Pass,,FHIS,
418957,East Princes Street Helensburgh Argyll And Bute G84 7QF,,,,Central Perks,Takeaway/sandwich shop,7844,,,22807,,,56.00402400000000,07/00318/FS,763,envhealth@argyll-bute.gov.uk,Argyll and Bute,http://www.argyll-bute.gov.uk,-4.73282800000000,G84 7QF,2014-02-12,fhis_pass_en-GB,Pass,,FHIS,
418958,Centre 81 School Road Garelochhead Helensburgh Argyll And Bute G84 0AT,,,,Centre 81,Restaurant/Cafe/Canteen,1,,,642388,,,56.08087900000000,11/00040/FS,763,envhealth@argyll-bute.gov.uk,Argyll and Bute,http://www.argyll-bute.gov.uk,-4.83188600000000,G84 0AT,2014-02-19,fhis_pass_en-GB,Pass,,FHIS,
418959,Chandlers Ascog Isle Of Bute Argyll And Bute PA20 9ET,,,,Chandlers,Hotel/bed & breakfast/guest house,7842,,,4666,,,55.82992300000000,01270/2001/2/000,763,envhealth@argyll-bute.gov.uk,Argyll and Bute,http://www.argyll-bute.gov.uk,-5.02602400000000,PA20 9ET,2014-04-10,fhis_pass_en-GB,Pass,,FHIS,
418960,23 Castle Street Dunoon Argyll And Bute PA23 7HR,,,,Chouxmake's Cakes,Takeaway/sandwich shop,7844,,,47091,,,55.94645200000000,11/00103/FS,763,envhealth@argyll-bute.gov.uk,Argyll and Bute,http://www.argyll-bute.gov.uk,-4.92608500000000,PA23 7HR,2011-07-01,fhis_pass_en-GB,Pass,,FHIS,
418961,RNAD Coulport Coulport Helensburgh Argyll And Bute G84 0PD,,,,Civilian Staff Restaurant,Restaurant/Cafe/Canteen,1,,,17623,,,56.04578800000000,06/00015/FS,763,envhealth@argyll-bute.gov.uk,Argyll and Bute,http://www.argyll-bute.gov.uk,-4.87534000000000,G84 0PD,2014-03-12,fhis_pass_en-GB,Pass,,FHIS,
418962,Clachan Primary School Clachan Tarbert Argyll And Bute PA29 6XL,,,,Clachan Primary,School/college/university,7845,,,13609,,,55.74777900000000,04220/2031/2/000,763,envhealth@argyll-bute.gov.uk,Argyll and Bute,http://www.argyll-bute.gov.uk,-5.55885800000000,PA29 6XL,2015-01-15,fhis_pass_and_eat_safe_en-GB,Pass and Eat Safe,,FHIS,
418963,19 Moir Street Dunoon Argyll And Bute PA23 8AA,,,,Clansman Bar (no 19),Pub/bar/nightclub,7843,,,61002,,,55.94947100000000,13350/0009/2/000,763,envhealth@argyll-bute.gov.uk,Argyll and Bute,http://www.argyll-bute.gov.uk,-4.92575300000000,PA23 8AA,2010-09-22,fhis_pass_en-GB,Pass,,FHIS,
418964,Claret Jug Restaurant The Carrick At Cameron House Arden Alexandria Argyll And Bute G83 8RE,,,,Claret Jug,Restaurant/Cafe/Canteen,1,,,22747,,,56.03132600000000,07/00292/FS,763,envhealth@argyll-bute.gov.uk,Argyll and Bute,http://www.argyll-bute.gov.uk,-4.63774900000000,G83 8RE,2014-02-05,fhis_pass_en-GB,Pass,,FHIS,
418965,62 West Clyde Street Helensburgh Argyll And Bute G84 8AX,,,,Clyde Bar,Pub/bar/nightclub,7843,,,77569,,,56.00388200000000,18240/2000/2/000,763,envhealth@argyll-bute.gov.uk,Argyll and Bute,http://www.argyll-bute.gov.uk,-4.73881700000000,G84 8AX,2010-03-25,fhis_pass_en-GB,Pass,,FHIS,
418966,Clyde Nursery H M Naval Base Clyde Faslane Helensburgh Argyll And Bute G84 8HL,,,,Clyde Nursery,Hospitals/Childcare/Caring Premises,5,,,21212,,,56.05301700000000,06950/2111/2/000,763,envhealth@argyll-bute.gov.uk,Argyll and Bute,http://www.argyll-bute.gov.uk,-4.81726500000000,G84 8HL,2010-03-29,fhis_pass_en-GB,Pass,,FHIS,
418967,79 East Clyde Street Helensburgh Argyll And Bute G84 7PF,,,,Clyde Street Cafe,Restaurant/Cafe/Canteen,1,,,642389,,,56.00245600000000,12/00107/FS,763,envhealth@argyll-bute.gov.uk,Argyll and Bute,http://www.argyll-bute.gov.uk,-4.72978200000000,G84 7PF,2014-03-18,fhis_pass_en-GB,Pass,,FHIS,
418968,Clyde View Sandbank Argyll And Bute PA23 8PD,,,,Clyde View Bed And Breakfast,Hotel/bed & breakfast/guest house,7842,,,19827,,,55.98759800000000,06/00780/FS,763,envhealth@argyll-bute.gov.uk,Argyll and Bute,http://www.argyll-bute.gov.uk,-4.95830100000000,PA23 8PD,2009-08-21,fhis_pass_en-GB,Pass,,FHIS,
418969,Clydeview Care Home Cardross Dumbarton G82 5ER,,,,Clydeview Care Home,Hospitals/Childcare/Caring Premises,5,,,9004,,,55.96070600000000,03520/2007/2/000,763,envhealth@argyll-bute.gov.uk,Argyll and Bute,http://www.argyll-bute.gov.uk,-4.64271500000000,G82 5ER,2013-10-16,fhis_pass_en-GB,Pass,,FHIS,
418970,Clynder Stores Clynder Helensburgh Argyll And Bute G84 0QB,,,,Clynder Stores And Cafe,Restaurant/Cafe/Canteen,1,,,667598,,,56.01875500000000,17960/2006/2/000,763,envhealth@argyll-bute.gov.uk,Argyll and Bute,http://www.argyll-bute.gov.uk,-4.81279400000000,G84 0QB,2014-05-20,fhis_pass_en-GB,Pass,,FHIS,
418971,Church Road  Luss Alexandria Dunbartonshire G83 8NZ,,,,Coach House Coffee House,Restaurant/Cafe/Canteen,1,,,52803,,,56.10127700000000,11950/2122/2/000,763,envhealth@argyll-bute.gov.uk,Argyll and Bute,http://www.argyll-bute.gov.uk,-4.63793500000000,G83 8NZ,2014-01-21,fhis_pass_en-GB,Pass,,FHIS,
418972,Coach House Inn Main Road Cardross Dumbarton Argyll And Bute G82 5JX,,,,Coach House Inn,Pub/bar/nightclub,7843,,,18062,,,55.96004600000000,06/00064/FS,763,envhealth@argyll-bute.gov.uk,Argyll and Bute,http://www.argyll-bute.gov.uk,-4.64669200000000,G82 5JX,2014-02-04,fhis_pass_en-GB,Pass,,FHIS,
418973,102 George Street Oban Argyll And Bute PA34 5NT,,,,Coast,Hotel/bed & breakfast/guest house,7842,,,24395,,,56.41627900000000,07690/0104/0/000,763,envhealth@argyll-bute.gov.uk,Argyll and Bute,http://www.argyll-bute.gov.uk,-5.47290200000000,PA34 5NT,2012-03-14,fhis_pass_en-GB,Pass,,FHIS,
418974,Pier Office Caledonian Macbrayne Ltd Argyll Street Dunoon Argyll And Bute PA23 7HJ,,,,Coast Coffee,Takeaway/sandwich shop,7844,,,517000,,,55.94695200000000,12/00272/FS,763,envhealth@argyll-bute.gov.uk,Argyll and Bute,http://www.argyll-bute.gov.uk,-4.92280700000000,PA23 7HJ,2014-07-29,fhis_pass_en-GB,Pass,,FHIS,
418975,Street Record Main Street Arinagour Isle Of Coll Argyll And Bute,,,,Coastal Larder,Takeaway/sandwich shop,7844,,,429018,,,56.62243200000000,12/00252/FS,763,envhealth@argyll-bute.gov.uk,Argyll and Bute,http://www.argyll-bute.gov.uk,-6.52534300000000,,2012-07-26,fhis_pass_en-GB,Pass,,FHIS,
418976,Corran Esplanade Oban Argyll PA34 5PS,,,,Coasters,Pub/bar/nightclub,7843,,,14112,,,56.41659900000000,04680/2029/2/000,763,envhealth@argyll-bute.gov.uk,Argyll and Bute,http://www.argyll-bute.gov.uk,-5.47401800000000,PA34 5PS,2010-07-21,fhis_pass_en-GB,Pass,,FHIS,
418977,Tiree Rural Centre Crossapol Isle Of Tiree Argyll And Bute PA77 6UP,,,,Cobbled Cow Tearoom,Restaurant/Cafe/Canteen,1,,,19257,,,56.49317800000000,06/00424/FS,763,envhealth@argyll-bute.gov.uk,Argyll and Bute,http://www.argyll-bute.gov.uk,-6.88442700000000,PA77 6UP,2012-09-20,fhis_pass_en-GB,Pass,,FHIS,
418978,Hunters Quay Post Office 249 Marine Parade Hunters Quay Argyll And Bute PA23 8HJ,,,,Coffee Ahoy,Takeaway/sandwich shop,7844,,,338603,,,55.96880500000000,12/00140/FS,763,envhealth@argyll-bute.gov.uk,Argyll and Bute,http://www.argyll-bute.gov.uk,-4.90948500000000,PA23 8HJ,2014-06-26,fhis_pass_en-GB,Pass,,FHIS,
418979,Coffee Corner Station Road Oban Argyll And Bute PA34 4LL,,,,Coffee Corner,Restaurant/Cafe/Canteen,1,,,72994,,,56.41248300000000,16690/2009/3/002,763,envhealth@argyll-bute.gov.uk,Argyll and Bute,http://www.argyll-bute.gov.uk,-5.47395100000000,PA34 4LL,2012-02-28,fhis_pass_en-GB,Pass,,FHIS,
418980,Argyll House Salen Isle Of Mull PA72 6JG,,,,Coffee Pot,Restaurant/Cafe/Canteen,1,,,508258,,,56.51739200000000,04/00084/FS,763,envhealth@argyll-bute.gov.uk,Argyll and Bute,http://www.argyll-bute.gov.uk,-5.94919400000000,PA72 6JG,2012-09-11,fhis_pass_en-GB,Pass,,FHIS,
418981,Colgrain Bowling Club Monaebrook Place Helensburgh Argyll And Bute G84 7JD,,,,Colgrain Bowling Club,Pub/bar/nightclub,7843,,,61063,,,55.99768700000000,13370/2002/2/000,763,envhealth@argyll-bute.gov.uk,Argyll and Bute,http://www.argyll-bute.gov.uk,-4.71289300000000,G84 7JD,2014-12-18,fhis_pass_en-GB,Pass,,FHIS,
418982,Redgauntlet Road Helensburgh Dunbartonshire G84 7TZ,,,,Colgrain Primary School/Catering Direct,School/college/university,7845,,,66425,,,56.00091200000000,14940/2003/2/000,763,envhealth@argyll-bute.gov.uk,Argyll and Bute,http://www.argyll-bute.gov.uk,-4.71092100000000,G84 7TZ,2014-02-06,fhis_pass_en-GB,Pass,,FHIS,
418983,Colintraive Village Hall  Colintraive Argyll PA22 3AG,,,,Colintraive Village Hall,Restaurant/Cafe/Canteen,1,,,13833,,,56.04056500000000,04450/2109/2/000,763,envhealth@argyll-bute.gov.uk,Argyll and Bute,http://www.argyll-bute.gov.uk,-5.18997500000000,PA22 3AG,2014-02-18,fhis_exempt_en-GB,Exempt,,FHIS,
418984,Arinagour Isle Of Coll PA78 6SZ,,,,Coll Hotel,Hotel/bed & breakfast/guest house,7842,,,4522,,,56.62485900000000,01160/2032/2/000,763,envhealth@argyll-bute.gov.uk,Argyll and Bute,http://www.argyll-bute.gov.uk,-6.52652800000000,PA78 6SZ,2011-09-29,fhis_pass_and_eat_safe_en-GB,Pass and Eat Safe,,FHIS,
418985,Colonsay House  Isle Of Colonsay PA61 7YU,,,,Colonsay Gardens Cafe,Restaurant/Cafe/Canteen,1,,,32421,,,56.09273700000000,09600/2061/3/KIT,763,envhealth@argyll-bute.gov.uk,Argyll and Bute,http://www.argyll-bute.gov.uk,-6.18959300000000,PA61 7YU,2014-06-25,fhis_improvement_required_en-GB,Improvement Required,,FHIS,
418986,Frederick Crescent Port Ellen Isle Of Islay PA42 7DJ,,,,Columba Hall,Other catering premises,7841,,,15072,,,55.62878000000000,05/00100/FS,763,envhealth@argyll-bute.gov.uk,Argyll and Bute,http://www.argyll-bute.gov.uk,-6.18891100000000,PA42 7DJ,2012-07-12,fhis_pass_en-GB,Pass,,FHIS,
418987,Columba Hotel North Pier Oban Argyll And Bute PA34 5QD,,,,Columba Hotel,Hotel/bed & breakfast/guest house,7842,,,62722,,,56.41456400000000,13870/2000/2/000,763,envhealth@argyll-bute.gov.uk,Argyll and Bute,http://www.argyll-bute.gov.uk,-5.47444900000000,PA34 5QD,2011-10-26,fhis_pass_en-GB,Pass,,FHIS,
418988,212 Argyll Street Dunoon Argyll And Bute PA23 7HA,,,,Commercial Bar,Pub/bar/nightclub,7843,,,4435,,,55.95069100000000,01110/0212/0/000,763,envhealth@argyll-bute.gov.uk,Argyll and Bute,http://www.argyll-bute.gov.uk,-4.92738300000000,PA23 7HA,2010-07-07,fhis_pass_en-GB,Pass,,FHIS,
418989,18 Cross Street Campbeltown Argyll And Bute PA28 6HU,,,,Commercial Inn,Pub/bar/nightclub,7843,,,22407,,,55.42412100000000,07/00191/FS,763,envhealth@argyll-bute.gov.uk,Argyll and Bute,http://www.argyll-bute.gov.uk,-5.60601900000000,PA28 6HU,2011-02-01,fhis_pass_en-GB,Pass,,FHIS,
418990,112-117 West Clyde Street Helensburgh Dunbartonshire G84 8ES,,,,Commodore Hotel,Hotel/bed & breakfast/guest house,7842,,,77568,,,56.00502700000000,18240/1121/0/000,763,envhealth@argyll-bute.gov.uk,Argyll and Bute,http://www.argyll-bute.gov.uk,-4.74470600000000,G84 8ES,2014-02-11,fhis_pass_en-GB,Pass,,FHIS,
418991,Corachie Clematis Bridge Of Awe Nr Taynuilt Argyll PA35 1HT,,,,Corachie Clematis Plant Centre,Restaurant/Cafe/Canteen,1,,,508272,,,56.41803000000000,11/00017/FS,763,envhealth@argyll-bute.gov.uk,Argyll and Bute,http://www.argyll-bute.gov.uk,-5.19076200000000,PA35 1HT,2011-06-13,fhis_pass_en-GB,Pass,,FHIS,
418992,1 Argyll Street Lochgilphead Argyll And Bute PA31 8LZ,,,,Coriander Indian And Chinese Restaurant,Restaurant/Cafe/Canteen,1,,,33003,,,56.03729000000000,10/00018/FS,763,envhealth@argyll-bute.gov.uk,Argyll and Bute,http://www.argyll-bute.gov.uk,-5.43333600000000,PA31 8LZ,2013-10-01,fhis_pass_en-GB,Pass,,FHIS,
418993,Corncrake Cottage Lower Kilchattan Isle Of Colonsay Argyll And Bute PA61 7YR,,,,Corncrake Cottage B&B,Hotel/bed & breakfast/guest house,7842,,,26922,,,56.07388400000000,08/00639/FS,763,envhealth@argyll-bute.gov.uk,Argyll and Bute,http://www.argyll-bute.gov.uk,-6.23363000000000,PA61 7YR,2009-10-14,fhis_pass_en-GB,Pass,,FHIS,
418994,Corranmor Ardfern Lochgilphead Argyll And Bute PA31 8QN,,,,Corranmor House,Hotel/bed & breakfast/guest house,7842,,,35409,,,56.18134900000000,10/00235/FS,763,envhealth@argyll-bute.gov.uk,Argyll and Bute,http://www.argyll-bute.gov.uk,-5.53805400000000,PA31 8QN,2010-12-17,fhis_pass_en-GB,Pass,,FHIS,
418995,Corrie House Craobh Haven Lochgilphead Argyll And Bute PA31 8UA,,,,Corrie House Bed And Breakfast And Cook School,Hotel/bed & breakfast/guest house,7842,,,372035,,,56.21028000000000,10/00257/FS,763,envhealth@argyll-bute.gov.uk,Argyll and Bute,http://www.argyll-bute.gov.uk,-5.55625700000000,PA31 8UA,2012-05-25,fhis_pass_en-GB,Pass,,FHIS,
418996,The Corryvreckan Railway Pier Oban Argyll And Bute PA34 4LW,,,,Corryvreckan,Other catering premises,7841,,,655499,,,56.41221900000000,14/00011/FS,763,envhealth@argyll-bute.gov.uk,Argyll and Bute,http://www.argyll-bute.gov.uk,-5.47567800000000,PA34 4LW,2014-04-03,fhis_pass_en-GB,Pass,,FHIS,
418997,Unit 1 Kilmartin Court Station Road Oban Argyll And Bute PA34 4NU,,,,Costa,Restaurant/Cafe/Canteen,1,,,706407,,,56.41234800000000,14/00275/FS,763,envhealth@argyll-bute.gov.uk,Argyll and Bute,http://www.argyll-bute.gov.uk,-5.47395500000000,PA34 4NU,2014-09-15,fhis_awaiting_inspection_en-GB,Awaiting Inspection,,FHIS,
418998,28 West Princes Street Helensburgh Argyll And Bute G84 8TD,,,,Costa Coffee,Restaurant/Cafe/Canteen,1,,,26936,,,56.00422000000000,08/00654/FS,763,envhealth@argyll-bute.gov.uk,Argyll and Bute,http://www.argyll-bute.gov.uk,-4.73412500000000,G84 8TD,2011-04-26,fhis_pass_en-GB,Pass,,FHIS,
418999,The Cottage Restaurant Church Square Inveraray Argyll And Bute PA32 8TX,,,,Cottage Restaurant,Restaurant/Cafe/Canteen,1,,,13483,,,56.23010100000000,04140/2013/2/000,763,envhealth@argyll-bute.gov.uk,Argyll and Bute,http://www.argyll-bute.gov.uk,-5.07270900000000,PA32 8TX,2012-07-23,fhis_pass_en-GB,Pass,,FHIS,
419000,The County Lodge Hotel Old Luss Road Helensburgh Argyll And Bute G84 7BH,,,,County Lodge Hotel,Hotel/bed & breakfast/guest house,7842,,,22724,,,55.99896400000000,07/00284/FS,763,envhealth@argyll-bute.gov.uk,Argyll and Bute,http://www.argyll-bute.gov.uk,-4.71370400000000,G84 7BH,2014-02-03,fhis_pass_en-GB,Pass,,FHIS,
419001,Cove Library Burgh Hall Shore Road Cove Helensburgh Argyll And Bute G84 0LY,,,,Cove Lunch Club,Restaurant/Cafe/Canteen,1,,,70012,,,55.98839500000000,15830/2015/2/000,763,envhealth@argyll-bute.gov.uk,Argyll and Bute,http://www.argyll-bute.gov.uk,-4.84897800000000,G84 0LY,2014-02-26,fhis_pass_en-GB,Pass,,FHIS,
419002,360 Argyll Street Dunoon Argyll PA23 7RL,,,,Cowal Community Hospital,Hospitals/Childcare/Caring Premises,5,,,4437,,,55.95693900000000,01110/0360/0/000,763,envhealth@argyll-bute.gov.uk,Argyll and Bute,http://www.argyll-bute.gov.uk,-4.92771000000000,PA23 7RL,2015-01-23,fhis_pass_en-GB,Pass,,FHIS,
419003,17 Marine Parade Kirn Dunoon Argyll PA23 8HE,,,,Cowal Cottage Bakery,Restaurant/Cafe/Canteen,1,,,55546,,,55.96034600000000,12530/0017/0/000,763,envhealth@argyll-bute.gov.uk,Argyll and Bute,http://www.argyll-bute.gov.uk,-4.91103000000000,PA23 8HE,2014-04-07,fhis_pass_en-GB,Pass,,FHIS,
419004,44 Ardenslate Road Kirn Dunoon Argyll And Bute PA23 8LT,,,,Cowal Golf Club,Pub/bar/nightclub,7843,,,2159,,,55.96295400000000,00690/0044/0/000,763,envhealth@argyll-bute.gov.uk,Argyll and Bute,http://www.argyll-bute.gov.uk,-4.91742800000000,PA23 8LT,2014-03-07,fhis_pass_en-GB,Pass,,FHIS,
419005,Craig Rowan Pennyghael Isle Of Mull Argyll And Bute PA70 6HB,,,,Craig Rowan Bed & Breakfast,Hotel/bed & breakfast/guest house,7842,,,395895,,,56.37408400000000,12/00187/FS,763,envhealth@argyll-bute.gov.uk,Argyll and Bute,http://www.argyll-bute.gov.uk,-6.00729100000000,PA70 6HB,2012-04-02,fhis_exempt_en-GB,Exempt,,FHIS,
419006,Craigard House Hotel Low Askomil Campbeltown Argyll And Bute PA28 6EP,,,,Craigard House,Hotel/bed & breakfast/guest house,7842,,,4766,,,55.42811700000000,01320/2007/2/000,763,envhealth@argyll-bute.gov.uk,Argyll and Bute,http://www.argyll-bute.gov.uk,-5.59245400000000,PA28 6EP,2014-02-14,fhis_pass_en-GB,Pass,,FHIS,
419007,51 Sinclair Street Helensburgh Dunbartonshire G84 8TG,,,,Craigard II,Restaurant/Cafe/Canteen,1,,,71033,,,56.00455900000000,16080/0051/0/000,763,envhealth@argyll-bute.gov.uk,Argyll and Bute,http://www.argyll-bute.gov.uk,-4.73341100000000,G84 8TG,2014-04-10,fhis_pass_en-GB,Pass,,FHIS,
419008,24 Craigmore Road Rothesay Isle Of Bute PA20 9LB,,,,Craigard Residential Home,Hospitals/Childcare/Caring Premises,5,,,14279,,,55.83922500000000,04900/0024/0/000,763,envhealth@argyll-bute.gov.uk,Argyll and Bute,http://www.argyll-bute.gov.uk,-5.02503700000000,PA20 9LB,2014-12-10,fhis_pass_en-GB,Pass,,FHIS,
419009,217 East Clyde Street Helensburgh Argyll And Bute G84 7AP,,,,Craighelen Lawn Tennis And Squash Club,Other catering premises,7841,,,20862,,,56.00019900000000,06500/0217/0/000,763,envhealth@argyll-bute.gov.uk,Argyll and Bute,http://www.argyll-bute.gov.uk,-4.71921200000000,G84 7AP,2014-02-18,fhis_pass_en-GB,Pass,,FHIS,
419010,105 Alexandra Parade Dunoon Argyll PA23 8AN,,,,Craigieburn Hotel,Hotel/bed & breakfast/guest house,7842,,,1728,,,55.95402500000000,00370/0105/0/000,763,envhealth@argyll-bute.gov.uk,Argyll and Bute,http://www.argyll-bute.gov.uk,-4.91947900000000,PA23 8AN,2014-02-17,fhis_pass_en-GB,Pass,,FHIS,
419011,74 Mountstuart Road Rothesay Isle Of Bute Argyll And Bute PA20 9LE,,,,Craigmore Bowling Club,Pub/bar/nightclub,7843,,,28093,,,55.84410900000000,08560/2002/2/000,763,envhealth@argyll-bute.gov.uk,Argyll and Bute,http://www.argyll-bute.gov.uk,-5.03112100000000,PA20 9LE,2010-05-06,fhis_pass_en-GB,Pass,,FHIS,
419012,Craignish Primary School Ardlarach Road Ardfern Lochgilphead Argyll And Bute PA31 8QN,,,,Craignish Primary School,School/college/university,7845,,,2228,,,56.18134900000000,00740/2103/2/000,763,envhealth@argyll-bute.gov.uk,Argyll and Bute,http://www.argyll-bute.gov.uk,-5.53805400000000,PA31 8QN,2009-09-09,fhis_pass_en-GB,Pass,,FHIS,
419013,Craignure Inn Craignure Isle Of Mull Argyll And Bute PA65 6AY,,,,Craignure Inn,Hotel/bed & breakfast/guest house,7842,,,624407,,,56.46436000000000,13/00386/FS,763,envhealth@argyll-bute.gov.uk,Argyll and Bute,http://www.argyll-bute.gov.uk,-5.69680800000000,PA65 6AY,2014-08-19,fhis_improvement_required_en-GB,Improvement Required,,FHIS,
419014,Caravan Eilean Buidhe Craobh Haven Lochgilphead Argyll And Bute PA31 8UA,,,,Craobh Haven Watersports Ltd,Restaurant/Cafe/Canteen,1,,,395894,,,56.21028000000000,12/00125/FS,763,envhealth@argyll-bute.gov.uk,Argyll and Bute,http://www.argyll-bute.gov.uk,-5.55625700000000,PA31 8UA,2012-05-25,fhis_pass_en-GB,Pass,,FHIS,
419015,Crarae Gardens Visitor Centre Crarae Argyll And Bute PA32 8YA,,,,Crarae Garden,Restaurant/Cafe/Canteen,1,,,34522,,,56.13042800000000,10/00124/FS,763,envhealth@argyll-bute.gov.uk,Argyll and Bute,http://www.argyll-bute.gov.uk,-5.23280000000000,PA32 8YA,2011-07-25,fhis_pass_en-GB,Pass,,FHIS,
419016,Crinan Hotel Crinan Lochgilphead Argyll And Bute PA31 8SR,,,,Crinan Hotel,Hotel/bed & breakfast/guest house,7842,,,16633,,,56.09145100000000,05140/2000/2/000,763,envhealth@argyll-bute.gov.uk,Argyll and Bute,http://www.argyll-bute.gov.uk,-5.55731500000000,PA31 8SR,2013-08-29,fhis_pass_en-GB,Pass,,FHIS,
419017,Coffee Shop Crinan Lochgilphead Argyll And Bute PA31 8SW,,,,Crinan Hotel Coffee Shop,Restaurant/Cafe/Canteen,1,,,375952,,,56.08905300000000,05140/2027/2/000,763,envhealth@argyll-bute.gov.uk,Argyll and Bute,http://www.argyll-bute.gov.uk,-5.55942600000000,PA31 8SW,2012-05-28,fhis_pass_en-GB,Pass,,FHIS,
419018,Crown House Ford Lochgilphead Argyll And Bute PA31 8RH,,,,Crown House B&B,Hotel/bed & breakfast/guest house,7842,,,588715,,,56.18244600000000,13/00227/FS,763,envhealth@argyll-bute.gov.uk,Argyll and Bute,http://www.argyll-bute.gov.uk,-5.43261300000000,PA31 8RH,2013-09-16,fhis_pass_en-GB,Pass,,FHIS,
419019,Cruin Restaurant Auchenheglish Arden Alexandria Argyll And Bute G83 8RB,,,,Cruin Restaurant,Restaurant/Cafe/Canteen,1,,,1756,,,56.02144300000000,00390/2073/3/001,763,envhealth@argyll-bute.gov.uk,Argyll and Bute,http://www.argyll-bute.gov.uk,-4.62871400000000,G83 8RB,2014-02-14,fhis_pass_and_eat_safe_en-GB,Pass and Eat Safe,,FHIS,
419020,Shore Cottage  Tarbet Arrochar Dunbartonshire G83 7DG,,,,Cruise Loch Lomond Ltd,Other catering premises,7841,,,74303,,,56.20608100000000,17110/2036/2/000,763,envhealth@argyll-bute.gov.uk,Argyll and Bute,http://www.argyll-bute.gov.uk,-4.70679600000000,G83 7DG,2013-10-10,fhis_pass_en-GB,Pass,,FHIS,
419021,Cuan Mor 60 George Street Oban Argyll And Bute PA34 5SD,,,,Cuan Mor,Restaurant/Cafe/Canteen,1,,,24392,,,56.41441800000000,07690/0060/0/000,763,envhealth@argyll-bute.gov.uk,Argyll and Bute,http://www.argyll-bute.gov.uk,-5.47195400000000,PA34 5SD,2011-10-28,fhis_pass_en-GB,Pass,,FHIS,
419022,Kilmelford Oban Argyll PA34 4XA,,,,Cuilfail Hotel,Hotel/bed & breakfast/guest house,7842,,,42063,,,56.25534500000000,10390/2010/2/000,763,envhealth@argyll-bute.gov.uk,Argyll and Bute,http://www.argyll-bute.gov.uk,-5.49090700000000,PA34 4XA,2011-11-25,fhis_pass_en-GB,Pass,,FHIS,
419023,Culag Farm Luss Alexandria Argyll And Bute G83 8PD,,,,Culag Lochside Guest House,Hotel/bed & breakfast/guest house,7842,,,19170,,,56.14625300000000,06/00378/FS,763,envhealth@argyll-bute.gov.uk,Argyll and Bute,http://www.argyll-bute.gov.uk,-4.66766400000000,G83 8PD,2010-03-29,fhis_pass_en-GB,Pass,,FHIS,
419024,9 Main Street Tobermory Isle Of Mull Argyll And Bute PA75 6NU,,,,Cupan,Restaurant/Cafe/Canteen,1,,,642394,,,56.62314800000000,14/00059/FS,763,envhealth@argyll-bute.gov.uk,Argyll and Bute,http://www.argyll-bute.gov.uk,-6.06660500000000,PA75 6NU,2014-10-23,fhis_improvement_required_en-GB,Improvement Required,,FHIS,
419025,2 Old Luss Road Helensburgh Argyll And Bute G84 7BH,,,,Curry Club,Takeaway/sandwich shop,7844,,,19726,,,55.99896400000000,06/00681/FS,763,envhealth@argyll-bute.gov.uk,Argyll and Bute,http://www.argyll-bute.gov.uk,-4.71370400000000,G84 7BH,2014-04-10,fhis_pass_en-GB,Pass,,FHIS,
419026,Community Centre Mansefield Place Port Ellen Isle Of Islay Argyll And Bute PA42 7BJ,,,,Cyber Bistro,Restaurant/Cafe/Canteen,1,,,26900,,,55.62976300000000,08/00619/FS,763,envhealth@argyll-bute.gov.uk,Argyll and Bute,http://www.argyll-bute.gov.uk,-6.18303900000000,PA42 7BJ,2014-07-08,fhis_pass_en-GB,Pass,,FHIS,
419027,Dalaruan Street Campbeltown Argyll PA28 6HG,,,,Dalintober Primary School,School/college/university,7845,,,17022,,,55.43101500000000,05480/0000/2/000,763,envhealth@argyll-bute.gov.uk,Argyll and Bute,http://www.argyll-bute.gov.uk,-5.60914700000000,PA28 6HG,2014-03-26,fhis_pass_en-GB,Pass,,FHIS,
419028,Arrochar Dunbartonshire G83 7AA,,,,Dalkusha House,Hotel/bed & breakfast/guest house,7842,,,4634,,,56.20186700000000,01240/2009/2/000,763,envhealth@argyll-bute.gov.uk,Argyll and Bute,http://www.argyll-bute.gov.uk,-4.74458600000000,G83 7AA,2010-03-29,fhis_pass_en-GB,Pass,,FHIS,
419029,Dalmally Hotel Dalmally Argyll And Bute PA33 1AY,,,,Dalmally Hotel,Hotel/bed & breakfast/guest house,7842,,,17068,,,56.40211200000000,05520/2089/2/000,763,envhealth@argyll-bute.gov.uk,Argyll and Bute,http://www.argyll-bute.gov.uk,-4.97158300000000,PA33 1AY,2012-04-18,fhis_pass_en-GB,Pass,,FHIS,
419030,Dalmally Primary School Glenview Dalmally Argyll And Bute PA33 1BE,,,,Dalmally Primary,School/college/university,7845,,,27917,,,56.40179200000000,08320/2004/2/000,763,envhealth@argyll-bute.gov.uk,Argyll and Bute,http://www.argyll-bute.gov.uk,-4.96393900000000,PA33 1BE,2012-05-29,fhis_pass_and_eat_safe_en-GB,Pass and Eat Safe,,FHIS,
419031,Dalrannoch Cafe Barcaldine Oban Argyll And Bute PA37 1SE,,,,Dalrannoch Tearoom,Restaurant/Cafe/Canteen,1,,,508286,,,56.51633900000000,12/00019/FS,763,envhealth@argyll-bute.gov.uk,Argyll and Bute,http://www.argyll-bute.gov.uk,-5.35341000000000,PA37 1SE,2012-07-11,fhis_pass_en-GB,Pass,,FHIS,
419032,Dalriada Glenburn Road Ardrishaig Argyll And Bute PA30 8EU,,,,Dalriada B&B,Hotel/bed & breakfast/guest house,7842,,,395893,,,56.02324300000000,08/00596/FS,763,envhealth@argyll-bute.gov.uk,Argyll and Bute,http://www.argyll-bute.gov.uk,-5.44602200000000,PA30 8EU,2012-06-09,fhis_pass_en-GB,Pass,,FHIS,
419033,Police House Carradale Campbeltown Argyll And Bute PA28 6QG,,,,Debbie MacRae (Child Minder),Hospitals/Childcare/Caring Premises,5,,,448266,,,55.58632500000000,12/00150/FS,763,envhealth@argyll-bute.gov.uk,Argyll and Bute,http://www.argyll-bute.gov.uk,-5.49433600000000,PA28 6QG,2012-09-13,fhis_pass_en-GB,Pass,,FHIS,
419034,Druim Mhor Craignure Isle Of Mull Argyll And Bute PA65 6AY,,,,Dee-emm Bed And Breakfast,Hotel/bed & breakfast/guest house,7842,,,508281,,,56.46436000000000,11/00252/FS,763,envhealth@argyll-bute.gov.uk,Argyll and Bute,http://www.argyll-bute.gov.uk,-5.69680800000000,PA65 6AY,2012-04-02,fhis_exempt_en-GB,Exempt,,FHIS,
419035,In House Deli Tesco Stores Ltd  Lochavullin Drive Oban Argyll,,,,Delicatessen,Takeaway/sandwich shop,7844,,,51015,,,,11390/2008/3/002,763,envhealth@argyll-bute.gov.uk,Argyll and Bute,http://www.argyll-bute.gov.uk,,,2011-07-14,fhis_exempt_en-GB,Exempt,,FHIS,
419036,Dellwood Hotel Dalaruan Street Campbeltown Argyll And Bute PA28 6HD,,,,Dellwood Hotel,Hotel/bed & breakfast/guest house,7842,,,20482,,,55.43168300000000,06040/2001/2/000,763,envhealth@argyll-bute.gov.uk,Argyll and Bute,http://www.argyll-bute.gov.uk,-5.61118500000000,PA28 6HD,2012-08-01,fhis_pass_en-GB,Pass,,FHIS,
419037,Dervaig Primary School Dervaig Isle Of Mull Argyll And Bute PA75 6QW,,,,Dervaig Primary School Meals,School/college/university,7845,,,17238,,,56.58524700000000,05740/2136/2/000,763,envhealth@argyll-bute.gov.uk,Argyll and Bute,http://www.argyll-bute.gov.uk,-6.17945900000000,PA75 6QW,2010-10-08,fhis_exempt_en-GB,Exempt,,FHIS,
419038,Dhailling Lodge Villa  155 Alexandra Parade Dunoon Argyll PA23 8AW,,,,Dhailling Lodge Guest House,Hotel/bed & breakfast/guest house,7842,,,1729,,,55.95560900000000,00370/0155/0/000,763,envhealth@argyll-bute.gov.uk,Argyll and Bute,http://www.argyll-bute.gov.uk,-4.91750000000000,PA23 8AW,2009-04-01,fhis_pass_en-GB,Pass,,FHIS,
419039,84 High Street Rothesay Isle Of Bute PA20 9BB,,,,Dils Newsagents,Takeaway/sandwich shop,7844,,,14925,,,55.83445400000000,05/00071/FHYG,763,envhealth@argyll-bute.gov.uk,Argyll and Bute,http://www.argyll-bute.gov.uk,-5.05509600000000,PA20 9BB,2014-02-11,fhis_improvement_required_en-GB,Improvement Required,,FHIS,
419040,31 West Clyde Street Helensburgh Dunbartonshire G84 8AW,,,,Dinos Radio Cafe,Restaurant/Cafe/Canteen,1,,,77559,,,56.00361200000000,18240/0031/0/000,763,envhealth@argyll-bute.gov.uk,Argyll and Bute,http://www.argyll-bute.gov.uk,-4.73679300000000,G84 8AW,2014-01-31,fhis_improvement_required_en-GB,Improvement Required,,FHIS,
419041,Street Record Mossfield Avenue Oban Argyll And Bute,,,,Diors Diner,Mobile caterer,7846,,,715472,,,,14/00314/FS,763,envhealth@argyll-bute.gov.uk,Argyll and Bute,http://www.argyll-bute.gov.uk,,,2014-09-25,fhis_pass_en-GB,Pass,,FHIS,
419042,62 - 64 George Street Oban Argyll And Bute PA34 5SD,,,,Dolce Vita,Restaurant/Cafe/Canteen,1,,,45760,,,56.41441800000000,11/00025/FS,763,envhealth@argyll-bute.gov.uk,Argyll and Bute,http://www.argyll-bute.gov.uk,-5.47195400000000,PA34 5SD,2013-02-12,fhis_pass_en-GB,Pass,,FHIS,
419043,55 Limecraigs Road Campbeltown Argyll And Bute PA28 6JT,,,,Dorothy Biggins - Childminder,Hospitals/Childcare/Caring Premises,5,,,48178,,,55.41940200000000,11/00226/FS,763,envhealth@argyll-bute.gov.uk,Argyll and Bute,http://www.argyll-bute.gov.uk,-5.60231600000000,PA28 6JT,2011-10-06,fhis_pass_en-GB,Pass,,FHIS,
419044,Drimsynie House Hotel Lochgoilhead Cairndow Argyll And Bute PA24 8AD,,,,Drimsynie House Hotel,Hotel/bed & breakfast/guest house,7842,,,51439,,,56.16832400000000,11520/2021/2/000,763,envhealth@argyll-bute.gov.uk,Argyll and Bute,http://www.argyll-bute.gov.uk,-4.91444900000000,PA24 8AD,2014-11-21,fhis_pass_en-GB,Pass,,FHIS,
419045,Islay Airport Glenegedale Isle Of Islay Argyll And Bute PA42 7AS,,,,Drome Cafe,Restaurant/Cafe/Canteen,1,,,667593,,,55.68544800000000,14/00038/FS,763,envhealth@argyll-bute.gov.uk,Argyll and Bute,http://www.argyll-bute.gov.uk,-6.23766000000000,PA42 7AS,2014-05-20,fhis_pass_en-GB,Pass,,FHIS,
419046,Churchill Community Centre  Churchill Square Helensburgh Dunbartonshire G84 9HL,,,,Drumfork Club,Pub/bar/nightclub,7843,,,13422,,,56.00792000000000,04070/2001/2/000,763,envhealth@argyll-bute.gov.uk,Argyll and Bute,http://www.argyll-bute.gov.uk,-4.70945500000000,G84 9HL,2011-11-16,fhis_pass_en-GB,Pass,,FHIS,
419047,Campbeltown Argyll PA28 6PN,,,,Drumlemble Primary,School/college/university,7845,,,8909,,,55.41799200000000,03420/2093/2/000,763,envhealth@argyll-bute.gov.uk,Argyll and Bute,http://www.argyll-bute.gov.uk,-5.66842400000000,PA28 6PN,2011-06-09,fhis_pass_en-GB,Pass,,FHIS,
419048,Duck Bay Marina Auchendennan Road Arden Alexandria Argyll And Bute G83 8QZ,,,,Duck Bay Hotel And Marina,Hotel/bed & breakfast/guest house,7842,,,1754,,,56.01711000000000,00390/2063/2/000,763,envhealth@argyll-bute.gov.uk,Argyll and Bute,http://www.argyll-bute.gov.uk,-4.61351200000000,G83 8QZ,2014-03-14,fhis_pass_en-GB,Pass,,FHIS,
419049,Dunaverty Golf Club  Southend Campbeltown Argyll PA28 6RW,,,,Dunaverty Golf Club,Pub/bar/nightclub,7843,,,508296,,,55.31375800000000,16290/2132/2/000,763,envhealth@argyll-bute.gov.uk,Argyll and Bute,http://www.argyll-bute.gov.uk,-5.64490800000000,PA28 6RW,2011-11-10,fhis_pass_en-GB,Pass,,FHIS,
419050,Etive Road Dunbeg Oban Argyll PA37 1QF,,,,Dunbeg School,Hotel/bed & breakfast/guest house,7842,,,21158,,,56.44454000000000,06890/2000/2/000,763,envhealth@argyll-bute.gov.uk,Argyll and Bute,http://www.argyll-bute.gov.uk,-5.44311700000000,PA37 1QF,2012-11-20,fhis_pass_and_eat_safe_en-GB,Pass and Eat Safe,,FHIS,
419051,Dunchragaig House Kilmartin Lochgilphead Argyll And Bute PA31 8RG,,,,Dunchraigaig House,Hotel/bed & breakfast/guest house,7842,,,22859,,,56.11312000000000,07/00353/FS,763,envhealth@argyll-bute.gov.uk,Argyll and Bute,http://www.argyll-bute.gov.uk,-5.48358800000000,PA31 8RG,2010-09-01,fhis_pass_and_eat_safe_en-GB,Pass and Eat Safe,,FHIS,
419052,113 Marine Parade Kirn Dunoon Argyll PA23 8HH,,,,Dunclutha Childrens Home,Hospitals/Childcare/Caring Premises,5,,,55551,,,55.96335300000000,12530/0113/0/000,763,envhealth@argyll-bute.gov.uk,Argyll and Bute,http://www.argyll-bute.gov.uk,-4.91043800000000,PA23 8HH,2014-03-13,fhis_improvement_required_en-GB,Improvement Required,,FHIS,
419053,Duncreggan House Whites Brae Blairmore Dunoon Argyll And Bute PA23 8TG,,,,Duncreggan House,Hotel/bed & breakfast/guest house,7842,,,29159,,,55.99390900000000,09/00057/FS,763,envhealth@argyll-bute.gov.uk,Argyll and Bute,http://www.argyll-bute.gov.uk,-4.89738700000000,PA23 8TG,2009-02-04,fhis_pass_en-GB,Pass,,FHIS,
419054,Dungallan  Gallanach Road Oban Argyll PA34 4PD,,,,Dungallan House Hotel,Hotel/bed & breakfast/guest house,7842,,,24169,,,56.40875400000000,07470/2025/2/000,763,envhealth@argyll-bute.gov.uk,Argyll and Bute,http://www.argyll-bute.gov.uk,-5.48762200000000,PA34 4PD,2010-08-17,fhis_exempt_en-GB,Exempt,,FHIS,
419055,Dunoon Argyll Bowling Club 66 Mary Street Dunoon Argyll And Bute PA23 7EG,,,,Dunoon Argyll Bowling Club,Pub/bar/nightclub,7843,,,729972,,,55.94821300000000,12620/0066/0/000,763,envhealth@argyll-bute.gov.uk,Argyll and Bute,http://www.argyll-bute.gov.uk,-4.93478800000000,PA23 7EG,2015-01-09,fhis_pass_en-GB,Pass,,FHIS,
419056,Ardenslate Road Kirn Dunoon Argyll PA23 8LU,,,,Dunoon Grammar School,School/college/university,7845,,,2153,,,55.96203200000000,00690/0000/2/000,763,envhealth@argyll-bute.gov.uk,Argyll and Bute,http://www.argyll-bute.gov.uk,-4.92638100000000,PA23 8LU,2014-04-03,fhis_pass_en-GB,Pass,,FHIS,
419057,Dunoon Primary School  Hillfoot Street Dunoon Argyll PA23 7DR,,,,Dunoon Primary School Kitchen,School/college/university,7845,,,31933,,,55.94722400000000,09060/2000/2/000,763,envhealth@argyll-bute.gov.uk,Argyll and Bute,http://www.argyll-bute.gov.uk,-4.92726500000000,PA23 7DR,2014-06-23,fhis_pass_en-GB,Pass,,FHIS,
419058,68 Hunter Street Kirn Dunoon Argyll PA23 8JR,,,,Dunoon School Hostel,Hospitals/Childcare/Caring Premises,5,,,32129,,,55.96436500000000,09290/0068/0/000,763,envhealth@argyll-bute.gov.uk,Argyll and Bute,http://www.argyll-bute.gov.uk,-4.91479300000000,PA23 8JR,2014-04-03,fhis_pass_en-GB,Pass,,FHIS,
419059,Police Buildings  1 George Street Dunoon Argyll PA23 8BQ,,,,Dunoon Sheriff Court,Other catering premises,7841,,,10064,,,55.96668900000000,04/00116/FS,763,envhealth@argyll-bute.gov.uk,Argyll and Bute,http://www.argyll-bute.gov.uk,-4.91153800000000,PA23 8BQ,2010-05-13,fhis_exempt_en-GB,Exempt,,FHIS,
419060,Dunvalanree Carradale Campbeltown Argyll And Bute PA28 6SE,,,,Dunvalanree,Hotel/bed & breakfast/guest house,7842,,,64852,,,55.58552300000000,14500/2011/2/000,763,envhealth@argyll-bute.gov.uk,Argyll and Bute,http://www.argyll-bute.gov.uk,-5.46591300000000,PA28 6SE,2011-10-06,fhis_pass_and_eat_safe_en-GB,Pass and Eat Safe,,FHIS,
419061,Soroba Road Oban Argyll PA34 4JJ,,,,Eadar Glinn Home,Hotel/bed & breakfast/guest house,7842,,,71530,,,56.40278600000000,16230/2063/2/000,763,envhealth@argyll-bute.gov.uk,Argyll and Bute,http://www.argyll-bute.gov.uk,-5.47251500000000,PA34 4JJ,2013-01-09,fhis_pass_and_eat_safe_en-GB,Pass and Eat Safe,,FHIS,
419062,26 Shore Street Campbeltown Argyll And Bute PA28 6BS,,,,Earadale Bed And Breakfast,Hotel/bed & breakfast/guest house,7842,,,29688,,,55.42406200000000,09/00101/FS,763,envhealth@argyll-bute.gov.uk,Argyll and Bute,http://www.argyll-bute.gov.uk,-5.60406900000000,PA28 6BS,2010-04-14,fhis_pass_en-GB,Pass,,FHIS,
419063,Easdale Oban Argyll PA34 4RF,,,,Easdale Primary School,School/college/university,7845,,,20789,,,56.29451400000000,06450/2018/2/000,763,envhealth@argyll-bute.gov.uk,Argyll and Bute,http://www.argyll-bute.gov.uk,-5.64100100000000,PA34 4RF,2011-05-31,fhis_pass_and_eat_safe_en-GB,Pass and Eat Safe,,FHIS,
419064,Inverliever Lodge Ford Lochgilphead Argyll And Bute PA31 8RH,,,,Ecoyoga Limited - Inverliever Lodge,Hotel/bed & breakfast/guest house,7842,,,440899,,,56.18241800000000,11/00215/FS,763,envhealth@argyll-bute.gov.uk,Argyll and Bute,http://www.argyll-bute.gov.uk,-5.43262600000000,PA31 8RH,2012-08-21,fhis_pass_en-GB,Pass,,FHIS,
419065,Ee-Usk North Pier Oban Argyll And Bute PA34 5QD,,,,EE Usk,Restaurant/Cafe/Canteen,1,,,7445,,,56.41456400000000,03/00025/FS,763,envhealth@argyll-bute.gov.uk,Argyll and Bute,http://www.argyll-bute.gov.uk,-5.47444900000000,PA34 5QD,2013-03-06,fhis_pass_and_eat_safe_en-GB,Pass and Eat Safe,,FHIS,
419066,69-71 Montague Street Rothesay Isle Of Bute Argyll And Bute PA20 0HW,,,,Electric Bakery,Restaurant/Cafe/Canteen,1,,,19398,,,55.83736700000000,06/00492/FS,763,envhealth@argyll-bute.gov.uk,Argyll and Bute,http://www.argyll-bute.gov.uk,-5.05689000000000,PA20 0HW,2014-01-14,fhis_pass_en-GB,Pass,,FHIS,
419067,Empire Travel Lodge Union Street Lochgilphead Argyll And Bute PA31 8JS,,,,Empire Travel Lodge,Hotel/bed & breakfast/guest house,7842,,,725231,,,56.03692800000000,13/00123/FS,763,envhealth@argyll-bute.gov.uk,Argyll and Bute,http://www.argyll-bute.gov.uk,-5.43147300000000,PA31 8JS,2014-10-22,fhis_pass_en-GB,Pass,,FHIS,
419068,Milton Lodge  2 Milton Avenue Dunoon Argyll PA23 7DU,,,,Enable Homes,Hospitals/Childcare/Caring Premises,5,,,60793,,,55.94794600000000,13290/0002/0/000,763,envhealth@argyll-bute.gov.uk,Argyll and Bute,http://www.argyll-bute.gov.uk,-4.92752800000000,PA23 7DU,2011-04-11,fhis_pass_en-GB,Pass,,FHIS,
419069,Dunoon Primary 19 Hillfoot Street Dunoon Argyll And Bute PA23 7DR,,,,ESCAPE,School/college/university,7845,,,554612,,,55.94722400000000,13/00064/FS,763,envhealth@argyll-bute.gov.uk,Argyll and Bute,http://www.argyll-bute.gov.uk,-4.92726500000000,PA23 7DR,2013-05-29,fhis_pass_en-GB,Pass,,FHIS,
419070,66 Victoria Parade Dunoon Argyll And Bute PA23 7HU,,,,Esplanade Hotel,Hotel/bed & breakfast/guest house,7842,,,76338,,,55.94544200000000,17980/0064/0/000,763,envhealth@argyll-bute.gov.uk,Argyll and Bute,http://www.argyll-bute.gov.uk,-4.92849200000000,PA23 7HU,2014-07-22,fhis_improvement_required_en-GB,Improvement Required,,FHIS,
419071,Rothesay Isle Of Bute PA20 0QT,,,,Ettrick Bay Tearoom,Restaurant/Cafe/Canteen,1,,,68269,,,55.85966900000000,15260/2108/2/000,763,envhealth@argyll-bute.gov.uk,Argyll and Bute,http://www.argyll-bute.gov.uk,-5.11462000000000,PA20 0QT,2014-08-11,fhis_pass_and_eat_safe_en-GB,Pass and Eat Safe,,FHIS,
419072,Falls Of Lora Hotel Connel Oban Argyll And Bute PA37 1PB,,,,Falls Of Lora Hotel,Hotel/bed & breakfast/guest house,7842,,,14024,,,56.45335800000000,04600/2023/2/000,763,envhealth@argyll-bute.gov.uk,Argyll and Bute,http://www.argyll-bute.gov.uk,-5.38207600000000,PA37 1PB,2012-03-22,fhis_pass_and_eat_safe_en-GB,Pass and Eat Safe,,FHIS,
419073,67-68 West Clyde Street Helensburgh Dunbartonshire G84 8AX,,,,Fancy Fillings,Takeaway/sandwich shop,7844,,,77571,,,56.00388200000000,18240/6768/0/000,763,envhealth@argyll-bute.gov.uk,Argyll and Bute,http://www.argyll-bute.gov.uk,-4.73881700000000,G84 8AX,2014-04-09,fhis_pass_en-GB,Pass,,FHIS,
419074,Farmhouse Cafe Balemartine Isle Of Tiree Argyll And Bute PA77 6UA,,,,Farmhouse Cafe,Restaurant/Cafe/Canteen,1,,,29502,,,56.46611900000000,09/00086/FS,763,envhealth@argyll-bute.gov.uk,Argyll and Bute,http://www.argyll-bute.gov.uk,-6.89687200000000,PA77 6UA,2012-06-28,fhis_pass_and_eat_safe_en-GB,Pass and Eat Safe,,FHIS,
419075,Arrochar Dunbartonshire G83 7AB,,,,Fascadail House,Hotel/bed & breakfast/guest house,7842,,,4639,,,56.19626500000000,01240/2033/2/000,763,envhealth@argyll-bute.gov.uk,Argyll and Bute,http://www.argyll-bute.gov.uk,-4.74513600000000,G83 7AB,2010-03-29,fhis_pass_en-GB,Pass,,FHIS,
419076,Feorlin Longrow Campbeltown Argyll And Bute PA28 6EX,,,,Feorlin B & B,Hotel/bed & breakfast/guest house,7842,,,51972,,,55.42652600000000,11690/2003/2/000,763,envhealth@argyll-bute.gov.uk,Argyll and Bute,http://www.argyll-bute.gov.uk,-5.60861000000000,PA28 6EX,2010-03-30,fhis_improvement_required_en-GB,Improvement Required,,FHIS,
419077,43 Argyll Street Dunoon Argyll And Bute PA23 7HL,,,,Fintastic,Takeaway/sandwich shop,7844,,,409194,,,55.95724200000000,11/00176/FS,763,envhealth@argyll-bute.gov.uk,Argyll and Bute,http://www.argyll-bute.gov.uk,-4.92896700000000,PA23 7HL,2014-07-09,fhis_pass_en-GB,Pass,,FHIS,
419078,First Port Of Coll Arinagour Isle Of Coll Argyll And Bute PA78 6SY,,,,First Port Of Coll,Restaurant/Cafe/Canteen,1,,,5665,,,56.62328300000000,02/00008/FS,763,envhealth@argyll-bute.gov.uk,Argyll and Bute,http://www.argyll-bute.gov.uk,-6.52709000000000,PA78 6SY,2010-04-26,fhis_pass_en-GB,Pass,,FHIS,
419079,Fishermans Pier Main Street Tobermory Isle Of Mull Argyll And Bute,,,,Fish And Chips,Takeaway/sandwich shop,7844,,,409191,,,,03/00002/FS,763,envhealth@argyll-bute.gov.uk,Argyll and Bute,http://www.argyll-bute.gov.uk,,,2012-06-21,fhis_improvement_required_en-GB,Improvement Required,,FHIS,
419080,44 East Princes Street Helensburgh Dunbartonshire G84 7QA,,,,Flamingo,Takeaway/sandwich shop,7844,,,20921,,,56.00360900000000,06600/0044/0/000,763,envhealth@argyll-bute.gov.uk,Argyll and Bute,http://www.argyll-bute.gov.uk,-4.73247800000000,G84 7QA,2014-10-29,fhis_pass_en-GB,Pass,,FHIS,
419081,Ford House Ford Lochgilphead Argyll And Bute PA31 8RH,,,,Ford House,Hotel/bed & breakfast/guest house,7842,,,631847,,,56.18244600000000,13/00102/FS,763,envhealth@argyll-bute.gov.uk,Argyll and Bute,http://www.argyll-bute.gov.uk,-5.43261300000000,PA31 8RH,2013-08-06,fhis_improvement_required_en-GB,Improvement Required,,FHIS,
419082,Foxbank 141 Marine Parade Hunters Quay Dunoon Argyll And Bute PA23 8HJ,,,,Foxbank Guest House,Hotel/bed & breakfast/guest house,7842,,,55499,,,55.96880500000000,12520/0141/0/000,763,envhealth@argyll-bute.gov.uk,Argyll and Bute,http://www.argyll-bute.gov.uk,-4.90948500000000,PA23 8HJ,2010-09-28,fhis_awaiting_inspection_en-GB,Awaiting Inspection,,FHIS,
419083,51 Main Street Campbeltown Argyll And Bute PA28 6AB,,,,Fresh Bytes,Restaurant/Cafe/Canteen,1,,,25632,,,55.42359900000000,08/00110/FS,763,envhealth@argyll-bute.gov.uk,Argyll and Bute,http://www.argyll-bute.gov.uk,-5.60571900000000,PA28 6AB,2013-08-08,fhis_pass_en-GB,Pass,,FHIS,
419084,Furnace Primary School Furnace Inveraray Argyll And Bute PA32 8XN,,,,Furnace Primary School,School/college/university,7845,,,24144,,,56.15475800000000,07420/2079/2/000,763,envhealth@argyll-bute.gov.uk,Argyll and Bute,http://www.argyll-bute.gov.uk,-5.18389700000000,PA32 8XN,2014-03-12,fhis_pass_en-GB,Pass,,FHIS,
419085,3 Allt Na Ceardaich Furnace Inveraray Argyll And Bute PA32 8XZ,,,,Gails,Mobile caterer,7846,,,577451,,,56.13815000000000,05/00012/FS,763,envhealth@argyll-bute.gov.uk,Argyll and Bute,http://www.argyll-bute.gov.uk,-5.21802400000000,PA32 8XZ,2012-06-19,fhis_pass_en-GB,Pass,,FHIS,
419086,Galley Of Lorne Inn Ardfern Argyll And Bute PA31 8QN,,,,Galley Of Lorne Inn,Hotel/bed & breakfast/guest house,7842,,,22026,,,56.18134900000000,07/00107/FS,763,envhealth@argyll-bute.gov.uk,Argyll and Bute,http://www.argyll-bute.gov.uk,-5.53805400000000,PA31 8QN,2014-09-30,fhis_pass_en-GB,Pass,,FHIS,
419087,Blairmore Place 3/4 Blairmore Dunoon Argyll PA23 8TJ,,,,Gallimaufry,Restaurant/Cafe/Canteen,1,,,6640,,,55.99748600000000,02350/2065/3/304,763,envhealth@argyll-bute.gov.uk,Argyll and Bute,http://www.argyll-bute.gov.uk,-4.89589000000000,PA23 8TJ,2009-09-30,fhis_pass_en-GB,Pass,,FHIS,
419088,72 Victoria Street Rothesay Isle Of Bute Argyll And Bute PA20 0AP,,,,Gamba's Bar,Pub/bar/nightclub,7843,,,576099,,,55.83777200000000,13/00261/FS,763,envhealth@argyll-bute.gov.uk,Argyll and Bute,http://www.argyll-bute.gov.uk,-5.05650700000000,PA20 0AP,2014-12-10,fhis_pass_en-GB,Pass,,FHIS,
419089,Garelochhead Bowling Club Feorlin Way Garelochhead Helensburgh Argyll And Bute G84 0DG,,,,Garelochhead Bowling Club,Pub/bar/nightclub,7843,,,23809,,,56.08331500000000,07010/2009/2/000,763,envhealth@argyll-bute.gov.uk,Argyll and Bute,http://www.argyll-bute.gov.uk,-4.83229000000000,G84 0DG,2010-03-29,fhis_pass_en-GB,Pass,,FHIS,
419090,Feorlin Way Garelochhead Helensburgh Dunbartonshire G84 0DG,,,,Garelochhead Primary School,School/college/university,7845,,,23808,,,56.08331500000000,07010/2006/2/000,763,envhealth@argyll-bute.gov.uk,Argyll and Bute,http://www.argyll-bute.gov.uk,-4.83229000000000,G84 0DG,2014-01-30,fhis_pass_en-GB,Pass,,FHIS,
419091,Gigha Hotel Ardminish Isle Of Gigha Argyll And Bute PA41 7AA,,,,Gigha Hotel,Hotel/bed & breakfast/guest house,7842,,,32433,,,55.68295300000000,09610/2040/2/000,763,envhealth@argyll-bute.gov.uk,Argyll and Bute,http://www.argyll-bute.gov.uk,-5.73767300000000,PA41 7AA,2014-09-02,fhis_improvement_required_en-GB,Improvement Required,,FHIS,
419092,Ardminish Isle Of Gigha Argyll And Bute PA41 7AA,,,,Gigha Primary School,School/college/university,7845,,,32434,,,55.68295300000000,09610/2054/2/000,763,envhealth@argyll-bute.gov.uk,Argyll and Bute,http://www.argyll-bute.gov.uk,-5.73767300000000,PA41 7AA,2012-08-22,fhis_pass_and_eat_safe_en-GB,Pass and Eat Safe,,FHIS,
419093,Glenbarr Tarbert Argyll PA29 6UT,,,,Glenbarr Primary School,School/college/university,7845,,,24550,,,55.56756700000000,07890/2016/2/000,763,envhealth@argyll-bute.gov.uk,Argyll and Bute,http://www.argyll-bute.gov.uk,-5.69647900000000,PA29 6UT,2015-01-16,fhis_pass_en-GB,Pass,,FHIS,
419094,Glenburn Mountstuart Road Rothesay Isle Of Bute Argyll And Bute PA20 9JP,,,,Glenburn Hotel,Hotel/bed & breakfast/guest house,7842,,,61741,,,55.84089600000000,13590/0007/0/000,763,envhealth@argyll-bute.gov.uk,Argyll and Bute,http://www.argyll-bute.gov.uk,-5.04363600000000,PA20 9JP,2014-01-30,fhis_pass_and_eat_safe_en-GB,Pass and Eat Safe,,FHIS,
419095,Dalintart Drive Oban Argyll PA34 4EF,,,,Glencruitten Hostel,Restaurant/Cafe/Canteen,1,,,17058,,,56.40745700000000,05500/0000/2/000,763,envhealth@argyll-bute.gov.uk,Argyll and Bute,http://www.argyll-bute.gov.uk,-5.46111900000000,PA34 4EF,2013-01-23,fhis_pass_and_eat_safe_en-GB,Pass and Eat Safe,,FHIS,
419096,Glen Finart Hotel Ardentinny Dunoon Argyll And Bute PA23 8TT,,,,Glenfinart Hotel,Hotel/bed & breakfast/guest house,7842,,,2191,,,56.06113200000000,00720/2034/2/000,763,envhealth@argyll-bute.gov.uk,Argyll and Bute,http://www.argyll-bute.gov.uk,-4.93070800000000,PA23 8TT,2014-08-14,fhis_pass_en-GB,Pass,,FHIS,
419097,The Pottery Flat Glengorm Road Glengorm Isle Of Mull Argyll And Bute PA75 6QD,,,,Glengorm Farming Partnership,Restaurant/Cafe/Canteen,1,,,427415,,,56.63615000000000,08140/2009/2/000,763,envhealth@argyll-bute.gov.uk,Argyll and Bute,http://www.argyll-bute.gov.uk,-6.16306300000000,PA75 6QD,2013-04-23,fhis_pass_en-GB,Pass,,FHIS,
419098,3 Kilbride Road Dunoon Argyll And Bute PA23 7QH,,,,Glenmorag Hotel,Hotel/bed & breakfast/guest house,7842,,,40728,,,55.94097200000000,10160/0003/0/000,763,envhealth@argyll-bute.gov.uk,Argyll and Bute,http://www.argyll-bute.gov.uk,-4.93762100000000,PA23 7QH,2014-09-17,fhis_pass_en-GB,Pass,,FHIS,
419099,Glenorchy Lodge Dalmally Argyll And Bute PA33 1AA,,,,Glenorchy Lodge Hotel,Hotel/bed & breakfast/guest house,7842,,,521770,,,56.40126400000000,13/00083/FS,763,envhealth@argyll-bute.gov.uk,Argyll and Bute,http://www.argyll-bute.gov.uk,-4.98443600000000,PA33 1AA,2014-09-01,fhis_pass_en-GB,Pass,,FHIS,
419100,Glenside Lochgoilhead Argyll And Bute PA24 8AA,,,,Glenside Bed & Breakfast,Hotel/bed & breakfast/guest house,7842,,,19488,,,56.17219800000000,06/00546/HELA,763,envhealth@argyll-bute.gov.uk,Argyll and Bute,http://www.argyll-bute.gov.uk,-4.90301200000000,PA24 8AA,2009-07-28,fhis_pass_en-GB,Pass,,FHIS,
419101,Lochgoilhead Hotel Lochgoilhead Cairndow Argyll And Bute PA24 8AA,,,,Goil Inn,Hotel/bed & breakfast/guest house,7842,,,51436,,,56.17219800000000,11520/2005/2/000,763,envhealth@argyll-bute.gov.uk,Argyll and Bute,http://www.argyll-bute.gov.uk,-4.90301200000000,PA24 8AA,2014-02-12,fhis_pass_en-GB,Pass,,FHIS,
419102,The Old Bakery The Square Bowmore Isle Of Islay Argyll And Bute PA43 7JP,,,,Golden Dragon,Restaurant/Cafe/Canteen,1,,,45457,,,55.75733800000000,11/00008/FS,763,envhealth@argyll-bute.gov.uk,Argyll and Bute,http://www.argyll-bute.gov.uk,-6.28862700000000,PA43 7JP,2014-05-08,fhis_pass_en-GB,Pass,,FHIS,
419103,72 Longrow Campbeltown Argyll And Bute PA28 6DD,,,,Golden Ocean,Restaurant/Cafe/Canteen,1,,,33817,,,55.42567200000000,10/00068/FS,763,envhealth@argyll-bute.gov.uk,Argyll and Bute,http://www.argyll-bute.gov.uk,-5.60709400000000,PA28 6DD,2014-03-20,fhis_pass_en-GB,Pass,,FHIS,
419104,90 Argyll Street Dunoon Argyll And Bute PA23 7NE,,,,Golden Sea,Restaurant/Cafe/Canteen,1,,,35599,,,55.94894100000000,10/00268/FS,763,envhealth@argyll-bute.gov.uk,Argyll and Bute,http://www.argyll-bute.gov.uk,-4.92534400000000,PA23 7NE,2014-09-26,fhis_pass_en-GB,Pass,,FHIS,
419105,Golden Valley Chinese Restaurant Garelochhead Helensburgh Argyll And Bute G84 0AE,,,,Golden Valley Chinese Restaurant,Takeaway/sandwich shop,7844,,,24201,,,56.07933300000000,07510/2029/2/000,763,envhealth@argyll-bute.gov.uk,Argyll and Bute,http://www.argyll-bute.gov.uk,-4.82796300000000,G84 0AE,2014-02-13,fhis_awaiting_inspection_en-GB,Awaiting Inspection,,FHIS,
419106,Gortonvogie Road Bowmore Isle Of Islay PA43 7JB,,,,Gortanvogie Residential Home,Hospitals/Childcare/Caring Premises,5,,,27956,,,55.75537300000000,08390/2000/2/000,763,envhealth@argyll-bute.gov.uk,Argyll and Bute,http://www.argyll-bute.gov.uk,-6.27742100000000,PA43 7JB,2013-08-15,fhis_pass_en-GB,Pass,,FHIS,
419107,Great Western Hotel Corran Esplanade Oban Argyll And Bute PA34 5PP,,,,Great Western Hotel,Hotel/bed & breakfast/guest house,7842,,,121845,,,56.41768000000000,504680/2027/2/000,763,envhealth@argyll-bute.gov.uk,Argyll and Bute,http://www.argyll-bute.gov.uk,-5.47426300000000,PA34 5PP,2012-03-16,fhis_pass_and_eat_safe_en-GB,Pass and Eat Safe,,FHIS,
419108,Mid Argyll Community Hospital And Integrated Care Centre Blarbuie Road Lochgilphead Argyll And Bute PA31 8JZ,,,,Green Apple Cafe,Restaurant/Cafe/Canteen,1,,,21375,,,56.04013200000000,07/00014/FS,763,envhealth@argyll-bute.gov.uk,Argyll and Bute,http://www.argyll-bute.gov.uk,-5.42329300000000,PA31 8JZ,2014-10-09,fhis_pass_en-GB,Pass,,FHIS,
419109,The Green Kettle Whistlefield Helensburgh Argyll And Bute G84 0EP,,,,Green Kettle Inn,Restaurant/Cafe/Canteen,1,,,22221,,,56.09387800000000,07/00147/FS,763,envhealth@argyll-bute.gov.uk,Argyll and Bute,http://www.argyll-bute.gov.uk,-4.83732700000000,G84 0EP,2014-08-01,fhis_pass_en-GB,Pass,,FHIS,
419110,Greystones Dalriach Road Oban Argyll And Bute PA34 5EQ,,,,Greystones Guesthouse,Hotel/bed & breakfast/guest house,7842,,,535045,,,56.41709800000000,13/00160/FS,763,envhealth@argyll-bute.gov.uk,Argyll and Bute,http://www.argyll-bute.gov.uk,-5.47127400000000,PA34 5EQ,2013-04-05,fhis_exempt_en-GB,Exempt,,FHIS,
