,addressline1,addressline2,addressline3,addressline4,businessname,businesstype,businesstypeid,confidenceinmanagement,extractdate,fhrsid,hygiene,itemcount,latitude,localauthoritybusinessid,localauthoritycode,localauthorityemailaddress,localauthorityname,localauthoritywebsite,longitude,postcode,ratingdate,ratingkey,ratingvalue,returncode,schemetype,structural
400982,3 Main Street,Portglenone,Ballymena,Antrim,3-sixteen,Restaurant/Cafe/Canteen,1,10,,403764,0,,54.87318200000000,3040,804,environmental.health@ballymena.gov.uk,Ballymena,http://www.ballymena.gov.uk,-6.47562700000000,BT44 8AA,2012-03-07,fhrs_4_en-GB,4,,FHRS,0
400983,,,,,A Slice of Cake,Manufacturers/packers,7839,5,,403376,5,,,1743,804,environmental.health@ballymena.gov.uk,Ballymena,http://www.ballymena.gov.uk,,,2014-04-23,fhrs_5_en-GB,5,,FHRS,0
400984,130-132 Ballymoney Road,,Ballymena,Antrim,Abbeyfield,Hospitals/Childcare/Caring Premises,5,5,,403200,5,,54.87152900000000,120,804,environmental.health@ballymena.gov.uk,Ballymena,http://www.ballymena.gov.uk,-6.28375000000000,BT43 5BZ,2013-03-13,fhrs_5_en-GB,5,,FHRS,0
400985,1-7 Ballymoney Road,,Ballymena,Antrim,Adair Arms Hotel,Hotel/bed & breakfast/guest house,7842,5,,403192,5,,54.86690500000000,117,804,environmental.health@ballymena.gov.uk,Ballymena,http://www.ballymena.gov.uk,-6.27946100000000,BT43 5BS,2014-10-06,fhrs_5_en-GB,5,,FHRS,5
400986,80 Cullybackey Road,,Ahoghill,Antrim,Ahoghill Community Playgroup,Other catering premises,7841,0,,403622,5,,54.85455100000000,2592,804,environmental.health@ballymena.gov.uk,Ballymena,http://www.ballymena.gov.uk,-6.36455700000000,BT42 1LA,2014-09-12,fhrs_5_en-GB,5,,FHRS,0
400987,46 Glenhugh Road,,Ahoghill,Antrim,Ahoghill Gospel Hall,Other catering premises,7841,,,403160,,,54.85249800000000,1059,804,environmental.health@ballymena.gov.uk,Ballymena,http://www.ballymena.gov.uk,-6.36688300000000,BT42 1LB,2014-03-05,fhrs_exempt_en-GB,Exempt,,FHRS,
400988,50 Woodside Road,,Ballymena,Antrim,All Saints GAC,Pub/bar/nightclub,7843,10,,403564,5,,54.87007000000000,2356,804,environmental.health@ballymena.gov.uk,Ballymena,http://www.ballymena.gov.uk,-6.22784100000000,BT42 4QH,2013-08-22,fhrs_4_en-GB,4,,FHRS,5
400989,6a The Diamond,,Ahoghill,Antrim,Allen's Meats,Retailers - other,4613,5,,403469,0,,54.85142200000000,2072,804,environmental.health@ballymena.gov.uk,Ballymena,http://www.ballymena.gov.uk,-6.36572700000000,BT42 1JZ,2014-06-10,fhrs_5_en-GB,5,,FHRS,5
400990,206-208 Ballymoney Road,,Ballymena,Antrim,Andena Residential Home,Hospitals/Childcare/Caring Premises,5,5,,403239,5,,54.87480700000000,130,804,environmental.health@ballymena.gov.uk,Ballymena,http://www.ballymena.gov.uk,-6.28939100000000,BT43 5HJ,2014-11-24,fhrs_5_en-GB,5,,FHRS,5
400991,,,,,Ann's Kitchen,Mobile caterer,7846,5,,441415,0,,,3210,804,environmental.health@ballymena.gov.uk,Ballymena,http://www.ballymena.gov.uk,,,2014-05-07,fhrs_5_en-GB,5,,FHRS,0
400992,41 High Street,,Ballymena,Antrim,Argos Distributors Ltd,Retailers - other,4613,,,403205,,,54.86698900000000,1209,804,environmental.health@ballymena.gov.uk,Ballymena,http://www.ballymena.gov.uk,-6.27715200000000,BT43 6DT,2013-02-27,fhrs_exempt_en-GB,Exempt,,FHRS,
400993,131 Crankill Road,,Ballymena,Antrim,Ashgrove Cafe,Restaurant/Cafe/Canteen,1,10,,403605,5,,54.92450000000000,2485,804,environmental.health@ballymena.gov.uk,Ballymena,http://www.ballymena.gov.uk,-6.32498500000000,BT43 5NW,2013-08-06,fhrs_4_en-GB,4,,FHRS,5
400994,100 Mill Street,,Ballymena,Antrim,Asian Venture,Takeaway/sandwich shop,7844,,,730215,,,54.86511500000000,3520,804,environmental.health@ballymena.gov.uk,Ballymena,http://www.ballymena.gov.uk,-6.27808800000000,BT43 5AF,,fhrs_awaitinginspection_en-GB,AwaitingInspection,,FHRS,
400995,20-24 Main Street,Ahoghill,Ballymena,Antrim,Athenas,Restaurant/Cafe/Canteen,1,5,,679464,5,,54.85121900000000,3436,804,environmental.health@ballymena.gov.uk,Ballymena,http://www.ballymena.gov.uk,-6.36402300000000,BT42 1JY,2014-10-07,fhrs_4_en-GB,4,,FHRS,10
400996,30b Tower Centre,Wellington Street,Ballymena,Antrim,B & M Bargains,Retailers - other,4613,5,,403659,5,,54.86584300000000,2774,804,environmental.health@ballymena.gov.uk,Ballymena,http://www.ballymena.gov.uk,-6.27741900000000,BT43 6AH,2012-07-26,fhrs_5_en-GB,5,,FHRS,5
400997,Braidwater Retail Park,,Ballymena,Antrim,B&M Bargains,Retailers - other,4613,5,,403566,0,,54.86156800000000,236,804,environmental.health@ballymena.gov.uk,Ballymena,http://www.ballymena.gov.uk,-6.27187000000000,BT42 3AG,2012-08-01,fhrs_5_en-GB,5,,FHRS,5
400998,100 Toome Road,,Ballymena,Antrim,Ballee Baptist Church Hall,Other catering premises,7841,,,403482,,,54.85221100000000,2109,804,environmental.health@ballymena.gov.uk,Ballymena,http://www.ballymena.gov.uk,-6.28164400000000,BT42 2BX,2014-06-18,fhrs_exempt_en-GB,Exempt,,FHRS,
400999,11 Ballee Drive,,Ballymena,Antrim,Ballee Community Association,Other catering premises,7841,5,,403542,0,,54.84945000000000,23,804,environmental.health@ballymena.gov.uk,Ballymena,http://www.ballymena.gov.uk,-6.27198300000000,BT42 3EX,2014-03-12,fhrs_5_en-GB,5,,FHRS,0
401000,20 Antrim Road,,Ballymena,Antrim,Ballee Community Childcare Complex,Hospitals/Childcare/Caring Premises,5,0,,403649,5,,54.85336000000000,2683,804,environmental.health@ballymena.gov.uk,Ballymena,http://www.ballymena.gov.uk,-6.27592700000000,BT42 2BJ,2014-10-27,fhrs_5_en-GB,5,,FHRS,0
401001,27 Old Antrim Road,,Ballymena,Antrim,Ballee Mission Hall,Other catering premises,7841,,,403364,,,54.85064200000000,1714,804,environmental.health@ballymena.gov.uk,Ballymena,http://www.ballymena.gov.uk,-6.27621400000000,BT42 2HG,2014-07-21,fhrs_exempt_en-GB,Exempt,,FHRS,
401002,Old Antrim Road,,Ballymena,Antrim,Ballee Presbyterian Church Hall,Other catering premises,7841,,,403363,,,54.84346300000000,1713,804,environmental.health@ballymena.gov.uk,Ballymena,http://www.ballymena.gov.uk,-6.27362100000000,,2012-05-10,fhrs_exempt_en-GB,Exempt,,FHRS,
401003,Unit 1 Wakehurst Industrial Estate,Wakehurst Road,Ballymena,Antrim,Bally Bingo,Restaurant/Cafe/Canteen,1,5,,509229,5,,54.85687300000000,3267,804,environmental.health@ballymena.gov.uk,Ballymena,http://www.ballymena.gov.uk,-6.27467100000000,BT42 3AZ,2014-08-27,fhrs_5_en-GB,5,,FHRS,5
401004,Unit 24 Ballykeel Business Centre,Crebilly Road,Ballymena,,Ballykeel (Surestart) Creche,Hospitals/Childcare/Caring Premises,5,0,,403634,5,,54.85883500000000,2644,804,environmental.health@ballymena.gov.uk,Ballymena,http://www.ballymena.gov.uk,-6.25850000000000,BT42 4DN,2014-05-30,fhrs_5_en-GB,5,,FHRS,5
401005,20a Crebilly Road,,Ballymena,Antrim,Ballykeel 2000 Community Centre,Other catering premises,7841,5,,403676,0,,54.85883500000000,2819,804,environmental.health@ballymena.gov.uk,Ballymena,http://www.ballymena.gov.uk,-6.25850000000000,BT42 4DN,2013-08-05,fhrs_5_en-GB,5,,FHRS,0
401006,Unit 5 Ballykeel Business Centre,Crebilly Road,Ballymena,,Ballykeel Creche,Hospitals/Childcare/Caring Premises,5,0,,403956,0,,54.85883500000000,628,804,environmental.health@ballymena.gov.uk,Ballymena,http://www.ballymena.gov.uk,-6.25850000000000,BT42 4DN,2012-06-28,fhrs_5_en-GB,5,,FHRS,5
401007,6 Knockeden Shopping Centre,Ballykeel,Ballymena,Antrim,Ballykeel Pharmacy,Retailers - other,4613,,,403629,,,54.85813200000000,2615,804,environmental.health@ballymena.gov.uk,Ballymena,http://www.ballymena.gov.uk,-6.25272100000000,BT42 4AZ,2012-09-28,fhrs_exempt_en-GB,Exempt,,FHRS,
401008,25 Crebilly Road,,Ballymena,Antrim,Ballykeel Presbyterian Church Hall,Other catering premises,7841,,,403959,,,54.85883500000000,634,804,environmental.health@ballymena.gov.uk,Ballymena,http://www.ballymena.gov.uk,-6.25850000000000,BT42 4DN,2013-02-07,fhrs_exempt_en-GB,Exempt,,FHRS,
401009,22 Crebilly Road,,Ballymena,Antrim,Ballykeel Primary School,School/college/university,7845,0,,403958,0,,54.85883500000000,633,804,environmental.health@ballymena.gov.uk,Ballymena,http://www.ballymena.gov.uk,-6.25850000000000,BT42 4DN,2014-11-11,fhrs_5_en-GB,5,,FHRS,0
401010,Doury Road,,Ballymena,Antrim,Ballyloughan Pres. Church Hall,Other catering premises,7841,,,403995,,,54.90741800000000,738,804,environmental.health@ballymena.gov.uk,Ballymena,http://www.ballymena.gov.uk,-6.28721300000000,,2013-03-07,fhrs_exempt_en-GB,Exempt,,FHRS,
401011,89 Galgorm Road,,Ballymena,Antrim,Ballymena Academy,School/college/university,7845,5,,403146,0,,54.86499200000000,1010,804,environmental.health@ballymena.gov.uk,Ballymena,http://www.ballymena.gov.uk,-6.29292200000000,BT42 1AJ,2014-01-23,fhrs_5_en-GB,5,,FHRS,5
401012,18a Mount Street,,Ballymena,Antrim,Ballymena Baptist Church,Other catering premises,7841,5,,403210,5,,54.86933400000000,1222,804,environmental.health@ballymena.gov.uk,Ballymena,http://www.ballymena.gov.uk,-6.27716100000000,BT43 6BW,2012-02-02,fhrs_5_en-GB,5,,FHRS,0
401013,80 Galgorm Road,Gracehill,Ballymena,Antrim,Ballymena Borough Council (Canteen),Restaurant/Cafe/Canteen,1,5,,403144,5,,54.86256700000000,1007,804,environmental.health@ballymena.gov.uk,Ballymena,http://www.ballymena.gov.uk,-6.28339900000000,BT42 1AB,2014-01-27,fhrs_5_en-GB,5,,FHRS,0
401014,6 Old Ballymoney Road,,Ballymena,Antrim,Ballymena Bowling Club,Pub/bar/nightclub,7843,5,,403365,5,,54.87491300000000,1715,804,environmental.health@ballymena.gov.uk,Ballymena,http://www.ballymena.gov.uk,-6.28161200000000,BT43 6LX,2013-04-09,fhrs_5_en-GB,5,,FHRS,5
401015,35 Frys Road,,Ballymena,Antrim,Ballymena Church of God,Other catering premises,7841,,,404063,,,54.87763000000000,968,804,environmental.health@ballymena.gov.uk,Ballymena,http://www.ballymena.gov.uk,-6.25726900000000,BT43 7EN,2014-03-11,fhrs_exempt_en-GB,Exempt,,FHRS,
401016,Knockan Road,,Broughshane,Antrim,Ballymena Eotas,Hospitals/Childcare/Caring Premises,5,5,,466381,5,,54.89335300000000,3241,804,environmental.health@ballymena.gov.uk,Ballymena,http://www.ballymena.gov.uk,-6.21098200000000,BT42 4JY,2012-11-20,fhrs_5_en-GB,5,,FHRS,5
401017,12 Toome Road,,Ballymena,Antrim,Ballymena Free Presbyterian Church,Other catering premises,7841,,,403485,,,54.85513500000000,2111,804,environmental.health@ballymena.gov.uk,Ballymena,http://www.ballymena.gov.uk,-6.27692500000000,BT42 2BP,2014-04-09,fhrs_exempt_en-GB,Exempt,,FHRS,
401018,128 Raceview Road,,Broughshane,Antrim,Ballymena Golf Club,Restaurant/Cafe/Canteen,1,5,,403409,10,,54.88431400000000,1889,804,environmental.health@ballymena.gov.uk,Ballymena,http://www.ballymena.gov.uk,-6.22930400000000,BT42 4HY,2014-05-15,fhrs_4_en-GB,4,,FHRS,5
401019,2 Cambridge Avenue,,Ballymena,Antrim,Ballymena Gospel Hall,Other catering premises,7841,,,403889,,,54.85883800000000,386,804,environmental.health@ballymena.gov.uk,Ballymena,http://www.ballymena.gov.uk,-6.29227900000000,BT42 2EN,2012-08-02,fhrs_exempt_en-GB,Exempt,,FHRS,
401020,28 Queen Street,,Ballymena,Antrim,Ballymena House of Pizza,Takeaway/sandwich shop,7844,5,,403403,5,,54.86004200000000,1868,804,environmental.health@ballymena.gov.uk,Ballymena,http://www.ballymena.gov.uk,-6.27761900000000,BT42 2BD,2013-12-10,fhrs_5_en-GB,5,,FHRS,5
401021,39 Doury Road,,Ballymena,Antrim,Ballymena Independent Methodist Church,Other catering premises,7841,,,403993,,,54.87401400000000,733,804,environmental.health@ballymena.gov.uk,Ballymena,http://www.ballymena.gov.uk,-6.27903300000000,BT43 6JA,2014-02-07,fhrs_exempt_en-GB,Exempt,,FHRS,
401022,103 Mill Street,,Ballymena,Antrim,Ballymena Masonic Hall,Pub/bar/nightclub,7843,5,,403346,5,,54.86564100000000,1620,804,environmental.health@ballymena.gov.uk,Ballymena,http://www.ballymena.gov.uk,-6.27904700000000,BT43 5AD,2014-08-06,fhrs_5_en-GB,5,,FHRS,5
401023,40 Ballymoney Road,,Ballymena,Antrim,Ballymena Methodist Church,Other catering premises,7841,10,,403270,5,,54.86782700000000,139,804,environmental.health@ballymena.gov.uk,Ballymena,http://www.ballymena.gov.uk,-6.28051200000000,BT43 5BY,2013-03-25,fhrs_4_en-GB,4,,FHRS,0
401024,78-80 Trostan Avenue,,Ballymena,Antrim,Ballymena Nursery School,Hospitals/Childcare/Caring Premises,5,5,,403509,0,,54.86283600000000,2205,804,environmental.health@ballymena.gov.uk,Ballymena,http://www.ballymena.gov.uk,-6.27007100000000,BT43 7BL,2013-10-14,fhrs_5_en-GB,5,,FHRS,0
401025,Unit 64-65 Wellington Street,,Ballymena,Antrim,Ballymena Post Office & Spar,Retailers - other,4613,20,,695811,10,,54.86584300000000,3446,804,environmental.health@ballymena.gov.uk,Ballymena,http://www.ballymena.gov.uk,-6.27741900000000,BT43 6AH,2014-08-26,fhrs_1_en-GB,1,,FHRS,10
401026,101 Ballymoney Road,,Ballymena,Antrim,Ballymena Primary School,School/college/university,7845,0,,403195,5,,54.87228400000000,118,804,environmental.health@ballymena.gov.uk,Ballymena,http://www.ballymena.gov.uk,-6.28374900000000,BT43 5BX,2012-06-13,fhrs_5_en-GB,5,,FHRS,5
401027,209 Raceview Road,,Broughshane,Antrim,Ballymena Rugby Football Club,Pub/bar/nightclub,7843,0,,403411,5,,54.87730100000000,1896,804,environmental.health@ballymena.gov.uk,Ballymena,http://www.ballymena.gov.uk,-6.24380500000000,BT42 4HU,2014-04-12,fhrs_5_en-GB,5,,FHRS,0
401028,11a Corlea Gardens,,Ballymena,Antrim,Ballymena Senior Citizens Club,Pub/bar/nightclub,7843,,,403513,,,54.86491000000000,2209,804,environmental.health@ballymena.gov.uk,Ballymena,http://www.ballymena.gov.uk,-6.27119700000000,BT43 7AR,2012-09-12,fhrs_exempt_en-GB,Exempt,,FHRS,
401029,65a Warden Street,,Ballymena,Antrim,Ballymena Showgrounds,Pub/bar/nightclub,7843,,,403668,,,54.87025100000000,2793,804,environmental.health@ballymena.gov.uk,Ballymena,http://www.ballymena.gov.uk,-6.26651300000000,BT43 7DR,2013-02-06,fhrs_exempt_en-GB,Exempt,,FHRS,
401030,127 Ballywatermoy Road,Glarryford,Ballymena,Antrim,Ballywatermoy Gospel Hall,Other catering premises,7841,,,403484,,,54.92597800000000,2110,804,environmental.health@ballymena.gov.uk,Ballymena,http://www.ballymena.gov.uk,-6.35495200000000,BT44 9EU,2014-03-12,fhrs_exempt_en-GB,Exempt,,FHRS,
401031,Unit 7 Galgorm Court Raphael Way,Galgorm,Ballymena,Antrim,Bannside Meats,Manufacturers/packers,7839,5,,404074,5,,54.85867300000000,982,804,environmental.health@ballymena.gov.uk,Ballymena,http://www.ballymena.gov.uk,-6.32229600000000,BT42 1GQ,2013-09-10,fhrs_5_en-GB,5,,FHRS,5
401032,77 Main Street,Portglenone,Ballymena,Antrim,Bannside Pharmacy,Retailers - other,4613,,,403337,,,54.87309800000000,1595,804,environmental.health@ballymena.gov.uk,Ballymena,http://www.ballymena.gov.uk,-6.47966500000000,BT44 8HR,2014-08-07,fhrs_exempt_en-GB,Exempt,,FHRS,
401033,11a Ballymena Road,Portglenone,Ballymena,Antrim,Bannside Tearooms,Restaurant/Cafe/Canteen,1,5,,403857,0,,54.87126700000000,3165,804,environmental.health@ballymena.gov.uk,Ballymena,http://www.ballymena.gov.uk,-6.47189800000000,BT44 8BL,2012-03-07,fhrs_5_en-GB,5,,FHRS,0
401034,13-15 Ballymoney Street,,Ballymena,Antrim,Barrs Butchers,Retailers - other,4613,5,,403295,5,,54.86676300000000,146,804,environmental.health@ballymena.gov.uk,Ballymena,http://www.ballymena.gov.uk,-6.27452900000000,BT43 6AL,2013-11-13,fhrs_5_en-GB,5,,FHRS,5
401035,27 Wellington Street,,Ballymena,Antrim,Bayleaf Restaurant,Restaurant/Cafe/Canteen,1,10,,403537,10,,54.86499200000000,2276,804,environmental.health@ballymena.gov.uk,Ballymena,http://www.ballymena.gov.uk,-6.27633400000000,BT43 6AB,2013-11-11,fhrs_3_en-GB,3,,FHRS,5
401036,95 Main Street,Portglenone,Ballymena,Antrim,Bethel Temple (P'one Fellowship),Other catering premises,7841,,,403231,,,54.87309800000000,1274,804,environmental.health@ballymena.gov.uk,Ballymena,http://www.ballymena.gov.uk,-6.47966500000000,BT44 8HR,2014-02-04,fhrs_exempt_en-GB,Exempt,,FHRS,
401037,11a Ballymena Road,Portglenone,Ballymena,Antrim,Bethlehem Abbey Guesthouse,Hotel/bed & breakfast/guest house,7842,5,,403858,0,,54.87126700000000,3166,804,environmental.health@ballymena.gov.uk,Ballymena,http://www.ballymena.gov.uk,-6.47189800000000,BT44 8BL,2012-03-07,fhrs_5_en-GB,5,,FHRS,0
401038,61-63 Broughshane Street,,Ballymena,Antrim,Big Al's Pizza & Bbq Smokehouse,Takeaway/sandwich shop,7844,5,,403869,0,,54.86826200000000,3188,804,environmental.health@ballymena.gov.uk,Ballymena,http://www.ballymena.gov.uk,-6.27256500000000,BT43 6ED,2014-05-06,fhrs_5_en-GB,5,,FHRS,5
401039,18 Ballymena Business Development Centre,Galgorm,Ballymena,Antrim,Big Bears Pizza Shack,Takeaway/sandwich shop,7844,10,,403140,5,,54.86135600000000,100,804,environmental.health@ballymena.gov.uk,Ballymena,http://www.ballymena.gov.uk,-6.32598400000000,BT42 1FL,2014-03-11,fhrs_4_en-GB,4,,FHRS,0
401040,136 Broughshane Street,,Ballymena,Antrim,Big Occasions,Other catering premises,7841,5,,695808,5,,54.86976200000000,3362,804,environmental.health@ballymena.gov.uk,Ballymena,http://www.ballymena.gov.uk,-6.27187700000000,BT43 6EE,2014-08-26,fhrs_5_en-GB,5,,FHRS,5
401041,15-17 Hill Street,,Ballymena,Antrim,Blackstone Bar,Pub/bar/nightclub,7843,5,,403208,5,,54.86858500000000,1219,804,environmental.health@ballymena.gov.uk,Ballymena,http://www.ballymena.gov.uk,-6.27692800000000,BT43 6BH,2013-06-06,fhrs_5_en-GB,5,,FHRS,5
401042,Unit 28-29 Fairhill Shopping Centre,Fairhill Lane,Ballymena,Antrim,Boots The Chemist,Retailers - other,4613,,,404030,,,54.86907900000000,840,804,environmental.health@ballymena.gov.uk,Ballymena,http://www.ballymena.gov.uk,-6.27502200000000,BT43 6UF,2013-08-27,fhrs_exempt_en-GB,Exempt,,FHRS,
401043,50-52 Tower Centre,Wellington Street,Ballymena,Antrim,Boots The Chemist Ltd,Retailers - other,4613,0,,403497,5,,54.86584300000000,2161,804,environmental.health@ballymena.gov.uk,Ballymena,http://www.ballymena.gov.uk,-6.27741900000000,BT43 6AH,2013-01-15,fhrs_5_en-GB,5,,FHRS,5
401044,2-6 Carncome Road,,Connor,Antrim,Braefield Nursing & Residential Home,Hospitals/Childcare/Caring Premises,5,5,,403895,0,,54.80589600000000,402,804,environmental.health@ballymena.gov.uk,Ballymena,http://www.ballymena.gov.uk,-6.20763200000000,BT42 3LA,2014-11-19,fhrs_5_en-GB,5,,FHRS,5
401045,10 North Road,,Ballymena,Antrim,Braid River Service Station,Retailers - other,4613,5,,403582,5,,54.86567400000000,2414,804,environmental.health@ballymena.gov.uk,Ballymena,http://www.ballymena.gov.uk,-6.28139800000000,BT43 5DA,2013-03-05,fhrs_5_en-GB,5,,FHRS,5
401046,87 Frys Road,,Ballymena,Antrim,Braidside Integrated Nursery School,Hospitals/Childcare/Caring Premises,5,5,,404067,5,,54.87763000000000,972,804,environmental.health@ballymena.gov.uk,Ballymena,http://www.ballymena.gov.uk,-6.25726900000000,BT43 7EN,2014-06-19,fhrs_4_en-GB,4,,FHRS,10
401047,87 Frys Road,,Ballymena,Antrim,Braidside Integrated Primary School,School/college/university,7845,5,,404065,5,,54.87763000000000,970,804,environmental.health@ballymena.gov.uk,Ballymena,http://www.ballymena.gov.uk,-6.25726900000000,BT43 7EN,2013-04-17,fhrs_5_en-GB,5,,FHRS,5
401048,73 Brooke Park,,Ballymena,Antrim,Braidwater Seniors Luncheon Club,Pub/bar/nightclub,7843,5,,509228,5,,54.85637000000000,3265,804,environmental.health@ballymena.gov.uk,Ballymena,http://www.ballymena.gov.uk,-6.27083100000000,BT42 3BL,2014-03-25,fhrs_5_en-GB,5,,FHRS,5
401049,,,,,Brian Andrews,Distributors/Transporters,7,,,403423,,,,1957,804,environmental.health@ballymena.gov.uk,Ballymena,http://www.ballymena.gov.uk,,,2015-01-20,fhrs_exempt_en-GB,Exempt,,FHRS,
401050,4 Dreen Road,,Cullybackey,Antrim,Bridge Service Station,Retailers - other,4613,5,,404003,0,,54.88787600000000,752,804,environmental.health@ballymena.gov.uk,Ballymena,http://www.ballymena.gov.uk,-6.36219400000000,BT42 1EB,2014-09-09,fhrs_5_en-GB,5,,FHRS,0
401051,50 Glenhugh Road,,Ahoghill,Antrim,Brookside Presbyterian Church Hall,Other catering premises,7841,,,403161,,,54.85249800000000,1062,804,environmental.health@ballymena.gov.uk,Ballymena,http://www.ballymena.gov.uk,-6.36688300000000,BT42 1LB,2014-02-26,fhrs_exempt_en-GB,Exempt,,FHRS,
401052,23 Knockan Road,,Broughshane,Antrim,Broughshane & District Community Association,Pub/bar/nightclub,7843,5,,403675,0,,54.89335300000000,2817,804,environmental.health@ballymena.gov.uk,Ballymena,http://www.ballymena.gov.uk,-6.21098200000000,BT42 4JY,2014-07-21,fhrs_5_en-GB,5,,FHRS,5
401053,11 Knockan Road,,Broughshane,Antrim,Broughshane B&B,Hotel/bed & breakfast/guest house,7842,5,,403236,5,,54.89335300000000,1283,804,environmental.health@ballymena.gov.uk,Ballymena,http://www.ballymena.gov.uk,-6.21098200000000,BT42 4JY,2014-05-21,fhrs_5_en-GB,5,,FHRS,0
401054,21 Knockan Road,,Broughshane,Antrim,Broughshane Centre Of Early Learning,Hospitals/Childcare/Caring Premises,5,0,,403235,0,,54.89335300000000,1280,804,environmental.health@ballymena.gov.uk,Ballymena,http://www.ballymena.gov.uk,-6.21098200000000,BT42 4JY,2014-06-09,fhrs_5_en-GB,5,,FHRS,0
401055,11 Rathkeel Road,,Broughshane,Antrim,Broughshane Gospel Hall,Other catering premises,7841,,,403414,,,54.88965400000000,1930,804,environmental.health@ballymena.gov.uk,Ballymena,http://www.ballymena.gov.uk,-6.19777400000000,BT42 4NN,2014-03-05,fhrs_exempt_en-GB,Exempt,,FHRS,
401056,47-49 Main Street,,Broughshane,Antrim,Broughshane Pharmacy,Retailers - other,4613,,,403290,,,54.89358200000000,1451,804,environmental.health@ballymena.gov.uk,Ballymena,http://www.ballymena.gov.uk,-6.20341200000000,BT42 4JP,2013-03-04,fhrs_exempt_en-GB,Exempt,,FHRS,
401057,46a Houston Park,,Broughshane,Antrim,Broughshane Primary School,School/college/university,7845,0,,403216,5,,54.89227800000000,1237,804,environmental.health@ballymena.gov.uk,Ballymena,http://www.ballymena.gov.uk,-6.21548800000000,BT42 4LB,2014-03-27,fhrs_5_en-GB,5,,FHRS,5
401058,Unit 8 Church Street Arcade,,Ballymena,Antrim,Bt & P.o Sports Social Club,Pub/bar/nightclub,7843,5,,403934,5,,54.86569800000000,562,804,environmental.health@ballymena.gov.uk,Ballymena,http://www.ballymena.gov.uk,-6.27357800000000,BT43 6JJ,2013-11-01,fhrs_5_en-GB,5,,FHRS,0
401059,2 Aghanure Road,Aughafatten,Ballymena,Antrim,Buckna Gospel Hall,Other catering premises,7841,,,403735,,,54.89962900000000,3,804,environmental.health@ballymena.gov.uk,Ballymena,http://www.ballymena.gov.uk,-6.11163200000000,BT42 4LS,2014-03-06,fhrs_exempt_en-GB,Exempt,,FHRS,
401060,104 Buckna Road,,Broughshane,Antrim,Buckna Presbyterian Church Hall,Other catering premises,7841,,,403886,,,54.89961200000000,379,804,environmental.health@ballymena.gov.uk,Ballymena,http://www.ballymena.gov.uk,-6.12736300000000,BT42 4NR,2015-01-22,fhrs_exempt_en-GB,Exempt,,FHRS,
401061,62 Main Street,,Cullybackey,Antrim,Buick Memorial Primary School,School/college/university,7845,5,,403308,5,,54.88818900000000,1494,804,environmental.health@ballymena.gov.uk,Ballymena,http://www.ballymena.gov.uk,-6.35340700000000,BT42 1BW,2014-06-23,fhrs_5_en-GB,5,,FHRS,0
401062,,,,,Burger Express,Mobile caterer,7846,10,,403468,10,,,207,804,environmental.health@ballymena.gov.uk,Ballymena,http://www.ballymena.gov.uk,,,2014-04-15,fhrs_3_en-GB,3,,FHRS,10
401063,F3 Tower Centre,Wellington Street,Ballymena,Antrim,Burger King,Takeaway/sandwich shop,7844,0,,403607,5,,54.86584300000000,2514,804,environmental.health@ballymena.gov.uk,Ballymena,http://www.ballymena.gov.uk,-6.27741900000000,BT43 6AH,2014-08-28,fhrs_5_en-GB,5,,FHRS,5
401064,Food Court Fairhill Shopping Centre,Fairhill Lane,Ballymena,Antrim,Burger King,Takeaway/sandwich shop,7844,5,,404027,10,,54.86907900000000,825,804,environmental.health@ballymena.gov.uk,Ballymena,http://www.ballymena.gov.uk,-6.27502200000000,BT43 6UF,2014-07-08,fhrs_4_en-GB,4,,FHRS,5
401065,8 Old Crebilly Road,,Ballymena,Antrim,C & C Today Extra,Retailers - other,4613,10,,403957,5,,54.85832200000000,632,804,environmental.health@ballymena.gov.uk,Ballymena,http://www.ballymena.gov.uk,-6.26345900000000,BT42 4AD,2014-08-15,fhrs_4_en-GB,4,,FHRS,5
401066,Unit 21 Ballykeel Business Centre,Crebilly Road,Ballymena,,Cafe Couture,Mobile caterer,7846,5,,703946,5,,54.85883500000000,3469,804,environmental.health@ballymena.gov.uk,Ballymena,http://www.ballymena.gov.uk,-6.25850000000000,BT42 4DN,2014-09-18,fhrs_5_en-GB,5,,FHRS,5
401067,18 Crebilly Road,Ballykeel Business Centre,Ballymena,Antrim,Cafe Couture Ballykeel,Restaurant/Cafe/Canteen,1,10,,528885,5,,54.85883500000000,3273,804,environmental.health@ballymena.gov.uk,Ballymena,http://www.ballymena.gov.uk,-6.25850000000000,BT42 4DN,2015-01-13,fhrs_4_en-GB,4,,FHRS,0
401068,Trostan Avenue,,Ballymena,Antrim,Cafe Lamont (Learn Direct CentreNRC),Restaurant/Cafe/Canteen,1,5,,403510,5,,54.93145800000000,2206,804,environmental.health@ballymena.gov.uk,Ballymena,http://www.ballymena.gov.uk,-6.24583700000000,BT43 7BN,2014-02-12,fhrs_5_en-GB,5,,FHRS,0
401069,Unit 35-2 Fairhill Shopping Centre,Fairhill Lane,Ballymena,Antrim,Caffe Nero,Restaurant/Cafe/Canteen,1,5,,404031,0,,54.86907900000000,846,804,environmental.health@ballymena.gov.uk,Ballymena,http://www.ballymena.gov.uk,-6.27502200000000,BT43 6UF,2013-07-19,fhrs_5_en-GB,5,,FHRS,5
401070,62 Ballymoney Street,,Ballymena,Antrim,Caffe Tosca,Restaurant/Cafe/Canteen,1,5,,718122,5,,54.86764000000000,3508,804,environmental.health@ballymena.gov.uk,Ballymena,http://www.ballymena.gov.uk,-6.27494300000000,BT43 6AN,2015-01-08,fhrs_5_en-GB,5,,FHRS,5
401071,81 Broughshane Street,,Ballymena,Antrim,Cake & Crust,Manufacturers/packers,7839,5,,403881,10,,54.86826200000000,351,804,environmental.health@ballymena.gov.uk,Ballymena,http://www.ballymena.gov.uk,-6.27256500000000,BT43 6ED,2014-03-25,fhrs_4_en-GB,4,,FHRS,5
401072,1 Cambridge Avenue,,Ballymena,Antrim,Cambridge House Grammar School,School/college/university,7845,0,,403888,5,,54.85742600000000,384,804,environmental.health@ballymena.gov.uk,Ballymena,http://www.ballymena.gov.uk,-6.29346000000000,BT42 2EH,2014-03-20,fhrs_5_en-GB,5,,FHRS,5
401073,23-29 Broughshane Street,,Ballymena,Antrim,Camerons,Restaurant/Cafe/Canteen,1,5,,403811,5,,54.86728400000000,309,804,environmental.health@ballymena.gov.uk,Ballymena,http://www.ballymena.gov.uk,-6.27326100000000,BT43 6EB,2013-11-04,fhrs_5_en-GB,5,,FHRS,0
401074,47-49 Broughshane Street,,Ballymena,Antrim,Camerons at Home (Time for Coffee),Restaurant/Cafe/Canteen,1,5,,403878,0,,54.86728400000000,329,804,environmental.health@ballymena.gov.uk,Ballymena,http://www.ballymena.gov.uk,-6.27326100000000,BT43 6EB,2014-05-22,fhrs_5_en-GB,5,,FHRS,0
401075,,,,,Cammie Bill's,Other catering premises,7841,5,,403689,0,,,2869,804,environmental.health@ballymena.gov.uk,Ballymena,http://www.ballymena.gov.uk,,,2013-10-23,fhrs_5_en-GB,5,,FHRS,0
401076,62 Toome Road,,Ballymena,Antrim,Camphill Care Home,Hospitals/Childcare/Caring Premises,5,5,,403487,5,,54.85278100000000,2113,804,environmental.health@ballymena.gov.uk,Ballymena,http://www.ballymena.gov.uk,-6.27877000000000,BT42 2BU,2014-12-01,fhrs_5_en-GB,5,,FHRS,5
401077,65 Carolhill Park,,Ballymena,Antrim,Camphill Primary School,School/college/university,7845,0,,403907,5,,54.85095300000000,444,804,environmental.health@ballymena.gov.uk,Ballymena,http://www.ballymena.gov.uk,-6.27973500000000,BT42 2DG,2014-03-24,fhrs_5_en-GB,5,,FHRS,0
401078,26 Queen Street,,Ballymena,Antrim,Candy Bar,Retailers - other,4613,10,,403836,5,,54.86004200000000,3140,804,environmental.health@ballymena.gov.uk,Ballymena,http://www.ballymena.gov.uk,-6.27761900000000,BT42 2BD,2014-05-07,fhrs_3_en-GB,3,,FHRS,10
401079,Unit 1 Knockeden Shopping Centre,Ballykeel,Ballymena,Antrim,Candy Corner,Retailers - other,4613,5,,403573,0,,54.85777600000000,2390,804,environmental.health@ballymena.gov.uk,Ballymena,http://www.ballymena.gov.uk,-6.26426100000000,BT42 4AE,2013-03-07,fhrs_5_en-GB,5,,FHRS,5
401080,48 Valley Road,,Kells,Antrim,Carnaghts Primary School,School/college/university,7845,0,,403527,5,,54.81570600000000,2237,804,environmental.health@ballymena.gov.uk,Ballymena,http://www.ballymena.gov.uk,-6.26886600000000,BT42 2LX,2013-02-04,fhrs_5_en-GB,5,,FHRS,0
401081,61 Old Cullybackey Road,,Ballymena,Antrim,Carniny Primary School,School/college/university,7845,5,,403369,5,,54.87226300000000,1725,804,environmental.health@ballymena.gov.uk,Ballymena,http://www.ballymena.gov.uk,-6.29820700000000,BT43 5JR,2014-06-23,fhrs_5_en-GB,5,,FHRS,0
401082,38 Church Street,,Ahoghill,Antrim,Carnmoyne Private Residential Home,Hospitals/Childcare/Caring Premises,5,5,,403938,5,,54.84988300000000,573,804,environmental.health@ballymena.gov.uk,Ballymena,http://www.ballymena.gov.uk,-6.36681700000000,BT42 2PA,2013-12-03,fhrs_5_en-GB,5,,FHRS,0
401083,27 Killycarn Road,Aughafatten,Ballymena,Antrim,Carnview Bed & Breakfast,Hotel/bed & breakfast/guest house,7842,5,,403227,5,,54.93326100000000,1267,804,environmental.health@ballymena.gov.uk,Ballymena,http://www.ballymena.gov.uk,-6.08712000000000,BT42 4LY,2014-04-10,fhrs_5_en-GB,5,,FHRS,5
401084,91 Frys Road,,Ballymena,Antrim,Castle Tower - Beechgrove Campus,School/college/university,7845,0,,404068,5,,54.87763000000000,973,804,environmental.health@ballymena.gov.uk,Ballymena,http://www.ballymena.gov.uk,-6.25726900000000,BT43 7EN,2013-06-18,fhrs_5_en-GB,5,,FHRS,5
401085,22 Old Ballymoney Road,,Ballymena,Antrim,Castle Tower - Loughan School,School/college/university,7845,5,,403366,5,,54.87491300000000,1719,804,environmental.health@ballymena.gov.uk,Ballymena,http://www.ballymena.gov.uk,-6.28161200000000,BT43 6LX,2013-11-12,fhrs_5_en-GB,5,,FHRS,0
401086,91 Frys Road,,Ballymena,Antrim,Castle Tower Dunfane Campus,School/college/university,7845,5,,404061,5,,54.87763000000000,966,804,environmental.health@ballymena.gov.uk,Ballymena,http://www.ballymena.gov.uk,-6.25726900000000,BT43 7EN,2014-02-13,fhrs_5_en-GB,5,,FHRS,0
401087,Whappstown Road,Moorfields,Ballymena,Antrim,Castlegore Mission Hall,Other catering premises,7841,,,403549,,,54.81695000000000,2306,804,environmental.health@ballymena.gov.uk,Ballymena,http://www.ballymena.gov.uk,-6.12636700000000,BT42 3DB,2014-04-02,fhrs_exempt_en-GB,Exempt,,FHRS,
401088,,,,,Caulfield & Dorrity Catering,Other catering premises,7841,5,,403658,5,,,2772,804,environmental.health@ballymena.gov.uk,Ballymena,http://www.ballymena.gov.uk,,,2014-05-23,fhrs_5_en-GB,5,,FHRS,0
401089,1-3 Thomas Street,,Ballymena,Antrim,Cellar 13,Pub/bar/nightclub,7843,0,,403472,0,,54.86838800000000,2080,804,environmental.health@ballymena.gov.uk,Ballymena,http://www.ballymena.gov.uk,-6.27573700000000,BT43 6AU,2013-05-03,fhrs_5_en-GB,5,,FHRS,5
401090,Unit 2 Herbison Square,,Ballymena,Antrim,Charbella,Takeaway/sandwich shop,7844,10,,695814,5,,54.87742100000000,3470,804,environmental.health@ballymena.gov.uk,Ballymena,http://www.ballymena.gov.uk,-6.27030300000000,BT43 6HS,2014-09-10,fhrs_4_en-GB,4,,FHRS,5
401091,,,,,Chloes Burger Bar,Mobile caterer,7846,0,,403494,5,,,215,804,environmental.health@ballymena.gov.uk,Ballymena,http://www.ballymena.gov.uk,,,2014-02-08,fhrs_5_en-GB,5,,FHRS,0
401092,24 Greenvale Street,,Ballymena,Antrim,Classic Cuisine,Restaurant/Cafe/Canteen,1,5,,403186,5,,54.86678700000000,1143,804,environmental.health@ballymena.gov.uk,Ballymena,http://www.ballymena.gov.uk,-6.27557200000000,BT43 6AR,2013-11-22,fhrs_5_en-GB,5,,FHRS,5
401093,15 Townhill Road,,Portglenone,Antrim,Clear Pharmacy,Retailers - other,4613,,,403505,,,54.87595800000000,2188,804,environmental.health@ballymena.gov.uk,Ballymena,http://www.ballymena.gov.uk,-6.47488300000000,BT44 8AD,2013-07-10,fhrs_exempt_en-GB,Exempt,,FHRS,
401094,1 Kinhilt Street,,Ballymena,Antrim,Clonavon Congregational Church,Other catering premises,7841,,,403233,,,54.86313600000000,1276,804,environmental.health@ballymena.gov.uk,Ballymena,http://www.ballymena.gov.uk,-6.28043100000000,BT43 5BD,2014-01-24,fhrs_exempt_en-GB,Exempt,,FHRS,
401095,128 Ballycregagh Road,,Clough,Antrim,Clough & District Community P'group,Hospitals/Childcare/Caring Premises,5,0,,404005,0,,54.97306200000000,761,804,environmental.health@ballymena.gov.uk,Ballymena,http://www.ballymena.gov.uk,-6.29938200000000,BT44 9RG,2014-10-02,fhrs_5_en-GB,5,,FHRS,0
401096,2 Springmount Road,,Clough,Antrim,Clough G.R.S.C.,Pub/bar/nightclub,7843,5,,403444,5,,54.96589800000000,2005,804,environmental.health@ballymena.gov.uk,Ballymena,http://www.ballymena.gov.uk,-6.29144000000000,BT44 9RF,2014-07-09,fhrs_4_en-GB,4,,FHRS,10
401097,91 Ballycregagh Road,,Clough,Antrim,Clough Gospel Hall,Other catering premises,7841,,,403918,,,54.97306200000000,47,804,environmental.health@ballymena.gov.uk,Ballymena,http://www.ballymena.gov.uk,-6.29938200000000,BT44 9RG,2014-03-05,fhrs_exempt_en-GB,Exempt,,FHRS,
401098,35 Springmount Road,Clough,Ballymena,Antrim,Clough Presbyterian Church Hall,Other catering premises,7841,,,403445,,,54.95805900000000,2006,804,environmental.health@ballymena.gov.uk,Ballymena,http://www.ballymena.gov.uk,-6.32724200000000,BT44 9RB,2015-01-12,fhrs_exempt_en-GB,Exempt,,FHRS,
401099,20 Drumagrove Road,,Clough,Antrim,Clough Primary School,School/college/university,7845,0,,404004,5,,54.96336600000000,760,804,environmental.health@ballymena.gov.uk,Ballymena,http://www.ballymena.gov.uk,-6.28327200000000,BT44 9RY,2013-04-22,fhrs_5_en-GB,5,,FHRS,0
401100,125 Cloughwater Road,,Clough,Antrim,Cloughwater Presbyterian Church Hall,Other catering premises,7841,,,403943,,,54.92757900000000,589,804,environmental.health@ballymena.gov.uk,Ballymena,http://www.ballymena.gov.uk,-6.27219200000000,BT43 6QR,2014-03-07,fhrs_exempt_en-GB,Exempt,,FHRS,
401101,Mal Tower Centre,Wellington Street,Ballymena,Antrim,Coffee Cube,Restaurant/Cafe/Canteen,1,10,,403488,5,,54.86584300000000,2117,804,environmental.health@ballymena.gov.uk,Ballymena,http://www.ballymena.gov.uk,-6.27741900000000,BT43 6AH,2014-09-08,fhrs_3_en-GB,3,,FHRS,10
401102,20 Glenravel Road,Martinstown,Ballymena,Antrim,"Con Magee GAC, GLENRAVEL",Pub/bar/nightclub,7843,5,,403162,5,,54.98025800000000,1069,804,environmental.health@ballymena.gov.uk,Ballymena,http://www.ballymena.gov.uk,-6.20015200000000,BT43 6QW,2014-03-27,fhrs_5_en-GB,5,,FHRS,5
401103,40c Tower Centre,Wellington Street,Ballymena,Antrim,Cone Zone,Retailers - other,4613,5,,403495,0,,54.86584300000000,2152,804,environmental.health@ballymena.gov.uk,Ballymena,http://www.ballymena.gov.uk,-6.27741900000000,BT43 6AH,2014-04-17,fhrs_5_en-GB,5,,FHRS,0
401104,35 Linenhall Street,,Ballymena,Antrim,Confectionary,Retailers - other,4613,5,,403267,5,,54.86422700000000,1379,804,environmental.health@ballymena.gov.uk,Ballymena,http://www.ballymena.gov.uk,-6.27750300000000,BT43 5AJ,2014-07-23,fhrs_5_en-GB,5,,FHRS,5
401105,1-2 Dunclug Neighbourhood Centre,Dunclug Neighbourhood Centre,Ballymena,Antrim,Connolly's Bar,Pub/bar/nightclub,7843,0,,404007,0,,54.88087000000000,779,804,environmental.health@ballymena.gov.uk,Ballymena,http://www.ballymena.gov.uk,-6.27850700000000,BT43 6SA,2013-03-04,fhrs_5_en-GB,5,,FHRS,5
401106,Carncome Road,Connor,Ballymena,Antrim,Connor Presbyterian Church Hall,Other catering premises,7841,,,403379,,,54.80022500000000,1756,804,environmental.health@ballymena.gov.uk,Ballymena,http://www.ballymena.gov.uk,-6.17941700000000,,2013-12-10,fhrs_exempt_en-GB,Exempt,,FHRS,
401107,121 Broughshane Street,,Ballymena,Antrim,Co-Op,Retailers - supermarkets/hypermarkets,7840,10,,403706,10,,54.86976200000000,293,804,environmental.health@ballymena.gov.uk,Ballymena,http://www.ballymena.gov.uk,-6.27187700000000,BT43 6EE,2013-08-23,fhrs_3_en-GB,3,,FHRS,10
401108,5 Dunclug Neighbourhood Centre,,Ballymena,Antrim,Co-op,Retailers - other,4613,5,,404008,10,,54.88087000000000,782,804,environmental.health@ballymena.gov.uk,Ballymena,http://www.ballymena.gov.uk,-6.27850700000000,BT43 6SA,2014-05-15,fhrs_3_en-GB,3,,FHRS,10
401109,34-36 Ballymoney Street,,Ballymena,Antrim,Corner Bakery,Takeaway/sandwich shop,7844,5,,718120,5,,54.86676300000000,3504,804,environmental.health@ballymena.gov.uk,Ballymena,http://www.ballymena.gov.uk,-6.27452900000000,BT43 6AL,2015-01-06,fhrs_5_en-GB,5,,FHRS,5
401110,Shetland Gardens,,Ballymena,Antrim,Cornerstone Church,Other catering premises,7841,,,403377,,,54.85989500000000,1744,804,environmental.health@ballymena.gov.uk,Ballymena,http://www.ballymena.gov.uk,-6.25485800000000,,2014-05-27,fhrs_exempt_en-GB,Exempt,,FHRS,
401111,2 Glenhugh Road,,Ahoghill,Antrim,Costcutter,Retailers - other,4613,10,,403158,5,,54.85249800000000,1055,804,environmental.health@ballymena.gov.uk,Ballymena,http://www.ballymena.gov.uk,-6.36688300000000,BT42 1LB,2013-11-06,fhrs_3_en-GB,3,,FHRS,10
401112,34 Main Street,Portglenone,Ballymena,Antrim,Costcutter Supermarket,Retailers - other,4613,5,,403327,5,,54.87293400000000,1553,804,environmental.health@ballymena.gov.uk,Ballymena,http://www.ballymena.gov.uk,-6.47591700000000,BT44 8AB,2014-09-16,fhrs_5_en-GB,5,,FHRS,0
401113,15 Main Street,,Portglenone,Antrim,Costcutter Xtras,Retailers - other,4613,5,,403323,0,,54.87318200000000,1535,804,environmental.health@ballymena.gov.uk,Ballymena,http://www.ballymena.gov.uk,-6.47562700000000,BT44 8AA,2013-09-13,fhrs_4_en-GB,4,,FHRS,10
401114,Unit 10a Ballymena Business Development Centre,Galgorm,Ballymena,Antrim,Cosy Cupa,Restaurant/Cafe/Canteen,1,5,,403665,0,,54.86135600000000,2782,804,environmental.health@ballymena.gov.uk,Ballymena,http://www.ballymena.gov.uk,-6.32598400000000,BT42 1FL,2014-03-25,fhrs_5_en-GB,5,,FHRS,0
401115,,,,,Country Bite,Mobile caterer,7846,0,,403193,5,,,1170,804,environmental.health@ballymena.gov.uk,Ballymena,http://www.ballymena.gov.uk,,,2013-04-18,fhrs_5_en-GB,5,,FHRS,5
401116,83 Clarence Stree,,Ballymena,Antrim,Covenant Protestant Reformed Church,Other catering premises,7841,,,403702,,,54.86736500000000,2920,804,environmental.health@ballymena.gov.uk,Ballymena,http://www.ballymena.gov.uk,-6.28596800000000,BT43 5DR,2013-11-11,fhrs_exempt_en-GB,Exempt,,FHRS,
401117,30 Dunminning Road,,Cullybackey,Antrim,Craigdun Care Home,Hospitals/Childcare/Caring Premises,5,5,,404017,5,,54.91560300000000,805,804,environmental.health@ballymena.gov.uk,Ballymena,http://www.ballymena.gov.uk,-6.36772700000000,BT42 1PE,2014-04-14,fhrs_5_en-GB,5,,FHRS,0
401118,104 Hillmount Road,,Cullybackey,Antrim,Craigs Church of Ireland Church Hall,Other catering premises,7841,,,403212,,,54.90132000000000,1230,804,environmental.health@ballymena.gov.uk,Ballymena,http://www.ballymena.gov.uk,-6.36517200000000,BT42 1NZ,2014-03-06,fhrs_exempt_en-GB,Exempt,,FHRS,
401119,60 Cloughwater Road,,Ballymena,Antrim,Craigywarren Orange Hall,Other catering premises,7841,,,403945,,,54.90469300000000,591,804,environmental.health@ballymena.gov.uk,Ballymena,http://www.ballymena.gov.uk,-6.25684800000000,BT43 6SY,2014-05-09,fhrs_exempt_en-GB,Exempt,,FHRS,
401120,200 Galgorm Road,Gracehill,Ballymena,Antrim,Creative Gardens Galgorm Castle,Restaurant/Cafe/Canteen,1,5,,633674,5,,54.85807600000000,3386,804,environmental.health@ballymena.gov.uk,Ballymena,http://www.ballymena.gov.uk,-6.31749300000000,BT42 1HL,2014-04-25,fhrs_5_en-GB,5,,FHRS,5
401121,6 Woodcroft Lane,,Ballymena,Antrim,Croft Lodge,Hospitals/Childcare/Caring Premises,5,10,,403559,5,,54.86225200000000,2349,804,environmental.health@ballymena.gov.uk,Ballymena,http://www.ballymena.gov.uk,-6.31024800000000,BT42 1FZ,2013-08-07,fhrs_4_en-GB,4,,FHRS,0
401122,98 Crosskeys Road,Toomebridge,Antrim,Antrim,Crosskeys Gospel Hall,Other catering premises,7841,,,403961,,,54.80873400000000,646,804,environmental.health@ballymena.gov.uk,Ballymena,http://www.ballymena.gov.uk,-6.41755100000000,BT41 3QF,2012-08-02,fhrs_exempt_en-GB,Exempt,,FHRS,
401123,40 Grange Road,Toomebridge,Antrim,Antrim,Crosskeys Inn,Pub/bar/nightclub,7843,0,,403183,0,,54.81314600000000,1120,804,environmental.health@ballymena.gov.uk,Ballymena,http://www.ballymena.gov.uk,-6.42728700000000,BT41 3QB,2014-09-12,fhrs_5_en-GB,5,,FHRS,5
401124,4 Ross Court,,Ballymena,Antrim,Crosskeys Meats,Retailers - other,4613,5,,403867,5,,54.84780300000000,3186,804,environmental.health@ballymena.gov.uk,Ballymena,http://www.ballymena.gov.uk,-6.29978200000000,BT42 2LD,2014-03-20,fhrs_5_en-GB,5,,FHRS,5
401125,44 Pottinger Street,,Cullybackey,Antrim,Cullybackey College,School/college/university,7845,5,,403397,0,,54.88688500000000,1841,804,environmental.health@ballymena.gov.uk,Ballymena,http://www.ballymena.gov.uk,-6.35201100000000,BT42 1BP,2014-06-23,fhrs_5_en-GB,5,,FHRS,5
401126,37a Shellinghill Road,,Cullybackey,Antrim,Cullybackey Elim Pentecostal Church,Other catering premises,7841,,,403440,,,54.89089400000000,1991,804,environmental.health@ballymena.gov.uk,Ballymena,http://www.ballymena.gov.uk,-6.35549500000000,BT42 1NF,2013-01-18,fhrs_exempt_en-GB,Exempt,,FHRS,
401127,30 Shellinghill Road,,Cullybackey,Antrim,Cullybackey Methodist Church Hall,Other catering premises,7841,,,403439,,,54.89089400000000,1990,804,environmental.health@ballymena.gov.uk,Ballymena,http://www.ballymena.gov.uk,-6.35549500000000,BT42 1NF,2013-05-28,fhrs_exempt_en-GB,Exempt,,FHRS,
401128,15 Shellinghill Road,,Cullybackey,Antrim,Cunningham Memorial Pres.Church Hall,Other catering premises,7841,,,403437,,,54.89089400000000,1989,804,environmental.health@ballymena.gov.uk,Ballymena,http://www.ballymena.gov.uk,-6.35549500000000,BT42 1NF,2015-02-06,fhrs_exempt_en-GB,Exempt,,FHRS,
401129,,,,,Cupcake Culture,Manufacturers/packers,7839,0,,581757,5,,,3325,804,environmental.health@ballymena.gov.uk,Ballymena,http://www.ballymena.gov.uk,,,2013-11-14,fhrs_5_en-GB,5,,FHRS,5
401130,15 Cullybackey Road,,Ballymena,Antrim,Curleys Wine Cellar,Retailers - other,4613,,,403965,,,54.86643200000000,657,804,environmental.health@ballymena.gov.uk,Ballymena,http://www.ballymena.gov.uk,-6.28223800000000,BT43 5DF,2015-01-23,fhrs_exempt_en-GB,Exempt,,FHRS,
401131,28 Pennybridge Ind Estate,,Ballymena,Antrim,Dale Farm Dairies Ltd ( Staff Canteen ),Restaurant/Cafe/Canteen,1,0,,403386,5,,54.85064700000000,1784,804,environmental.health@ballymena.gov.uk,Ballymena,http://www.ballymena.gov.uk,-6.25893000000000,BT42 3HB,2014-10-24,fhrs_5_en-GB,5,,FHRS,5
401132,,,,,Dallas Diner,Mobile caterer,7846,10,,403167,5,,,1083,804,environmental.health@ballymena.gov.uk,Ballymena,http://www.ballymena.gov.uk,,,2014-08-12,fhrs_4_en-GB,4,,FHRS,5
401133,Unit 3 Galgorm Court Raphael Way,Galgorm,Ballymena,Antrim,Day Today / Tanstan,Retailers - other,4613,10,,404071,10,,54.85867300000000,977,804,environmental.health@ballymena.gov.uk,Ballymena,http://www.ballymena.gov.uk,-6.32229600000000,BT42 1GQ,2014-10-03,fhrs_3_en-GB,3,,FHRS,10
401134,44 Main Street,Cullybackey,Ballymena,Antrim,Dayfresh,Retailers - other,4613,10,,403305,0,,54.88731200000000,1487,804,environmental.health@ballymena.gov.uk,Ballymena,http://www.ballymena.gov.uk,-6.35035700000000,BT42 1BN,2013-10-02,fhrs_4_en-GB,4,,FHRS,10
401135,8 Main Street,,Ahoghill,Antrim,Dayfresh,Retailers - other,4613,5,,403282,0,,54.85121900000000,1430,804,environmental.health@ballymena.gov.uk,Ballymena,http://www.ballymena.gov.uk,-6.36402300000000,BT42 1JY,2014-04-16,fhrs_4_en-GB,4,,FHRS,10
401136,Wakehurst Road,,Ballymena,Antrim,Deerfin Fold,Other catering premises,7841,5,,403615,5,,54.85689300000000,2553,804,environmental.health@ballymena.gov.uk,Ballymena,http://www.ballymena.gov.uk,-6.27163400000000,BT42 3LJ,2013-09-24,fhrs_5_en-GB,5,,FHRS,5
401137,12 Ballymoney Street,,Ballymena,Antrim,Desperate Dan's,Restaurant/Cafe/Canteen,1,10,,403288,5,,54.86676300000000,145,804,environmental.health@ballymena.gov.uk,Ballymena,http://www.ballymena.gov.uk,-6.27452900000000,BT43 6AL,2014-01-08,fhrs_3_en-GB,3,,FHRS,10
401138,59 Main Street,Broughshane,Ballymena,Antrim,Devlins,Retailers - other,4613,0,,403293,0,,54.89358200000000,1456,804,environmental.health@ballymena.gov.uk,Ballymena,http://www.ballymena.gov.uk,-6.20341200000000,BT42 4JP,2015-01-05,fhrs_5_en-GB,5,,FHRS,5
401139,2 Townhill Road,,Portglenone,Antrim,Diamond Bar,Pub/bar/nightclub,7843,5,,403506,0,,54.87595800000000,2190,804,environmental.health@ballymena.gov.uk,Ballymena,http://www.ballymena.gov.uk,-6.47488300000000,BT44 8AD,2013-03-07,fhrs_4_en-GB,4,,FHRS,10
401140,136 Broughshane Street,,Ballymena,Antrim,Diamonds Newsagents,Retailers - other,4613,0,,403756,0,,54.86976200000000,303,804,environmental.health@ballymena.gov.uk,Ballymena,http://www.ballymena.gov.uk,-6.27187700000000,BT43 6EE,2013-05-03,fhrs_5_en-GB,5,,FHRS,5
401141,,,,,Dinky Donuts,Mobile caterer,7846,5,,403871,5,,,3190,804,environmental.health@ballymena.gov.uk,Ballymena,http://www.ballymena.gov.uk,,,2012-07-23,fhrs_5_en-GB,5,,FHRS,0
401142,Unit 2 Dolphin House,,Ballymena,Antrim,Dolphin / Upper Crust,Takeaway/sandwich shop,7844,10,,403242,5,,54.85699000000000,1315,804,environmental.health@ballymena.gov.uk,Ballymena,http://www.ballymena.gov.uk,-6.26962000000000,BT42 3AU,2015-01-13,fhrs_4_en-GB,4,,FHRS,5
401143,1 Smithfield Place,,Ballymena,Antrim,Dominos Pizza Ballymena,Restaurant/Cafe/Canteen,1,0,,687669,5,,54.86287200000000,3458,804,environmental.health@ballymena.gov.uk,Ballymena,http://www.ballymena.gov.uk,-6.28590900000000,BT42 1AA,2014-09-04,fhrs_5_en-GB,5,,FHRS,5
401144,6 William Street,,Ballymena,Antrim,Double Dragon,Takeaway/sandwich shop,7844,10,,403555,5,,54.86834600000000,2331,804,environmental.health@ballymena.gov.uk,Ballymena,http://www.ballymena.gov.uk,-6.27404100000000,BT43 6AW,2014-04-16,fhrs_4_en-GB,4,,FHRS,5
401145,83-85 Broughshane Street,,Ballymena,Antrim,Double Happiness Chinese Restaurant,Restaurant/Cafe/Canteen,1,5,,403882,10,,54.86826200000000,352,804,environmental.health@ballymena.gov.uk,Ballymena,http://www.ballymena.gov.uk,-6.27256500000000,BT43 6ED,2014-10-14,fhrs_4_en-GB,4,,FHRS,5
401146,10 Gilmore Street,,Ballymena,Antrim,Double Happiness Chinese Takeaway,Takeaway/sandwich shop,7844,10,,403839,5,,54.85997900000000,3145,804,environmental.health@ballymena.gov.uk,Ballymena,http://www.ballymena.gov.uk,-6.27701500000000,BT42 3AB,2013-11-19,fhrs_4_en-GB,4,,FHRS,5
401147,72-74 Mill Street,,Ballymena,Antrim,Dougie's Goodies Bakery,Manufacturers/packers,7839,5,,403348,5,,54.86511500000000,1663,804,environmental.health@ballymena.gov.uk,Ballymena,http://www.ballymena.gov.uk,-6.27808800000000,BT43 5AF,2014-02-11,fhrs_5_en-GB,5,,FHRS,5
401148,38 Doury Road,,Ballymena,Antrim,Doury Frier,Takeaway/sandwich shop,7844,5,,403992,5,,54.87401400000000,732,804,environmental.health@ballymena.gov.uk,Ballymena,http://www.ballymena.gov.uk,-6.27903300000000,BT43 6JA,2013-04-16,fhrs_5_en-GB,5,,FHRS,5
401149,91 Doury Road,,Ballymena,Antrim,Dunclug College,School/college/university,7845,5,,403999,5,,54.87893500000000,742,804,environmental.health@ballymena.gov.uk,Ballymena,http://www.ballymena.gov.uk,-6.27633100000000,BT43 6SU,2014-01-22,fhrs_5_en-GB,5,,FHRS,0
401150,93 Doury Road,,Ballymena,Antrim,Dunclug Nursery School,School/college/university,7845,0,,404000,0,,54.87893500000000,743,804,environmental.health@ballymena.gov.uk,Ballymena,http://www.ballymena.gov.uk,-6.27633100000000,BT43 6SU,2014-01-09,fhrs_5_en-GB,5,,FHRS,0
401151,8 Dunclug Neighbourhood Centre,,Ballymena,Antrim,Dunclug Pharmacy,Retailers - other,4613,,,404010,,,54.88087000000000,789,804,environmental.health@ballymena.gov.uk,Ballymena,http://www.ballymena.gov.uk,-6.27850700000000,BT43 6SA,2013-07-09,fhrs_exempt_en-GB,Exempt,,FHRS,
401152,95 Doury Road,,Ballymena,Antrim,Dunclug Primary School,School/college/university,7845,5,,404001,0,,54.87893500000000,744,804,environmental.health@ballymena.gov.uk,Ballymena,http://www.ballymena.gov.uk,-6.27633100000000,BT43 6SU,2014-06-09,fhrs_5_en-GB,5,,FHRS,5
401153,Unit 10/12 Fairhill Shopping Centre,Fairhill Lane,Ballymena,Antrim,Eason & Son (NI) ltd,Retailers - other,4613,,,404028,,,54.86907900000000,826,804,environmental.health@ballymena.gov.uk,Ballymena,http://www.ballymena.gov.uk,-6.27502200000000,BT43 6UF,2014-07-04,fhrs_exempt_en-GB,Exempt,,FHRS,
401154,65 Ballymoney Street,,Ballymena,Antrim,Eastern Ocean,Takeaway/sandwich shop,7844,10,,403389,10,,54.86760300000000,182,804,environmental.health@ballymena.gov.uk,Ballymena,http://www.ballymena.gov.uk,-6.27488300000000,BT43 6AN,2014-03-20,fhrs_3_en-GB,3,,FHRS,10
401155,28 Queen Street,,Ballymena,Antrim,Eatsville,Takeaway/sandwich shop,7844,,,403402,,,54.86004200000000,1864,804,environmental.health@ballymena.gov.uk,Ballymena,http://www.ballymena.gov.uk,-6.27761900000000,BT42 2BD,2013-12-12,fhrs_5_en-GB,5,,FHRS,
401156,Broughshane Road,,Ballymena,Antrim,ECOS Millennium Environmental Centre,Restaurant/Cafe/Canteen,1,5,,403654,5,,54.87221200000000,273,804,environmental.health@ballymena.gov.uk,Ballymena,http://www.ballymena.gov.uk,-6.26664700000000,BT43 7DX,2014-08-12,fhrs_5_en-GB,5,,FHRS,0
401157,5 Greenvale Street,,Ballymena,Antrim,Eden Health Products,Retailers - other,4613,5,,607720,0,,54.86678700000000,3346,804,environmental.health@ballymena.gov.uk,Ballymena,http://www.ballymena.gov.uk,-6.27557200000000,BT43 6AR,2013-10-24,fhrs_5_en-GB,5,,FHRS,0
401158,45-49 Church Street,,Ballymena,Antrim,Edinburgh Woolen Mill,Retailers - other,4613,,,403931,,,54.86448900000000,531,804,environmental.health@ballymena.gov.uk,Ballymena,http://www.ballymena.gov.uk,-6.27445500000000,BT43 6DD,2014-07-04,fhrs_exempt_en-GB,Exempt,,FHRS,
401159,76-78 Mill Street,,Ballymena,Antrim,El Sombrero Rojo,Takeaway/sandwich shop,7844,5,,687664,5,,54.86511500000000,3451,804,environmental.health@ballymena.gov.uk,Ballymena,http://www.ballymena.gov.uk,-6.27808800000000,BT43 5AF,2014-08-15,fhrs_5_en-GB,5,,FHRS,5
401160,Castle Street,,Ballymena,Antrim,Elim Pentecostal Church,Other catering premises,7841,10,,403911,0,,54.86358600000000,449,804,environmental.health@ballymena.gov.uk,Ballymena,http://www.ballymena.gov.uk,-6.27480500000000,BT43 7BT,2012-03-02,fhrs_4_en-GB,4,,FHRS,5
401161,190 Raceview Road,,Ballymena,Antrim,Elior - Michelin Tyres,Restaurant/Cafe/Canteen,1,0,,447178,0,,54.87950900000000,3218,804,environmental.health@ballymena.gov.uk,Ballymena,http://www.ballymena.gov.uk,-6.23314500000000,BT42 4HZ,2014-06-30,fhrs_5_en-GB,5,,FHRS,5
401162,201 Galgorm Road,Gracehill,Ballymena,Antrim,Eurest Services Jti,Restaurant/Cafe/Canteen,1,0,,404079,5,,54.86238400000000,995,804,environmental.health@ballymena.gov.uk,Ballymena,http://www.ballymena.gov.uk,-6.33474200000000,BT42 1HR,2013-09-03,fhrs_5_en-GB,5,,FHRS,5
401163,100 Main Street,,Cullybackey,Antrim,Eurospar,Retailers - other,4613,0,,403872,10,,54.88818900000000,3191,804,environmental.health@ballymena.gov.uk,Ballymena,http://www.ballymena.gov.uk,-6.35340700000000,BT42 1BW,2014-02-20,fhrs_4_en-GB,4,,FHRS,5
401164,2-4 Hill Street,,Ballymena,Antrim,Fairhill Bar,Pub/bar/nightclub,7843,0,,403209,0,,54.86858500000000,1221,804,environmental.health@ballymena.gov.uk,Ballymena,http://www.ballymena.gov.uk,-6.27692800000000,BT43 6BH,2014-09-16,fhrs_4_en-GB,4,,FHRS,10
401165,65 Dreen Road,,Cullybackey,Antrim,Ferguson Meats Ltd ( Farm Shop ),Retailers - other,4613,5,,553281,0,,54.88787600000000,3299,804,environmental.health@ballymena.gov.uk,Ballymena,http://www.ballymena.gov.uk,-6.36219400000000,BT42 1EB,2013-07-10,fhrs_5_en-GB,5,,FHRS,0
401166,276a Galgorm Road,Gracehill,Ballymena,Antrim,First Ahoghill Presbyterian Church,Other catering premises,7841,5,,679461,5,,54.85247300000000,3438,804,environmental.health@ballymena.gov.uk,Ballymena,http://www.ballymena.gov.uk,-6.35111000000000,BT42 1HY,2014-06-26,fhrs_5_en-GB,5,,FHRS,0
401167,18-20 Meetinghouse Lane,,Ballymena,Antrim,First Ballymena Presbyterian Church,Other catering premises,7841,5,,403344,0,,54.86387600000000,1614,804,environmental.health@ballymena.gov.uk,Ballymena,http://www.ballymena.gov.uk,-6.27368700000000,BT43 7BS,2013-09-30,fhrs_5_en-GB,5,,FHRS,0
401168,46 Main Street,Broughshane,Ballymena,Antrim,First Broughshane Pres. Church Hall,Other catering premises,7841,,,403289,,,54.89411800000000,1450,804,environmental.health@ballymena.gov.uk,Ballymena,http://www.ballymena.gov.uk,-6.20801800000000,BT42 4JW,2014-03-05,fhrs_exempt_en-GB,Exempt,,FHRS,
401169,1 Main Street,,Portglenone,Antrim,First P'one Presbyterian Church Hall,Other catering premises,7841,,,403320,,,54.87318200000000,1531,804,environmental.health@ballymena.gov.uk,Ballymena,http://www.ballymena.gov.uk,-6.47562700000000,BT44 8AA,2011-04-28,fhrs_exempt_en-GB,Exempt,,FHRS,
401170,90 Doury Road,,Ballymena,Antrim,First Steps Community Playgroup,Hospitals/Childcare/Caring Premises,5,5,,403997,5,,54.88025400000000,740,804,environmental.health@ballymena.gov.uk,Ballymena,http://www.ballymena.gov.uk,-6.28002900000000,BT43 6JE,2014-09-30,fhrs_5_en-GB,5,,FHRS,0
401171,114 Broughshane Street,,Ballymena,Antrim,Fish N Chick Inn,Takeaway/sandwich shop,7844,5,,403699,5,,54.86976200000000,290,804,environmental.health@ballymena.gov.uk,Ballymena,http://www.ballymena.gov.uk,-6.27187700000000,BT43 6EE,2014-03-20,fhrs_5_en-GB,5,,FHRS,5
401172,2 Ross Court,,Ballymena,Antrim,Fish N Chick Inn,Takeaway/sandwich shop,7844,5,,403666,5,,54.84780300000000,2786,804,environmental.health@ballymena.gov.uk,Ballymena,http://www.ballymena.gov.uk,-6.29978200000000,BT42 2LD,2014-03-25,fhrs_5_en-GB,5,,FHRS,5
401173,47 Ballymoney Street,,Ballymena,Antrim,Fish N Chick Inn,Takeaway/sandwich shop,7844,5,,403353,5,,54.86760300000000,169,804,environmental.health@ballymena.gov.uk,Ballymena,http://www.ballymena.gov.uk,-6.27488300000000,BT43 6AN,2014-03-24,fhrs_5_en-GB,5,,FHRS,5
401174,188 Moorfields Road,,Ballymena,Antrim,Fleck (Grocers),Retailers - other,4613,0,,403355,5,,54.82861200000000,1692,804,environmental.health@ballymena.gov.uk,Ballymena,http://www.ballymena.gov.uk,-6.15457000000000,BT42 3EF,2014-08-18,fhrs_5_en-GB,5,,FHRS,0
401175,14-16 Thomas Street,,Ballymena,Antrim,Flexfitness Ni Ltd,Restaurant/Cafe/Canteen,1,,,665926,,,54.86838800000000,3363,804,environmental.health@ballymena.gov.uk,Ballymena,http://www.ballymena.gov.uk,-6.27573700000000,BT43 6AU,2014-05-21,fhrs_exempt_en-GB,Exempt,,FHRS,
401176,7 Ballymena Business Development Centre,Galgorm,Ballymena,Antrim,Flossy Treats,Retailers - other,4613,5,,687666,0,,54.86135600000000,3455,804,environmental.health@ballymena.gov.uk,Ballymena,http://www.ballymena.gov.uk,-6.32598400000000,BT42 1FL,2014-08-07,fhrs_5_en-GB,5,,FHRS,0
401177,21 Greenvale Street,,Ballymena,Antrim,Follow Coffee,Restaurant/Cafe/Canteen,1,10,,703951,5,,54.86678700000000,3483,804,environmental.health@ballymena.gov.uk,Ballymena,http://www.ballymena.gov.uk,-6.27557200000000,BT43 6AR,2014-12-05,fhrs_4_en-GB,4,,FHRS,0
401178,59 Cullybackey Road,,Ahoghill,Antrim,Fourtowns Primary School,School/college/university,7845,5,,403964,5,,54.85455100000000,653,804,environmental.health@ballymena.gov.uk,Ballymena,http://www.ballymena.gov.uk,-6.36455700000000,BT42 1LA,2014-06-24,fhrs_5_en-GB,5,,FHRS,5
401179,36 Larne Road Link,,Ballymena,Antrim,Frankie & Benny's,Restaurant/Cafe/Canteen,1,0,,486480,5,,54.86065100000000,3256,804,environmental.health@ballymena.gov.uk,Ballymena,http://www.ballymena.gov.uk,-6.26806200000000,BT42 3GA,2014-07-22,fhrs_5_en-GB,5,,FHRS,5
401180,40 Main Street,,Portglenone,Antrim,Freshways,Retailers - other,4613,10,,403329,10,,54.87283700000000,1559,804,environmental.health@ballymena.gov.uk,Ballymena,http://www.ballymena.gov.uk,-6.47821000000000,BT44 8HS,2013-07-10,fhrs_3_en-GB,3,,FHRS,5
401181,8 Greenvale Street,,Ballymena,Antrim,Freshways,Retailers - other,4613,10,,403834,5,,54.86678700000000,3138,804,environmental.health@ballymena.gov.uk,Ballymena,http://www.ballymena.gov.uk,-6.27557200000000,BT43 6AR,2014-04-15,fhrs_3_en-GB,3,,FHRS,10
401182,8 The Diamond,,Ahoghill,Antrim,Frew's Chippy,Takeaway/sandwich shop,7844,10,,665930,10,,54.85142200000000,3411,804,environmental.health@ballymena.gov.uk,Ballymena,http://www.ballymena.gov.uk,-6.36572700000000,BT42 1JZ,2014-06-11,fhrs_3_en-GB,3,,FHRS,5
401183,45 Larne Street,,Ballymena,Antrim,Fruitland,Retailers - other,4613,0,,403576,0,,54.85941000000000,2401,804,environmental.health@ballymena.gov.uk,Ballymena,http://www.ballymena.gov.uk,-6.27487400000000,BT42 3AL,2013-03-04,fhrs_5_en-GB,5,,FHRS,5
401184,3 Dunclug Neighbourhood Centre,,Ballymena,Antrim,Frydays,Takeaway/sandwich shop,7844,5,,687667,5,,54.88087000000000,3456,804,environmental.health@ballymena.gov.uk,Ballymena,http://www.ballymena.gov.uk,-6.27850700000000,BT43 6SA,2014-09-03,fhrs_5_en-GB,5,,FHRS,5
401185,76-82 Main Street,,Portglenone,Antrim,Fullan's Food Hall,Retailers - other,4613,5,,403338,5,,54.87283700000000,1597,804,environmental.health@ballymena.gov.uk,Ballymena,http://www.ballymena.gov.uk,-6.47821000000000,BT44 8HS,2013-11-22,fhrs_5_en-GB,5,,FHRS,0
401186,Unit 9a Galgorm Court,,Ballymena,Antrim,Gal Gourmet Sandwich Bar,Takeaway/sandwich shop,7844,5,,404069,5,,54.85929900000000,975,804,environmental.health@ballymena.gov.uk,Ballymena,http://www.ballymena.gov.uk,-6.32278400000000,BT42 1HW,2014-10-28,fhrs_5_en-GB,5,,FHRS,5
401187,90 Galgorm Road,Gracehill,Ballymena,Antrim,Galgorm Care Home,Hospitals/Childcare/Caring Premises,5,0,,403147,5,,54.86287200000000,1011,804,environmental.health@ballymena.gov.uk,Ballymena,http://www.ballymena.gov.uk,-6.28590900000000,BT42 1AA,2014-01-28,fhrs_5_en-GB,5,,FHRS,5
401188,136 Fenaghy Road,,Cullybackey,Antrim,Galgorm Resort & Spa,Hotel/bed & breakfast/guest house,7842,5,,404051,5,,54.87760700000000,922,804,environmental.health@ballymena.gov.uk,Ballymena,http://www.ballymena.gov.uk,-6.34428800000000,BT42 1EA,2014-05-20,fhrs_5_en-GB,5,,FHRS,5
401189,5 Fenaghy Road,Galgorm,Ballymena,Antrim,Galgorm Village Greengrocer,Retailers - other,4613,5,,718119,0,,54.85929900000000,3503,804,environmental.health@ballymena.gov.uk,Ballymena,http://www.ballymena.gov.uk,-6.32278400000000,BT42 1HW,2014-12-09,fhrs_5_en-GB,5,,FHRS,5
401190,21 Pennybridge Industrial Estate,,Ballymena,Antrim,George Sloan Adult Centre,Hospitals/Childcare/Caring Premises,5,5,,403383,5,,54.85064700000000,1771,804,environmental.health@ballymena.gov.uk,Ballymena,http://www.ballymena.gov.uk,-6.25893000000000,BT42 3HB,2014-03-19,fhrs_5_en-GB,5,,FHRS,0
401191,191 Largy Road,,Ahoghill,Antrim,Gillistown House,Pub/bar/nightclub,7843,0,,403241,0,,54.80773700000000,1311,804,environmental.health@ballymena.gov.uk,Ballymena,http://www.ballymena.gov.uk,-6.39564300000000,BT42 2RH,2014-01-16,fhrs_5_en-GB,5,,FHRS,0
401192,8a Station Road,Glarryford,Ballymena,Antrim,Glarryford Post Office,Retailers - other,4613,,,403453,,,54.95343900000000,2030,804,environmental.health@ballymena.gov.uk,Ballymena,http://www.ballymena.gov.uk,-6.34877300000000,BT44 9RA,2014-01-07,fhrs_exempt_en-GB,Exempt,,FHRS,
401193,,,,,Glass's Country Catering,Mobile caterer,7846,0,,687668,5,,,3457,804,environmental.health@ballymena.gov.uk,Ballymena,http://www.ballymena.gov.uk,,,2014-07-23,fhrs_5_en-GB,5,,FHRS,5
401194,116a Fenaghy Road,Galgorm,Ballymena,Antrim,Glenburn Bed & Breakfast,Hotel/bed & breakfast/guest house,7842,5,,403726,0,,54.86988400000000,2987,804,environmental.health@ballymena.gov.uk,Ballymena,http://www.ballymena.gov.uk,-6.33331100000000,BT42 1JJ,2014-04-16,fhrs_5_en-GB,5,,FHRS,0
401195,141 Church Road,Moorfields,Ballymena,Antrim,Glenfield Bed & Breakfast,Hotel/bed & breakfast/guest house,7842,5,,403921,0,,54.82748200000000,473,804,environmental.health@ballymena.gov.uk,Ballymena,http://www.ballymena.gov.uk,-6.05848000000000,BT42 3EJ,2014-05-27,fhrs_5_en-GB,5,,FHRS,0
401196,143 Glenravel Road,,Cargan,Antrim,Glenravel Community Playgroup,Hospitals/Childcare/Caring Premises,5,5,,403276,5,,54.98628900000000,1400,804,environmental.health@ballymena.gov.uk,Ballymena,http://www.ballymena.gov.uk,-6.19186800000000,BT43 6RA,2014-03-11,fhrs_5_en-GB,5,,FHRS,0
401197,1 Glenravel Park,,Ballymena,Antrim,Glenravel Fold,Other catering premises,7841,5,,403614,5,,54.86614300000000,2552,804,environmental.health@ballymena.gov.uk,Ballymena,http://www.ballymena.gov.uk,-6.27010100000000,BT43 7AG,2014-09-30,fhrs_5_en-GB,5,,FHRS,0
401198,2 Lisnamanny Road,,Martinstown,Antrim,Glenravel Voluntary Primary School,School/college/university,7845,5,,403275,5,,54.96888200000000,1399,804,environmental.health@ballymena.gov.uk,Ballymena,http://www.ballymena.gov.uk,-6.22937900000000,BT43 6QH,2013-06-20,fhrs_5_en-GB,5,,FHRS,5
401199,168 Glenravel Road,,Cargan,Antrim,Glenravenous,Takeaway/sandwich shop,7844,5,,565259,5,,54.99456700000000,3307,804,environmental.health@ballymena.gov.uk,Ballymena,http://www.ballymena.gov.uk,-6.18124500000000,BT43 6RB,2013-08-21,fhrs_5_en-GB,5,,FHRS,5
401200,88 Church Road,Moorfields,Ballymena,Antrim,Glenwherry Presbyterian Church Hall,Other catering premises,7841,,,403920,,,54.82843200000000,471,804,environmental.health@ballymena.gov.uk,Ballymena,http://www.ballymena.gov.uk,-6.08148200000000,BT42 3EH,2014-06-06,fhrs_exempt_en-GB,Exempt,,FHRS,
401201,Killane Park,,Ahoghill,Antrim,Gloonan House,Other catering premises,7841,5,,403669,5,,54.85170200000000,2794,804,environmental.health@ballymena.gov.uk,Ballymena,http://www.ballymena.gov.uk,-6.36185400000000,BT42 1GH,2014-10-09,fhrs_5_en-GB,5,,FHRS,0
401202,26-28 Broughshane Street,,Ballymena,Antrim,Glory Be Cafe,Restaurant/Cafe/Canteen,1,5,,718123,5,,54.86728400000000,3509,804,environmental.health@ballymena.gov.uk,Ballymena,http://www.ballymena.gov.uk,-6.27326100000000,BT43 6EB,2015-01-05,fhrs_5_en-GB,5,,FHRS,0
401203,43 Bridge Street,,Ballymena,Antrim,Go Sun Chinese Restaurant,Restaurant/Cafe/Canteen,1,10,,403571,10,,54.86346700000000,2381,804,environmental.health@ballymena.gov.uk,Ballymena,http://www.ballymena.gov.uk,-6.27716200000000,BT43 5EL,2013-11-20,fhrs_3_en-GB,3,,FHRS,10
401204,51-53 Larne Street,,Ballymena,Antrim,Golden Bamboo Take-Away,Takeaway/sandwich shop,7844,5,,403577,5,,54.85941000000000,2405,804,environmental.health@ballymena.gov.uk,Ballymena,http://www.ballymena.gov.uk,-6.27487400000000,BT42 3AL,2014-05-08,fhrs_5_en-GB,5,,FHRS,0
401205,10 Liminary Road,,Ballymena,Antrim,Golden Boat,Takeaway/sandwich shop,7844,5,,403263,5,,54.84532300000000,1358,804,environmental.health@ballymena.gov.uk,Ballymena,http://www.ballymena.gov.uk,-6.24980300000000,BT42 3HL,2014-01-15,fhrs_5_en-GB,5,,FHRS,5
401206,6a The Diamond,,Ahoghill,Antrim,Golden City,Takeaway/sandwich shop,7844,10,,403470,10,,54.85142200000000,2073,804,environmental.health@ballymena.gov.uk,Ballymena,http://www.ballymena.gov.uk,-6.36572700000000,BT42 1JZ,2014-10-13,fhrs_3_en-GB,3,,FHRS,10
401207,29 Ballymoney Street,,Ballymena,Antrim,Gordons Chemist,Retailers - other,4613,,,403334,,,54.86760300000000,158,804,environmental.health@ballymena.gov.uk,Ballymena,http://www.ballymena.gov.uk,-6.27488300000000,BT43 6AN,2014-07-01,fhrs_exempt_en-GB,Exempt,,FHRS,
401208,18 Riverdale Park,,Portglenone,Antrim,Gortgole Fold,Other catering premises,7841,5,,403422,5,,54.87450100000000,1955,804,environmental.health@ballymena.gov.uk,Ballymena,http://www.ballymena.gov.uk,-6.47763400000000,BT44 8HX,2013-01-16,fhrs_5_en-GB,5,,FHRS,5
401209,19a Church Road,Gracehill,Ballymena,Antrim,Gracehill After School Club,Other catering premises,7841,5,,403671,5,,54.85338000000000,2797,804,environmental.health@ballymena.gov.uk,Ballymena,http://www.ballymena.gov.uk,-6.32743600000000,BT42 2NL,2014-10-02,fhrs_5_en-GB,5,,FHRS,0
401210,25 Church Road,Gracehill,Ballymena,Antrim,Gracehill Country Market,Retailers - other,4613,0,,403917,0,,54.85338000000000,469,804,environmental.health@ballymena.gov.uk,Ballymena,http://www.ballymena.gov.uk,-6.32743600000000,BT42 2NL,2014-09-04,fhrs_5_en-GB,5,,FHRS,0
401211,25 Church Road,Gracehill,Ballymena,Antrim,Gracehill Moravian Church Hall,Other catering premises,7841,,,403919,,,54.85338000000000,470,804,environmental.health@ballymena.gov.uk,Ballymena,http://www.ballymena.gov.uk,-6.32743600000000,BT42 2NL,2012-03-20,fhrs_exempt_en-GB,Exempt,,FHRS,
401212,19 Church Road,Gracehill,Ballymena,Antrim,Gracehill Primary School,School/college/university,7845,0,,403915,5,,54.85338000000000,467,804,environmental.health@ballymena.gov.uk,Ballymena,http://www.ballymena.gov.uk,-6.32743600000000,BT42 2NL,2014-06-17,fhrs_5_en-GB,5,,FHRS,5
401213,3 Raphael Way,Galgorm,Ballymena,Antrim,Gracehill/Galgorm CC/Playgroup,Hospitals/Childcare/Caring Premises,5,5,,403599,0,,54.85867300000000,2476,804,environmental.health@ballymena.gov.uk,Ballymena,http://www.ballymena.gov.uk,-6.32229600000000,BT42 1GQ,2013-12-05,fhrs_5_en-GB,5,,FHRS,0
401214,Pennybridge Industrial Estate,,Ballymena,Antrim,Grafters Cafe,Restaurant/Cafe/Canteen,1,10,,403623,5,,54.85064700000000,2594,804,environmental.health@ballymena.gov.uk,Ballymena,http://www.ballymena.gov.uk,-6.25893000000000,BT42 3HB,2013-09-17,fhrs_4_en-GB,4,,FHRS,5
401215,284 Galgorm Road,Gracehill,Ballymena,Antrim,Graham's Ahoghill,Retailers - other,4613,5,,403148,5,,54.85247300000000,1015,804,environmental.health@ballymena.gov.uk,Ballymena,http://www.ballymena.gov.uk,-6.35111000000000,BT42 1HY,2014-08-22,fhrs_4_en-GB,4,,FHRS,10
401216,65 Taylorstown Road,Toomebridge,Toome,Antrim,Grange Baptist Church Hall,Other catering premises,7841,,,403459,,,54.79735900000000,2051,804,environmental.health@ballymena.gov.uk,Ballymena,http://www.ballymena.gov.uk,-6.39488800000000,BT41 3RW,2014-08-26,fhrs_exempt_en-GB,Exempt,,FHRS,
401217,32 Taylorstown Hill,Toomebridge,Antrim,Antrim,Grange Presyterian Church Hall,Other catering premises,7841,,,403457,,,54.79076800000000,2048,804,environmental.health@ballymena.gov.uk,Ballymena,http://www.ballymena.gov.uk,-6.39375000000000,BT41 3RL,2014-01-23,fhrs_exempt_en-GB,Exempt,,FHRS,
401218,100 Main Street,,Cullybackey,Antrim,Gray's Family Butcher's,Retailers - other,4613,5,,462867,5,,54.88818900000000,3233,804,environmental.health@ballymena.gov.uk,Ballymena,http://www.ballymena.gov.uk,-6.35340700000000,BT42 1BW,2012-11-16,fhrs_5_en-GB,5,,FHRS,5
401219,Fenaghy Road,Galgorm Industrial Estate,Ballymena,Antrim,Green Pastures,Other catering premises,7841,,,404042,,,54.86205300000000,898,804,environmental.health@ballymena.gov.uk,Ballymena,http://www.ballymena.gov.uk,-6.32701500000000,BT42 1AQ,2014-05-22,fhrs_exempt_en-GB,Exempt,,FHRS,
401220,32 Ballymoney Street,,Ballymena,Antrim,Ground Espresso Bar,Restaurant/Cafe/Canteen,1,5,,403340,5,,54.86676300000000,160,804,environmental.health@ballymena.gov.uk,Ballymena,http://www.ballymena.gov.uk,-6.27452900000000,BT43 6AL,2013-10-15,fhrs_5_en-GB,5,,FHRS,5
401221,119-121 Church Street,,Ballymena,Antrim,Gwen's Cafe,Restaurant/Cafe/Canteen,1,5,,403927,0,,54.86587600000000,495,804,environmental.health@ballymena.gov.uk,Ballymena,http://www.ballymena.gov.uk,-6.27343000000000,BT43 6DG,2014-06-09,fhrs_5_en-GB,5,,FHRS,0
401222,9 William Street,,Ballymena,Antrim,H McGroggan,Retailers - other,4613,10,,403556,0,,54.86834600000000,2338,804,environmental.health@ballymena.gov.uk,Ballymena,http://www.ballymena.gov.uk,-6.27404100000000,BT43 6AW,2013-07-19,fhrs_4_en-GB,4,,FHRS,5
401223,143 Carnlough Road,,Broughshane,Antrim,Halfway House,Pub/bar/nightclub,7843,5,,403902,5,,54.92148700000000,426,804,environmental.health@ballymena.gov.uk,Ballymena,http://www.ballymena.gov.uk,-6.10402600000000,BT43 7JW,2014-08-12,fhrs_5_en-GB,5,,FHRS,5
401224,22 Kilmakevit Drive,,Cullybackey,Antrim,Happitots Playgroup,Hospitals/Childcare/Caring Premises,5,0,,403223,0,,54.89169000000000,1261,804,environmental.health@ballymena.gov.uk,Ballymena,http://www.ballymena.gov.uk,-6.35324900000000,BT42 1NQ,2012-05-16,fhrs_5_en-GB,5,,FHRS,0
401225,97-101 Cushendall Road,,Ballymena,Antrim,Happy Villa,Takeaway/sandwich shop,7844,5,,403980,5,,54.87701800000000,705,804,environmental.health@ballymena.gov.uk,Ballymena,http://www.ballymena.gov.uk,-6.27038300000000,BT43 6HB,2013-06-04,fhrs_5_en-GB,5,,FHRS,5
401226,7 Fenaghy Road,Galgorm,Ballymena,Antrim,Happy Villa Chinese Takeaway,Takeaway/sandwich shop,7844,5,,404049,10,,54.85929900000000,914,804,environmental.health@ballymena.gov.uk,Ballymena,http://www.ballymena.gov.uk,-6.32278400000000,BT42 1HW,2013-08-15,fhrs_4_en-GB,4,,FHRS,5
401227,17 Larne Road,,Ballymena,Antrim,Harryville Gospel Hall,Other catering premises,7841,,,403247,,,54.85550700000000,1329,804,environmental.health@ballymena.gov.uk,Ballymena,http://www.ballymena.gov.uk,-6.26702100000000,BT42 3AX,2012-03-09,fhrs_exempt_en-GB,Exempt,,FHRS,
401228,15a Casement Street,,Ballymena,Antrim,Harryville Presbyterian Church Hall,Other catering premises,7841,,,403909,,,54.85921900000000,446,804,environmental.health@ballymena.gov.uk,Ballymena,http://www.ballymena.gov.uk,-6.27281100000000,BT42 4BY,2015-02-10,fhrs_exempt_en-GB,Exempt,,FHRS,
401229,17 Casement Street,,Ballymena,Antrim,Harryville Primary School & Nursery Unit,School/college/university,7845,0,,403908,5,,54.85921900000000,445,804,environmental.health@ballymena.gov.uk,Ballymena,http://www.ballymena.gov.uk,-6.27281100000000,BT42 4BY,2014-06-19,fhrs_5_en-GB,5,,FHRS,0
401230,20 Hazelbank Road,Aughafatten,Ballymena,Antrim,Hazelbank Primary School,School/college/university,7845,5,,403194,5,,54.90336000000000,1172,804,environmental.health@ballymena.gov.uk,Ballymena,http://www.ballymena.gov.uk,-6.11120800000000,BT42 4LP,2014-06-27,fhrs_5_en-GB,5,,FHRS,5
401231,7-11 Queen Street,,Ballymena,Antrim,He - Brews Coffee House,Restaurant/Cafe/Canteen,1,5,,607719,5,,54.86090900000000,3344,804,environmental.health@ballymena.gov.uk,Ballymena,http://www.ballymena.gov.uk,-6.27794100000000,BT42 2BB,2013-11-26,fhrs_5_en-GB,5,,FHRS,0
401232,65-71 Thomas Street,,Ballymena,Antrim,High Kirk Presbyterian Church Hall,Hospitals/Childcare/Caring Premises,5,5,,403478,5,,54.87056600000000,2101,804,environmental.health@ballymena.gov.uk,Ballymena,http://www.ballymena.gov.uk,-6.27728000000000,BT43 6AZ,2013-04-12,fhrs_5_en-GB,5,,FHRS,5
401233,51-53 High Street,,Ballymena,Antrim,High Street 51,Restaurant/Cafe/Canteen,1,5,,403207,5,,54.86698900000000,1211,804,environmental.health@ballymena.gov.uk,Ballymena,http://www.ballymena.gov.uk,-6.27715200000000,BT43 6DT,2013-09-24,fhrs_4_en-GB,4,,FHRS,10
401234,57 Larne Street,,Ballymena,Antrim,Hillis's,Retailers - other,4613,,,403579,,,54.85941000000000,2407,804,environmental.health@ballymena.gov.uk,Ballymena,http://www.ballymena.gov.uk,-6.27487400000000,BT42 3AL,2015-01-09,fhrs_4_en-GB,4,,FHRS,
401235,159 Doury Road,,Ballymena,Antrim,Hillside Community Church,Other catering premises,7841,,,403987,,,54.88840700000000,725,804,environmental.health@ballymena.gov.uk,Ballymena,http://www.ballymena.gov.uk,-6.27779600000000,BT43 6SR,2014-04-01,fhrs_exempt_en-GB,Exempt,,FHRS,
401236,128 Glebe Road,,Randalstown,Antrim,Hillstown Farm Shop,Manufacturers/packers,7839,5,,403154,5,,54.81070300000000,1045,804,environmental.health@ballymena.gov.uk,Ballymena,http://www.ballymena.gov.uk,-6.35483400000000,BT41 3DT,2013-11-21,fhrs_5_en-GB,5,,FHRS,5
401237,,,,,Hk Cakes Of Gold,Manufacturers/packers,7839,5,,403928,0,,,5,804,environmental.health@ballymena.gov.uk,Ballymena,http://www.ballymena.gov.uk,,,2012-08-03,fhrs_5_en-GB,5,,FHRS,5
401238,55-56 Tower Centre,Wellington Street,Ballymena,Antrim,Holland & Barrett,Retailers - other,4613,,,403498,,,54.86584300000000,2163,804,environmental.health@ballymena.gov.uk,Ballymena,http://www.ballymena.gov.uk,-6.27741900000000,BT43 6AH,2014-05-14,fhrs_5_en-GB,5,,FHRS,
401239,3-5 Bryan Street,,Ballymena,Antrim,Horse 'n' Jockey,Pub/bar/nightclub,7843,,,403884,,,54.86490000000000,372,804,environmental.health@ballymena.gov.uk,Ballymena,http://www.ballymena.gov.uk,-6.27560500000000,BT43 6DN,2014-04-14,fhrs_5_en-GB,5,,FHRS,
401240,37 Main Street,,Broughshane,Antrim,Hot Cha,Takeaway/sandwich shop,7844,10,,456399,0,,54.89411800000000,3230,804,environmental.health@ballymena.gov.uk,Ballymena,http://www.ballymena.gov.uk,-6.20801800000000,BT42 4JW,2014-03-19,fhrs_4_en-GB,4,,FHRS,5
401241,10 Buckna Road,,Broughshane,Antrim,Houston's Mill,Other catering premises,7841,,,403885,,,54.89249500000000,378,804,environmental.health@ballymena.gov.uk,Ballymena,http://www.ballymena.gov.uk,-6.19005600000000,BT42 4NJ,2014-08-07,fhrs_exempt_en-GB,Exempt,,FHRS,
401242,39 High Street,,Ballymena,Antrim,Iceland Foods Ltd,Retailers - supermarkets/hypermarkets,7840,0,,403204,0,,54.86698900000000,1208,804,environmental.health@ballymena.gov.uk,Ballymena,http://www.ballymena.gov.uk,-6.27715200000000,BT43 6DT,2013-09-17,fhrs_5_en-GB,5,,FHRS,0
401243,Larne Road Link,,Ballymena,Antrim,IMC Cinemas (Ballymena),Retailers - other,4613,5,,403590,5,,54.86156800000000,2441,804,environmental.health@ballymena.gov.uk,Ballymena,http://www.ballymena.gov.uk,-6.27187000000000,BT42 3AG,2014-07-07,fhrs_4_en-GB,4,,FHRS,10
401244,19 Main Street,,Kells,Antrim,Indian Kitchen,Takeaway/sandwich shop,7844,5,,679465,5,,54.80817000000000,3437,804,environmental.health@ballymena.gov.uk,Ballymena,http://www.ballymena.gov.uk,-6.22055000000000,BT42 3JH,2014-08-28,fhrs_5_en-GB,5,,FHRS,5
401245,110 Buckna Road,,Broughshane,Antrim,Innisfree Residential Home,Hospitals/Childcare/Caring Premises,5,0,,403887,5,,54.89961200000000,380,804,environmental.health@ballymena.gov.uk,Ballymena,http://www.ballymena.gov.uk,-6.12736300000000,BT42 4NR,2014-02-19,fhrs_5_en-GB,5,,FHRS,5
401246,55 Larne Street,,Ballymena,Antrim,Iron's Bakery,Retailers - other,4613,0,,403578,0,,54.85941000000000,2406,804,environmental.health@ballymena.gov.uk,Ballymena,http://www.ballymena.gov.uk,-6.27487400000000,BT42 3AL,2014-03-24,fhrs_5_en-GB,5,,FHRS,5
401247,38-42 Church Street,,Ballymena,Antrim,J A Woodside & Co,Retailers - other,4613,,,403930,,,54.86552900000000,525,804,environmental.health@ballymena.gov.uk,Ballymena,http://www.ballymena.gov.uk,-6.27434800000000,BT43 6DF,2014-01-20,fhrs_exempt_en-GB,Exempt,,FHRS,
401248,46 Henry Street,,Ballymena,Antrim,Jade House,Takeaway/sandwich shop,7844,0,,548536,5,,54.86119600000000,3290,804,environmental.health@ballymena.gov.uk,Ballymena,http://www.ballymena.gov.uk,-6.27725900000000,BT42 3AH,2013-06-04,fhrs_5_en-GB,5,,FHRS,5
401249,15 Main Street,,Broughshane,Antrim,Jane's Kitchen,Manufacturers/packers,7839,5,,403284,5,,54.89411800000000,1443,804,environmental.health@ballymena.gov.uk,Ballymena,http://www.ballymena.gov.uk,-6.20801800000000,BT42 4JW,2014-01-16,fhrs_5_en-GB,5,,FHRS,5
401250,,,,,Jim's Ices,Mobile caterer,7846,5,,404024,0,,,817,804,environmental.health@ballymena.gov.uk,Ballymena,http://www.ballymena.gov.uk,,,2014-06-06,fhrs_5_en-GB,5,,FHRS,0
401251,14-16 Greenvale Street,,Ballymena,Antrim,K & G Mc Atamney Butchery & Deli,Manufacturers/packers,7839,5,,403185,5,,54.86678700000000,1131,804,environmental.health@ballymena.gov.uk,Ballymena,http://www.ballymena.gov.uk,-6.27557200000000,BT43 6AR,2013-11-20,fhrs_5_en-GB,5,,FHRS,5
401252,,,,,Kami's Cakes,Manufacturers/packers,7839,5,,403758,5,,,3032,804,environmental.health@ballymena.gov.uk,Ballymena,http://www.ballymena.gov.uk,,,2013-10-18,fhrs_5_en-GB,5,,FHRS,0
401253,27 Henry Street,,Ballymena,Antrim,Karolina Shop,Retailers - other,4613,0,,403685,5,,54.86119600000000,2858,804,environmental.health@ballymena.gov.uk,Ballymena,http://www.ballymena.gov.uk,-6.27725900000000,BT42 3AH,2014-03-12,fhrs_5_en-GB,5,,FHRS,5
401254,26b Thomas Street,,Ballymena,Antrim,Karolina Shop International Food,Retailers - other,4613,5,,403732,5,,54.86904100000000,2997,804,environmental.health@ballymena.gov.uk,Ballymena,http://www.ballymena.gov.uk,-6.27619200000000,BT43 6AX,2014-06-26,fhrs_5_en-GB,5,,FHRS,0
401255,1-3 Knockan Road,Broughshane,Ballymena,Antrim,Kathy's @ Hidden Gem,Restaurant/Cafe/Canteen,1,10,,703945,5,,54.89335300000000,3468,804,environmental.health@ballymena.gov.uk,Ballymena,http://www.ballymena.gov.uk,-6.21098200000000,BT42 4JY,2014-09-16,fhrs_4_en-GB,4,,FHRS,5
401256,34 Church Road,,Kells,Antrim,Kells & Connor Pharmacy,Retailers - other,4613,,,403619,,,54.80735700000000,2576,804,environmental.health@ballymena.gov.uk,Ballymena,http://www.ballymena.gov.uk,-6.21595100000000,BT42 3JU,2013-07-10,fhrs_exempt_en-GB,Exempt,,FHRS,
401257,145 Liminary Road,,Kells,Antrim,Kells & Connor Primary School,School/college/university,7845,0,,403265,5,,54.81247600000000,1363,804,environmental.health@ballymena.gov.uk,Ballymena,http://www.ballymena.gov.uk,-6.22068800000000,BT42 3LS,2014-10-07,fhrs_5_en-GB,5,,FHRS,5
401258,19 Main Street,Kells,Ballymena,Antrim,Kells And Connor Preschool,Hospitals/Childcare/Caring Premises,5,0,,403641,0,,54.80817000000000,2663,804,environmental.health@ballymena.gov.uk,Ballymena,http://www.ballymena.gov.uk,-6.22055000000000,BT42 3JH,2013-10-02,fhrs_5_en-GB,5,,FHRS,0
401259,20 Fernisky Road,,Kells,Antrim,Kells Gospel Hall,Other catering premises,7841,,,403264,,,54.80600400000000,1361,804,environmental.health@ballymena.gov.uk,Ballymena,http://www.ballymena.gov.uk,-6.22045900000000,BT42 3JW,2014-03-10,fhrs_exempt_en-GB,Exempt,,FHRS,
401260,27 Church Road,,Kells,Antrim,Kells Luncheon Club (Church Hall),Pub/bar/nightclub,7843,5,,403922,5,,54.80735700000000,480,804,environmental.health@ballymena.gov.uk,Ballymena,http://www.ballymena.gov.uk,-6.21595100000000,BT42 3JU,2013-11-07,fhrs_5_en-GB,5,,FHRS,0
401261,8 Fernisky Road,,Kells,Antrim,Kells Pitstop,Mobile caterer,7846,10,,703952,5,,54.80779200000000,3484,804,environmental.health@ballymena.gov.uk,Ballymena,http://www.ballymena.gov.uk,-6.22106500000000,BT42 3JP,2014-10-17,fhrs_4_en-GB,4,,FHRS,5
401262,27 Church Road,,Kells,Antrim,Kells Presbyterian Church Hall,Other catering premises,7841,,,403923,,,54.80735700000000,481,804,environmental.health@ballymena.gov.uk,Ballymena,http://www.ballymena.gov.uk,-6.21595100000000,BT42 3JU,2014-08-26,fhrs_exempt_en-GB,Exempt,,FHRS,
401263,21 Grove Road,,Kells,Antrim,Kellswater Reformed Pres Church Hall,Other catering premises,7841,,,403188,,,54.81920400000000,1165,804,environmental.health@ballymena.gov.uk,Ballymena,http://www.ballymena.gov.uk,-6.24341800000000,BT42 3DP,2014-06-20,fhrs_exempt_en-GB,Exempt,,FHRS,
401264,50 Broughshane Road,,Ballymena,Antrim,Kenbaan Playgroup,Hospitals/Childcare/Caring Premises,5,5,,403672,5,,54.87221200000000,280,804,environmental.health@ballymena.gov.uk,Ballymena,http://www.ballymena.gov.uk,-6.26664700000000,BT43 7DX,2015-01-27,fhrs_5_en-GB,5,,FHRS,0
401265,46 Larne Road Link,,Ballymena,Antrim,Kentucky Fried Chicken,Takeaway/sandwich shop,7844,0,,403643,0,,54.86065100000000,2669,804,environmental.health@ballymena.gov.uk,Ballymena,http://www.ballymena.gov.uk,-6.26806200000000,BT42 3GA,2013-10-16,fhrs_4_en-GB,4,,FHRS,10
401266,10 Bridge Street,,Ballymena,Antrim,Khayber Indian Takeaway,Takeaway/sandwich shop,7844,5,,403569,5,,54.86371200000000,2372,804,environmental.health@ballymena.gov.uk,Ballymena,http://www.ballymena.gov.uk,-6.27607700000000,BT43 5EW,2013-11-06,fhrs_5_en-GB,5,,FHRS,5
401267,Unit 4 Galgorm Court Raphael Way,Galgorm,Ballymena,Antrim,Khayber Restaurant,Restaurant/Cafe/Canteen,1,5,,403683,5,,54.85867300000000,2853,804,environmental.health@ballymena.gov.uk,Ballymena,http://www.ballymena.gov.uk,-6.32229600000000,BT42 1GQ,2013-05-30,fhrs_5_en-GB,5,,FHRS,5
401268,126 Lisnahunshin Road,,Cullybackey,Antrim,Killyless Stores,Retailers - other,4613,,,403273,,,54.89593800000000,1395,804,environmental.health@ballymena.gov.uk,Ballymena,http://www.ballymena.gov.uk,-6.42145800000000,BT42 1ET,2012-05-09,fhrs_exempt_en-GB,Exempt,,FHRS,
401269,185 Dunminning Road,Glarryford,Ballymena,Antrim,Killymurris Church Hall,Other catering premises,7841,,,404016,,,54.95529500000000,804,804,environmental.health@ballymena.gov.uk,Ballymena,http://www.ballymena.gov.uk,-6.35850000000000,BT44 9PW,2014-05-13,fhrs_exempt_en-GB,Exempt,,FHRS,
401270,36 Westbourne Avenue,,Ballymena,Antrim,Kintullagh House Nursing Home,Hospitals/Childcare/Caring Premises,5,5,,403546,5,,54.87186600000000,2303,804,environmental.health@ballymena.gov.uk,Ballymena,http://www.ballymena.gov.uk,-6.29045000000000,BT43 5LW,2014-03-13,fhrs_4_en-GB,4,,FHRS,10
401271,5 Clogher Road,,Ballymena,Antrim,Kirkinriola Playgroup,Hospitals/Childcare/Caring Premises,5,0,,403942,5,,54.89753300000000,587,804,environmental.health@ballymena.gov.uk,Ballymena,http://www.ballymena.gov.uk,-6.26125700000000,BT43 6TB,2014-05-23,fhrs_5_en-GB,5,,FHRS,5
401272,5 Clogher Road,,Ballymena,Antrim,Kirkinriola Primary School,School/college/university,7845,0,,403941,5,,54.89753300000000,586,804,environmental.health@ballymena.gov.uk,Ballymena,http://www.ballymena.gov.uk,-6.26125700000000,BT43 6TB,2012-06-18,fhrs_5_en-GB,5,,FHRS,5
401273,115 Crebilly Road,,Ballymena,Antrim,Knockeden Lodge,Pub/bar/nightclub,7843,0,,403955,0,,54.85813200000000,626,804,environmental.health@ballymena.gov.uk,Ballymena,http://www.ballymena.gov.uk,-6.25272100000000,BT42 4DW,2014-08-08,fhrs_5_en-GB,5,,FHRS,0
401274,115 Unit 1 Church Street Arcade,,Ballymena,Antrim,Korona,Retailers - other,4613,5,,433336,10,,54.86587600000000,3205,804,environmental.health@ballymena.gov.uk,Ballymena,http://www.ballymena.gov.uk,-6.27343000000000,BT43 6DG,2014-05-01,fhrs_4_en-GB,4,,FHRS,5
401275,13 Greenvale Street,,Ballymena,Antrim,Kubus Polish Food Shop,Retailers - other,4613,10,,703950,5,,54.86678700000000,3482,804,environmental.health@ballymena.gov.uk,Ballymena,http://www.ballymena.gov.uk,-6.27557200000000,BT43 6AR,2014-09-26,fhrs_4_en-GB,4,,FHRS,0
401276,19 Cullybackey Road,,Ballymena,Antrim,Kypros Kebab,Takeaway/sandwich shop,7844,10,,403966,5,,54.86643200000000,660,804,environmental.health@ballymena.gov.uk,Ballymena,http://www.ballymena.gov.uk,-6.28223800000000,BT43 5DF,2014-09-15,fhrs_4_en-GB,4,,FHRS,0
401277,,,,,Kyrone's Ices,Mobile caterer,7846,0,,403378,0,,,1745,804,environmental.health@ballymena.gov.uk,Ballymena,http://www.ballymena.gov.uk,,,2014-09-12,fhrs_5_en-GB,5,,FHRS,0
401278,9 Trostan Avenue,,Ballymena,Antrim,Ladybirds After School Club,Other catering premises,7841,5,,665931,0,,54.86283600000000,3412,804,environmental.health@ballymena.gov.uk,Ballymena,http://www.ballymena.gov.uk,-6.27007100000000,BT43 7BL,2014-06-02,fhrs_5_en-GB,5,,FHRS,0
401279,27 Lisnafillon Road,Gracehill,Ballymena,Antrim,Ladybirds Playgroup,Hospitals/Childcare/Caring Premises,5,5,,403745,0,,54.85890900000000,3014,804,environmental.health@ballymena.gov.uk,Ballymena,http://www.ballymena.gov.uk,-6.34739000000000,BT42 1JA,2014-05-22,fhrs_5_en-GB,5,,FHRS,0
401280,29 Waring Street,,Ballymena,Antrim,Ladysmith Arms,Pub/bar/nightclub,7843,5,,403534,0,,54.86006200000000,2255,804,environmental.health@ballymena.gov.uk,Ballymena,http://www.ballymena.gov.uk,-6.27395900000000,BT42 4BU,2014-04-28,fhrs_5_en-GB,5,,FHRS,5
401281,26 Main Street,,Cullybackey,Antrim,Lamont Butcher's,Manufacturers/packers,7839,,,403304,,,54.88731200000000,1485,804,environmental.health@ballymena.gov.uk,Ballymena,http://www.ballymena.gov.uk,-6.35035700000000,BT42 1BN,2013-06-26,fhrs_5_en-GB,5,,FHRS,
401282,,,,,Lauren's Cakery,Manufacturers/packers,7839,0,,619108,0,,,3345,804,environmental.health@ballymena.gov.uk,Ballymena,http://www.ballymena.gov.uk,,,2013-12-04,fhrs_5_en-GB,5,,FHRS,0
401283,57 Leighinmohr Avenue,,Ballymena,Antrim,Leighinmohr House Hotel,Hotel/bed & breakfast/guest house,7842,5,,665936,5,,54.85738200000000,3425,804,environmental.health@ballymena.gov.uk,Ballymena,http://www.ballymena.gov.uk,-6.28330800000000,BT42 2AN,2014-07-28,fhrs_5_en-GB,5,,FHRS,5
401284,2 Castle Demesne Link,,Ballymena,Antrim,Lidl,Retailers - supermarkets/hypermarkets,7840,0,,403591,10,,54.86232200000000,2449,804,environmental.health@ballymena.gov.uk,Ballymena,http://www.ballymena.gov.uk,-6.27034600000000,,2014-10-08,fhrs_4_en-GB,4,,FHRS,5
401285,,,,,Lily - Rose Cupcakes,Manufacturers/packers,7839,5,,730212,5,,,3513,804,environmental.health@ballymena.gov.uk,Ballymena,http://www.ballymena.gov.uk,,,2015-01-06,fhrs_5_en-GB,5,,FHRS,0
401286,,,,,Lime Tree Cakes,Other catering premises,7841,0,,403727,0,,,2989,804,environmental.health@ballymena.gov.uk,Ballymena,http://www.ballymena.gov.uk,,,2014-06-26,fhrs_5_en-GB,5,,FHRS,0
401287,6 Johnstontown Road,Craigywarren,Ballymena,Antrim,Limecourt Bed & Breakfast,Hotel/bed & breakfast/guest house,7842,5,,403222,5,,54.90784600000000,1252,804,environmental.health@ballymena.gov.uk,Ballymena,http://www.ballymena.gov.uk,-6.25123900000000,BT43 6PX,2014-05-21,fhrs_5_en-GB,5,,FHRS,0
401288,46 Lisnafillon Road,Gracehill,Ballymena,Antrim,Lisnafillan Lodge,Hotel/bed & breakfast/guest house,7842,5,,403271,0,,54.85890900000000,1391,804,environmental.health@ballymena.gov.uk,Ballymena,http://www.ballymena.gov.uk,-6.34739000000000,BT42 1JA,2013-07-22,fhrs_5_en-GB,5,,FHRS,0
401289,83a Galgorm Road,Gracehill,Ballymena,Antrim,Little Rays Day Nursery,Hospitals/Childcare/Caring Premises,5,0,,403145,5,,54.86287200000000,1009,804,environmental.health@ballymena.gov.uk,Ballymena,http://www.ballymena.gov.uk,-6.28590900000000,BT42 1AA,2014-11-26,fhrs_5_en-GB,5,,FHRS,5
401290,2-4 Railway Street,,Ballymena,Antrim,Living Rivers church,Other catering premises,7841,,,403413,,,54.86103800000000,1911,804,environmental.health@ballymena.gov.uk,Ballymena,http://www.ballymena.gov.uk,-6.27885400000000,BT42 2AB,2013-07-22,fhrs_exempt_en-GB,Exempt,,FHRS,
401291,8 Linenhall Street,,Ballymena,Antrim,Living Rivers Lighthouse Hostel,Other catering premises,7841,,,403266,,,54.86390200000000,1365,804,environmental.health@ballymena.gov.uk,Ballymena,http://www.ballymena.gov.uk,-6.27743900000000,BT43 5AL,2014-02-14,fhrs_4_en-GB,4,,FHRS,
401292,31-33 Broughshane Street,,Ballymena,Antrim,Lloyds Pharmacy,Retailers - other,4613,,,403843,,,54.86728400000000,315,804,environmental.health@ballymena.gov.uk,Ballymena,http://www.ballymena.gov.uk,-6.27326100000000,BT43 6EB,2014-05-02,fhrs_exempt_en-GB,Exempt,,FHRS,
401293,7a Fernisky Road,,Kells,Antrim,Logans Store,Retailers - other,4613,,,633675,,,54.80779200000000,3390,804,environmental.health@ballymena.gov.uk,Ballymena,http://www.ballymena.gov.uk,-6.22106500000000,BT42 3JP,2014-02-12,fhrs_exempt_en-GB,Exempt,,FHRS,
401294,,,,,Lola Rose Cakes,Manufacturers/packers,7839,5,,730211,5,,,3505,804,environmental.health@ballymena.gov.uk,Ballymena,http://www.ballymena.gov.uk,,,2015-01-12,fhrs_5_en-GB,5,,FHRS,5
401295,82 Carnearney Road,,Ahoghill,Antrim,Longstone Primary School,School/college/university,7845,0,,403898,5,,54.82925000000000,406,804,environmental.health@ballymena.gov.uk,Ballymena,http://www.ballymena.gov.uk,-6.41867800000000,BT42 2PN,2013-05-29,fhrs_4_en-GB,4,,FHRS,10
401296,103 Carnlough Road,,Broughshane,Antrim,Loughconnolly Bed & Breakfast,Hotel/bed & breakfast/guest house,7842,5,,403901,0,,54.90852000000000,423,804,environmental.health@ballymena.gov.uk,Ballymena,http://www.ballymena.gov.uk,-6.14166900000000,BT43 7HQ,2013-07-24,fhrs_5_en-GB,5,,FHRS,0
401297,,,,,Lovely Day Bakery,Manufacturers/packers,7839,0,,462868,0,,,3235,804,environmental.health@ballymena.gov.uk,Ballymena,http://www.ballymena.gov.uk,,,2014-10-24,fhrs_5_en-GB,5,,FHRS,0
401298,Old Library Ballee Neighbourhood Centre,Ballee,Ballymena,Antrim,M & M's Day Today,Retailers - other,4613,10,,403821,5,,54.84945000000000,31,804,environmental.health@ballymena.gov.uk,Ballymena,http://www.ballymena.gov.uk,-6.27198300000000,BT42 3EX,2014-10-27,fhrs_4_en-GB,4,,FHRS,5
401299,204 Glenravel Road,,Cargan,Antrim,Mace,Manufacturers/packers,7839,5,,403171,10,,54.99456700000000,1089,804,environmental.health@ballymena.gov.uk,Ballymena,http://www.ballymena.gov.uk,-6.18124500000000,BT43 6RB,2014-07-25,fhrs_4_en-GB,4,,FHRS,5
401300,187 Largy Road,,Ahoghill,Antrim,Mace Ahoghill - Largy Rd Filling Station,Retailers - other,4613,5,,403763,5,,54.80773700000000,3039,804,environmental.health@ballymena.gov.uk,Ballymena,http://www.ballymena.gov.uk,-6.39564300000000,BT42 2RH,2013-05-15,fhrs_5_en-GB,5,,FHRS,5
401301,,,,,Madaboutdonuts,Mobile caterer,7846,5,,403632,5,,,263,804,environmental.health@ballymena.gov.uk,Ballymena,http://www.ballymena.gov.uk,,,2012-09-06,fhrs_5_en-GB,5,,FHRS,5
401302,60 Tower Centre,Wellington Street,Ballymena,Antrim,Magill Meats,Retailers - other,4613,10,,403499,0,,54.86584300000000,2169,804,environmental.health@ballymena.gov.uk,Ballymena,http://www.ballymena.gov.uk,-6.27741900000000,BT43 6AH,2014-11-18,fhrs_4_en-GB,4,,FHRS,5
401303,57 Broughshane Street,,Ballymena,Antrim,Maine Bakery,Retailers - other,4613,5,,403879,10,,54.86826200000000,332,804,environmental.health@ballymena.gov.uk,Ballymena,http://www.ballymena.gov.uk,-6.27256500000000,BT43 6ED,2013-12-12,fhrs_4_en-GB,4,,FHRS,0
401304,62 Main Street,,Portglenone,Antrim,Maine Bakery,Retailers - other,4613,5,,403335,5,,54.87283700000000,1587,804,environmental.health@ballymena.gov.uk,Ballymena,http://www.ballymena.gov.uk,-6.47821000000000,BT44 8HS,2014-10-07,fhrs_5_en-GB,5,,FHRS,5
401305,77 Main Street,Cullybackey,Ballymena,Antrim,Maine Bakery,Manufacturers/packers,7839,5,,403314,5,,54.88818900000000,1507,804,environmental.health@ballymena.gov.uk,Ballymena,http://www.ballymena.gov.uk,-6.35340700000000,BT42 1BW,2014-07-22,fhrs_5_en-GB,5,,FHRS,5
401306,Unit 2 Galgorm Court Raphael Way,Galgorm,Ballymena,Antrim,Maine Bakery,Retailers - other,4613,0,,404072,5,,54.85867300000000,978,804,environmental.health@ballymena.gov.uk,Ballymena,http://www.ballymena.gov.uk,-6.32229600000000,BT42 1GQ,2012-08-06,fhrs_5_en-GB,5,,FHRS,5
401307,2 Fernisky Road,,Kells,Antrim,Manna,Restaurant/Cafe/Canteen,1,5,,633672,5,,54.80779200000000,3358,804,environmental.health@ballymena.gov.uk,Ballymena,http://www.ballymena.gov.uk,-6.22106500000000,BT42 3JP,2014-02-12,fhrs_5_en-GB,5,,FHRS,5
401308,Fairhill Shopping Centre,Fairhill Lane,Ballymena,Antrim,Marks & Spencer,Retailers - supermarkets/hypermarkets,7840,5,,404035,5,,54.86907900000000,876,804,environmental.health@ballymena.gov.uk,Ballymena,http://www.ballymena.gov.uk,-6.27502200000000,BT43 6UF,2014-08-04,fhrs_5_en-GB,5,,FHRS,0
401309,71 Moorfields Road,,Ballymena,Antrim,Marlagh Lodge,Restaurant/Cafe/Canteen,1,5,,403356,5,,54.84537400000000,1697,804,environmental.health@ballymena.gov.uk,Ballymena,http://www.ballymena.gov.uk,-6.22420600000000,BT42 3BU,2013-10-09,fhrs_5_en-GB,5,,FHRS,5
401310,77 Glenravel Road,,Martinstown,Antrim,Martinstown Spar,Retailers - other,4613,5,,403165,5,,54.96239100000000,1079,804,environmental.health@ballymena.gov.uk,Ballymena,http://www.ballymena.gov.uk,-6.22598000000000,BT43 6QQ,2013-11-07,fhrs_5_en-GB,5,,FHRS,5
401311,32 Main Street,,Portglenone,Antrim,Mauds Cards and Candy,Retailers - other,4613,10,,403326,5,,54.87293400000000,1551,804,environmental.health@ballymena.gov.uk,Ballymena,http://www.ballymena.gov.uk,-6.47591700000000,BT44 8AB,2014-06-30,fhrs_4_en-GB,4,,FHRS,5
401312,45 Broughshane Street,,Ballymena,Antrim,Maureen's,Takeaway/sandwich shop,7844,5,,403877,0,,54.86728400000000,328,804,environmental.health@ballymena.gov.uk,Ballymena,http://www.ballymena.gov.uk,-6.27326100000000,BT43 6EB,2014-02-24,fhrs_5_en-GB,5,,FHRS,0
401313,7 Thomas Street,,Ballymena,Antrim,Mc Atamneys Butchers,Retailers - other,4613,,,403479,,,54.86838800000000,2102,804,environmental.health@ballymena.gov.uk,Ballymena,http://www.ballymena.gov.uk,-6.27573700000000,BT43 6AU,2014-04-16,fhrs_4_en-GB,4,,FHRS,
401314,87-89 Wellington Street,,Ballymena,Antrim,Mc Cooey's,Pub/bar/nightclub,7843,0,,703948,5,,54.86576900000000,3480,804,environmental.health@ballymena.gov.uk,Ballymena,http://www.ballymena.gov.uk,-6.27475800000000,BT43 6AD,2014-10-08,fhrs_4_en-GB,4,,FHRS,10
401315,42 Henry Street,,Ballymena,Antrim,Mc Fall Meats,Manufacturers/packers,7839,0,,403199,5,,54.86119600000000,1192,804,environmental.health@ballymena.gov.uk,Ballymena,http://www.ballymena.gov.uk,-6.27725900000000,BT42 3AH,2014-07-07,fhrs_5_en-GB,5,,FHRS,5
401316,59 Main Street,Broughshane,Ballymena,Antrim,McAllister's Butchers,Manufacturers/packers,7839,5,,403294,5,,54.89358200000000,1457,804,environmental.health@ballymena.gov.uk,Ballymena,http://www.ballymena.gov.uk,-6.20341200000000,BT42 4JP,2014-10-22,fhrs_5_en-GB,5,,FHRS,5
401317,1 Pentagon Retail Park,Galgorm Road,Ballymena,Antrim,McDonalds (Ballymena),Takeaway/sandwich shop,7844,0,,403382,5,,54.86440500000000,1761,804,environmental.health@ballymena.gov.uk,Ballymena,http://www.ballymena.gov.uk,-6.27995700000000,BT43 5LU,2013-02-26,fhrs_5_en-GB,5,,FHRS,0
401318,34 Broughshane Street,,Ballymena,Antrim,McGroggan's,Retailers - other,4613,10,,403852,0,,54.86728400000000,316,804,environmental.health@ballymena.gov.uk,Ballymena,http://www.ballymena.gov.uk,-6.27326100000000,BT43 6EB,2014-09-12,fhrs_4_en-GB,4,,FHRS,10
401319,84 Main Street,Broughshane,Ballymena,Antrim,McGroggan's Newsagents,Manufacturers/packers,7839,5,,403300,0,,54.89358200000000,1470,804,environmental.health@ballymena.gov.uk,Ballymena,http://www.ballymena.gov.uk,-6.20341200000000,BT42 4JP,2014-11-20,fhrs_5_en-GB,5,,FHRS,5
401320,82-88 Wellington Street,,Ballymena,Antrim,McKillens Fashions/Coffee Shop,Restaurant/Cafe/Canteen,1,5,,403540,5,,54.86620100000000,2295,804,environmental.health@ballymena.gov.uk,Ballymena,http://www.ballymena.gov.uk,-6.27484900000000,BT43 6AF,2014-05-23,fhrs_5_en-GB,5,,FHRS,0
401321,71-73 Main Street,,Broughshane,Antrim,McNeill's Vivo/Post Office,Retailers - other,4613,5,,403297,5,,54.89358200000000,1464,804,environmental.health@ballymena.gov.uk,Ballymena,http://www.ballymena.gov.uk,-6.20341200000000,BT42 4JP,2014-08-21,fhrs_5_en-GB,5,,FHRS,5
401322,52 Main Street,,Portglenone,Antrim,Mc's Fish 'n' Chips,Takeaway/sandwich shop,7844,5,,403333,0,,54.87283700000000,1575,804,environmental.health@ballymena.gov.uk,Ballymena,http://www.ballymena.gov.uk,-6.47821000000000,BT44 8HS,2013-05-13,fhrs_5_en-GB,5,,FHRS,5
401323,13 Redford Road,,Cullybackey,Antrim,Meadowview B & B,Hotel/bed & breakfast/guest house,7842,0,,403419,0,,54.90618200000000,1947,804,environmental.health@ballymena.gov.uk,Ballymena,http://www.ballymena.gov.uk,-6.34140000000000,BT43 5PR,2013-12-11,fhrs_5_en-GB,5,,FHRS,0
401324,25 The Diamond,,Ahoghill,Antrim,Medicare,Retailers - other,4613,,,403467,,,54.85142200000000,2068,804,environmental.health@ballymena.gov.uk,Ballymena,http://www.ballymena.gov.uk,-6.36572700000000,BT42 1JZ,2014-08-07,fhrs_exempt_en-GB,Exempt,,FHRS,
401325,82 Main Street,Broughshane,Ballymena,Antrim,Merchant Fish Bar,Takeaway/sandwich shop,7844,5,,403299,0,,54.89358200000000,1468,804,environmental.health@ballymena.gov.uk,Ballymena,http://www.ballymena.gov.uk,-6.20341200000000,BT42 4JP,2014-09-10,fhrs_5_en-GB,5,,FHRS,5
401326,30 Woodside Road,,Ballymena,Antrim,Michelin Athletic Club,Pub/bar/nightclub,7843,5,,403563,5,,54.87579600000000,2355,804,environmental.health@ballymena.gov.uk,Ballymena,http://www.ballymena.gov.uk,-6.23729600000000,BT42 4HX,2014-10-31,fhrs_5_en-GB,5,,FHRS,5
401327,18 Thomas Street,,Ballymena,Antrim,Milanos,Restaurant/Cafe/Canteen,1,5,,665937,5,,54.86838800000000,3426,804,environmental.health@ballymena.gov.uk,Ballymena,http://www.ballymena.gov.uk,-6.27573700000000,BT43 6AU,2014-07-10,fhrs_5_en-GB,5,,FHRS,5
401328,20b Henry Street,,Ballymena,Antrim,Millar's Potatoes,Retailers - other,4613,,,403196,,,54.86119600000000,1181,804,environmental.health@ballymena.gov.uk,Ballymena,http://www.ballymena.gov.uk,-6.27725900000000,BT42 3AH,2013-09-26,fhrs_exempt_en-GB,Exempt,,FHRS,
401329,91 Main Street,,Broughshane,Antrim,Millbrae Fold,Other catering premises,7841,0,,403302,0,,54.89358200000000,1475,804,environmental.health@ballymena.gov.uk,Ballymena,http://www.ballymena.gov.uk,-6.20341200000000,BT42 4JP,2012-12-04,fhrs_5_en-GB,5,,FHRS,5
401330,139 Crosskeys Road,Toomebridge,Antrim,Antrim,Millquarter Primary School,School/college/university,7845,0,,403962,0,,54.79542900000000,648,804,environmental.health@ballymena.gov.uk,Ballymena,http://www.ballymena.gov.uk,-6.43211100000000,BT41 3PY,2014-05-01,fhrs_5_en-GB,5,,FHRS,0
401331,19a Church Road,Gracehill,Ballymena,Antrim,Millside Restaurant,Restaurant/Cafe/Canteen,1,5,,403916,5,,54.85338000000000,468,804,environmental.health@ballymena.gov.uk,Ballymena,http://www.ballymena.gov.uk,-6.32743600000000,BT42 2NL,2014-01-16,fhrs_5_en-GB,5,,FHRS,5
401332,48 Linenhall Street,,Ballymena,Antrim,Mini Market,Retailers - other,4613,,,730214,,,54.86422600000000,3519,804,environmental.health@ballymena.gov.uk,Ballymena,http://www.ballymena.gov.uk,-6.27750300000000,BT43 5AJ,,fhrs_awaitinginspection_en-GB,AwaitingInspection,,FHRS,
401333,62 Cullybackey Road,,Ballymena,Antrim,Minnesotas Snooker Club,Restaurant/Cafe/Canteen,1,10,,619111,5,,54.86643200000000,670,804,environmental.health@ballymena.gov.uk,Ballymena,http://www.ballymena.gov.uk,-6.28223800000000,BT43 5DF,2013-11-21,fhrs_2_en-GB,2,,FHRS,15
401334,76d Main Street,,Cullybackey,Antrim,Mirador,Takeaway/sandwich shop,7844,10,,642675,5,,54.88818900000000,3391,804,environmental.health@ballymena.gov.uk,Ballymena,http://www.ballymena.gov.uk,-6.35340700000000,BT42 1BW,2014-04-15,fhrs_4_en-GB,4,,FHRS,5
401335,,,,,Mister Softee,Mobile caterer,7846,0,,403529,0,,,224,804,environmental.health@ballymena.gov.uk,Ballymena,http://www.ballymena.gov.uk,,,2014-08-04,fhrs_5_en-GB,5,,FHRS,0
401336,,,,,Mister Softee / Syd's Ices,Mobile caterer,7846,5,,403620,0,,,2589,804,environmental.health@ballymena.gov.uk,Ballymena,http://www.ballymena.gov.uk,,,2013-07-24,fhrs_5_en-GB,5,,FHRS,0
401337,,,,,Mitchell's Outside Catering,Mobile caterer,7846,10,,403464,5,,,206,804,environmental.health@ballymena.gov.uk,Ballymena,http://www.ballymena.gov.uk,,,2014-01-27,fhrs_4_en-GB,4,,FHRS,0
401338,Inchcolm Avenue,,Ballymena,Antrim,Moatview Court,Other catering premises,7841,0,,403601,5,,54.85888500000000,2479,804,environmental.health@ballymena.gov.uk,Ballymena,http://www.ballymena.gov.uk,-6.26450900000000,BT42 4AF,2014-10-07,fhrs_5_en-GB,5,,FHRS,0
401339,42 Knockeen Road,,Ballymena,Antrim,Mobile Shop,Retailers - other,4613,,,607717,,,54.85760700000000,3328,804,environmental.health@ballymena.gov.uk,Ballymena,http://www.ballymena.gov.uk,-6.25244800000000,BT42 4DG,2013-10-31,fhrs_exempt_en-GB,Exempt,,FHRS,
401340,80a Main Street,,Cullybackey,Antrim,Moby Chip,Takeaway/sandwich shop,7844,5,,403315,5,,54.88818900000000,1511,804,environmental.health@ballymena.gov.uk,Ballymena,http://www.ballymena.gov.uk,-6.35340700000000,BT42 1BW,2014-04-01,fhrs_5_en-GB,5,,FHRS,5
401341,26 Castle Street,,Ballymena,Antrim,Molly Malone's,Takeaway/sandwich shop,7844,,,633673,,,54.86358600000000,3383,804,environmental.health@ballymena.gov.uk,Ballymena,http://www.ballymena.gov.uk,-6.27480500000000,BT43 7BT,2014-07-17,fhrs_5_en-GB,5,,FHRS,
401342,25b Woodside Road Industrial Estate,Woodside Industrial Estate,Ballymena,Antrim,Monkey Business,Restaurant/Cafe/Canteen,1,5,,403863,5,,54.87375400000000,3175,804,environmental.health@ballymena.gov.uk,Ballymena,http://www.ballymena.gov.uk,-6.22786600000000,BT42 4QJ,2014-03-28,fhrs_5_en-GB,5,,FHRS,5
401343,39 Ballymoney Street,,Ballymena,Antrim,Montgomerys,Restaurant/Cafe/Canteen,1,5,,403868,5,,54.86760300000000,3187,804,environmental.health@ballymena.gov.uk,Ballymena,http://www.ballymena.gov.uk,-6.27488300000000,BT43 6AN,2014-02-13,fhrs_5_en-GB,5,,FHRS,0
401344,180 Moorfields Road,,Ballymena,Antrim,Moorfields Primary School,School/college/university,7845,0,,403354,5,,54.82861200000000,1691,804,environmental.health@ballymena.gov.uk,Ballymena,http://www.ballymena.gov.uk,-6.15457000000000,BT42 3EF,2014-12-08,fhrs_5_en-GB,5,,FHRS,5
401345,22-26 Waveney Road,,Ballymena,Antrim,Mount Charles Catering,Restaurant/Cafe/Canteen,1,5,,403535,0,,54.86251500000000,2258,804,environmental.health@ballymena.gov.uk,Ballymena,http://www.ballymena.gov.uk,-6.27974100000000,BT43 5BA,2013-05-16,fhrs_4_en-GB,4,,FHRS,10
401346,170 Larne Road,,Ballymena,Antrim,Moy Park ( Staff Canteen ),Restaurant/Cafe/Canteen,1,0,,403249,5,,54.85462500000000,1332,804,environmental.health@ballymena.gov.uk,Ballymena,http://www.ballymena.gov.uk,-6.25942900000000,BT42 3HA,2013-05-17,fhrs_5_en-GB,5,,FHRS,5
401347,170 Larne Road,,Ballymena,Antrim,Moy Park Factory Shop,Retailers - other,4613,0,,403660,5,,54.85462500000000,2776,804,environmental.health@ballymena.gov.uk,Ballymena,http://www.ballymena.gov.uk,-6.25942900000000,BT42 3HA,2012-05-21,fhrs_5_en-GB,5,,FHRS,5
401348,,,,,Mr Whippy,Mobile caterer,7846,0,,403456,0,,,2046,804,environmental.health@ballymena.gov.uk,Ballymena,http://www.ballymena.gov.uk,,,2014-04-30,fhrs_5_en-GB,5,,FHRS,0
401349,,,,,Mrs Julie McMaster (Caterer),Other catering premises,7841,5,,403543,0,,,230,804,environmental.health@ballymena.gov.uk,Ballymena,http://www.ballymena.gov.uk,,,2012-09-28,fhrs_5_en-GB,5,,FHRS,0
401350,101 Frys Road,,Ballymena,Antrim,N H S C T Pinewood Residential Home,Hospitals/Childcare/Caring Premises,5,5,,404062,5,,54.88305900000000,967,804,environmental.health@ballymena.gov.uk,Ballymena,http://www.ballymena.gov.uk,-6.26502800000000,BT43 7DH,2014-08-14,fhrs_5_en-GB,5,,FHRS,5
401351,The Willows Icu 55 Old Antrim Road,,Ballymena,Antrim,N H S C T The Willows,Hospitals/Childcare/Caring Premises,5,5,,591131,5,,54.84890000000000,3332,804,environmental.health@ballymena.gov.uk,Ballymena,http://www.ballymena.gov.uk,-6.27560300000000,BT42 2HH,2013-11-20,fhrs_5_en-GB,5,,FHRS,0
401352,83 Wakehurst Road,,Ballymena,Antrim,Nadine's Diner,Restaurant/Cafe/Canteen,1,5,,403530,10,,54.85687300000000,2240,804,environmental.health@ballymena.gov.uk,Ballymena,http://www.ballymena.gov.uk,-6.27467100000000,BT42 3AZ,2014-02-11,fhrs_4_en-GB,4,,FHRS,5
