,businessname,ratingvalue,structural,hygiene,confidenceinmanagement,ratingdate,latitude,longitude
400982,3-sixteen,4,0,0,10,2012-03-07,54.873182,-6.475627
400983,A Slice of Cake,5,0,5,5,2014-04-23,,
400984,Abbeyfield,5,0,5,5,2013-03-13,54.871529,-6.28375
400985,Adair Arms Hotel,5,5,5,5,2014-10-06,54.866905,-6.279461
400986,Ahoghill Community Playgroup,5,0,5,0,2014-09-12,54.854551,-6.364557
400987,Ahoghill Gospel Hall,Exempt,nan,nan,nan,2014-03-05,54.852498,-6.366883
400988,All Saints GAC,4,5,5,10,2013-08-22,54.87007,-6.227841
400989,Allen's Meats,5,5,0,5,2014-06-10,54.851422,-6.365727
400990,Andena Residential Home,5,5,5,5,2014-11-24,54.874807,-6.289391
400991,Ann's Kitchen,5,0,0,5,2014-05-07,,
400992,Argos Distributors Ltd,Exempt,nan,nan,nan,2013-02-27,54.866989,-6.277152
400993,Ashgrove Cafe,4,5,5,10,2013-08-06,54.9245,-6.324985
400994,Asian Venture,AwaitingInspection,nan,nan,nan,,54.865115,-6.278088
400995,Athenas,4,10,5,5,2014-10-07,54.851219,-6.364023
400996,B & M Bargains,5,5,5,5,2012-07-26,54.865843,-6.277419
400997,B&M Bargains,5,5,0,5,2012-08-01,54.861568,-6.27187
400998,Ballee Baptist Church Hall,Exempt,nan,nan,nan,2014-06-18,54.852211,-6.281644
400999,Ballee Community Association,5,0,0,5,2014-03-12,54.84945,-6.271983
401000,Ballee Community Childcare Complex,5,0,5,0,2014-10-27,54.85336,-6.275927
401001,Ballee Mission Hall,Exempt,nan,nan,nan,2014-07-21,54.850642,-6.276214
401002,Ballee Presbyterian Church Hall,Exempt,nan,nan,nan,2012-05-10,54.843463,-6.273621
401003,Bally Bingo,5,5,5,5,2014-08-27,54.856873,-6.274671
401004,Ballykeel (Surestart) Creche,5,5,5,0,2014-05-30,54.858835,-6.2585
401005,Ballykeel 2000 Community Centre,5,0,0,5,2013-08-05,54.858835,-6.2585
401006,Ballykeel Creche,5,5,0,0,2012-06-28,54.858835,-6.2585
401007,Ballykeel Pharmacy,Exempt,nan,nan,nan,2012-09-28,54.858132,-6.252721
401008,Ballykeel Presbyterian Church Hall,Exempt,nan,nan,nan,2013-02-07,54.858835,-6.2585
401009,Ballykeel Primary School,5,0,0,0,2014-11-11,54.858835,-6.2585
401010,Ballyloughan Pres. Church Hall,Exempt,nan,nan,nan,2013-03-07,54.907418,-6.287213
401011,Ballymena Academy,5,5,0,5,2014-01-23,54.864992,-6.292922
401012,Ballymena Baptist Church,5,0,5,5,2012-02-02,54.869334,-6.277161
401013,Ballymena Borough Council (Canteen),5,0,5,5,2014-01-27,54.862567,-6.283399
401014,Ballymena Bowling Club,5,5,5,5,2013-04-09,54.874913,-6.281612
401015,Ballymena Church of God,Exempt,nan,nan,nan,2014-03-11,54.87763,-6.257269
401016,Ballymena Eotas,5,5,5,5,2012-11-20,54.893353,-6.210982
401017,Ballymena Free Presbyterian Church,Exempt,nan,nan,nan,2014-04-09,54.855135,-6.276925
401018,Ballymena Golf Club,4,5,10,5,2014-05-15,54.884314,-6.229304
401019,Ballymena Gospel Hall,Exempt,nan,nan,nan,2012-08-02,54.858838,-6.292279
401020,Ballymena House of Pizza,5,5,5,5,2013-12-10,54.860042,-6.277619
401021,Ballymena Independent Methodist Church,Exempt,nan,nan,nan,2014-02-07,54.874014,-6.279033
401022,Ballymena Masonic Hall,5,5,5,5,2014-08-06,54.865641,-6.279047
401023,Ballymena Methodist Church,4,0,5,10,2013-03-25,54.867827,-6.280512
401024,Ballymena Nursery School,5,0,0,5,2013-10-14,54.862836,-6.270071
401025,Ballymena Post Office & Spar,1,10,10,20,2014-08-26,54.865843,-6.277419
401026,Ballymena Primary School,5,5,5,0,2012-06-13,54.872284,-6.283749
401027,Ballymena Rugby Football Club,5,0,5,0,2014-04-12,54.877301,-6.243805
401028,Ballymena Senior Citizens Club,Exempt,nan,nan,nan,2012-09-12,54.86491,-6.271197
401029,Ballymena Showgrounds,Exempt,nan,nan,nan,2013-02-06,54.870251,-6.266513
401030,Ballywatermoy Gospel Hall,Exempt,nan,nan,nan,2014-03-12,54.925978,-6.354952
401031,Bannside Meats,5,5,5,5,2013-09-10,54.858673,-6.322296
401032,Bannside Pharmacy,Exempt,nan,nan,nan,2014-08-07,54.873098,-6.479665
401033,Bannside Tearooms,5,0,0,5,2012-03-07,54.871267,-6.471898
401034,Barrs Butchers,5,5,5,5,2013-11-13,54.866763,-6.274529
401035,Bayleaf Restaurant,3,5,10,10,2013-11-11,54.864992,-6.276334
401036,Bethel Temple (P'one Fellowship),Exempt,nan,nan,nan,2014-02-04,54.873098,-6.479665
401037,Bethlehem Abbey Guesthouse,5,0,0,5,2012-03-07,54.871267,-6.471898
401038,Big Al's Pizza & Bbq Smokehouse,5,5,0,5,2014-05-06,54.868262,-6.272565
401039,Big Bears Pizza Shack,4,0,5,10,2014-03-11,54.861356,-6.325984
401040,Big Occasions,5,5,5,5,2014-08-26,54.869762,-6.271877
401041,Blackstone Bar,5,5,5,5,2013-06-06,54.868585,-6.276928
401042,Boots The Chemist,Exempt,nan,nan,nan,2013-08-27,54.869079,-6.275022
401043,Boots The Chemist Ltd,5,5,5,0,2013-01-15,54.865843,-6.277419
401044,Braefield Nursing & Residential Home,5,5,0,5,2014-11-19,54.805896,-6.207632
401045,Braid River Service Station,5,5,5,5,2013-03-05,54.865674,-6.281398
401046,Braidside Integrated Nursery School,4,10,5,5,2014-06-19,54.87763,-6.257269
401047,Braidside Integrated Primary School,5,5,5,5,2013-04-17,54.87763,-6.257269
401048,Braidwater Seniors Luncheon Club,5,5,5,5,2014-03-25,54.85637,-6.270831
401049,Brian Andrews,Exempt,nan,nan,nan,2015-01-20,,
401050,Bridge Service Station,5,0,0,5,2014-09-09,54.887876,-6.362194
401051,Brookside Presbyterian Church Hall,Exempt,nan,nan,nan,2014-02-26,54.852498,-6.366883
401052,Broughshane & District Community Association,5,5,0,5,2014-07-21,54.893353,-6.210982
401053,Broughshane B&B,5,0,5,5,2014-05-21,54.893353,-6.210982
401054,Broughshane Centre Of Early Learning,5,0,0,0,2014-06-09,54.893353,-6.210982
401055,Broughshane Gospel Hall,Exempt,nan,nan,nan,2014-03-05,54.889654,-6.197774
401056,Broughshane Pharmacy,Exempt,nan,nan,nan,2013-03-04,54.893582,-6.203412
401057,Broughshane Primary School,5,5,5,0,2014-03-27,54.892278,-6.215488
401058,Bt & P.o Sports Social Club,5,0,5,5,2013-11-01,54.865698,-6.273578
401059,Buckna Gospel Hall,Exempt,nan,nan,nan,2014-03-06,54.899629,-6.111632
401060,Buckna Presbyterian Church Hall,Exempt,nan,nan,nan,2015-01-22,54.899612,-6.127363
401061,Buick Memorial Primary School,5,0,5,5,2014-06-23,54.888189,-6.353407
401062,Burger Express,3,10,10,10,2014-04-15,,
401063,Burger King,5,5,5,0,2014-08-28,54.865843,-6.277419
401064,Burger King,4,5,10,5,2014-07-08,54.869079,-6.275022
401065,C & C Today Extra,4,5,5,10,2014-08-15,54.858322,-6.263459
401066,Cafe Couture,5,5,5,5,2014-09-18,54.858835,-6.2585
401067,Cafe Couture Ballykeel,4,0,5,10,2015-01-13,54.858835,-6.2585
401068,Cafe Lamont (Learn Direct CentreNRC),5,0,5,5,2014-02-12,54.931458,-6.245837
401069,Caffe Nero,5,5,0,5,2013-07-19,54.869079,-6.275022
401070,Caffe Tosca,5,5,5,5,2015-01-08,54.86764,-6.274943
401071,Cake & Crust,4,5,10,5,2014-03-25,54.868262,-6.272565
401072,Cambridge House Grammar School,5,5,5,0,2014-03-20,54.857426,-6.29346
401073,Camerons,5,0,5,5,2013-11-04,54.867284,-6.273261
401074,Camerons at Home (Time for Coffee),5,0,0,5,2014-05-22,54.867284,-6.273261
401075,Cammie Bill's,5,0,0,5,2013-10-23,,
401076,Camphill Care Home,5,5,5,5,2014-12-01,54.852781,-6.27877
401077,Camphill Primary School,5,0,5,0,2014-03-24,54.850953,-6.279735
401078,Candy Bar,3,10,5,10,2014-05-07,54.860042,-6.277619
401079,Candy Corner,5,5,0,5,2013-03-07,54.857776,-6.264261
401080,Carnaghts Primary School,5,0,5,0,2013-02-04,54.815706,-6.268866
401081,Carniny Primary School,5,0,5,5,2014-06-23,54.872263,-6.298207
401082,Carnmoyne Private Residential Home,5,0,5,5,2013-12-03,54.849883,-6.366817
401083,Carnview Bed & Breakfast,5,5,5,5,2014-04-10,54.933261,-6.08712
401084,Castle Tower - Beechgrove Campus,5,5,5,0,2013-06-18,54.87763,-6.257269
401085,Castle Tower - Loughan School,5,0,5,5,2013-11-12,54.874913,-6.281612
401086,Castle Tower Dunfane Campus,5,0,5,5,2014-02-13,54.87763,-6.257269
401087,Castlegore Mission Hall,Exempt,nan,nan,nan,2014-04-02,54.81695,-6.126367
401088,Caulfield & Dorrity Catering,5,0,5,5,2014-05-23,,
401089,Cellar 13,5,5,0,0,2013-05-03,54.868388,-6.275737
401090,Charbella,4,5,5,10,2014-09-10,54.877421,-6.270303
401091,Chloes Burger Bar,5,0,5,0,2014-02-08,,
401092,Classic Cuisine,5,5,5,5,2013-11-22,54.866787,-6.275572
401093,Clear Pharmacy,Exempt,nan,nan,nan,2013-07-10,54.875958,-6.474883
401094,Clonavon Congregational Church,Exempt,nan,nan,nan,2014-01-24,54.863136,-6.280431
401095,Clough & District Community P'group,5,0,0,0,2014-10-02,54.973062,-6.299382
401096,Clough G.R.S.C.,4,10,5,5,2014-07-09,54.965898,-6.29144
401097,Clough Gospel Hall,Exempt,nan,nan,nan,2014-03-05,54.973062,-6.299382
401098,Clough Presbyterian Church Hall,Exempt,nan,nan,nan,2015-01-12,54.958059,-6.327242
401099,Clough Primary School,5,0,5,0,2013-04-22,54.963366,-6.283272
401100,Cloughwater Presbyterian Church Hall,Exempt,nan,nan,nan,2014-03-07,54.927579,-6.272192
401101,Coffee Cube,3,10,5,10,2014-09-08,54.865843,-6.277419
401102,"Con Magee GAC, GLENRAVEL",5,5,5,5,2014-03-27,54.980258,-6.200152
401103,Cone Zone,5,0,0,5,2014-04-17,54.865843,-6.277419
401104,Confectionary,5,5,5,5,2014-07-23,54.864227,-6.277503
401105,Connolly's Bar,5,5,0,0,2013-03-04,54.88087,-6.278507
401106,Connor Presbyterian Church Hall,Exempt,nan,nan,nan,2013-12-10,54.800225,-6.179417
401107,Co-Op,3,10,10,10,2013-08-23,54.869762,-6.271877
401108,Co-op,3,10,10,5,2014-05-15,54.88087,-6.278507
401109,Corner Bakery,5,5,5,5,2015-01-06,54.866763,-6.274529
401110,Cornerstone Church,Exempt,nan,nan,nan,2014-05-27,54.859895,-6.254858
401111,Costcutter,3,10,5,10,2013-11-06,54.852498,-6.366883
401112,Costcutter Supermarket,5,0,5,5,2014-09-16,54.872934,-6.475917
401113,Costcutter Xtras,4,10,0,5,2013-09-13,54.873182,-6.475627
401114,Cosy Cupa,5,0,0,5,2014-03-25,54.861356,-6.325984
401115,Country Bite,5,5,5,0,2013-04-18,,
401116,Covenant Protestant Reformed Church,Exempt,nan,nan,nan,2013-11-11,54.867365,-6.285968
401117,Craigdun Care Home,5,0,5,5,2014-04-14,54.915603,-6.367727
401118,Craigs Church of Ireland Church Hall,Exempt,nan,nan,nan,2014-03-06,54.90132,-6.365172
401119,Craigywarren Orange Hall,Exempt,nan,nan,nan,2014-05-09,54.904693,-6.256848
401120,Creative Gardens Galgorm Castle,5,5,5,5,2014-04-25,54.858076,-6.317493
401121,Croft Lodge,4,0,5,10,2013-08-07,54.862252,-6.310248
401122,Crosskeys Gospel Hall,Exempt,nan,nan,nan,2012-08-02,54.808734,-6.417551
401123,Crosskeys Inn,5,5,0,0,2014-09-12,54.813146,-6.427287
401124,Crosskeys Meats,5,5,5,5,2014-03-20,54.847803,-6.299782
401125,Cullybackey College,5,5,0,5,2014-06-23,54.886885,-6.352011
401126,Cullybackey Elim Pentecostal Church,Exempt,nan,nan,nan,2013-01-18,54.890894,-6.355495
401127,Cullybackey Methodist Church Hall,Exempt,nan,nan,nan,2013-05-28,54.890894,-6.355495
401128,Cunningham Memorial Pres.Church Hall,Exempt,nan,nan,nan,2015-02-06,54.890894,-6.355495
401129,Cupcake Culture,5,5,5,0,2013-11-14,,
401130,Curleys Wine Cellar,Exempt,nan,nan,nan,2015-01-23,54.866432,-6.282238
401131,Dale Farm Dairies Ltd ( Staff Canteen ),5,5,5,0,2014-10-24,54.850647,-6.25893
401132,Dallas Diner,4,5,5,10,2014-08-12,,
401133,Day Today / Tanstan,3,10,10,10,2014-10-03,54.858673,-6.322296
401134,Dayfresh,4,10,0,10,2013-10-02,54.887312,-6.350357
401135,Dayfresh,4,10,0,5,2014-04-16,54.851219,-6.364023
401136,Deerfin Fold,5,5,5,5,2013-09-24,54.856893,-6.271634
401137,Desperate Dan's,3,10,5,10,2014-01-08,54.866763,-6.274529
401138,Devlins,5,5,0,0,2015-01-05,54.893582,-6.203412
401139,Diamond Bar,4,10,0,5,2013-03-07,54.875958,-6.474883
401140,Diamonds Newsagents,5,5,0,0,2013-05-03,54.869762,-6.271877
401141,Dinky Donuts,5,0,5,5,2012-07-23,,
401142,Dolphin / Upper Crust,4,5,5,10,2015-01-13,54.85699,-6.26962
401143,Dominos Pizza Ballymena,5,5,5,0,2014-09-04,54.862872,-6.285909
401144,Double Dragon,4,5,5,10,2014-04-16,54.868346,-6.274041
401145,Double Happiness Chinese Restaurant,4,5,10,5,2014-10-14,54.868262,-6.272565
401146,Double Happiness Chinese Takeaway,4,5,5,10,2013-11-19,54.859979,-6.277015
401147,Dougie's Goodies Bakery,5,5,5,5,2014-02-11,54.865115,-6.278088
401148,Doury Frier,5,5,5,5,2013-04-16,54.874014,-6.279033
401149,Dunclug College,5,0,5,5,2014-01-22,54.878935,-6.276331
401150,Dunclug Nursery School,5,0,0,0,2014-01-09,54.878935,-6.276331
401151,Dunclug Pharmacy,Exempt,nan,nan,nan,2013-07-09,54.88087,-6.278507
401152,Dunclug Primary School,5,5,0,5,2014-06-09,54.878935,-6.276331
401153,Eason & Son (NI) ltd,Exempt,nan,nan,nan,2014-07-04,54.869079,-6.275022
401154,Eastern Ocean,3,10,10,10,2014-03-20,54.867603,-6.274883
401155,Eatsville,5,nan,nan,nan,2013-12-12,54.860042,-6.277619
401156,ECOS Millennium Environmental Centre,5,0,5,5,2014-08-12,54.872212,-6.266647
401157,Eden Health Products,5,0,0,5,2013-10-24,54.866787,-6.275572
401158,Edinburgh Woolen Mill,Exempt,nan,nan,nan,2014-07-04,54.864489,-6.274455
401159,El Sombrero Rojo,5,5,5,5,2014-08-15,54.865115,-6.278088
401160,Elim Pentecostal Church,4,5,0,10,2012-03-02,54.863586,-6.274805
401161,Elior - Michelin Tyres,5,5,0,0,2014-06-30,54.879509,-6.233145
401162,Eurest Services Jti,5,5,5,0,2013-09-03,54.862384,-6.334742
401163,Eurospar,4,5,10,0,2014-02-20,54.888189,-6.353407
401164,Fairhill Bar,4,10,0,0,2014-09-16,54.868585,-6.276928
401165,Ferguson Meats Ltd ( Farm Shop ),5,0,0,5,2013-07-10,54.887876,-6.362194
401166,First Ahoghill Presbyterian Church,5,0,5,5,2014-06-26,54.852473,-6.35111
401167,First Ballymena Presbyterian Church,5,0,0,5,2013-09-30,54.863876,-6.273687
401168,First Broughshane Pres. Church Hall,Exempt,nan,nan,nan,2014-03-05,54.894118,-6.208018
401169,First P'one Presbyterian Church Hall,Exempt,nan,nan,nan,2011-04-28,54.873182,-6.475627
401170,First Steps Community Playgroup,5,0,5,5,2014-09-30,54.880254,-6.280029
401171,Fish N Chick Inn,5,5,5,5,2014-03-20,54.869762,-6.271877
401172,Fish N Chick Inn,5,5,5,5,2014-03-25,54.847803,-6.299782
401173,Fish N Chick Inn,5,5,5,5,2014-03-24,54.867603,-6.274883
401174,Fleck (Grocers),5,0,5,0,2014-08-18,54.828612,-6.15457
401175,Flexfitness Ni Ltd,Exempt,nan,nan,nan,2014-05-21,54.868388,-6.275737
401176,Flossy Treats,5,0,0,5,2014-08-07,54.861356,-6.325984
401177,Follow Coffee,4,0,5,10,2014-12-05,54.866787,-6.275572
401178,Fourtowns Primary School,5,5,5,5,2014-06-24,54.854551,-6.364557
401179,Frankie & Benny's,5,5,5,0,2014-07-22,54.860651,-6.268062
401180,Freshways,3,5,10,10,2013-07-10,54.872837,-6.47821
401181,Freshways,3,10,5,10,2014-04-15,54.866787,-6.275572
401182,Frew's Chippy,3,5,10,10,2014-06-11,54.851422,-6.365727
401183,Fruitland,5,5,0,0,2013-03-04,54.85941,-6.274874
401184,Frydays,5,5,5,5,2014-09-03,54.88087,-6.278507
401185,Fullan's Food Hall,5,0,5,5,2013-11-22,54.872837,-6.47821
401186,Gal Gourmet Sandwich Bar,5,5,5,5,2014-10-28,54.859299,-6.322784
401187,Galgorm Care Home,5,5,5,0,2014-01-28,54.862872,-6.285909
401188,Galgorm Resort & Spa,5,5,5,5,2014-05-20,54.877607,-6.344288
401189,Galgorm Village Greengrocer,5,5,0,5,2014-12-09,54.859299,-6.322784
401190,George Sloan Adult Centre,5,0,5,5,2014-03-19,54.850647,-6.25893
401191,Gillistown House,5,0,0,0,2014-01-16,54.807737,-6.395643
401192,Glarryford Post Office,Exempt,nan,nan,nan,2014-01-07,54.953439,-6.348773
401193,Glass's Country Catering,5,5,5,0,2014-07-23,,
401194,Glenburn Bed & Breakfast,5,0,0,5,2014-04-16,54.869884,-6.333311
401195,Glenfield Bed & Breakfast,5,0,0,5,2014-05-27,54.827482,-6.05848
401196,Glenravel Community Playgroup,5,0,5,5,2014-03-11,54.986289,-6.191868
401197,Glenravel Fold,5,0,5,5,2014-09-30,54.866143,-6.270101
401198,Glenravel Voluntary Primary School,5,5,5,5,2013-06-20,54.968882,-6.229379
401199,Glenravenous,5,5,5,5,2013-08-21,54.994567,-6.181245
401200,Glenwherry Presbyterian Church Hall,Exempt,nan,nan,nan,2014-06-06,54.828432,-6.081482
401201,Gloonan House,5,0,5,5,2014-10-09,54.851702,-6.361854
401202,Glory Be Cafe,5,0,5,5,2015-01-05,54.867284,-6.273261
401203,Go Sun Chinese Restaurant,3,10,10,10,2013-11-20,54.863467,-6.277162
401204,Golden Bamboo Take-Away,5,0,5,5,2014-05-08,54.85941,-6.274874
401205,Golden Boat,5,5,5,5,2014-01-15,54.845323,-6.249803
401206,Golden City,3,10,10,10,2014-10-13,54.851422,-6.365727
401207,Gordons Chemist,Exempt,nan,nan,nan,2014-07-01,54.867603,-6.274883
401208,Gortgole Fold,5,5,5,5,2013-01-16,54.874501,-6.477634
401209,Gracehill After School Club,5,0,5,5,2014-10-02,54.85338,-6.327436
401210,Gracehill Country Market,5,0,0,0,2014-09-04,54.85338,-6.327436
401211,Gracehill Moravian Church Hall,Exempt,nan,nan,nan,2012-03-20,54.85338,-6.327436
401212,Gracehill Primary School,5,5,5,0,2014-06-17,54.85338,-6.327436
401213,Gracehill/Galgorm CC/Playgroup,5,0,0,5,2013-12-05,54.858673,-6.322296
401214,Grafters Cafe,4,5,5,10,2013-09-17,54.850647,-6.25893
401215,Graham's Ahoghill,4,10,5,5,2014-08-22,54.852473,-6.35111
401216,Grange Baptist Church Hall,Exempt,nan,nan,nan,2014-08-26,54.797359,-6.394888
401217,Grange Presyterian Church Hall,Exempt,nan,nan,nan,2014-01-23,54.790768,-6.39375
401218,Gray's Family Butcher's,5,5,5,5,2012-11-16,54.888189,-6.353407
401219,Green Pastures,Exempt,nan,nan,nan,2014-05-22,54.862053,-6.327015
401220,Ground Espresso Bar,5,5,5,5,2013-10-15,54.866763,-6.274529
401221,Gwen's Cafe,5,0,0,5,2014-06-09,54.865876,-6.27343
401222,H McGroggan,4,5,0,10,2013-07-19,54.868346,-6.274041
401223,Halfway House,5,5,5,5,2014-08-12,54.921487,-6.104026
401224,Happitots Playgroup,5,0,0,0,2012-05-16,54.89169,-6.353249
401225,Happy Villa,5,5,5,5,2013-06-04,54.877018,-6.270383
401226,Happy Villa Chinese Takeaway,4,5,10,5,2013-08-15,54.859299,-6.322784
401227,Harryville Gospel Hall,Exempt,nan,nan,nan,2012-03-09,54.855507,-6.267021
401228,Harryville Presbyterian Church Hall,Exempt,nan,nan,nan,2015-02-10,54.859219,-6.272811
401229,Harryville Primary School & Nursery Unit,5,0,5,0,2014-06-19,54.859219,-6.272811
401230,Hazelbank Primary School,5,5,5,5,2014-06-27,54.90336,-6.111208
401231,He - Brews Coffee House,5,0,5,5,2013-11-26,54.860909,-6.277941
401232,High Kirk Presbyterian Church Hall,5,5,5,5,2013-04-12,54.870566,-6.27728
401233,High Street 51,4,10,5,5,2013-09-24,54.866989,-6.277152
401234,Hillis's,4,nan,nan,nan,2015-01-09,54.85941,-6.274874
401235,Hillside Community Church,Exempt,nan,nan,nan,2014-04-01,54.888407,-6.277796
401236,Hillstown Farm Shop,5,5,5,5,2013-11-21,54.810703,-6.354834
401237,Hk Cakes Of Gold,5,5,0,5,2012-08-03,,
401238,Holland & Barrett,5,nan,nan,nan,2014-05-14,54.865843,-6.277419
401239,Horse 'n' Jockey,5,nan,nan,nan,2014-04-14,54.8649,-6.275605
401240,Hot Cha,4,5,0,10,2014-03-19,54.894118,-6.208018
401241,Houston's Mill,Exempt,nan,nan,nan,2014-08-07,54.892495,-6.190056
401242,Iceland Foods Ltd,5,0,0,0,2013-09-17,54.866989,-6.277152
401243,IMC Cinemas (Ballymena),4,10,5,5,2014-07-07,54.861568,-6.27187
401244,Indian Kitchen,5,5,5,5,2014-08-28,54.80817,-6.22055
401245,Innisfree Residential Home,5,5,5,0,2014-02-19,54.899612,-6.127363
401246,Iron's Bakery,5,5,0,0,2014-03-24,54.85941,-6.274874
401247,J A Woodside & Co,Exempt,nan,nan,nan,2014-01-20,54.865529,-6.274348
401248,Jade House,5,5,5,0,2013-06-04,54.861196,-6.277259
401249,Jane's Kitchen,5,5,5,5,2014-01-16,54.894118,-6.208018
401250,Jim's Ices,5,0,0,5,2014-06-06,,
401251,K & G Mc Atamney Butchery & Deli,5,5,5,5,2013-11-20,54.866787,-6.275572
401252,Kami's Cakes,5,0,5,5,2013-10-18,,
401253,Karolina Shop,5,5,5,0,2014-03-12,54.861196,-6.277259
401254,Karolina Shop International Food,5,0,5,5,2014-06-26,54.869041,-6.276192
401255,Kathy's @ Hidden Gem,4,5,5,10,2014-09-16,54.893353,-6.210982
401256,Kells & Connor Pharmacy,Exempt,nan,nan,nan,2013-07-10,54.807357,-6.215951
401257,Kells & Connor Primary School,5,5,5,0,2014-10-07,54.812476,-6.220688
401258,Kells And Connor Preschool,5,0,0,0,2013-10-02,54.80817,-6.22055
401259,Kells Gospel Hall,Exempt,nan,nan,nan,2014-03-10,54.806004,-6.220459
401260,Kells Luncheon Club (Church Hall),5,0,5,5,2013-11-07,54.807357,-6.215951
401261,Kells Pitstop,4,5,5,10,2014-10-17,54.807792,-6.221065
401262,Kells Presbyterian Church Hall,Exempt,nan,nan,nan,2014-08-26,54.807357,-6.215951
401263,Kellswater Reformed Pres Church Hall,Exempt,nan,nan,nan,2014-06-20,54.819204,-6.243418
401264,Kenbaan Playgroup,5,0,5,5,2015-01-27,54.872212,-6.266647
401265,Kentucky Fried Chicken,4,10,0,0,2013-10-16,54.860651,-6.268062
401266,Khayber Indian Takeaway,5,5,5,5,2013-11-06,54.863712,-6.276077
401267,Khayber Restaurant,5,5,5,5,2013-05-30,54.858673,-6.322296
401268,Killyless Stores,Exempt,nan,nan,nan,2012-05-09,54.895938,-6.421458
401269,Killymurris Church Hall,Exempt,nan,nan,nan,2014-05-13,54.955295,-6.3585
401270,Kintullagh House Nursing Home,4,10,5,5,2014-03-13,54.871866,-6.29045
401271,Kirkinriola Playgroup,5,5,5,0,2014-05-23,54.897533,-6.261257
401272,Kirkinriola Primary School,5,5,5,0,2012-06-18,54.897533,-6.261257
401273,Knockeden Lodge,5,0,0,0,2014-08-08,54.858132,-6.252721
401274,Korona,4,5,10,5,2014-05-01,54.865876,-6.27343
401275,Kubus Polish Food Shop,4,0,5,10,2014-09-26,54.866787,-6.275572
401276,Kypros Kebab,4,0,5,10,2014-09-15,54.866432,-6.282238
401277,Kyrone's Ices,5,0,0,0,2014-09-12,,
401278,Ladybirds After School Club,5,0,0,5,2014-06-02,54.862836,-6.270071
401279,Ladybirds Playgroup,5,0,0,5,2014-05-22,54.858909,-6.34739
401280,Ladysmith Arms,5,5,0,5,2014-04-28,54.860062,-6.273959
401281,Lamont Butcher's,5,nan,nan,nan,2013-06-26,54.887312,-6.350357
401282,Lauren's Cakery,5,0,0,0,2013-12-04,,
401283,Leighinmohr House Hotel,5,5,5,5,2014-07-28,54.857382,-6.283308
401284,Lidl,4,5,10,0,2014-10-08,54.862322,-6.270346
401285,Lily - Rose Cupcakes,5,0,5,5,2015-01-06,,
401286,Lime Tree Cakes,5,0,0,0,2014-06-26,,
401287,Limecourt Bed & Breakfast,5,0,5,5,2014-05-21,54.907846,-6.251239
401288,Lisnafillan Lodge,5,0,0,5,2013-07-22,54.858909,-6.34739
401289,Little Rays Day Nursery,5,5,5,0,2014-11-26,54.862872,-6.285909
401290,Living Rivers church,Exempt,nan,nan,nan,2013-07-22,54.861038,-6.278854
401291,Living Rivers Lighthouse Hostel,4,nan,nan,nan,2014-02-14,54.863902,-6.277439
401292,Lloyds Pharmacy,Exempt,nan,nan,nan,2014-05-02,54.867284,-6.273261
401293,Logans Store,Exempt,nan,nan,nan,2014-02-12,54.807792,-6.221065
401294,Lola Rose Cakes,5,5,5,5,2015-01-12,,
401295,Longstone Primary School,4,10,5,0,2013-05-29,54.82925,-6.418678
401296,Loughconnolly Bed & Breakfast,5,0,0,5,2013-07-24,54.90852,-6.141669
401297,Lovely Day Bakery,5,0,0,0,2014-10-24,,
401298,M & M's Day Today,4,5,5,10,2014-10-27,54.84945,-6.271983
401299,Mace,4,5,10,5,2014-07-25,54.994567,-6.181245
401300,Mace Ahoghill - Largy Rd Filling Station,5,5,5,5,2013-05-15,54.807737,-6.395643
401301,Madaboutdonuts,5,5,5,5,2012-09-06,,
401302,Magill Meats,4,5,0,10,2014-11-18,54.865843,-6.277419
401303,Maine Bakery,4,0,10,5,2013-12-12,54.868262,-6.272565
401304,Maine Bakery,5,5,5,5,2014-10-07,54.872837,-6.47821
401305,Maine Bakery,5,5,5,5,2014-07-22,54.888189,-6.353407
401306,Maine Bakery,5,5,5,0,2012-08-06,54.858673,-6.322296
401307,Manna,5,5,5,5,2014-02-12,54.807792,-6.221065
401308,Marks & Spencer,5,0,5,5,2014-08-04,54.869079,-6.275022
401309,Marlagh Lodge,5,5,5,5,2013-10-09,54.845374,-6.224206
401310,Martinstown Spar,5,5,5,5,2013-11-07,54.962391,-6.22598
401311,Mauds Cards and Candy,4,5,5,10,2014-06-30,54.872934,-6.475917
401312,Maureen's,5,0,0,5,2014-02-24,54.867284,-6.273261
401313,Mc Atamneys Butchers,4,nan,nan,nan,2014-04-16,54.868388,-6.275737
401314,Mc Cooey's,4,10,5,0,2014-10-08,54.865769,-6.274758
401315,Mc Fall Meats,5,5,5,0,2014-07-07,54.861196,-6.277259
401316,McAllister's Butchers,5,5,5,5,2014-10-22,54.893582,-6.203412
401317,McDonalds (Ballymena),5,0,5,0,2013-02-26,54.864405,-6.279957
401318,McGroggan's,4,10,0,10,2014-09-12,54.867284,-6.273261
401319,McGroggan's Newsagents,5,5,0,5,2014-11-20,54.893582,-6.203412
401320,McKillens Fashions/Coffee Shop,5,0,5,5,2014-05-23,54.866201,-6.274849
401321,McNeill's Vivo/Post Office,5,5,5,5,2014-08-21,54.893582,-6.203412
401322,Mc's Fish 'n' Chips,5,5,0,5,2013-05-13,54.872837,-6.47821
401323,Meadowview B & B,5,0,0,0,2013-12-11,54.906182,-6.3414
401324,Medicare,Exempt,nan,nan,nan,2014-08-07,54.851422,-6.365727
401325,Merchant Fish Bar,5,5,0,5,2014-09-10,54.893582,-6.203412
401326,Michelin Athletic Club,5,5,5,5,2014-10-31,54.875796,-6.237296
401327,Milanos,5,5,5,5,2014-07-10,54.868388,-6.275737
401328,Millar's Potatoes,Exempt,nan,nan,nan,2013-09-26,54.861196,-6.277259
401329,Millbrae Fold,5,5,0,0,2012-12-04,54.893582,-6.203412
401330,Millquarter Primary School,5,0,0,0,2014-05-01,54.795429,-6.432111
401331,Millside Restaurant,5,5,5,5,2014-01-16,54.85338,-6.327436
401332,Mini Market,AwaitingInspection,nan,nan,nan,,54.864226,-6.277503
401333,Minnesotas Snooker Club,2,15,5,10,2013-11-21,54.866432,-6.282238
401334,Mirador,4,5,5,10,2014-04-15,54.888189,-6.353407
401335,Mister Softee,5,0,0,0,2014-08-04,,
401336,Mister Softee / Syd's Ices,5,0,0,5,2013-07-24,,
401337,Mitchell's Outside Catering,4,0,5,10,2014-01-27,,
401338,Moatview Court,5,0,5,0,2014-10-07,54.858885,-6.264509
401339,Mobile Shop,Exempt,nan,nan,nan,2013-10-31,54.857607,-6.252448
401340,Moby Chip,5,5,5,5,2014-04-01,54.888189,-6.353407
401341,Molly Malone's,5,nan,nan,nan,2014-07-17,54.863586,-6.274805
401342,Monkey Business,5,5,5,5,2014-03-28,54.873754,-6.227866
401343,Montgomerys,5,0,5,5,2014-02-13,54.867603,-6.274883
401344,Moorfields Primary School,5,5,5,0,2014-12-08,54.828612,-6.15457
401345,Mount Charles Catering,4,10,0,5,2013-05-16,54.862515,-6.279741
401346,Moy Park ( Staff Canteen ),5,5,5,0,2013-05-17,54.854625,-6.259429
401347,Moy Park Factory Shop,5,5,5,0,2012-05-21,54.854625,-6.259429
401348,Mr Whippy,5,0,0,0,2014-04-30,,
401349,Mrs Julie McMaster (Caterer),5,0,0,5,2012-09-28,,
401350,N H S C T Pinewood Residential Home,5,5,5,5,2014-08-14,54.883059,-6.265028
401351,N H S C T The Willows,5,0,5,5,2013-11-20,54.8489,-6.275603
401352,Nadine's Diner,4,5,10,5,2014-02-11,54.856873,-6.274671
401353,Neelsgrove Farm,5,0,0,0,2014-08-04,54.83597,-6.406306
401354,Neesons Bar,5,5,0,0,2012-02-22,54.795429,-6.432111
401355,Netty's Vintage Tea Room,5,5,5,5,2013-04-15,54.851219,-6.364023
401356,New Look,Exempt,nan,nan,nan,2014-01-20,54.869079,-6.275022
401357,New Manley,5,5,5,5,2014-08-28,54.867963,-6.276783
401358,New Villa,3,10,10,10,2013-11-19,54.873182,-6.475627
401359,New Woodlands Chinese Takeaway,5,5,0,5,2013-12-10,54.860042,-6.277619
401360,News Rack,4,0,0,10,2012-08-03,54.866763,-6.274529
401361,Newtowncrommelin Presbyterian Church,Exempt,nan,nan,nan,2012-09-19,54.991192,-6.2136
401362,Nice 'n' Spicy,4,5,5,10,2014-09-16,54.868346,-6.274041
401363,Nisa,4,5,5,10,2013-09-19,54.888189,-6.353407
401364,Nobel Cafe,5,5,5,5,2014-05-19,54.865529,-6.274348
401365,Northern Regional College - Farm Lodge,5,5,5,5,2014-03-07,54.868015,-6.267809
401366,Norwood Day Care,5,0,0,0,2014-06-03,54.881573,-6.26852
401367,O' Brien's,5,nan,nan,nan,2014-05-12,54.869079,-6.275022
401368,O.J.'s Restaurant,5,0,5,5,2014-04-29,54.862836,-6.270071
401369,Oasis Cafe (Leisure Centre),5,0,5,5,2013-04-05,54.862836,-6.270071
401370,O'Connell's Bar,5,5,0,0,2014-11-05,54.872934,-6.475917
401371,Off Licence,Exempt,nan,nan,nan,2012-08-07,54.962391,-6.22598
401372,Oriental Star,3,10,10,10,2013-11-18,54.869041,-6.276192
401373,Papa's Kitchen,4,5,5,10,2014-09-04,54.860909,-6.277941
401374,Paper Rack,4,0,0,10,2013-11-05,54.851219,-6.364023
401375,Pat's Bar,4,10,0,0,2012-08-01,54.873098,-6.479665
401376,Peoples Park Pavillion,Exempt,nan,nan,nan,2013-06-18,54.874014,-6.279033
401377,Pinegrove Lodge,5,0,0,0,2014-09-30,54.879159,-6.290282
401378,Polita,5,5,0,5,2013-05-08,54.865115,-6.278088
401379,Portglenone Church of Ireland,5,0,0,5,2013-04-16,54.873182,-6.475627
401380,Portglenone Community Playgroup,5,0,5,0,2014-03-18,54.875111,-6.48043
401381,Portglenone Free Presbyterian Church,Exempt,nan,nan,nan,2014-03-04,,
401382,Portglenone Meats,4,10,0,5,2014-01-10,54.873298,-6.477726
401383,Portglenone Primary School,5,0,5,0,2014-11-11,54.874306,-6.469259
401384,Poundland,4,10,5,0,2013-07-18,54.865843,-6.277419
401385,Poundstretcher Extra,5,5,5,0,2013-02-27,54.861568,-6.27187
401386,Poundstretcher Ltd,4,10,0,5,2013-07-19,54.865769,-6.274758
401387,Prime Cuts,5,5,5,5,2013-03-14,54.867284,-6.273261
401388,Prospect Private Nursing Home,5,5,5,5,2014-08-22,54.861688,-6.296909
401389,Quarrytown Lodge,5,0,5,5,2014-06-19,54.908218,-6.23839
401390,R A O B,4,10,5,0,2014-10-24,54.806106,-6.211542
401391,Rainbow Lodge,4,nan,nan,nan,2013-12-12,54.874554,-6.269585
401392,Redford Residential Home,5,5,5,5,2014-03-24,54.906182,-6.3414
401393,Restaurant Sorrento,5,5,5,5,2014-01-09,54.869079,-6.275022
401394,Ringside Cafe,5,5,5,5,2013-10-18,54.877158,-6.228402
401395,Robinson's Ballymena Ltd,5,5,5,5,2014-03-19,54.869878,-6.293432
401396,Rob's Catering,5,0,0,5,2014-11-05,,
401397,Rococo,5,5,5,5,2014-01-14,54.864466,-6.276636
401398,Roll F M Bakery,5,5,5,5,2014-08-12,54.8649,-6.275605
401399,Rose Cottage,5,0,5,5,2013-10-29,54.85214,-6.328702
401400,Rose Martha Court,5,0,5,0,2014-04-24,54.871866,-6.29045
401401,Ross Park Hotel,5,5,5,0,2014-08-05,54.817523,-6.192602
401402,Rosses Spar,3,5,10,10,2013-08-19,54.847803,-6.299782
401403,Royal Bengal,3,nan,nan,nan,2014-11-05,54.861196,-6.277259
401404,Rylands Nursing Home,5,0,5,5,2013-11-19,54.817523,-6.192602
401405,Sainsbury's,5,0,0,0,2013-09-16,54.861568,-6.27187
401406,Sainsbury's Filling Station,5,0,0,0,2013-09-16,54.861568,-6.27187
401407,Salvation Army Church,Exempt,nan,nan,nan,2014-11-05,54.860062,-6.273959
401408,Scoffwell Cafe,5,5,5,5,2013-08-08,54.894118,-6.208018
401409,Scotts Sweets Emporium,5,5,0,5,2013-06-24,54.865876,-6.27343
401410,Second Broughshane Presbyterian Church Hall,4,0,0,10,2013-12-11,54.891502,-6.213433
401411,Semi Chem,Exempt,nan,nan,nan,2012-11-21,54.865843,-6.277419
401412,Semi Chem,Exempt,nan,nan,nan,2014-07-07,54.869079,-6.275022
401413,Serco Integrated Services,5,5,5,5,2014-09-25,54.856348,-6.309529
401414,Shake N Moo,3,10,5,10,2014-02-04,54.869079,-6.275022
401415,Shanghai Express,5,5,5,5,2014-07-07,54.869079,-6.275022
401416,Simpson's Pharmacy,Exempt,nan,nan,nan,2014-01-21,54.859299,-6.322784
401417,Sizzlers,5,5,5,5,2014-04-11,54.80817,-6.22055
401418,Skerry Inn,5,0,5,0,2014-06-17,54.994472,-6.216111
401419,Slemish Bar,5,5,5,0,2012-09-03,54.868346,-6.274041
401420,Slemish Court,5,0,5,0,2014-06-10,54.866524,-6.268511
401421,Slemish House B & B,5,0,0,5,2013-07-26,54.866852,-6.27831
401422,Slemish House Private Nursing Home,5,5,5,5,2014-08-21,54.872212,-6.266647
401423,Slemish Integrated College,5,5,5,0,2015-01-16,54.854625,-6.259429
401424,Slemish Pantry,5,0,0,5,2014-05-06,,
401425,Slemish Restaurant,5,5,5,5,2013-12-11,54.868346,-6.274041
401426,Slemish Restaurant,5,5,5,0,2014-06-04,54.874788,-6.272192
401427,Slemish Tavern,5,5,0,0,2012-05-21,54.893582,-6.203412
401428,Smithfield Arms,5,0,5,0,2014-02-03,54.864805,-6.281575
401429,Sodexo,5,5,0,5,2014-09-30,,
401430,Sodexo ( Wrightbus ),5,5,5,0,2014-05-14,54.862053,-6.327015
401431,Spar,4,5,5,10,2014-03-19,54.884295,-6.271021
401432,Spar,5,5,5,0,2014-07-30,54.854625,-6.259429
401433,Spar,4,10,5,5,2014-09-15,54.859299,-6.322784
401434,Spar,4,10,5,5,2014-07-03,54.852114,-6.356435
401435,Spar,4,10,5,0,2015-01-16,54.874014,-6.279033
401436,Spar,5,5,5,0,2014-06-13,54.879594,-6.26083
401437,Spar / Texaco,5,5,5,0,2014-06-06,54.891502,-6.213433
401438,Spar Kells,5,5,5,5,2013-03-20,54.807792,-6.221065
401439,Spice,1,10,10,20,2014-07-10,54.868262,-6.272565
401440,St Brigids Primary School,5,0,5,5,2013-10-23,54.872212,-6.266647
401441,St Colmcilles Afterschool,4,0,0,10,2014-09-18,54.86885,-6.284269
401442,St Colmcilles Primary School,5,0,5,0,2014-01-14,54.86885,-6.284269
401443,St Louis Pre School Centre,5,5,0,5,2013-10-10,54.880254,-6.280029
401444,St Patricks Church Of Ireland Broughshane,Exempt,nan,nan,nan,2014-05-13,54.892676,-6.202891
401445,St Paul's Primary School,4,0,5,10,2014-09-18,54.847008,-6.374842
401446,St. Colmanell's Church of Ireland,Exempt,nan,nan,nan,2013-04-03,54.849883,-6.366817
401447,St. Columbas Church of Ireland Hall,Exempt,nan,nan,nan,2014-03-11,54.888407,-6.277796
401448,St. Louis Grammar School,4,10,5,5,2014-02-04,54.86885,-6.284269
401449,St. Mary's Primary School,4,10,0,0,2012-06-18,54.994567,-6.181245
401450,St. Marys Primary School & Nursery Unit,5,0,0,5,2014-01-16,54.871267,-6.471898
401451,St. Patrick' s Church of Ireland,Exempt,nan,nan,nan,2015-02-09,54.863586,-6.274805
401452,St. Patrick's College,5,5,5,0,2014-06-24,54.874855,-6.264929
401453,St. Saviours Church of Ireland Hall,Exempt,nan,nan,nan,2013-03-12,54.807357,-6.215951
401454,Star Take Out,5,5,5,5,2014-02-17,54.872934,-6.475917
401455,Stepping Stones Playgroup,5,0,0,5,2014-05-08,54.847008,-6.374842
401456,Steves Takeaway,5,5,5,0,2015-01-30,54.873298,-6.477726
401457,Subway,5,nan,nan,nan,2013-10-17,54.866763,-6.274529
401458,Subway,5,5,5,5,2013-10-30,54.869079,-6.275022
401459,Summerfield Playcare Club,5,5,0,0,2013-03-04,54.87763,-6.257269
401460,Superdrug Stores Plc,Exempt,nan,nan,nan,2012-08-15,54.865843,-6.277419
401461,Supervalu,4,5,5,10,2013-11-19,54.80817,-6.22055
401462,Surestart,5,5,5,5,2014-05-20,54.880254,-6.280029
401463,T C's,3,5,10,10,2014-06-10,54.866432,-6.282238
401464,T K Maxx,Exempt,nan,nan,nan,2013-08-29,54.868388,-6.275737
401465,Tandoori House,3,10,10,10,2014-12-15,54.872934,-6.475917
401466,Taylors Takeaway,5,0,0,5,2014-11-03,,
401467,Taylorstown Cross Community Complex,5,0,5,5,2015-01-07,54.797359,-6.394888
401468,Terry's Outside Catering,4,0,5,10,2015-01-14,,
401469,Tesco Express,5,0,5,0,2014-04-29,54.871529,-6.28375
401470,Tesco Express,4,5,10,0,2014-09-18,54.865876,-6.27343
401471,Tesco Filling Station,5,5,5,0,2013-10-22,54.860651,-6.268062
401472,Tesco Stores Ltd,5,5,0,0,2014-03-24,54.860651,-6.268062
401473,The 7 Flours Home Bakery,4,5,10,5,2014-08-26,54.80817,-6.22055
401474,The Beeches Bed & Breakfast,5,0,0,5,2013-04-24,54.921074,-6.277852
401475,The Braid,5,0,5,5,2014-07-01,54.863747,-6.27662
401476,The Bread Shed,5,5,5,5,2014-06-05,54.861196,-6.277259
401477,The Cabin Bar,4,10,0,0,2013-03-14,54.868262,-6.272565
401478,The China Garden,4,5,10,5,2014-03-12,54.858132,-6.252721
401479,The Coach Bar,4,10,0,5,2013-05-14,54.864486,-6.278723
401480,The Coach House - Relaxation & Wellbeing Centre,5,0,0,5,2014-02-13,54.803637,-6.207997
401481,The Cosy Corner,5,0,0,0,2013-03-14,54.868346,-6.274041
401482,The Country Playgroup,5,5,5,5,2014-06-20,54.823944,-6.252533
401483,The Countryman Inn,5,5,5,5,2013-05-01,54.884295,-6.271021
401484,The Creamery Can,4,5,0,10,2014-06-27,54.953439,-6.348773
401485,The Crispy Cod,4,5,10,5,2014-04-16,54.858673,-6.322296
401486,The Deli Bar,4,5,0,10,2013-11-25,,
401487,The Diamond Bar,5,5,5,5,2014-06-12,54.851422,-6.365727
401488,The Diamond Primary School,5,5,0,0,2014-11-14,54.881087,-6.379111
401489,The Eagle @ Galgorm Castle,5,5,5,5,2014-03-10,54.858076,-6.317493
401490,The Fern Room Restaurant,5,0,5,5,2014-09-11,54.865529,-6.274348
401491,The Fish Bowl,5,5,0,5,2013-04-23,54.894118,-6.208018
401492,The Fountain Bar,5,5,5,0,2013-01-17,54.867732,-6.278912
401493,The Front Page,4,10,0,5,2014-04-30,54.866763,-6.274529
401494,The Fun Factory,5,5,5,5,2014-08-21,54.850647,-6.25893
401495,The Glensway,5,5,0,5,2014-05-30,54.962391,-6.22598
401496,The Greenhills,5,0,5,0,2012-07-09,54.994567,-6.181245
401497,The Grouse Inn,5,5,5,5,2013-08-20,54.867963,-6.276783
401498,The Howe,5,0,0,5,2013-04-18,54.904018,-6.214703
401499,The Jam Factory,5,5,5,5,2015-01-08,54.866989,-6.277152
401500,The Kiosk,5,5,0,5,2013-10-30,54.864457,-6.282322
401501,The Lunch Box,5,0,5,5,2013-08-07,,
401502,The Merchant Fish Bar,4,5,10,5,2013-11-18,54.864227,-6.277503
401503,The Misty Burn,5,5,5,5,2015-01-07,54.828948,-6.102903
401504,The Moat Bar,4,10,0,0,2014-08-22,54.861196,-6.277259
401505,The Mustard Seed,4,5,5,10,2015-01-20,54.888189,-6.353407
401506,The Old School Cafe,5,5,5,5,2013-03-20,54.874582,-6.270316
401507,The Olive Tree ( Cambridge House Gs ),4,5,5,10,2014-10-16,54.857426,-6.29346
401508,The Phoenix Ballymena Ltd,5,5,5,5,2014-08-07,54.85336,-6.275927
401509,The Pizza Box,5,5,0,0,2014-07-01,54.872934,-6.475917
401510,The Pizza Parlour,5,5,5,5,2014-10-30,54.867963,-6.276783
401511,The Red Brick,4,5,10,5,2015-01-07,54.888636,-6.219591
401512,The Rose Cafe,5,5,5,5,2014-01-17,54.872837,-6.47821
401513,The Services Club,5,5,5,5,2012-11-21,54.862836,-6.270071
401514,The Spinning Mill,5,5,5,0,2014-06-04,54.867284,-6.273261
401515,The Sports Hut,5,5,5,5,2013-11-15,54.877607,-6.344288
401516,The Streat,5,5,5,5,2014-01-15,54.865843,-6.277419
401517,The Sweet Spot,5,5,5,0,2014-05-16,54.865843,-6.277419
401518,The Thatch Inn,3,10,10,5,2014-06-16,54.893582,-6.203412
401519,The Village Inn,4,10,0,0,2013-03-07,54.872837,-6.47821
401520,The Village Inn,4,10,0,5,2013-02-27,54.888189,-6.353407
401521,Thee Pizza,3,5,10,10,2013-11-28,54.859979,-6.277015
401522,Thelma's Hot Food,5,5,5,5,2014-03-28,,
401523,Third Portglenone Pres. Church Hall,Exempt,nan,nan,nan,2015-02-06,54.875958,-6.474883
401524,Thompson's Grocers,4,0,0,10,2013-07-18,54.854384,-6.277798
401525,Tobar Fold,5,0,5,0,2013-10-08,54.88936,-6.352362
401526,Tom's Chips,5,0,0,0,2014-06-23,,
401527,Townhill Filling Station,Exempt,nan,nan,nan,2012-03-13,54.886105,-6.473814
401528,Tracey's Kitchen (N.I.E.),5,5,5,5,2014-04-03,54.850647,-6.25893
401529,Travellers Rest Bed & Breakfast,5,0,0,5,2014-05-12,54.862872,-6.285909
401530,Triangle Housing Association,4,10,5,5,2014-03-26,54.870322,-6.268956
401531,Trinity Presbyterian Church,Exempt,nan,nan,nan,2014-02-27,54.849883,-6.366817
401532,Trish's Cafe & Sandwich Bar,5,5,5,5,2013-07-25,54.873298,-6.477726
401533,Tully Farm,5,5,0,5,2015-01-26,,
401534,Tullygarley Mission Hall,Exempt,nan,nan,nan,2012-04-04,54.841135,-6.292622
401535,Tullyglass House Hotel,5,5,5,5,2013-10-22,54.856324,-6.307132
401536,Turkish Kebab & Pizza House,3,10,10,10,2014-07-17,54.864489,-6.274455
401537,Turkish Kebab House,4,10,5,5,2014-01-09,54.852498,-6.366883
401538,Victory Praise Community Church,Exempt,nan,nan,nan,2014-04-10,54.850647,-6.25893
401539,Vivo,4,5,0,10,2013-10-01,54.860909,-6.277941
401540,Vivo,4,10,0,10,2014-07-01,54.966475,-6.289713
401541,Vivo,5,5,5,0,2014-04-08,54.894118,-6.208018
401542,Vivo / Wineflair,4,5,5,10,2014-10-21,54.877018,-6.270383
401543,W Allen Meats (Butchers),5,5,5,0,2013-02-19,54.858835,-6.2585
401544,Walter's Hot Food,5,0,0,5,2014-08-21,54.887052,-6.306685
401545,Water Margin Take Away,5,5,5,5,2013-04-24,54.872934,-6.475917
401546,Waveney Fold,5,0,0,0,2013-09-18,54.877821,-6.26879
401547,Wellington Presbyterian Church,5,5,0,0,2014-06-26,54.854362,-6.305564
401548,West Church Presbyterian Church Hall,Exempt,nan,nan,nan,2014-02-25,54.866905,-6.279461
401549,Wild Duck Inn,4,10,5,5,2014-05-13,54.873098,-6.479665
401550,Wilson House Resource Centre,5,5,5,5,2014-04-01,54.891502,-6.213433
401551,Wilson's of Rathkenny,5,5,0,5,2014-10-14,54.960186,-6.228794
401552,Winemark,Exempt,nan,nan,nan,2012-05-09,54.85336,-6.275927
401553,Winemark,Exempt,nan,nan,nan,2014-01-13,54.858673,-6.322296
401554,Woodvale Beacon Centre,5,0,0,5,2015-01-22,54.867827,-6.280512
401555,Wrightbus,5,0,0,0,2014-05-14,54.862053,-6.327015
401556,Wyse Byse,5,0,5,0,2014-04-02,54.864489,-6.274455
401557,X L Stop & Shop,5,5,0,5,2013-05-23,54.887312,-6.350357
401558,Young At Heart,4,10,5,5,2014-06-24,54.968882,-6.229379
401559,Your Local Boots Pharmacy,Exempt,nan,nan,nan,2012-08-29,54.860909,-6.277941
401560,Your Local Boots Pharmacy,Exempt,nan,nan,nan,2013-03-01,54.874788,-6.272192
401561,Your Local Boots Pharmacy,Exempt,nan,nan,nan,2014-05-20,54.888189,-6.353407
