,addressline1,addressline2,addressline3,addressline4,businessname,businesstype,businesstypeid,confidenceinmanagement,extractdate,fhrsid,hygiene,itemcount,latitude,localauthoritybusinessid,localauthoritycode,localauthorityemailaddress,localauthorityname,localauthoritywebsite,longitude,postcode,ratingdate,ratingkey,ratingvalue,returncode,schemetype,structural
23079,University Of Bedfordshire,Vicarage Street,,Luton,1st Floor Cafe Neo,Restaurant/Cafe/Canteen,1,0,,579663,5,,51.87766300000000,119458,869,environmentalhealth@luton.gov.uk,Luton,http://www.luton.gov.uk/foodscore,-0.40997400000000,LU1 3HZ,2013-08-15,fhrs_5_en-GB,5,,FHRS,0
23080,Kingsway Recreation Ground,Kingsway,,Luton,61 Football Club (access via Beverley Road),Pub/bar/nightclub,7843,10,,359250,5,,,1852,869,environmentalhealth@luton.gov.uk,Luton,http://www.luton.gov.uk/foodscore,,,2014-04-23,fhrs_3_en-GB,3,,FHRS,10
23081,Sainsburys,Quantock Rise,,Luton,7 Day Catering,Restaurant/Cafe/Canteen,1,5,,404610,5,,51.91953900000000,29000,869,environmentalhealth@luton.gov.uk,Luton,http://www.luton.gov.uk/foodscore,-0.43690900000000,LU3 4AB,2013-11-01,fhrs_5_en-GB,5,,FHRS,5
23082,,135 High Town Road,,Luton,7 to 11,Retailers - other,4613,20,,656098,0,,51.88646300000000,20816,869,environmentalhealth@luton.gov.uk,Luton,http://www.luton.gov.uk/foodscore,-0.40905400000000,LU2 0BX,2014-04-04,fhrs_1_en-GB,1,,FHRS,0
23083,,40-44 George Street,,Luton,99P Store,Retailers - other,4613,,,359295,,,51.87883300000000,25372,869,environmentalhealth@luton.gov.uk,Luton,http://www.luton.gov.uk/foodscore,-0.41535200000000,LU1 2AZ,2011-12-08,fhrs_exempt_en-GB,Exempt,,FHRS,
23084,Musca Court,Laporte Way,,Luton,A and M,Restaurant/Cafe/Canteen,1,0,,359314,0,,51.91077200000000,29213,869,environmentalhealth@luton.gov.uk,Luton,http://www.luton.gov.uk/foodscore,-0.47429900000000,LU4 8EN,2014-03-05,fhrs_5_en-GB,5,,FHRS,5
23085,,2 Harefield Road,,Luton,A D Supermarket,Retailers - other,4613,20,,706882,10,,51.88280300000000,7665,869,environmentalhealth@luton.gov.uk,Luton,http://www.luton.gov.uk/foodscore,-0.44743900000000,LU1 1TH,2014-08-08,fhrs_1_en-GB,1,,FHRS,10
23086,,247 Dunstable Road,,Luton,A Family Food Store,Retailers - other,4613,10,,359472,10,,51.88702900000000,6072,869,environmentalhealth@luton.gov.uk,Luton,http://www.luton.gov.uk/foodscore,-0.43652600000000,LU4 8BP,2014-03-05,fhrs_2_en-GB,2,,FHRS,15
23087,,129 Dunstable Road,,Luton,A One Dosa,Restaurant/Cafe/Canteen,1,0,,359452,5,,51.88396300000000,5941,869,environmentalhealth@luton.gov.uk,Luton,http://www.luton.gov.uk/foodscore,-0.42711500000000,LU1 1BW,2013-05-22,fhrs_5_en-GB,5,,FHRS,5
23088,,46 Bishopscote Road,,Luton,A&S Food,Retailers - other,4613,20,,643002,10,,51.89880800000000,2125,869,environmentalhealth@luton.gov.uk,Luton,http://www.luton.gov.uk/foodscore,-0.43658200000000,LU3 1PB,2014-02-18,fhrs_1_en-GB,1,,FHRS,15
23089,,1 Carisbrooke Road,,Luton,A1 Cafe,Restaurant/Cafe/Canteen,1,10,,359333,10,,51.88922800000000,3407,869,environmentalhealth@luton.gov.uk,Luton,http://www.luton.gov.uk/foodscore,-0.45808700000000,LU4 8HD,2015-01-26,fhrs_3_en-GB,3,,FHRS,10
23090,,,,,A2B Catering,Other catering premises,7841,10,,704299,5,,,53699,869,environmentalhealth@luton.gov.uk,Luton,http://www.luton.gov.uk/foodscore,,,2014-09-22,fhrs_4_en-GB,4,,FHRS,0
23091,,49 Denbigh Road,,Luton,AA Stores Ltd,Retailers - other,4613,20,,704300,15,,51.89462300000000,5551,869,environmentalhealth@luton.gov.uk,Luton,http://www.luton.gov.uk/foodscore,-0.43488200000000,LU3 1NR,2014-09-23,fhrs_1_en-GB,1,,FHRS,15
23092,,63 High Town Road,,Luton,Abam Foods,Retailers - other,4613,5,,359509,5,,51.88429900000000,8238,869,environmentalhealth@luton.gov.uk,Luton,http://www.luton.gov.uk/foodscore,-0.41260300000000,LU2 0BW,2013-10-31,fhrs_4_en-GB,4,,FHRS,10
23093,"Unit 11, Nadeem Plaza",172 Dunstable Road,,Luton,ABI  Food and Wine,Retailers - other,4613,5,,449625,5,,51.88640200000000,49404,869,environmentalhealth@luton.gov.uk,Luton,http://www.luton.gov.uk/foodscore,-0.42999400000000,LU4 8FG,2012-08-30,fhrs_5_en-GB,5,,FHRS,5
23094,9 Sundon Park Parade,Sundon Park Road,,Luton,Absolutely Starving,Takeaway/sandwich shop,7844,5,,359207,10,,51.91616300000000,16066,869,environmentalhealth@luton.gov.uk,Luton,http://www.luton.gov.uk/foodscore,-0.47013500000000,LU3 3BH,2014-03-11,fhrs_4_en-GB,4,,FHRS,0
23095,Aviation House,123 Percival Way,,Luton,Ace Sandwich Bar,Restaurant/Cafe/Canteen,1,10,,404575,5,,51.88038100000000,118556,869,environmentalhealth@luton.gov.uk,Luton,http://www.luton.gov.uk/foodscore,-0.37655000000000,LU2 9LU,2013-10-10,fhrs_4_en-GB,4,,FHRS,5
23096,"Avenue Centre For Education, Cutenhoe Community Learning Park",Cutenhoe Road,,Luton,Ace@Hub,Other catering premises,7841,5,,636453,0,,51.87006900000000,125755,869,environmentalhealth@luton.gov.uk,Luton,http://www.luton.gov.uk/foodscore,-0.40624800000000,LU1 3NJ,2014-02-11,fhrs_5_en-GB,5,,FHRS,0
23097,"Stockwood Golf Club, Stockwood Park",London Road,,Luton,Active Golf Centre,Restaurant/Cafe/Canteen,1,5,,359061,0,,51.86413100000000,10394,869,environmentalhealth@luton.gov.uk,Luton,http://www.luton.gov.uk/foodscore,-0.42064700000000,LU1 4LX,2014-11-10,fhrs_5_en-GB,5,,FHRS,5
23098,Street Record,Haddon Road,,Luton,Adventure Playground,Other catering premises,7841,10,,359130,5,,,118239,869,environmentalhealth@luton.gov.uk,Luton,http://www.luton.gov.uk/foodscore,,,2013-02-26,fhrs_4_en-GB,4,,FHRS,5
23099,African Caribbean Elders Day Centre,3 Trinity Road,,Luton,African Caribbean,Other catering premises,7841,5,,633509,0,,51.90330100000000,21487,869,environmentalhealth@luton.gov.uk,Luton,http://www.luton.gov.uk/foodscore,-0.43838900000000,LU3 1TR,2014-02-05,fhrs_5_en-GB,5,,FHRS,0
23100,,,,,Afro Catering,Other catering premises,7841,20,,633512,10,,,89386,869,environmentalhealth@luton.gov.uk,Luton,http://www.luton.gov.uk/foodscore,,,2014-01-22,fhrs_1_en-GB,1,,FHRS,0
23101,,39 King Street,,Luton,Age Concern Luton,Other catering premises,7841,5,,359540,5,,51.87828500000000,9449,869,environmentalhealth@luton.gov.uk,Luton,http://www.luton.gov.uk/foodscore,-0.41743400000000,LU1 2DW,2014-03-27,fhrs_5_en-GB,5,,FHRS,0
23102,Limbury Baptist Church,81 Trinity Road,,Luton,Age Concern Luton,Other catering premises,7841,0,,359129,5,,51.90392100000000,118237,869,environmentalhealth@luton.gov.uk,Luton,http://www.luton.gov.uk/foodscore,-0.44037300000000,LU3 2LN,2014-10-16,fhrs_5_en-GB,5,,FHRS,0
23103,Vesper House,261 Dunstable Road,,Luton,Age Concern Luton,Other catering premises,7841,0,,359356,5,,51.88702900000000,39045,869,environmentalhealth@luton.gov.uk,Luton,http://www.luton.gov.uk/foodscore,-0.43652600000000,LU4 8BP,2014-09-22,fhrs_5_en-GB,5,,FHRS,0
23104,,2 St Ethelbert Avenue,,Luton,Ahmed Food Store,Retailers - other,4613,20,,449592,10,,51.90020700000000,23718,869,environmentalhealth@luton.gov.uk,Luton,http://www.luton.gov.uk/foodscore,-0.43425200000000,LU3 1QH,2014-01-22,fhrs_1_en-GB,1,,FHRS,15
23105,4 High Town Enterprise Centre,York Street,,Luton,Air Culinaire Worldwide,Other catering premises,7841,10,,449618,10,,51.88409300000000,46273,869,environmentalhealth@luton.gov.uk,Luton,http://www.luton.gov.uk/foodscore,-0.40937000000000,LU2 0EZ,2014-10-14,fhrs_3_en-GB,3,,FHRS,5
23106,Britannia Sports And Social,Proctor Way,,Luton,Airport Sports & Social Club,Pub/bar/nightclub,7843,10,,404582,5,,51.87718700000000,12960,869,environmentalhealth@luton.gov.uk,Luton,http://www.luton.gov.uk/foodscore,-0.38424800000000,LU2 9PE,2014-12-04,fhrs_4_en-GB,4,,FHRS,5
23107,,49 Waller Avenue,,Luton,AKS Food City,Retailers - other,4613,20,,359225,15,,51.89380600000000,16848,869,environmentalhealth@luton.gov.uk,Luton,http://www.luton.gov.uk/foodscore,-0.45265500000000,LU4 9RP,2014-08-04,fhrs_1_en-GB,1,,FHRS,15
23108,,200 Biscot Road,,Luton,Al Amin Limited,Retailers - other,4613,10,,359432,15,,51.89043900000000,55998,869,environmentalhealth@luton.gov.uk,Luton,http://www.luton.gov.uk/foodscore,-0.42796500000000,LU3 1AX,2014-11-19,fhrs_2_en-GB,2,,FHRS,5
23109,,237 Dunstable Road,,Luton,Al Badar,Restaurant/Cafe/Canteen,1,10,,359470,15,,51.88646900000000,6062,869,environmentalhealth@luton.gov.uk,Luton,http://www.luton.gov.uk/foodscore,-0.43297100000000,LU4 8BW,2013-10-10,fhrs_2_en-GB,2,,FHRS,10
23110,,302 Biscot Road,,Luton,Al Baraka Super Store,Retailers - other,4613,20,,691512,10,,51.89529300000000,2094,869,environmentalhealth@luton.gov.uk,Luton,http://www.luton.gov.uk/foodscore,-0.43186500000000,LU3 1AZ,2014-08-11,fhrs_1_en-GB,1,,FHRS,10
23111,,132 Dunstable Road,,Luton,Al Bilal,Restaurant/Cafe/Canteen,1,10,,449631,5,,51.88564300000000,5943,869,environmentalhealth@luton.gov.uk,Luton,http://www.luton.gov.uk/foodscore,-0.42833500000000,LU1 1EW,2013-12-02,fhrs_3_en-GB,3,,FHRS,10
23112,,67 Leagrave Road,,Luton,Al Bilal Pizza,Takeaway/sandwich shop,7844,10,,359552,10,,51.88772900000000,9857,869,environmentalhealth@luton.gov.uk,Luton,http://www.luton.gov.uk/foodscore,-0.43170600000000,LU4 8HT,2014-07-30,fhrs_3_en-GB,3,,FHRS,10
23113,,114 Dunstable Road,,Luton,Al Deen,Takeaway/sandwich shop,7844,20,,359449,20,,51.88564300000000,5928,869,environmentalhealth@luton.gov.uk,Luton,http://www.luton.gov.uk/foodscore,-0.42833500000000,LU1 1EW,2014-10-28,fhrs_0_en-GB,0,,FHRS,20
23114,,14 Wellington Street,,Luton,Al Frango's,Restaurant/Cafe/Canteen,1,20,,404614,5,,,35326,869,environmentalhealth@luton.gov.uk,Luton,http://www.luton.gov.uk/foodscore,,,2014-02-28,fhrs_1_en-GB,1,,FHRS,0
23115,,116 Dunstable Road,,Luton,Al Halal Butchers,Retailers - other,4613,10,,359450,5,,51.88564300000000,5930,869,environmentalhealth@luton.gov.uk,Luton,http://www.luton.gov.uk/foodscore,-0.42833500000000,LU1 1EW,2014-10-27,fhrs_4_en-GB,4,,FHRS,5
23116,,158 Dunstable Road,,Luton,Al Halal Chicken & Pizza Junction,Takeaway/sandwich shop,7844,10,,359454,10,,51.88564300000000,5967,869,environmentalhealth@luton.gov.uk,Luton,http://www.luton.gov.uk/foodscore,-0.42833500000000,LU1 1EW,2014-04-03,fhrs_3_en-GB,3,,FHRS,10
23117,,58 Marsh Road,,Luton,Al Hamad's Halal Butchers,Retailers - other,4613,20,,449550,10,,51.90063100000000,10842,869,environmentalhealth@luton.gov.uk,Luton,http://www.luton.gov.uk/foodscore,-0.44862700000000,LU3 2NJ,2014-08-11,fhrs_1_en-GB,1,,FHRS,10
23118,,192 Dunstable Road,,Luton,Al Madina Superstore,Retailers - other,4613,10,,359461,10,,51.88692400000000,6011,869,environmentalhealth@luton.gov.uk,Luton,http://www.luton.gov.uk/foodscore,-0.43132800000000,LU4 8JJ,2013-11-12,fhrs_3_en-GB,3,,FHRS,10
23119,,72 Wellington Street,,Luton,Al Sultan,Takeaway/sandwich shop,7844,10,,359236,10,,51.87795400000000,17160,869,environmentalhealth@luton.gov.uk,Luton,http://www.luton.gov.uk/foodscore,-0.41953800000000,LU1 5AA,2014-06-04,fhrs_3_en-GB,3,,FHRS,10
23120,,276 Dunstable Road,,Luton,Alankar Restaurant,Restaurant/Cafe/Canteen,1,20,,359473,10,,51.88716800000000,6089,869,environmentalhealth@luton.gov.uk,Luton,http://www.luton.gov.uk/foodscore,-0.43418200000000,LU4 8JL,2015-01-20,fhrs_1_en-GB,1,,FHRS,10
23121,,56 Leagrave Road,,Luton,Alauddin Sweetcentre,Takeaway/sandwich shop,7844,10,,459620,15,,51.88713200000000,9848,869,environmentalhealth@luton.gov.uk,Luton,http://www.luton.gov.uk/foodscore,-0.43012900000000,LU4 8HZ,2014-09-11,fhrs_2_en-GB,2,,FHRS,15
23122,5 Purley Centre,The Moakes,,Luton,Al-Halal Quality Store,Retailers - other,4613,10,,359165,10,,51.91695200000000,12981,869,environmentalhealth@luton.gov.uk,Luton,http://www.luton.gov.uk/foodscore,-0.45420000000000,LU3 3SR,2013-11-25,fhrs_3_en-GB,3,,FHRS,10
23123,,84-86 Roman Road,,Luton,Al-Hashmat Foods,Retailers - other,4613,10,,359176,10,,51.89821000000000,13466,869,environmentalhealth@luton.gov.uk,Luton,http://www.luton.gov.uk/foodscore,-0.45799800000000,LU4 9SE,2015-01-06,fhrs_3_en-GB,3,,FHRS,5
23124,,100 Beechwood Road,,Luton,Al-Huzaifa Foods,Retailers - other,4613,10,,359411,15,,51.89375500000000,50334,869,environmentalhealth@luton.gov.uk,Luton,http://www.luton.gov.uk/foodscore,-0.45086900000000,LU4 8RP,2013-11-05,fhrs_2_en-GB,2,,FHRS,10
23125,,172 Leagrave Road,,Luton,Ali Foods and Halal Meat,Retailers - other,4613,10,,449650,15,,51.89012600000000,9920,869,environmentalhealth@luton.gov.uk,Luton,http://www.luton.gov.uk/foodscore,-0.43211700000000,LU3 1JB,2013-12-10,fhrs_2_en-GB,2,,FHRS,5
23126,Alicia Nursing Home,109-115 Marsh Road,,Luton,Alicia Nursing Home,Hospitals/Childcare/Caring Premises,5,5,,359083,0,,51.90248100000000,10880,869,environmentalhealth@luton.gov.uk,Luton,http://www.luton.gov.uk/foodscore,-0.45181900000000,LU3 2QG,2015-02-10,fhrs_5_en-GB,5,,FHRS,5
23127,16 & 17  Market Hall,The Mall,,Luton,Ali's Cuisine & Tropical Twister,Takeaway/sandwich shop,7844,10,,404622,5,,51.87938900000000,46882,869,environmentalhealth@luton.gov.uk,Luton,http://www.luton.gov.uk/foodscore,-0.41129400000000,LU1 2TA,2013-10-09,fhrs_4_en-GB,4,,FHRS,5
23128,,290-296 Biscot Road,,Luton,Al-Islah Foodstore,Retailers - other,4613,20,,359263,5,,51.89528500000000,2090,869,environmentalhealth@luton.gov.uk,Luton,http://www.luton.gov.uk/foodscore,-0.43193800000000,LU3 1AZ,2013-06-24,fhrs_1_en-GB,1,,FHRS,10
23129,,76c Dallow Road,,Luton,Alomat Global Stores,Retailers - other,4613,10,,359415,5,,51.88123600000000,5236,869,environmentalhealth@luton.gov.uk,Luton,http://www.luton.gov.uk/foodscore,-0.42696300000000,LU1 1LY,2012-03-29,fhrs_4_en-GB,4,,FHRS,5
23130,Building 74,74 Provost Way,,Luton,Alpha LSG Ltd.,Other catering premises,7841,0,,459577,0,,51.88204600000000,12975,869,environmentalhealth@luton.gov.uk,Luton,http://www.luton.gov.uk/foodscore,-0.38256300000000,LU2 9PB,2012-09-26,fhrs_5_en-GB,5,,FHRS,5
23131,"Units 3 To 10, Progress Park",Ribocon Way,,Luton,Alpine Foods,Distributors/Transporters,7,,,643000,,,51.91448000000000,125762,869,environmentalhealth@luton.gov.uk,Luton,http://www.luton.gov.uk/foodscore,-0.47766500000000,LU4 9UR,2014-02-14,fhrs_exempt_en-GB,Exempt,,FHRS,
23132,,211 Dunstable Road,,Luton,Ambala Sweet,Restaurant/Cafe/Canteen,1,,,359468,,,51.88571000000000,6040,869,environmentalhealth@luton.gov.uk,Luton,http://www.luton.gov.uk/foodscore,-0.42936500000000,LU1 1DD,2014-04-10,fhrs_4_en-GB,4,,FHRS,
23133,,31 Lansdowne Road,,Luton,Ambassador House,Hospitals/Childcare/Caring Premises,5,5,,359545,10,,51.88909300000000,9717,869,environmentalhealth@luton.gov.uk,Luton,http://www.luton.gov.uk/foodscore,-0.42411700000000,LU3 1EE,2014-05-20,fhrs_4_en-GB,4,,FHRS,5
23134,Ambleside,60 Hart Hill Drive,,Luton,Ambleside Care Home,Hospitals/Childcare/Caring Premises,5,5,,359501,5,,51.88244800000000,7689,869,environmentalhealth@luton.gov.uk,Luton,http://www.luton.gov.uk/foodscore,-0.40610100000000,LU2 0AY,2013-08-06,fhrs_5_en-GB,5,,FHRS,5
23135,,19 Market Square,,Luton,Andrew's Fish Shop,Takeaway/sandwich shop,7844,5,,359077,5,,51.87511300000000,10784,869,environmentalhealth@luton.gov.uk,Luton,http://www.luton.gov.uk/foodscore,-0.43911800000000,LU1 5RD,2014-02-18,fhrs_5_en-GB,5,,FHRS,5
23136,,5b Riddy Lane,,Luton,Annie's Bakery,Other catering premises,7841,20,,516993,15,,51.90638300000000,13303,869,environmentalhealth@luton.gov.uk,Luton,http://www.luton.gov.uk/foodscore,-0.42540200000000,LU3 2AD,2014-07-08,fhrs_1_en-GB,1,,FHRS,15
23137,,62 Fountains Road,,Luton,APNA,Retailers - other,4613,20,,669828,15,,51.89829100000000,44186,869,environmentalhealth@luton.gov.uk,Luton,http://www.luton.gov.uk/foodscore,-0.42674600000000,LU3 1LY,2014-06-12,fhrs_1_en-GB,1,,FHRS,10
23138,Nadeem Plaza Roof Top Cafe/Garden,172 Dunstable Road,,Luton,Arabella Lounge,Restaurant/Cafe/Canteen,1,10,,550922,10,,51.88640200000000,119319,869,environmentalhealth@luton.gov.uk,Luton,http://www.luton.gov.uk/foodscore,-0.42999400000000,LU4 8FG,2014-09-17,fhrs_3_en-GB,3,,FHRS,5
23139,,16 Wellington Street,,Luton,Arianne Bakery,Restaurant/Cafe/Canteen,1,20,,584096,10,,51.87892800000000,17102,869,environmentalhealth@luton.gov.uk,Luton,http://www.luton.gov.uk/foodscore,-0.41841400000000,LU1 2QH,2014-04-07,fhrs_1_en-GB,1,,FHRS,5
23140,"Asda Stores Ltd, Wigmore Park Centre",Wigmore Lane,,Luton,Asda,Retailers - supermarkets/hypermarkets,7840,0,,359242,0,,51.88922300000000,17537,869,environmentalhealth@luton.gov.uk,Luton,http://www.luton.gov.uk/foodscore,-0.37288900000000,LU2 9TA,2014-03-18,fhrs_5_en-GB,5,,FHRS,0
23141,,47-53 Bute Street,,Luton,Ashcroft Fried Chicken (AFC),Takeaway/sandwich shop,7844,5,,359371,10,,,42642,869,environmentalhealth@luton.gov.uk,Luton,http://www.luton.gov.uk/foodscore,,,2014-04-07,fhrs_4_en-GB,4,,FHRS,5
23142,Ashcroft High School,Crawley Green Road,,Luton,Ashcroft High School,School/college/university,7845,10,,404624,5,,51.89014900000000,4835,869,environmentalhealth@luton.gov.uk,Luton,http://www.luton.gov.uk/foodscore,-0.38394300000000,LU2 9AG,2013-10-22,fhrs_4_en-GB,4,,FHRS,5
23143,,47-53 Bute Street,,Luton,Ashcroft Supermarket,Retailers - other,4613,5,,359271,5,,,21404,869,environmentalhealth@luton.gov.uk,Luton,http://www.luton.gov.uk/foodscore,,,2012-11-16,fhrs_5_en-GB,5,,FHRS,5
23144,,66 Birdsfoot Lane,,Luton,Ashiyana Indian Ltd,Takeaway/sandwich shop,7844,20,,459585,15,,51.91336800000000,1897,869,environmentalhealth@luton.gov.uk,Luton,http://www.luton.gov.uk/foodscore,-0.43063900000000,LU3 2DQ,2014-12-11,fhrs_1_en-GB,1,,FHRS,0
23145,,76-78 Ashton Road,,Luton,Ashton Stores,Retailers - other,4613,20,,449555,0,,51.87118400000000,1164,869,environmentalhealth@luton.gov.uk,Luton,http://www.luton.gov.uk/foodscore,-0.41695700000000,LU1 3QQ,2013-12-05,fhrs_1_en-GB,1,,FHRS,5
23146,Terminal Building (Airside),London Luton Airport,,Luton,Aspire by Servisair,Restaurant/Cafe/Canteen,1,10,,666370,5,,51.88038100000000,36422,869,environmentalhealth@luton.gov.uk,Luton,http://www.luton.gov.uk/foodscore,-0.37655000000000,LU2 9LU,2014-05-22,fhrs_3_en-GB,3,,FHRS,10
23147,Auntie Anne's Kiosk,The Mall,,Waller Street,Auntie Anne's Pretzel Perfect,Other catering premises,7841,5,,449562,10,,51.87942800000000,118850,869,environmentalhealth@luton.gov.uk,Luton,http://www.luton.gov.uk/foodscore,-0.41278900000000,LU1 2LJ,2014-10-09,fhrs_4_en-GB,4,,FHRS,5
23148,B and Q Plc,Dallow Road,,Luton,Autograph the Food People,Restaurant/Cafe/Canteen,1,5,,359428,0,,51.88620300000000,5418,869,environmentalhealth@luton.gov.uk,Luton,http://www.luton.gov.uk/foodscore,-0.45502300000000,LU1 1HJ,2014-03-25,fhrs_5_en-GB,5,,FHRS,0
23149,9-11 Purley Centre,The Moakes,,Luton,B & M Stores,Retailers - other,4613,5,,656094,0,,51.91695200000000,12985,869,environmentalhealth@luton.gov.uk,Luton,http://www.luton.gov.uk/foodscore,-0.45420000000000,LU3 3SR,2014-03-28,fhrs_5_en-GB,5,,FHRS,5
23150,,54 Runfold Avenue,,Luton,Baba Food City,Retailers - other,4613,5,,459578,5,,51.90885600000000,13595,869,environmentalhealth@luton.gov.uk,Luton,http://www.luton.gov.uk/foodscore,-0.43887900000000,LU3 2EJ,2014-01-06,fhrs_5_en-GB,5,,FHRS,5
23151,,90 Leagrave Road,,Luton,Baba Lal,Restaurant/Cafe/Canteen,1,10,,404608,10,,51.88709600000000,27358,869,environmentalhealth@luton.gov.uk,Luton,http://www.luton.gov.uk/foodscore,-0.43010100000000,LU4 8HZ,2015-01-07,fhrs_3_en-GB,3,,FHRS,5
23152,,70 Ash Road,,Luton,Badar Halal Butcher,Retailers - other,4613,10,,359530,5,,51.88495600000000,889,869,environmentalhealth@luton.gov.uk,Luton,http://www.luton.gov.uk/foodscore,-0.43350300000000,LU4 8AQ,2014-08-07,fhrs_3_en-GB,3,,FHRS,10
23153,,198 Dunstable Road,,Luton,Baguette Corner,Restaurant/Cafe/Canteen,1,20,,656105,10,,51.88692400000000,6023,869,environmentalhealth@luton.gov.uk,Luton,http://www.luton.gov.uk/foodscore,-0.43132800000000,LU4 8JJ,2014-04-10,fhrs_1_en-GB,1,,FHRS,5
23154,,249 Marsh Road,,Luton,Bake 'n' Fry,Takeaway/sandwich shop,7844,10,,359093,10,,51.90586400000000,10961,869,environmentalhealth@luton.gov.uk,Luton,http://www.luton.gov.uk/foodscore,-0.45609300000000,LU3 2RT,2014-04-09,fhrs_3_en-GB,3,,FHRS,5
23155,18 Purley Centre,The Moakes,,Luton,Bakers Dozen,Retailers - other,4613,5,,359167,10,,51.91695200000000,12991,869,environmentalhealth@luton.gov.uk,Luton,http://www.luton.gov.uk/foodscore,-0.45420000000000,LU3 3SR,2015-01-29,fhrs_3_en-GB,3,,FHRS,10
23156,"Unit 1, Firbank Industrial Estate",Dallow Road,,Luton,Baklawa Secrets,Manufacturers/packers,7839,0,,530180,0,,51.88460400000000,45644,869,environmentalhealth@luton.gov.uk,Luton,http://www.luton.gov.uk/foodscore,-0.44420900000000,LU1 1TW,2013-03-22,fhrs_5_en-GB,5,,FHRS,5
23157,,32 Wellington Street,,Luton,Balti Nights,Restaurant/Cafe/Canteen,1,10,,359230,10,,51.87892800000000,17127,869,environmentalhealth@luton.gov.uk,Luton,http://www.luton.gov.uk/foodscore,-0.41841400000000,LU1 2QH,2014-03-19,fhrs_3_en-GB,3,,FHRS,10
23158,,317 Hitchin Road,,Luton,Baltistan Ltd,Restaurant/Cafe/Canteen,1,10,,359517,5,,51.89010200000000,8740,869,environmentalhealth@luton.gov.uk,Luton,http://www.luton.gov.uk/foodscore,-0.40288000000000,LU2 7SL,2013-09-17,fhrs_4_en-GB,4,,FHRS,0
23159,,50 Bishopscote Road,,Luton,Bamboo Garden,Takeaway/sandwich shop,7844,10,,359269,10,,51.89880800000000,2129,869,environmentalhealth@luton.gov.uk,Luton,http://www.luton.gov.uk/foodscore,-0.43658200000000,LU3 1PB,2014-06-04,fhrs_3_en-GB,3,,FHRS,10
23160,,351 Hitchin Road,,Luton,Bamboo House,Takeaway/sandwich shop,7844,5,,359521,5,,51.89152200000000,8763,869,environmentalhealth@luton.gov.uk,Luton,http://www.luton.gov.uk/foodscore,-0.40216100000000,LU2 7SW,2014-04-23,fhrs_4_en-GB,4,,FHRS,10
23161,,166 Dunstable Road,,Luton,Bangla Bazar,Retailers - other,4613,10,,359455,10,,51.88564300000000,5977,869,environmentalhealth@luton.gov.uk,Luton,http://www.luton.gov.uk/foodscore,-0.42833500000000,LU1 1EW,2013-04-08,fhrs_3_en-GB,3,,FHRS,5
23162,,98 Ash Road,,Luton,Bangla Store,Retailers - other,4613,10,,449647,5,,51.88495600000000,906,869,environmentalhealth@luton.gov.uk,Luton,http://www.luton.gov.uk/foodscore,-0.43350300000000,LU4 8AQ,2014-10-03,fhrs_3_en-GB,3,,FHRS,10
23163,,43 Bury Park Road,,Luton,Bangla Town,Retailers - other,4613,20,,359280,15,,51.88591600000000,22372,869,environmentalhealth@luton.gov.uk,Luton,http://www.luton.gov.uk/foodscore,-0.42790400000000,LU1 1HD,2014-08-13,fhrs_1_en-GB,1,,FHRS,10
23164,Bannatyne Fitness Ltd,1 Regent Street,,Luton,Bannatyne Fitness Ltd,Restaurant/Cafe/Canteen,1,0,,633510,0,,51.87705300000000,28590,869,environmentalhealth@luton.gov.uk,Luton,http://www.luton.gov.uk/foodscore,-0.41810200000000,LU1 5FA,2014-02-04,fhrs_5_en-GB,5,,FHRS,0
23165,,207 Dunstable Road,,Luton,Bapoula,Retailers - other,4613,20,,609618,15,,51.88571000000000,119543,869,environmentalhealth@luton.gov.uk,Luton,http://www.luton.gov.uk/foodscore,-0.42936500000000,LU1 1DD,2013-09-12,fhrs_1_en-GB,1,,FHRS,10
23166,,108,,Luton,Barista Brother,Restaurant/Cafe/Canteen,1,10,,359306,5,,51.87892200000000,28273,869,environmentalhealth@luton.gov.uk,Luton,http://www.luton.gov.uk/foodscore,-0.41394000000000,LU1 2TQ,2013-10-09,fhrs_4_en-GB,4,,FHRS,5
23167,Barnfield College,New Bedford Road,,Luton,Barnfield College,School/college/university,7845,10,,359109,5,,51.90630400000000,11702,869,environmentalhealth@luton.gov.uk,Luton,http://www.luton.gov.uk/foodscore,-0.42214800000000,LU2 7BF,2013-11-07,fhrs_4_en-GB,4,,FHRS,5
23168,Leagrave Hall,145 High Street,,Leagrave,Barnfield Moorlands Primary School,School/college/university,7845,0,,359549,0,,51.90009300000000,9797,869,environmentalhealth@luton.gov.uk,Luton,http://www.luton.gov.uk/foodscore,-0.47069500000000,LU4 9LE,2013-10-08,fhrs_5_en-GB,5,,FHRS,0
23169,Barnfield South Academy,Rotheram Avenue,,Luton,Barnfield South Academy,School/college/university,7845,0,,449569,5,,51.87161400000000,13516,869,environmentalhealth@luton.gov.uk,Luton,http://www.luton.gov.uk/foodscore,-0.43899300000000,LU1 5PP,2014-01-29,fhrs_5_en-GB,5,,FHRS,0
23170,Bramingham Business Park,Enterprise Way,,Luton,Barnfield Technology Campus,School/college/university,7845,10,,359287,10,,,2477,869,environmentalhealth@luton.gov.uk,Luton,http://www.luton.gov.uk/foodscore,,,2014-03-17,fhrs_3_en-GB,3,,FHRS,5
23171,Barnfield West Academy School,Leagrave High Street,,Luton,Barnfield West Academy,School/college/university,7845,0,,459608,5,,51.89675600000000,6477,869,environmentalhealth@luton.gov.uk,Luton,http://www.luton.gov.uk/foodscore,-0.48942600000000,LU4 0NE,2014-01-29,fhrs_5_en-GB,5,,FHRS,0
23172,Bramingham Park Post Office,9 Leamington Road,,Luton,Barton Hill Local,Retailers - other,4613,10,,656091,5,,51.91728600000000,10044,869,environmentalhealth@luton.gov.uk,Luton,http://www.luton.gov.uk/foodscore,-0.44063700000000,LU3 3XF,2014-03-28,fhrs_4_en-GB,4,,FHRS,5
23173,,82 Kirby Drive,,Luton,Barton Hills Convenience Store,Retailers - other,4613,20,,656108,5,,51.92351900000000,9650,869,environmentalhealth@luton.gov.uk,Luton,http://www.luton.gov.uk/foodscore,-0.44549700000000,LU3 4AW,2014-04-09,fhrs_1_en-GB,1,,FHRS,15
23174,Ernst And Young,400 Capability Green,,Luton,Baxterstorey,Restaurant/Cafe/Canteen,1,5,,359379,10,,51.86608300000000,43680,869,environmentalhealth@luton.gov.uk,Luton,http://www.luton.gov.uk/foodscore,-0.40807300000000,LU1 3LU,2014-03-18,fhrs_4_en-GB,4,,FHRS,5
23175,,130 Dunstable Road,,Luton,BBQ Corn Cobs,Mobile caterer,7846,,,359486,,,51.88564300000000,64217,869,environmentalhealth@luton.gov.uk,Luton,http://www.luton.gov.uk/foodscore,-0.42833500000000,LU1 1EW,2011-11-30,fhrs_exempt_en-GB,Exempt,,FHRS,
23176,Fire Station,Studley Road,,Luton,Bedfordshire & Luton Fire & Rescue Service,Other catering premises,7841,10,,404587,0,,51.88707600000000,15533,869,environmentalhealth@luton.gov.uk,Luton,http://www.luton.gov.uk/foodscore,-0.42388300000000,LU3 1BB,2013-09-11,fhrs_4_en-GB,4,,FHRS,5
23177,Beech Hill Primary School,Dunstable Road,,Luton,Beech Hill Primary School,School/college/university,7845,5,,449613,0,,51.90627100000000,41215,869,environmentalhealth@luton.gov.uk,Luton,http://www.luton.gov.uk/foodscore,-0.38987700000000,LU2 8BW,2015-01-14,fhrs_5_en-GB,5,,FHRS,0
23178,Beechwood Primary School,Linden Road,,Luton,Beechwood Primary School,School/college/university,7845,0,,359059,5,,51.89989400000000,10280,869,environmentalhealth@luton.gov.uk,Luton,http://www.luton.gov.uk/foodscore,-0.45818700000000,LU4 9RD,2014-03-07,fhrs_5_en-GB,5,,FHRS,5
23179,,1a Waldeck Road,,Luton,Bengal Traders,Retailers - other,4613,5,,359224,10,,51.88536300000000,16805,869,environmentalhealth@luton.gov.uk,Luton,http://www.luton.gov.uk/foodscore,-0.42689200000000,LU1 1HG,2011-10-05,fhrs_4_en-GB,4,,FHRS,5
23180,,82 Roman Road,,Luton,Benito Piri Piri,Takeaway/sandwich shop,7844,10,,359175,10,,51.89821000000000,13465,869,environmentalhealth@luton.gov.uk,Luton,http://www.luton.gov.uk/foodscore,-0.45799800000000,LU4 9SE,2014-02-05,fhrs_3_en-GB,3,,FHRS,10
23181,Tbi House,72-104 Frank Lester Way,,Luton,Benugo Ltd,Restaurant/Cafe/Canteen,1,5,,499571,10,,51.88229500000000,109295,869,environmentalhealth@luton.gov.uk,Luton,http://www.luton.gov.uk/foodscore,-0.37774500000000,LU2 9NQ,2014-08-27,fhrs_4_en-GB,4,,FHRS,0
23182,,96 Midland Road,,Luton,Best Kebab,Takeaway/sandwich shop,7844,20,,404566,15,,51.88328400000000,11146,869,environmentalhealth@luton.gov.uk,Luton,http://www.luton.gov.uk/foodscore,-0.41603800000000,LU2 0BL,2014-10-01,fhrs_1_en-GB,1,,FHRS,15
23183,,68a Calverton Road,,Luton,Best Kebab,Restaurant/Cafe/Canteen,1,5,,359393,5,,51.91053400000000,46572,869,environmentalhealth@luton.gov.uk,Luton,http://www.luton.gov.uk/foodscore,-0.44681700000000,LU3 2SZ,2014-03-11,fhrs_5_en-GB,5,,FHRS,0
23184,,70 High Town Road,,Luton,Best One,Retailers - other,4613,20,,715315,15,,51.88485000000000,8242,869,environmentalhealth@luton.gov.uk,Luton,http://www.luton.gov.uk/foodscore,-0.41147900000000,LU2 0DG,2014-11-05,fhrs_1_en-GB,1,,FHRS,10
23185,,,,,Betty's Traditions,Other catering premises,7841,5,,693153,0,,,3853,869,environmentalhealth@luton.gov.uk,Luton,http://www.luton.gov.uk/foodscore,,,2014-08-22,fhrs_5_en-GB,5,,FHRS,0
23186,29-30 Market Hall,,,Luton,Bhaker Tropical Foods,Retailers - other,4613,10,,359321,10,,51.87938900000000,30256,869,environmentalhealth@luton.gov.uk,Luton,http://www.luton.gov.uk/foodscore,-0.41129400000000,LU1 2TA,2014-02-03,fhrs_3_en-GB,3,,FHRS,10
23187,,118 Bury Park Road,,Luton,Bhavins Food Limited,Retailers - supermarkets/hypermarkets,7840,10,,404611,0,,51.88622800000000,2916,869,environmentalhealth@luton.gov.uk,Luton,http://www.luton.gov.uk/foodscore,-0.42773400000000,LU1 1HE,2014-04-08,fhrs_4_en-GB,4,,FHRS,0
23188,,7 High Street,,Leagrave,Bibis Grocery,Retailers - other,4613,5,,449598,5,,51.90258200000000,28049,869,environmentalhealth@luton.gov.uk,Luton,http://www.luton.gov.uk/foodscore,-0.46370600000000,LU4 9JU,2014-05-01,fhrs_5_en-GB,5,,FHRS,5
23189,,13 Upper George Street,,Luton,Big Sammy's,Takeaway/sandwich shop,7844,20,,487041,15,,51.87966600000000,16646,869,environmentalhealth@luton.gov.uk,Luton,http://www.luton.gov.uk/foodscore,-0.41982700000000,LU1 2RD,2014-11-04,fhrs_1_en-GB,1,,FHRS,15
23190,The Bird And Bush,Hancock Drive,,Luton,Bird and Bush,Pub/bar/nightclub,7843,5,,359315,5,,51.90824700000000,2925,869,environmentalhealth@luton.gov.uk,Luton,http://www.luton.gov.uk/foodscore,-0.41149700000000,LU2 7SF,2014-03-05,fhrs_4_en-GB,4,,FHRS,10
23191,,312 Biscot Road,,Luton,Biscot Mill Food Store,Retailers - other,4613,5,,359266,5,,51.89528500000000,2100,869,environmentalhealth@luton.gov.uk,Luton,http://www.luton.gov.uk/foodscore,-0.43193800000000,LU3 1AZ,2013-06-06,fhrs_4_en-GB,4,,FHRS,10
23192,Biscot Mill,231 Biscot Road,,Luton,Biscot Mill/The Hungry Horse,Pub/bar/nightclub,7843,0,,359257,5,,51.89591400000000,2074,869,environmentalhealth@luton.gov.uk,Luton,http://www.luton.gov.uk/foodscore,-0.43326700000000,LU3 1AS,2013-03-25,fhrs_5_en-GB,5,,FHRS,0
23193,,27 Bishopscote Road,,Luton,Bismillah Food Store,Retailers - other,4613,10,,449588,5,,51.89691200000000,21796,869,environmentalhealth@luton.gov.uk,Luton,http://www.luton.gov.uk/foodscore,-0.43663400000000,LU3 1NZ,2014-06-19,fhrs_4_en-GB,4,,FHRS,5
23194,,311 Dunstable Road,,Luton,Bismillah Madina Store,Retailers - other,4613,10,,359476,15,,51.88883300000000,6115,869,environmentalhealth@luton.gov.uk,Luton,http://www.luton.gov.uk/foodscore,-0.43968900000000,LU4 8BU,2013-11-19,fhrs_2_en-GB,2,,FHRS,15
23195,,244 Sundon Park Road,,Luton,Bizzie Bees 5 Nursery,Hospitals/Childcare/Caring Premises,5,5,,615460,0,,51.91839300000000,39339,869,environmentalhealth@luton.gov.uk,Luton,http://www.luton.gov.uk/foodscore,-0.47090200000000,LU3 3AL,2013-11-20,fhrs_5_en-GB,5,,FHRS,0
23196,,33 Black Swan Lane,,Luton,Black  Swan supermarket,Retailers - other,4613,20,,656099,0,,51.90598300000000,2185,869,environmentalhealth@luton.gov.uk,Luton,http://www.luton.gov.uk/foodscore,-0.44129000000000,LU3 2LU,2014-04-15,fhrs_1_en-GB,1,,FHRS,0
23197,,33 Black Swan Lane,,Luton,Blackswan Chippy,Takeaway/sandwich shop,7844,10,,681417,5,,51.90598300000000,131205,869,environmentalhealth@luton.gov.uk,Luton,http://www.luton.gov.uk/foodscore,-0.44129000000000,LU3 2LU,2014-07-08,fhrs_4_en-GB,4,,FHRS,5
23198,,252 Marsh Road,,Luton,Blossom Garden,Takeaway/sandwich shop,7844,5,,359094,10,,51.90641100000000,10963,869,environmentalhealth@luton.gov.uk,Luton,http://www.luton.gov.uk/foodscore,-0.45531800000000,LU3 2RX,2013-08-20,fhrs_4_en-GB,4,,FHRS,5
23199,,122 Dallow Road,,Luton,Boczus,Retailers - other,4613,10,,576864,15,,51.88194900000000,5277,869,environmentalhealth@luton.gov.uk,Luton,http://www.luton.gov.uk/foodscore,-0.43186400000000,LU1 1NE,2014-10-20,fhrs_2_en-GB,2,,FHRS,10
23200,,1 Camford Way,,Luton,Booker Cash And Carry,Distributors/Transporters,7,5,,657326,5,,51.92207800000000,3214,869,environmentalhealth@luton.gov.uk,Luton,http://www.luton.gov.uk/foodscore,-0.48046200000000,LU3 3AN,2014-04-16,fhrs_5_en-GB,5,,FHRS,5
23201,Mount Pleasant Filling Station,Marsh Road,,Luton,BP Connect Mount Pleasant,Retailers - other,4613,0,,359101,0,,51.90545400000000,11450,869,environmentalhealth@luton.gov.uk,Luton,http://www.luton.gov.uk/foodscore,-0.45636900000000,LU3 2ST,2014-04-08,fhrs_5_en-GB,5,,FHRS,0
23202,,28 Bradgers Hill Road,,Luton,Bradgers Hill Newsagents,Retailers - other,4613,5,,404605,5,,51.90142900000000,2398,869,environmentalhealth@luton.gov.uk,Luton,http://www.luton.gov.uk/foodscore,-0.41133000000000,LU2 7EL,2013-10-07,fhrs_5_en-GB,5,,FHRS,0
23203,,86 Bradley Road,,Luton,Bradley Convenience Store,Retailers - other,4613,10,,404606,5,,51.88858500000000,2441,869,environmentalhealth@luton.gov.uk,Luton,http://www.luton.gov.uk/foodscore,-0.46594200000000,LU4 8SW,2012-09-18,fhrs_3_en-GB,3,,FHRS,10
23204,Bramingham Centre,Weltmore Road,,Luton,Bramingham Centre,Other catering premises,7841,5,,359238,0,,51.90999700000000,17230,869,environmentalhealth@luton.gov.uk,Luton,http://www.luton.gov.uk/foodscore,-0.45177900000000,LU3 2TN,2014-06-12,fhrs_5_en-GB,5,,FHRS,0
23205,Bramingham Primary School,Freeman Avenue,,Luton,Bramingham Primary School,School/college/university,7845,0,,359487,0,,51.91995700000000,6934,869,environmentalhealth@luton.gov.uk,Luton,http://www.luton.gov.uk/foodscore,-0.43792700000000,LU3 4BL,2013-10-01,fhrs_5_en-GB,5,,FHRS,0
23206,,232 Dunstable Road,,Luton,British Red Cross Society,Other catering premises,7841,,,359469,,,51.88716800000000,6060,869,environmentalhealth@luton.gov.uk,Luton,http://www.luton.gov.uk/foodscore,-0.43418200000000,LU4 8JL,2011-08-09,fhrs_exempt_en-GB,Exempt,,FHRS,
23207,,15-17 The Crossway,,Luton,Budget Supermarket,Retailers - other,4613,10,,660680,5,,51.87140300000000,21107,869,environmentalhealth@luton.gov.uk,Luton,http://www.luton.gov.uk/foodscore,-0.42859900000000,LU1 5LY,2014-05-06,fhrs_3_en-GB,3,,FHRS,10
23208,8 Wigmore Park Centre,Wigmore Lane,,Luton,Buffalo Indian Grill,Restaurant/Cafe/Canteen,1,10,,359429,15,,51.88835100000000,54912,869,environmentalhealth@luton.gov.uk,Luton,http://www.luton.gov.uk/foodscore,-0.37158300000000,LU2 9TA,2014-11-27,fhrs_2_en-GB,2,,FHRS,15
23209,,106 Dunstable Road,,Luton,Buffet 106 Ltd,Restaurant/Cafe/Canteen,1,20,,359274,15,,51.88564300000000,21828,869,environmentalhealth@luton.gov.uk,Luton,http://www.luton.gov.uk/foodscore,-0.42833500000000,LU1 1EW,2014-04-24,fhrs_0_en-GB,0,,FHRS,20
23210,,13 St Dominics Square,,Luton,Bun in the Oven Bakery Ltd,Retailers - other,4613,10,,449572,15,,51.90191600000000,14683,869,environmentalhealth@luton.gov.uk,Luton,http://www.luton.gov.uk/foodscore,-0.49634600000000,LU4 0UN,2014-10-23,fhrs_2_en-GB,2,,FHRS,15
23211,,177 Toddington Road,,Luton,Bungalow Shop,Retailers - other,4613,20,,359212,15,,51.91145300000000,16240,869,environmentalhealth@luton.gov.uk,Luton,http://www.luton.gov.uk/foodscore,-0.47442400000000,LU4 9EB,2014-06-10,fhrs_1_en-GB,1,,FHRS,15
23212,,19 Dunstable Road,,Luton,BUPA St Marys Nursing Home,Hospitals/Childcare/Caring Premises,5,5,,359444,5,,51.88093200000000,5894,869,environmentalhealth@luton.gov.uk,Luton,http://www.luton.gov.uk/foodscore,-0.42372000000000,LU1 1BE,2013-12-04,fhrs_5_en-GB,5,,FHRS,5
23213,,196-198,,Luton,Burger King,Restaurant/Cafe/Canteen,1,0,,516996,0,,51.88012500000000,631,869,environmentalhealth@luton.gov.uk,Luton,http://www.luton.gov.uk/foodscore,-0.41651300000000,LU1 2TL,2013-03-07,fhrs_5_en-GB,5,,FHRS,0
23214,London Luton Airport,Airport Way,,Luton,Burger King,Restaurant/Cafe/Canteen,1,0,,359262,5,,,20801,869,environmentalhealth@luton.gov.uk,Luton,http://www.luton.gov.uk/foodscore,,,2012-09-23,fhrs_5_en-GB,5,,FHRS,0
23215,,Bushmead Road,,Luton,Bushmead Primary School,School/college/university,7845,0,,449600,0,,51.90498900000000,2922,869,environmentalhealth@luton.gov.uk,Luton,http://www.luton.gov.uk/foodscore,-0.41466400000000,LU2 7EU,2014-01-06,fhrs_5_en-GB,5,,FHRS,5
23216,The Butchers Arms,94 Hastings Street,,Luton,Butchers Arms,Pub/bar/nightclub,7843,,,359502,,,51.87565300000000,7874,869,environmentalhealth@luton.gov.uk,Luton,http://www.luton.gov.uk/foodscore,-0.42024300000000,LU1 5BH,2011-12-02,fhrs_exempt_en-GB,Exempt,,FHRS,
23217,"Butterflies Nursery, Redgrave Children And Young People's Centre",Redgrave Gardens,,Luton,Butterflies Nursery,Hospitals/Childcare/Caring Premises,5,0,,359383,0,,51.91802300000000,44173,869,environmentalhealth@luton.gov.uk,Luton,http://www.luton.gov.uk/foodscore,-0.45012100000000,LU3 3QN,2013-10-01,fhrs_5_en-GB,5,,FHRS,0
23218,,94-106 Leagrave Road,,Luton,C Y C D,Other catering premises,7841,20,,449649,10,,51.88713200000000,9875,869,environmentalhealth@luton.gov.uk,Luton,http://www.luton.gov.uk/foodscore,-0.43012900000000,LU4 8HZ,2014-02-10,fhrs_1_en-GB,1,,FHRS,5
23219,,169a Dunstable Road,,Luton,Cafe 1 (UK),Restaurant/Cafe/Canteen,1,10,,359435,10,,51.88564300000000,56151,869,environmentalhealth@luton.gov.uk,Luton,http://www.luton.gov.uk/foodscore,-0.42833500000000,LU1 1EW,2014-08-04,fhrs_3_en-GB,3,,FHRS,10
23220,,,,,Cafe Express,Mobile caterer,7846,,,709229,,,,37819,869,environmentalhealth@luton.gov.uk,Luton,http://www.luton.gov.uk/foodscore,,,2014-10-21,fhrs_exempt_en-GB,Exempt,,FHRS,
23221,Luton And Dunstable Hospital,Lewsey Road,,Luton,Cafe Nuovo,Restaurant/Cafe/Canteen,1,5,,516995,0,,51.89418700000000,46448,869,environmentalhealth@luton.gov.uk,Luton,http://www.luton.gov.uk/foodscore,-0.47428200000000,LU4 0DZ,2013-03-06,fhrs_5_en-GB,5,,FHRS,0
23222,,256 Capability Green,,Luton,Cafe Satis Ltd,Restaurant/Cafe/Canteen,1,5,,449621,5,,51.86608300000000,47167,869,environmentalhealth@luton.gov.uk,Luton,http://www.luton.gov.uk/foodscore,-0.40807300000000,LU1 3LU,2014-07-02,fhrs_5_en-GB,5,,FHRS,0
23223,,76 Wellington Street,,Luton,Cafe Shimla,Restaurant/Cafe/Canteen,1,5,,359237,0,,51.87795400000000,17166,869,environmentalhealth@luton.gov.uk,Luton,http://www.luton.gov.uk/foodscore,-0.41953800000000,LU1 5AA,2013-06-27,fhrs_4_en-GB,4,,FHRS,10
23224,Railway Station (Luton),Station Road,,Luton,Caffe Kimbo,Restaurant/Cafe/Canteen,1,10,,359096,10,,51.88232900000000,11168,869,environmentalhealth@luton.gov.uk,Luton,http://www.luton.gov.uk/foodscore,-0.41454600000000,LU1 2LT,2013-10-03,fhrs_3_en-GB,3,,FHRS,5
23225,,1 Cheapside,,Luton,California Fried Chicken,Takeaway/sandwich shop,7844,10,,359353,5,,51.87879000000000,3806,869,environmentalhealth@luton.gov.uk,Luton,http://www.luton.gov.uk/foodscore,-0.41481600000000,LU1 2HL,2013-10-09,fhrs_3_en-GB,3,,FHRS,10
23226,Street Record,Camford Way,,Luton,Camford Cafe,Mobile caterer,7846,5,,527073,0,,,16407,869,environmentalhealth@luton.gov.uk,Luton,http://www.luton.gov.uk/foodscore,,,2014-08-05,fhrs_5_en-GB,5,,FHRS,0
23227,,29 Upper George Street,,Luton,Cappuccino Amor,Restaurant/Cafe/Canteen,1,10,,359222,5,,51.87966600000000,16665,869,environmentalhealth@luton.gov.uk,Luton,http://www.luton.gov.uk/foodscore,-0.41982700000000,LU1 2RD,2014-07-29,fhrs_4_en-GB,4,,FHRS,5
23228,Capwell Grange Nursing Home,Addington Way,,Luton,Capwell Grange,Hospitals/Childcare/Caring Premises,5,0,,359498,0,,51.90015300000000,74,869,environmentalhealth@luton.gov.uk,Luton,http://www.luton.gov.uk/foodscore,-0.46631800000000,LU4 9GR,2014-01-29,fhrs_5_en-GB,5,,FHRS,0
23229,Cardinal Newman Catholic Secondary School,Warden Hill Road,,Luton,Cardinal Newman Roman Catholic School (Main Block),School/college/university,7845,5,,449578,5,,51.92169400000000,16912,869,environmentalhealth@luton.gov.uk,Luton,http://www.luton.gov.uk/foodscore,-0.42393600000000,LU2 7AE,2014-01-06,fhrs_5_en-GB,5,,FHRS,0
23230,,97-99 Castle Street,,Luton,Castle News (Cost Cutter),Retailers - other,4613,10,,449605,10,,51.87467400000000,3517,869,environmentalhealth@luton.gov.uk,Luton,http://www.luton.gov.uk/foodscore,-0.41698000000000,LU1 3AJ,2013-12-04,fhrs_3_en-GB,3,,FHRS,10
23231,Castletroy Residential Home,130 Cromer Way,,Luton,Castletroy Res Care Home,Hospitals/Childcare/Caring Premises,5,0,,359406,0,,51.91126200000000,4947,869,environmentalhealth@luton.gov.uk,Luton,http://www.luton.gov.uk/foodscore,-0.41376000000000,LU2 7GP,2015-02-02,fhrs_5_en-GB,5,,FHRS,0
23232,,74 High Town Road,,Luton,Cemils Kebab,Takeaway/sandwich shop,7844,10,,359279,0,,51.88481500000000,22158,869,environmentalhealth@luton.gov.uk,Luton,http://www.luton.gov.uk/foodscore,-0.41153800000000,LU2 0DG,2014-12-15,fhrs_4_en-GB,4,,FHRS,0
23233,,54 Park Street,,Luton,Central Baptist Church,Other catering premises,7841,0,,359151,0,,51.87735700000000,12480,869,environmentalhealth@luton.gov.uk,Luton,http://www.luton.gov.uk/foodscore,-0.41191700000000,LU1 3ET,2013-07-10,fhrs_5_en-GB,5,,FHRS,5
23234,,4 Union Street,,Luton,Central Cash & Carry (Watford) Ltd,Retailers - supermarkets/hypermarkets,7840,10,,359272,15,,51.87544200000000,21544,869,environmentalhealth@luton.gov.uk,Luton,http://www.luton.gov.uk/foodscore,-0.41458500000000,LU1 3AN,2014-02-14,fhrs_2_en-GB,2,,FHRS,15
23235,,110 Stoneygate Road,,Luton,Challney High School A,School/college/university,7845,0,,359194,5,,51.89560600000000,15356,869,environmentalhealth@luton.gov.uk,Luton,http://www.luton.gov.uk/foodscore,-0.46449600000000,LU4 9TH,2013-06-06,fhrs_5_en-GB,5,,FHRS,5
23236,,110 Stoneygate Road,,Luton,Challney High School C,School/college/university,7845,0,,516994,0,,51.89560600000000,15358,869,environmentalhealth@luton.gov.uk,Luton,http://www.luton.gov.uk/foodscore,-0.46449600000000,LU4 9TH,2013-03-06,fhrs_5_en-GB,5,,FHRS,0
23237,,Addington Way,,Luton,Challney High School for Girls,School/college/university,7845,5,,359135,5,,51.89951700000000,118437,869,environmentalhealth@luton.gov.uk,Luton,http://www.luton.gov.uk/foodscore,-0.46651400000000,LU4 9FJ,2013-10-17,fhrs_5_en-GB,5,,FHRS,0
23238,,9 Collingdon Street,,Luton,Chan's Garden,Takeaway/sandwich shop,7844,5,,521031,10,,51.88182700000000,21353,869,environmentalhealth@luton.gov.uk,Luton,http://www.luton.gov.uk/foodscore,-0.42071000000000,LU1 1RT,2013-03-12,fhrs_4_en-GB,4,,FHRS,5
23239,Chantry Primary School,Tomlinson Avenue,,Luton,Chantry Primary Academy,School/college/university,7845,0,,509037,0,,51.90195200000000,38431,869,environmentalhealth@luton.gov.uk,Luton,http://www.luton.gov.uk/foodscore,-0.49496400000000,LU4 0QP,2013-12-02,fhrs_5_en-GB,5,,FHRS,0
23240,,62 Chapel Street,,Luton,Chapel News & Wine,Retailers - other,4613,20,,700425,15,,51.87600700000000,3670,869,environmentalhealth@luton.gov.uk,Luton,http://www.luton.gov.uk/foodscore,-0.41716600000000,LU1 5DA,2014-08-08,fhrs_1_en-GB,1,,FHRS,5
23241,Chapel Street Nursery School,Russell Street,,Luton,Chapel Street Nursery School,Hospitals/Childcare/Caring Premises,5,5,,449609,0,,51.87471300000000,40054,869,environmentalhealth@luton.gov.uk,Luton,http://www.luton.gov.uk/foodscore,-0.42061000000000,LU1 5EA,2014-01-10,fhrs_5_en-GB,5,,FHRS,0
23242,,118-122 Chapel Street,,Luton,Chapel's Corner Ltd,Retailers - other,4613,10,,459595,10,,51.87522200000000,3698,869,environmentalhealth@luton.gov.uk,Luton,http://www.luton.gov.uk/foodscore,-0.41831200000000,LU1 5DD,2014-02-13,fhrs_3_en-GB,3,,FHRS,10
23243,"Unit 3, Chapel View",26 Chapel Street,,Luton,Charcoal Grill,Takeaway/sandwich shop,7844,10,,359420,5,,51.87764000000000,53077,869,environmentalhealth@luton.gov.uk,Luton,http://www.luton.gov.uk/foodscore,-0.41561200000000,LU1 2SE,2013-12-23,fhrs_4_en-GB,4,,FHRS,5
23244,Chaul End Centre,515 Dunstable Road,,Luton,Chaul End Centre,Other catering premises,7841,0,,459596,0,,51.89195800000000,44195,869,environmentalhealth@luton.gov.uk,Luton,http://www.luton.gov.uk/foodscore,-0.45917100000000,LU4 8QN,2014-02-10,fhrs_5_en-GB,5,,FHRS,5
23245,,34 Kimpton Road,,Luton,Cheese and Pickle Sandwich Bar,Takeaway/sandwich shop,7844,5,,359539,5,,51.87493300000000,9408,869,environmentalhealth@luton.gov.uk,Luton,http://www.luton.gov.uk/foodscore,-0.39830400000000,LU2 0SX,2013-06-26,fhrs_5_en-GB,5,,FHRS,5
23246,,50 Calverton Road,,Luton,Chef Peking Chinese T/Away,Takeaway/sandwich shop,7844,5,,359324,5,,51.91053400000000,3122,869,environmentalhealth@luton.gov.uk,Luton,http://www.luton.gov.uk/foodscore,-0.44681700000000,LU3 2SZ,2013-05-23,fhrs_5_en-GB,5,,FHRS,0
23247,Cheynes Infant School,Cranbrook Drive,,Luton,Cheynes Infants School,School/college/university,7845,0,,449603,0,,51.91985000000000,31478,869,environmentalhealth@luton.gov.uk,Luton,http://www.luton.gov.uk/foodscore,-0.46537000000000,LU3 3EW,2013-12-09,fhrs_5_en-GB,5,,FHRS,0
23248,,31a Upper George Street,,Luton,Chez Creole,Restaurant/Cafe/Canteen,1,20,,722697,15,,51.87966600000000,16669,869,environmentalhealth@luton.gov.uk,Luton,http://www.luton.gov.uk/foodscore,-0.41982600000000,LU1 2RD,2014-12-08,fhrs_1_en-GB,1,,FHRS,5
23249,,56 Bishopscote Road,,Luton,Chicken & Pizza Direct,Takeaway/sandwich shop,7844,20,,404601,15,,51.89880800000000,2133,869,environmentalhealth@luton.gov.uk,Luton,http://www.luton.gov.uk/foodscore,-0.43658200000000,LU3 1PB,2014-06-05,fhrs_1_en-GB,1,,FHRS,15
23250,,92 Leagrave Road,,Luton,Chicken Cottage,Takeaway/sandwich shop,7844,10,,359284,0,,51.88709600000000,24687,869,environmentalhealth@luton.gov.uk,Luton,http://www.luton.gov.uk/foodscore,-0.43010100000000,LU4 8HZ,2013-07-18,fhrs_4_en-GB,4,,FHRS,5
23251,,345 Hitchin Road,,Luton,Chicken George,Takeaway/sandwich shop,7844,5,,576865,0,,51.89152200000000,8758,869,environmentalhealth@luton.gov.uk,Luton,http://www.luton.gov.uk/foodscore,-0.40216100000000,LU2 7SW,2013-08-01,fhrs_5_en-GB,5,,FHRS,0
23252,,3 Riddy Lane,,Luton,Chicken Hut,Takeaway/sandwich shop,7844,10,,449568,15,,51.90638300000000,13300,869,environmentalhealth@luton.gov.uk,Luton,http://www.luton.gov.uk/foodscore,-0.42540200000000,LU3 2AD,2014-07-31,fhrs_2_en-GB,2,,FHRS,15
23253,,146 Leagrave Road,,Luton,Chillis,Takeaway/sandwich shop,7844,20,,359558,10,,51.88835800000000,9909,869,environmentalhealth@luton.gov.uk,Luton,http://www.luton.gov.uk/foodscore,-0.43171400000000,LU4 8HX,2014-08-08,fhrs_1_en-GB,1,,FHRS,5
23254,,85 The Mall,,Luton,Chopstix Noodle Bar,Restaurant/Cafe/Canteen,1,10,,593875,5,,51.87987100000000,119519,869,environmentalhealth@luton.gov.uk,Luton,http://www.luton.gov.uk/foodscore,-0.41501100000000,LU1 2TH,2014-12-09,fhrs_4_en-GB,4,,FHRS,5
23255,,184 Dallow Road,,Luton,Clifton Foods,Retailers - other,4613,20,,499576,0,,51.88233300000000,5325,869,environmentalhealth@luton.gov.uk,Luton,http://www.luton.gov.uk/foodscore,-0.43368100000000,LU1 1NG,2014-04-10,fhrs_1_en-GB,1,,FHRS,0
23256,Unit 3,Whitehorse Vale,,Luton,Cod's Plaice,Takeaway/sandwich shop,7844,5,,359240,0,,51.91995700000000,17482,869,environmentalhealth@luton.gov.uk,Luton,http://www.luton.gov.uk/foodscore,-0.43792700000000,LU3 4AD,2013-09-17,fhrs_4_en-GB,4,,FHRS,10
23257,,1 St Thomas's Road,,Luton,Coffee Express (Luton) Ltd,Restaurant/Cafe/Canteen,1,5,,449574,5,,51.90144000000000,15029,869,environmentalhealth@luton.gov.uk,Luton,http://www.luton.gov.uk/foodscore,-0.40087900000000,LU2 7UX,2014-07-29,fhrs_5_en-GB,5,,FHRS,0
23258,"Unit 1, Nadeem Plaza",172 Dunstable Road,,Luton,Coffee Pot,Restaurant/Cafe/Canteen,1,10,,359414,10,,51.88640200000000,51106,869,environmentalhealth@luton.gov.uk,Luton,http://www.luton.gov.uk/foodscore,-0.42999400000000,LU4 8FG,2015-01-07,fhrs_3_en-GB,3,,FHRS,10
23259,,616-618 Dunstable Road,,Luton,Collinson House,Hospitals/Childcare/Caring Premises,5,0,,359480,0,,51.89237800000000,6224,869,environmentalhealth@luton.gov.uk,Luton,http://www.luton.gov.uk/foodscore,-0.45755800000000,LU4 8RT,2014-12-15,fhrs_5_en-GB,5,,FHRS,5
23260,38 Market Hall,,,Luton,Comida Brasil,Restaurant/Cafe/Canteen,1,10,,359320,5,,51.87938900000000,30252,869,environmentalhealth@luton.gov.uk,Luton,http://www.luton.gov.uk/foodscore,-0.41129400000000,LU1 2TA,2014-11-20,fhrs_4_en-GB,4,,FHRS,0
23261,,87-89 Chapel Street,,Luton,Continental Food Store,Retailers - other,4613,20,,359349,15,,51.87522200000000,3691,869,environmentalhealth@luton.gov.uk,Luton,http://www.luton.gov.uk/foodscore,-0.41831200000000,LU1 5DD,2013-11-18,fhrs_1_en-GB,1,,FHRS,0
23262,"Unit E, The Galaxy",Bridge Street,,Luton,Cookies & Cream,Restaurant/Cafe/Canteen,1,10,,568245,5,,51.88129400000000,113529,869,environmentalhealth@luton.gov.uk,Luton,http://www.luton.gov.uk/foodscore,-0.41716900000000,LU1 2NF,2013-07-08,fhrs_3_en-GB,3,,FHRS,10
23263,,628 Hitchin Road,,Luton,CO-OP,Retailers - supermarkets/hypermarkets,7840,5,,359529,5,,51.90187200000000,8854,869,environmentalhealth@luton.gov.uk,Luton,http://www.luton.gov.uk/foodscore,-0.39698300000000,LU2 7UG,2014-04-15,fhrs_4_en-GB,4,,FHRS,10
23264,,187-191 Marsh Road,,Luton,Co-Op,Retailers - supermarkets/hypermarkets,7840,10,,642998,5,,51.90469600000000,10928,869,environmentalhealth@luton.gov.uk,Luton,http://www.luton.gov.uk/foodscore,-0.45412700000000,LU3 2QQ,2014-02-11,fhrs_4_en-GB,4,,FHRS,0
23265,1-3 The Parade,Hancock Drive,,Luton,Co-op,Retailers - supermarkets/hypermarkets,7840,10,,656106,10,,51.90824700000000,7563,869,environmentalhealth@luton.gov.uk,Luton,http://www.luton.gov.uk/foodscore,-0.41149700000000,LU2 7SF,2015-01-14,fhrs_3_en-GB,3,,FHRS,5
23266,,259 Birdsfoot Lane,,Luton,Co-operative,Retailers - supermarkets/hypermarkets,7840,5,,643001,10,,51.90884800000000,1920,869,environmentalhealth@luton.gov.uk,Luton,http://www.luton.gov.uk/foodscore,-0.43424200000000,LU3 2HX,2014-02-06,fhrs_3_en-GB,3,,FHRS,10
23267,,76-78 Birdsfoot Lane,,Luton,Co-operative,Retailers - supermarkets/hypermarkets,7840,0,,633506,0,,51.91336800000000,1902,869,environmentalhealth@luton.gov.uk,Luton,http://www.luton.gov.uk/foodscore,-0.43063900000000,LU3 2DQ,2014-02-06,fhrs_4_en-GB,4,,FHRS,10
23268,,151-153 Biscot Road,,Luton,Co-operative,Retailers - supermarkets/hypermarkets,7840,0,,633507,0,,51.89259300000000,2022,869,environmentalhealth@luton.gov.uk,Luton,http://www.luton.gov.uk/foodscore,-0.43033100000000,LU3 1AW,2014-02-06,fhrs_4_en-GB,4,,FHRS,10
23269,,78-80 Wigmore Lane,,Luton,Co-operative,Retailers - supermarkets/hypermarkets,7840,10,,359241,5,,51.89830300000000,17528,869,environmentalhealth@luton.gov.uk,Luton,http://www.luton.gov.uk/foodscore,-0.38972600000000,LU2 8AB,2014-05-08,fhrs_4_en-GB,4,,FHRS,5
23270,,13-15 Market Square,,Luton,Co-operative,Retailers - supermarkets/hypermarkets,7840,10,,359075,5,,51.87511300000000,10780,869,environmentalhealth@luton.gov.uk,Luton,http://www.luton.gov.uk/foodscore,-0.43911800000000,LU1 5RD,2013-07-08,fhrs_3_en-GB,3,,FHRS,10
23271,,2a Willow Way,,Luton,Corner House,Takeaway/sandwich shop,7844,,,459583,,,51.90719100000000,17583,869,environmentalhealth@luton.gov.uk,Luton,http://www.luton.gov.uk/foodscore,-0.45309600000000,LU3 2SD,2014-02-20,fhrs_4_en-GB,4,,FHRS,
23272,,205,,Luton,Costa,Restaurant/Cafe/Canteen,1,0,,359117,5,,51.88012500000000,118111,869,environmentalhealth@luton.gov.uk,Luton,http://www.luton.gov.uk/foodscore,-0.41651300000000,LU1 2TL,2014-03-13,fhrs_5_en-GB,5,,FHRS,5
23273,,55 The Mall,,Luton,Costa Coffee,Restaurant/Cafe/Canteen,1,5,,359318,5,,51.87945300000000,30174,869,environmentalhealth@luton.gov.uk,Luton,http://www.luton.gov.uk/foodscore,-0.41334000000000,LU1 2TF,2013-11-06,fhrs_5_en-GB,5,,FHRS,5
23274,"Park Square Car Park, University Of Bedfordshire",Park Square,,Luton,Costa Coffee,Restaurant/Cafe/Canteen,1,0,,359398,5,,,47700,869,environmentalhealth@luton.gov.uk,Luton,http://www.luton.gov.uk/foodscore,,,2013-08-15,fhrs_5_en-GB,5,,FHRS,0
23275,London Luton Airport,Airport Way,,Luton,Costa Coffee Terminal Building (Landside),Restaurant/Cafe/Canteen,1,0,,359382,0,,,44149,869,environmentalhealth@luton.gov.uk,Luton,http://www.luton.gov.uk/foodscore,,,2013-05-08,fhrs_5_en-GB,5,,FHRS,0
23276,Street Record,Beaconsfield,,Luton,Crawley Green & Wenlock Pre-School,Hospitals/Childcare/Caring Premises,5,5,,359121,0,,51.88153800000000,118138,869,environmentalhealth@luton.gov.uk,Luton,http://www.luton.gov.uk/foodscore,-0.39538100000000,LU2 0RW,2014-03-11,fhrs_4_en-GB,4,,FHRS,10
23277,Crawley Green Infant School,47 Beaconsfield,,Luton,Crawley Green Infants School,School/college/university,7845,5,,359187,5,,51.88153800000000,1488,869,environmentalhealth@luton.gov.uk,Luton,http://www.luton.gov.uk/foodscore,-0.39538100000000,LU2 0RW,2014-06-04,fhrs_5_en-GB,5,,FHRS,0
23278,,258a Crawley Green Road,,Luton,Crawley Liquor Store,Retailers - other,4613,20,,657327,0,,51.88638600000000,4820,869,environmentalhealth@luton.gov.uk,Luton,http://www.luton.gov.uk/foodscore,-0.39281100000000,LU2 0SJ,2014-04-16,fhrs_1_en-GB,1,,FHRS,0
23279,"Casino, Dunstable House",50 Dunstable Road,,Luton,Crescent Hall Events Ltd,Other catering premises,7841,,,449629,,,51.88325900000000,5903,869,environmentalhealth@luton.gov.uk,Luton,http://www.luton.gov.uk/foodscore,-0.42557100000000,LU1 1EF,2013-10-08,fhrs_exempt_en-GB,Exempt,,FHRS,
23280,,401 Dunstable Road,,Luton,Crispy Lemon Fried Chicken,Takeaway/sandwich shop,7844,5,,359479,0,,51.89060200000000,6158,869,environmentalhealth@luton.gov.uk,Luton,http://www.luton.gov.uk/foodscore,-0.44496100000000,LU4 8DA,2014-09-25,fhrs_2_en-GB,2,,FHRS,15
23281,,7 The Crossway,,Luton,Crossway Fish Bar,Takeaway/sandwich shop,7844,5,,449587,15,,51.87140300000000,21083,869,environmentalhealth@luton.gov.uk,Luton,http://www.luton.gov.uk/foodscore,-0.42859900000000,LU1 5LY,2013-12-16,fhrs_2_en-GB,2,,FHRS,0
23282,,,,,Crunchy Falafel,Mobile caterer,7846,5,,559341,0,,,10994,869,environmentalhealth@luton.gov.uk,Luton,http://www.luton.gov.uk/foodscore,,,2014-12-10,fhrs_5_en-GB,5,,FHRS,0
23283,15 Market Hall,,,Luton,Curry Centre,Takeaway/sandwich shop,7844,20,,449619,15,,51.87938900000000,46881,869,environmentalhealth@luton.gov.uk,Luton,http://www.luton.gov.uk/foodscore,-0.41129400000000,LU1 2TA,2014-01-09,fhrs_1_en-GB,1,,FHRS,5
23284,,176a Marsh Road,,Luton,Curry Master,Takeaway/sandwich shop,7844,5,,449552,5,,51.90445200000000,10912,869,environmentalhealth@luton.gov.uk,Luton,http://www.luton.gov.uk/foodscore,-0.45269600000000,LU3 2QL,2013-12-11,fhrs_5_en-GB,5,,FHRS,0
23285,,22 Chaul End Lane,,Luton,D & P Stores,Retailers - other,4613,10,,404620,10,,51.89015700000000,45290,869,environmentalhealth@luton.gov.uk,Luton,http://www.luton.gov.uk/foodscore,-0.45625300000000,LU4 8EZ,2013-09-11,fhrs_3_en-GB,3,,FHRS,5
23286,,,,,Daddy Jay,Other catering premises,7841,10,,404635,5,,,68041,869,environmentalhealth@luton.gov.uk,Luton,http://www.luton.gov.uk/foodscore,,,2012-05-31,fhrs_4_en-GB,4,,FHRS,5
23287,,497 Dallow Road,,Luton,Dallow Fish Bar,Takeaway/sandwich shop,7844,5,,359427,5,,51.88430600000000,5406,869,environmentalhealth@luton.gov.uk,Luton,http://www.luton.gov.uk/foodscore,-0.45296700000000,LU1 1UN,2013-12-17,fhrs_4_en-GB,4,,FHRS,10
23288,,489-491 Dallow Road,,Luton,Dallow Food Centre,Retailers - other,4613,10,,359425,10,,51.88430600000000,5402,869,environmentalhealth@luton.gov.uk,Luton,http://www.luton.gov.uk/foodscore,-0.45296700000000,LU1 1UN,2013-01-07,fhrs_3_en-GB,3,,FHRS,5
23289,,78 Dallow Road,,Luton,Dallow Primary School,School/college/university,7845,0,,404615,0,,51.88146200000000,41277,869,environmentalhealth@luton.gov.uk,Luton,http://www.luton.gov.uk/foodscore,-0.42906200000000,LU1 1LZ,2014-06-04,fhrs_5_en-GB,5,,FHRS,0
23290,,83 Wellington Street,,Luton,Damas Grill,Restaurant/Cafe/Canteen,1,10,,359301,15,,51.87695400000000,27161,869,environmentalhealth@luton.gov.uk,Luton,http://www.luton.gov.uk/foodscore,-0.42009600000000,LU1 5AF,2014-06-12,fhrs_2_en-GB,2,,FHRS,10
23291,David Lloyd Leisure,910 Capability Green,,Luton,David Lloyd Leisure Ltd,Restaurant/Cafe/Canteen,1,5,,359299,0,,51.86608300000000,25660,869,environmentalhealth@luton.gov.uk,Luton,http://www.luton.gov.uk/foodscore,-0.40807300000000,LU1 3LU,2015-02-05,fhrs_5_en-GB,5,,FHRS,0
23292,,,,,DB Catering,Mobile caterer,7846,10,,359291,0,,,25032,869,environmentalhealth@luton.gov.uk,Luton,http://www.luton.gov.uk/foodscore,,,2014-07-01,fhrs_4_en-GB,4,,FHRS,5
23293,,56-80 The Mall,,Luton,Debenhams Retail plc,Restaurant/Cafe/Canteen,1,,,359436,,,51.87892200000000,565,869,environmentalhealth@luton.gov.uk,Luton,http://www.luton.gov.uk/foodscore,-0.41394000000000,LU1 2SZ,2014-02-27,fhrs_5_en-GB,5,,FHRS,
23294,14 Sundon Park Parade,Sundon Park Road,,Luton,Delhi Lounge,Other catering premises,7841,10,,359209,10,,51.91616300000000,16071,869,environmentalhealth@luton.gov.uk,Luton,http://www.luton.gov.uk/foodscore,-0.47013500000000,LU3 3BH,2015-01-20,fhrs_3_en-GB,3,,FHRS,10
23295,Mill Gardens,16-26 Mill Street,,Luton,Delicatessen Sederlek Ltd,Retailers - other,4613,20,,359358,0,,,39669,869,environmentalhealth@luton.gov.uk,Luton,http://www.luton.gov.uk/foodscore,,,2013-10-29,fhrs_1_en-GB,1,,FHRS,0
23296,Cougar Accident & Repair Centre,Eaton Green Road,,Luton,Delicio,Other catering premises,7841,5,,479243,5,,,68628,869,environmentalhealth@luton.gov.uk,Luton,http://www.luton.gov.uk/foodscore,,LU2 9XL,2014-02-13,fhrs_2_en-GB,2,,FHRS,15
23297,26-28 Market Hall,The Mall,,Luton,Delicious Jamaican Cuisine,Restaurant/Cafe/Canteen,1,10,,449638,5,,51.87938900000000,717,869,environmentalhealth@luton.gov.uk,Luton,http://www.luton.gov.uk/foodscore,-0.41129400000000,LU1 2TA,2013-10-09,fhrs_4_en-GB,4,,FHRS,0
23298,Shop,41 High Town Road,,Luton,Delicja Polish Deli,Takeaway/sandwich shop,7844,20,,449604,15,,51.88426400000000,32701,869,environmentalhealth@luton.gov.uk,Luton,http://www.luton.gov.uk/foodscore,-0.41269100000000,LU2 0BW,2014-12-22,fhrs_1_en-GB,1,,FHRS,0
23299,,40 Waller Avenue,,Luton,Delikatesy Polskie Smaczek Limited,Retailers - other,4613,10,,666383,0,,51.89572500000000,16843,869,environmentalhealth@luton.gov.uk,Luton,http://www.luton.gov.uk/foodscore,-0.45094700000000,LU4 9RR,2014-05-20,fhrs_4_en-GB,4,,FHRS,10
23300,,49 George Street,,Luton,Delikatesy Polskie Smaczek Ltd,Retailers - other,4613,5,,359328,10,,51.87860600000000,32328,869,environmentalhealth@luton.gov.uk,Luton,http://www.luton.gov.uk/foodscore,-0.41589800000000,LU1 2AQ,2014-07-16,fhrs_4_en-GB,4,,FHRS,5
23301,,13 Denbigh Road,,Luton,Denbigh Food Store,Retailers - other,4613,20,,693154,5,,51.89316300000000,5528,869,environmentalhealth@luton.gov.uk,Luton,http://www.luton.gov.uk/foodscore,-0.43330500000000,LU3 1NP,2014-08-11,fhrs_1_en-GB,1,,FHRS,15
23302,Denbigh High School,Alexandra Avenue,,Luton,Denbigh High School,School/college/university,7845,5,,633508,0,,51.89135800000000,206,869,environmentalhealth@luton.gov.uk,Luton,http://www.luton.gov.uk/foodscore,-0.42405200000000,LU3 1HE,2014-02-06,fhrs_5_en-GB,5,,FHRS,5
23303,Denbigh Primary School,Denbigh Road,,Luton,Denbigh Primary School (KS1),School/college/university,7845,0,,359326,5,,51.89395800000000,31755,869,environmentalhealth@luton.gov.uk,Luton,http://www.luton.gov.uk/foodscore,-0.43493400000000,LU3 1NS,2013-10-08,fhrs_5_en-GB,5,,FHRS,0
23304,,55 Bute Street,,Luton,Deserts Rose Ltd,Restaurant/Cafe/Canteen,1,10,,359316,5,,51.88070900000000,2933,869,environmentalhealth@luton.gov.uk,Luton,http://www.luton.gov.uk/foodscore,-0.41515500000000,LU1 2EP,2014-02-10,fhrs_3_en-GB,3,,FHRS,10
23305,,169 Biscot Road,,Luton,DFS Foodstore,Retailers - other,4613,10,,359256,5,,51.89264700000000,2039,869,environmentalhealth@luton.gov.uk,Luton,http://www.luton.gov.uk/foodscore,-0.43035800000000,LU3 1AW,2014-04-10,fhrs_4_en-GB,4,,FHRS,5
23306,,29 New Bedford Road,,Luton,Dial-A-Kebab,Takeaway/sandwich shop,7844,10,,359104,15,,51.88268000000000,11621,869,environmentalhealth@luton.gov.uk,Luton,http://www.luton.gov.uk/foodscore,-0.41992400000000,LU1 1SE,2014-01-23,fhrs_2_en-GB,2,,FHRS,15
23307,1 Sundon Park Parade,Sundon Park Road,,Luton,Dildar Tandoori Restaurant,Restaurant/Cafe/Canteen,1,10,,359206,10,,51.91616300000000,16056,869,environmentalhealth@luton.gov.uk,Luton,http://www.luton.gov.uk/foodscore,-0.47013500000000,LU3 3BH,2014-03-18,fhrs_3_en-GB,3,,FHRS,10
23308,Pitch 9,George Street,,Luton,Diners' Choice (UK) Ltd,Mobile caterer,7846,20,,359438,5,,51.87984300000000,57139,869,environmentalhealth@luton.gov.uk,Luton,http://www.luton.gov.uk/foodscore,-0.41828000000000,LU1 2BQ,2014-04-03,fhrs_1_en-GB,1,,FHRS,5
23309,,371 Dunstable Road,,Luton,Dino's Peri Peri Grill,Takeaway/sandwich shop,7844,10,,359477,10,,51.88973200000000,6143,869,environmentalhealth@luton.gov.uk,Luton,http://www.luton.gov.uk/foodscore,-0.44173600000000,LU4 8BY,2013-10-28,fhrs_3_en-GB,3,,FHRS,10
23310,,30 Tudor Road,,Luton,Dins Peri Peri,Takeaway/sandwich shop,7844,10,,666372,10,,51.89451000000000,47443,869,environmentalhealth@luton.gov.uk,Luton,http://www.luton.gov.uk/foodscore,-0.43587400000000,LU3 1RN,2014-11-18,fhrs_3_en-GB,3,,FHRS,10
23311,,177 Dunstable Road,,Luton,Dixy Peri Peri Chicken,Takeaway/sandwich shop,7844,20,,359457,15,,51.88535200000000,5985,869,environmentalhealth@luton.gov.uk,Luton,http://www.luton.gov.uk/foodscore,-0.42876700000000,LU1 1BT,2015-01-19,fhrs_1_en-GB,1,,FHRS,10
23312,,392 Leagrave Road,,Luton,Domenic's Cafe,Restaurant/Cafe/Canteen,1,0,,359054,5,,51.89573000000000,10004,869,environmentalhealth@luton.gov.uk,Luton,http://www.luton.gov.uk/foodscore,-0.44042400000000,LU3 1RG,2013-09-12,fhrs_5_en-GB,5,,FHRS,0
23313,12 Sundon Park Parade,Sundon Park Road,,Luton,Domino's Pizza,Takeaway/sandwich shop,7844,0,,579665,0,,51.91616300000000,16069,869,environmentalhealth@luton.gov.uk,Luton,http://www.luton.gov.uk/foodscore,-0.47013500000000,LU3 3BH,2013-08-13,fhrs_5_en-GB,5,,FHRS,0
23314,"Shop 4, Crystal House",New Bedford Road,,Luton,Domino's Pizza,Takeaway/sandwich shop,7844,0,,459569,0,,51.88300000000000,11653,869,environmentalhealth@luton.gov.uk,Luton,http://www.luton.gov.uk/foodscore,-0.42034900000000,LU1 1HS,2014-11-20,fhrs_5_en-GB,5,,FHRS,5
23315,,164,,Luton,Don Millers H B K,Other catering premises,7841,5,,459606,5,,51.88012500000000,620,869,environmentalhealth@luton.gov.uk,Luton,http://www.luton.gov.uk/foodscore,-0.41651300000000,LU1 2TL,2014-01-16,fhrs_5_en-GB,5,,FHRS,5
23316,Downside Primary School,Chaul End Lane,,Luton,Downside Primary  School,School/college/university,7845,0,,359352,0,,51.89015700000000,3799,869,environmentalhealth@luton.gov.uk,Luton,http://www.luton.gov.uk/foodscore,-0.45625300000000,LU4 8EZ,2014-02-10,fhrs_5_en-GB,5,,FHRS,5
23317,The Duke Of Clarence,1 Upper George Street,,Luton,Duke Of Clarence,Pub/bar/nightclub,7843,5,,359220,10,,51.87948600000000,16638,869,environmentalhealth@luton.gov.uk,Luton,http://www.luton.gov.uk/foodscore,-0.41846700000000,LU1 2QX,2015-01-20,fhrs_3_en-GB,3,,FHRS,10
23318,,5 Upper George Street,,Luton,Dyskont Express PL,Retailers - other,4613,10,,709228,10,,51.87948600000000,16641,869,environmentalhealth@luton.gov.uk,Luton,http://www.luton.gov.uk/foodscore,-0.41846700000000,LU1 2QX,2014-10-14,fhrs_4_en-GB,4,,FHRS,0
23319,,4a Peel Street,,Luton,Eastern European Shop,Retailers - other,4613,,,449558,,,51.87945400000000,118704,869,environmentalhealth@luton.gov.uk,Luton,http://www.luton.gov.uk/foodscore,-0.41877400000000,LU1 2QT,2014-08-05,fhrs_4_en-GB,4,,FHRS,
23320,"Unit 5 - 7, Airport Executive Park",Prince Way,,Luton,Easyjet Academy,Restaurant/Cafe/Canteen,1,5,,479240,0,,51.88403400000000,12921,869,environmentalhealth@luton.gov.uk,Luton,http://www.luton.gov.uk/foodscore,-0.37673800000000,LU2 9PD,2014-02-18,fhrs_5_en-GB,5,,FHRS,0
23321,,55 Cheapside,,Luton,Eating on the CHEAPSIDE,Restaurant/Cafe/Canteen,1,0,,734336,5,,51.88043000000000,3823,869,environmentalhealth@luton.gov.uk,Luton,http://www.luton.gov.uk/foodscore,-0.41378400000000,LU1 2HN,2015-02-02,fhrs_5_en-GB,5,,FHRS,0
23322,,168-170 Biscot Road,,Luton,Edwardian Care Home Limited,Hospitals/Childcare/Caring Premises,5,10,,459586,5,,51.89043900000000,2037,869,environmentalhealth@luton.gov.uk,Luton,http://www.luton.gov.uk/foodscore,-0.42796500000000,LU3 1AX,2015-01-27,fhrs_3_en-GB,3,,FHRS,10
23323,16 Purley Centre,The Moakes,,Luton,Efeler Kebabs,Takeaway/sandwich shop,7844,10,,359410,10,,51.91695200000000,50135,869,environmentalhealth@luton.gov.uk,Luton,http://www.luton.gov.uk/foodscore,-0.45420000000000,LU3 3SR,2014-04-24,fhrs_3_en-GB,3,,FHRS,10
23324,,219 Dunstable Road,,Luton,Egg Free Cake,Retailers - other,4613,5,,666371,0,,51.88611800000000,39694,869,environmentalhealth@luton.gov.uk,Luton,http://www.luton.gov.uk/foodscore,-0.43029500000000,LU4 8BN,2014-05-13,fhrs_5_en-GB,5,,FHRS,5
23325,,88 High Town Road,,Luton,EKO Food Court,Restaurant/Cafe/Canteen,1,20,,359397,15,,51.88516600000000,47330,869,environmentalhealth@luton.gov.uk,Luton,http://www.luton.gov.uk/foodscore,-0.41094500000000,LU2 0DQ,2014-09-25,fhrs_1_en-GB,1,,FHRS,15
23326,Electrolux,Oakley Road,,Luton,Elements,Restaurant/Cafe/Canteen,1,0,,449560,0,,51.89989400000000,118740,869,environmentalhealth@luton.gov.uk,Luton,http://www.luton.gov.uk/foodscore,-0.46235900000000,LU4 9QQ,2014-08-13,fhrs_5_en-GB,5,,FHRS,0
23327,Empire Service Station,518-530 Dunstable Road,,Luton,Empire Service Station,Retailers - other,4613,5,,660682,0,,51.89223100000000,6205,869,environmentalhealth@luton.gov.uk,Luton,http://www.luton.gov.uk/foodscore,-0.45052900000000,LU4 8DL,2014-05-01,fhrs_5_en-GB,5,,FHRS,0
23328,,69-77 Leagrave Road,,Luton,Empire-Cuisine Ltd,Restaurant/Cafe/Canteen,1,10,,359553,10,,51.88772900000000,9858,869,environmentalhealth@luton.gov.uk,Luton,http://www.luton.gov.uk/foodscore,-0.43170600000000,LU4 8HT,2014-08-05,fhrs_3_en-GB,3,,FHRS,10
23329,,11-15 Park Street West,,Luton,ESC Catering at Marula Cafe,Restaurant/Cafe/Canteen,1,10,,540054,15,,51.87711800000000,118525,869,environmentalhealth@luton.gov.uk,Luton,http://www.luton.gov.uk/foodscore,-0.41288500000000,LU1 3BE,2013-10-16,fhrs_2_en-GB,2,,FHRS,5
23330,,33-39 Dunstable Road,,Luton,Esso Viva Service Station,Retailers - other,4613,5,,660681,0,,51.88297800000000,5902,869,environmentalhealth@luton.gov.uk,Luton,http://www.luton.gov.uk/foodscore,-0.42607500000000,LU1 1BN,2014-05-06,fhrs_5_en-GB,5,,FHRS,0
23331,"New Terminal Building, London",Airport Way,,Luton,EST Bar,Pub/bar/nightclub,7843,5,,359375,0,,51.87785200000000,43074,869,environmentalhealth@luton.gov.uk,Luton,http://www.luton.gov.uk/foodscore,-0.37637900000000,LU2 9LY,2013-12-12,fhrs_5_en-GB,5,,FHRS,5
23332,,44 Bury Park Road,,Luton,Euro Bangla Cash & Carry,Retailers - other,4613,10,,359310,5,,51.88622800000000,2871,869,environmentalhealth@luton.gov.uk,Luton,http://www.luton.gov.uk/foodscore,-0.42773400000000,LU1 1HE,2011-11-14,fhrs_4_en-GB,4,,FHRS,5
23333,,110-112 Dunstable Road,,Luton,Euro Halal Cash & Carry,Retailers - other,4613,10,,359448,5,,51.88564300000000,5926,869,environmentalhealth@luton.gov.uk,Luton,http://www.luton.gov.uk/foodscore,-0.42833500000000,LU1 1EW,2014-05-20,fhrs_3_en-GB,3,,FHRS,10
23334,,33-35 New Bedford Road,,Luton,Euro Market,Retailers - other,4613,20,,726562,5,,51.88268000000000,11626,869,environmentalhealth@luton.gov.uk,Luton,http://www.luton.gov.uk/foodscore,-0.41992400000000,LU1 1SE,2014-12-01,fhrs_1_en-GB,1,,FHRS,10
23335,,27 Lyneham Road,,Luton,Express Food & Wine,Retailers - other,4613,20,,681416,15,,51.88704900000000,10506,869,environmentalhealth@luton.gov.uk,Luton,http://www.luton.gov.uk/foodscore,-0.38280500000000,LU2 9JS,2014-07-01,fhrs_1_en-GB,1,,FHRS,15
23336,,38-40 Russell Street,,Luton,Family Choice,Retailers - other,4613,20,,449570,15,,51.87471300000000,13804,869,environmentalhealth@luton.gov.uk,Luton,http://www.luton.gov.uk/foodscore,-0.42061000000000,LU1 5EA,2014-09-17,fhrs_1_en-GB,1,,FHRS,15
23337,,2 Nunnery Lane,,Luton,Family Choice Trading Ltd.,Retailers - other,4613,20,,404579,5,,51.90333600000000,12069,869,environmentalhealth@luton.gov.uk,Luton,http://www.luton.gov.uk/foodscore,-0.43556700000000,LU3 1XA,2013-11-14,fhrs_1_en-GB,1,,FHRS,15
23338,,3 Shaftesbury Road,,Luton,Family General Stores,Retailers - other,4613,10,,359182,10,,51.88624800000000,14240,869,environmentalhealth@luton.gov.uk,Luton,http://www.luton.gov.uk/foodscore,-0.43733800000000,LU4 8AL,2011-08-04,fhrs_3_en-GB,3,,FHRS,5
23339,27 Sundon Park Parade,Sundon Park Road,,Luton,Famous Peri Peri Chicken & Pizza,Takeaway/sandwich shop,7844,20,,359211,15,,51.91565800000000,16082,869,environmentalhealth@luton.gov.uk,Luton,http://www.luton.gov.uk/foodscore,-0.46938100000000,LU3 3BJ,2014-03-03,fhrs_1_en-GB,1,,FHRS,15
23340,,19 Meyrick Avenue,,Luton,Farley Convenience Store,Retailers - other,4613,20,,693152,0,,51.87498800000000,11113,869,environmentalhealth@luton.gov.uk,Luton,http://www.luton.gov.uk/foodscore,-0.42633900000000,LU1 5JN,2014-08-19,fhrs_1_en-GB,1,,FHRS,5
23341,Farley Junior School,North Drift Way,,Luton,Farley Junior School,School/college/university,7845,0,,404578,5,,51.87342500000000,11930,869,environmentalhealth@luton.gov.uk,Luton,http://www.luton.gov.uk/foodscore,-0.43319200000000,LU1 5JF,2014-10-15,fhrs_5_en-GB,5,,FHRS,5
23342,Marsh House Community Centre,Bramingham Road,,Luton,Farmhouse Cafe,Restaurant/Cafe/Canteen,1,0,,564446,0,,51.90857000000000,118278,869,environmentalhealth@luton.gov.uk,Luton,http://www.luton.gov.uk/foodscore,-0.45608700000000,LU3 2SL,2013-06-27,fhrs_5_en-GB,5,,FHRS,0
23343,The Ferrars Academy,Macaulay Road,,Luton,Ferrars Infants School,School/college/university,7845,5,,359064,0,,51.89718100000000,10514,869,environmentalhealth@luton.gov.uk,Luton,http://www.luton.gov.uk/foodscore,-0.47983400000000,LU4 0LL,2014-03-05,fhrs_5_en-GB,5,,FHRS,0
23344,Ferrars Junior School,Lewsey Road,,Luton,Ferrars Junior School,School/college/university,7845,5,,359056,5,,51.89776900000000,10132,869,environmentalhealth@luton.gov.uk,Luton,http://www.luton.gov.uk/foodscore,-0.47942200000000,LU4 0ES,2013-11-06,fhrs_5_en-GB,5,,FHRS,0
23345,,93a Stockingstone Road,,Luton,Fillers Sandwich Bar,Takeaway/sandwich shop,7844,5,,359190,0,,51.89247500000000,15269,869,environmentalhealth@luton.gov.uk,Luton,http://www.luton.gov.uk/foodscore,-0.40750400000000,LU2 7NE,2013-07-09,fhrs_5_en-GB,5,,FHRS,0
23346,,2 Manor Road,,Luton,Finnegans Cafe,Restaurant/Cafe/Canteen,1,10,,359070,10,,51.87644300000000,10640,869,environmentalhealth@luton.gov.uk,Luton,http://www.luton.gov.uk/foodscore,-0.40749000000000,LU1 3HN,2014-11-06,fhrs_3_en-GB,3,,FHRS,5
23347,Central Library,Library Road,,Luton,First Catering,Restaurant/Cafe/Canteen,1,5,,568247,0,,51.88129100000000,54650,869,environmentalhealth@luton.gov.uk,Luton,http://www.luton.gov.uk/foodscore,-0.41692200000000,LU1 2NG,2013-07-12,fhrs_5_en-GB,5,,FHRS,0
23348,Limbury Community Centre,Icknield Way,,Luton,First Steps Nursery,Hospitals/Childcare/Caring Premises,5,5,,707712,5,,51.90976700000000,131245,869,environmentalhealth@luton.gov.uk,Luton,http://www.luton.gov.uk/foodscore,-0.44179900000000,LU3 2JR,2014-10-14,fhrs_5_en-GB,5,,FHRS,0
23349,,21 Biscot Road,,Luton,First Steps Pre-School,Hospitals/Childcare/Caring Premises,5,5,,666368,5,,51.88690400000000,1947,869,environmentalhealth@luton.gov.uk,Luton,http://www.luton.gov.uk/foodscore,-0.42582100000000,LU3 1AH,2014-05-13,fhrs_5_en-GB,5,,FHRS,0
23350,,196b Leagrave Road,,Luton,Fish & Vegetable,Retailers - other,4613,5,,449593,5,,51.89075300000000,23843,869,environmentalhealth@luton.gov.uk,Luton,http://www.luton.gov.uk/foodscore,-0.43257500000000,LU3 1JD,2012-09-12,fhrs_5_en-GB,5,,FHRS,5
23351,,1 Salisbury Road,,Luton,Fish 'n' Chips,Takeaway/sandwich shop,7844,5,,359179,0,,51.87613400000000,13862,869,environmentalhealth@luton.gov.uk,Luton,http://www.luton.gov.uk/foodscore,-0.42260900000000,LU1 5AP,2013-09-16,fhrs_5_en-GB,5,,FHRS,5
23352,Stopsley Community Primary School,Hitchin Road,,Luton,Flag Club,Restaurant/Cafe/Canteen,1,5,,449622,5,,51.90187200000000,47782,869,environmentalhealth@luton.gov.uk,Luton,http://www.luton.gov.uk/foodscore,-0.39698300000000,LU2 7UG,2012-07-04,fhrs_4_en-GB,4,,FHRS,10
23353,,172 Marsh Road,,Luton,Flamers,Takeaway/sandwich shop,7844,10,,359086,10,,51.90455300000000,10905,869,environmentalhealth@luton.gov.uk,Luton,http://www.luton.gov.uk/foodscore,-0.45280900000000,LU3 2QL,2014-03-18,fhrs_3_en-GB,3,,FHRS,10
23354,8 Market Hall,,,Luton,Fobo Bites,Other catering premises,7841,10,,404621,15,,51.87938900000000,46547,869,environmentalhealth@luton.gov.uk,Luton,http://www.luton.gov.uk/foodscore,-0.41129400000000,LU1 2TA,2014-10-17,fhrs_2_en-GB,2,,FHRS,15
23355,,,,,Fone A Bite,Mobile caterer,7846,20,,359360,15,,,39782,869,environmentalhealth@luton.gov.uk,Luton,http://www.luton.gov.uk/foodscore,,,2014-12-04,fhrs_1_en-GB,1,,FHRS,15
23356,London Luton Airport,Airport Way,,Luton,Food Village,Restaurant/Cafe/Canteen,1,5,,459587,0,,,21085,869,environmentalhealth@luton.gov.uk,Luton,http://www.luton.gov.uk/foodscore,,,2014-04-03,fhrs_5_en-GB,5,,FHRS,5
23357,Foxdell Infant School,Dallow Road,,Luton,Foxdell Infant School,School/college/university,7845,0,,359424,5,,51.88350100000000,5394,869,environmentalhealth@luton.gov.uk,Luton,http://www.luton.gov.uk/foodscore,-0.44514800000000,LU1 1TG,2014-01-07,fhrs_5_en-GB,5,,FHRS,0
23358,Foxdell Junior School,Dallow Road,,Luton,Foxdell Junior School,School/college/university,7845,10,,449626,5,,51.88493300000000,5408,869,environmentalhealth@luton.gov.uk,Luton,http://www.luton.gov.uk/foodscore,-0.45691200000000,LU1 1UP,2014-10-07,fhrs_4_en-GB,4,,FHRS,0
23359,"New Terminal Building, London Luton Airport",Airport Way,,Luton,Frankie & Benny's,Restaurant/Cafe/Canteen,1,5,,564447,10,,51.87357000000000,119113,869,environmentalhealth@luton.gov.uk,Luton,http://www.luton.gov.uk/foodscore,-0.38732700000000,LU2 9NH,2014-12-02,fhrs_4_en-GB,4,,FHRS,5
23360,,2-2a Selbourne Road,,Luton,Fresh and Green Food Store,Retailers - other,4613,5,,359180,10,,51.88941200000000,14026,869,environmentalhealth@luton.gov.uk,Luton,http://www.luton.gov.uk/foodscore,-0.43318800000000,LU4 8LP,2013-11-19,fhrs_4_en-GB,4,,FHRS,5
23361,Little Bramingham Farm,Leamington Road,,Luton,Friends of the Elderly,Hospitals/Childcare/Caring Premises,5,5,,449545,0,,51.91728600000000,10045,869,environmentalhealth@luton.gov.uk,Luton,http://www.luton.gov.uk/foodscore,-0.44063700000000,LU3 3XF,2013-12-19,fhrs_5_en-GB,5,,FHRS,0
23362,Dallow Primary School,Dallow Road,,Luton,Fun To Learn,Hospitals/Childcare/Caring Premises,5,5,,359357,0,,51.88146200000000,39534,869,environmentalhealth@luton.gov.uk,Luton,http://www.luton.gov.uk/foodscore,-0.42906200000000,LU1 1LZ,2013-10-15,fhrs_5_en-GB,5,,FHRS,0
23363,,377 Dunstable Road,,Luton,G & A Fast Food,Takeaway/sandwich shop,7844,10,,359478,15,,51.88973200000000,6147,869,environmentalhealth@luton.gov.uk,Luton,http://www.luton.gov.uk/foodscore,-0.44173600000000,LU4 8BY,2014-02-06,fhrs_2_en-GB,2,,FHRS,15
23364,,15 Lyneham Road,,Luton,G & A Southern Fried Chicken & Pizza,Takeaway/sandwich shop,7844,5,,359063,5,,51.88704900000000,10501,869,environmentalhealth@luton.gov.uk,Luton,http://www.luton.gov.uk/foodscore,-0.38280500000000,LU2 9JS,2015-01-28,fhrs_5_en-GB,5,,FHRS,5
23365,,363 Dunstable Road,,Luton,G & A Superstore,Retailers - other,4613,10,,404632,15,,51.88973200000000,6138,869,environmentalhealth@luton.gov.uk,Luton,http://www.luton.gov.uk/foodscore,-0.44173600000000,LU4 8BY,2013-12-10,fhrs_2_en-GB,2,,FHRS,10
23366,,35 Park Street West,,Luton,G Casino Luton,Restaurant/Cafe/Canteen,1,0,,530181,5,,51.87711800000000,46344,869,environmentalhealth@luton.gov.uk,Luton,http://www.luton.gov.uk/foodscore,-0.41288500000000,LU1 3BE,2013-03-25,fhrs_5_en-GB,5,,FHRS,0
23367,Stockwood Discovery Centre,London Road,,Luton,Garden Cafe,Restaurant/Cafe/Canteen,1,,,404630,,,51.86413100000000,54877,869,environmentalhealth@luton.gov.uk,Luton,http://www.luton.gov.uk/foodscore,-0.42064700000000,LU1 4LX,2014-02-06,fhrs_5_en-GB,5,,FHRS,
23368,,25 George Street,,Luton,Gelato Heaven,Restaurant/Cafe/Canteen,1,20,,732898,15,,51.87803800000000,36553,869,environmentalhealth@luton.gov.uk,Luton,http://www.luton.gov.uk/foodscore,-0.41511800000000,LU1 2AF,2015-01-20,fhrs_1_en-GB,1,,FHRS,5
23369,"Unit 4, Britannia Estate",Leagrave Road,,Luton,Gelato Heaven,Manufacturers/packers,7839,5,,359258,0,,51.89243000000000,20766,869,environmentalhealth@luton.gov.uk,Luton,http://www.luton.gov.uk/foodscore,-0.43565600000000,LU3 1RJ,2014-06-05,fhrs_5_en-GB,5,,FHRS,0
23370,,Skimpot Road,,Luton,Genting Casino Luton,Restaurant/Cafe/Canteen,1,5,,359183,5,,51.89060100000000,14426,869,environmentalhealth@luton.gov.uk,Luton,http://www.luton.gov.uk/foodscore,-0.48418300000000,LU4 0JB,2014-03-25,fhrs_5_en-GB,5,,FHRS,5
23371,George Ii,68-70 Bute Street,,Luton,George II,Pub/bar/nightclub,7843,10,,359317,10,,51.88124900000000,2939,869,environmentalhealth@luton.gov.uk,Luton,http://www.luton.gov.uk/foodscore,-0.41446800000000,LU1 2EY,2014-06-10,fhrs_4_en-GB,4,,FHRS,0
23372,,54 Calverton Road,,Luton,Gerry Taylor Butchers,Retailers - other,4613,5,,568246,5,,51.91053400000000,3124,869,environmentalhealth@luton.gov.uk,Luton,http://www.luton.gov.uk/foodscore,-0.44681700000000,LU3 2SZ,2014-08-14,fhrs_5_en-GB,5,,FHRS,5
23373,,262 Ashcroft Road,,Luton,Ghuman Local Ltd,Retailers - other,4613,5,,359087,0,,51.89194100000000,1091,869,environmentalhealth@luton.gov.uk,Luton,http://www.luton.gov.uk/foodscore,-0.38809300000000,LU2 9AE,2013-06-06,fhrs_5_en-GB,5,,FHRS,0
23374,2 Mossdale Court,Teesdale,,Luton,Gill Blowers Nursery School,Hospitals/Childcare/Caring Premises,5,0,,449611,0,,51.90681700000000,40177,869,environmentalhealth@luton.gov.uk,Luton,http://www.luton.gov.uk/foodscore,-0.46918700000000,LU4 9JL,2012-07-11,fhrs_5_en-GB,5,,FHRS,0
23375,,84 Old Bedford Road,,Luton,Gino's Cafe,Restaurant/Cafe/Canteen,1,5,,359144,0,,51.88646000000000,12290,869,environmentalhealth@luton.gov.uk,Luton,http://www.luton.gov.uk/foodscore,-0.41819400000000,LU2 7PD,2013-03-20,fhrs_5_en-GB,5,,FHRS,5
23376,,10 Dunstable Place,,Luton,Gio's Pizza and Fried Chicken,Restaurant/Cafe/Canteen,1,10,,359442,10,,51.87945400000000,5871,869,environmentalhealth@luton.gov.uk,Luton,http://www.luton.gov.uk/foodscore,-0.41877400000000,LU1 2QT,2013-08-14,fhrs_3_en-GB,3,,FHRS,10
23377,29 Sundon Park Parade,Sundon Park Road,,Luton,GM Wards Butchers,Retailers - other,4613,5,,499575,10,,51.91565800000000,16084,869,environmentalhealth@luton.gov.uk,Luton,http://www.luton.gov.uk/foodscore,-0.46938100000000,LU3 3BJ,2014-01-28,fhrs_4_en-GB,4,,FHRS,5
23378,,310 Oakley Road,,Luton,Golden Dragon Takeaway,Takeaway/sandwich shop,7844,10,,359143,10,,51.90113400000000,12240,869,environmentalhealth@luton.gov.uk,Luton,http://www.luton.gov.uk/foodscore,-0.46292700000000,LU4 9QD,2014-03-27,fhrs_3_en-GB,3,,FHRS,10
23379,,67 Wellington Street,,Luton,Golden Phoenix,Takeaway/sandwich shop,7844,10,,404593,5,,51.87795400000000,17155,869,environmentalhealth@luton.gov.uk,Luton,http://www.luton.gov.uk/foodscore,-0.41953800000000,LU1 5AA,2013-11-12,fhrs_4_en-GB,4,,FHRS,5
23380,Grasmere Nursery School,53 Icknield Way,,Luton,Grasmere Nursery and Tadpoles Baby and Toddler Unit,Hospitals/Childcare/Caring Premises,5,,,359532,,,51.91700600000000,9092,869,environmentalhealth@luton.gov.uk,Luton,http://www.luton.gov.uk/foodscore,-0.43308600000000,LU3 2BU,2014-10-22,fhrs_5_en-GB,5,,FHRS,
23381,,London Luton Airport,,Luton,Great British Sausage Company Ltd,Takeaway/sandwich shop,7844,5,,459574,0,,51.87785200000000,118859,869,environmentalhealth@luton.gov.uk,Luton,http://www.luton.gov.uk/foodscore,-0.37637900000000,LU2 9LY,2012-10-03,fhrs_5_en-GB,5,,FHRS,0
23382,,58 Leagrave Road,,Luton,Green Grocer,Retailers - other,4613,,,359132,,,51.88713200000000,118277,869,environmentalhealth@luton.gov.uk,Luton,http://www.luton.gov.uk/foodscore,-0.43012900000000,LU4 8HZ,2011-12-06,fhrs_exempt_en-GB,Exempt,,FHRS,
23383,,30 Studley Road,,Luton,Greenfields Residential Home,Hospitals/Childcare/Caring Premises,5,5,,359198,0,,51.88707600000000,15540,869,environmentalhealth@luton.gov.uk,Luton,http://www.luton.gov.uk/foodscore,-0.42388300000000,LU3 1BB,2014-01-08,fhrs_5_en-GB,5,,FHRS,5
23384,11g The Gallery,,,Luton,Greenfields Restaurant,Restaurant/Cafe/Canteen,1,5,,359421,5,,51.87931600000000,532,869,environmentalhealth@luton.gov.uk,Luton,http://www.luton.gov.uk/foodscore,-0.41248800000000,LU1 2TW,2014-02-04,fhrs_5_en-GB,5,,FHRS,0
23385,,Culverhouse Road,,Luton,Greenside Community Nursery Limited,Hospitals/Childcare/Caring Premises,5,0,,359365,0,,51.90099400000000,41859,869,environmentalhealth@luton.gov.uk,Luton,http://www.luton.gov.uk/foodscore,-0.42787200000000,LU3 1PZ,2014-01-22,fhrs_5_en-GB,5,,FHRS,0
23386,,51,,Luton,Greggs,Retailers - other,4613,5,,359319,0,,51.87942800000000,30209,869,environmentalhealth@luton.gov.uk,Luton,http://www.luton.gov.uk/foodscore,-0.41278900000000,LU1 2TD,2014-03-13,fhrs_5_en-GB,5,,FHRS,0
23387,Jansel House,648 Hitchin Road,,Luton,Greggs Ltd,Takeaway/sandwich shop,7844,0,,536589,0,,51.90263200000000,8873,869,environmentalhealth@luton.gov.uk,Luton,http://www.luton.gov.uk/foodscore,-0.39468800000000,LU2 7XH,2013-04-17,fhrs_5_en-GB,5,,FHRS,0
23388,,160,,Luton,Greggs the Bakers,Retailers - other,4613,5,,359342,0,,51.87906000000000,36393,869,environmentalhealth@luton.gov.uk,Luton,http://www.luton.gov.uk/foodscore,-0.41554800000000,LU1 2TJ,2014-03-13,fhrs_5_en-GB,5,,FHRS,0
23389,13 Sundon Park Parade,Sundon Park Road,,Luton,Gregg's The Bakers,Retailers - other,4613,0,,359208,5,,51.91616300000000,16070,869,environmentalhealth@luton.gov.uk,Luton,http://www.luton.gov.uk/foodscore,-0.47013500000000,LU3 3BH,2013-07-10,fhrs_5_en-GB,5,,FHRS,5
23390,,2 Dallow Road,,Luton,Guru Nanak Gurdwara,Other catering premises,7841,10,,404626,5,,51.88123600000000,5161,869,environmentalhealth@luton.gov.uk,Luton,http://www.luton.gov.uk/foodscore,-0.42696300000000,LU1 1LY,2013-09-11,fhrs_3_en-GB,3,,FHRS,10
23391,,12 Eaton Green Road,,Luton,H & H Cafe,Restaurant/Cafe/Canteen,1,5,,359485,5,,51.88374400000000,6390,869,environmentalhealth@luton.gov.uk,Luton,http://www.luton.gov.uk/foodscore,-0.38437600000000,LU2 9HB,2015-01-27,fhrs_5_en-GB,5,,FHRS,5
23392,,12a Eaton Green Road,,Luton,H & H Delicious Kebab House,Takeaway/sandwich shop,7844,5,,359484,0,,51.88374400000000,6378,869,environmentalhealth@luton.gov.uk,Luton,http://www.luton.gov.uk/foodscore,-0.38437600000000,LU2 9HB,2014-07-07,fhrs_5_en-GB,5,,FHRS,5
23393,,2c Windsor Street,,Luton,H B Curry,Takeaway/sandwich shop,7844,10,,359309,15,,51.87443700000000,28624,869,environmentalhealth@luton.gov.uk,Luton,http://www.luton.gov.uk/foodscore,-0.41745300000000,LU1 3UB,2014-12-18,fhrs_2_en-GB,2,,FHRS,10
23394,,335 Hitchin Road,,Luton,H Collins Butchers,Retailers - other,4613,10,,359519,5,,51.89152200000000,8752,869,environmentalhealth@luton.gov.uk,Luton,http://www.luton.gov.uk/foodscore,-0.40216100000000,LU2 7SW,2015-01-20,fhrs_4_en-GB,4,,FHRS,5
23395,,197 Dunstable Road,,Luton,Haji & Sons,Retailers - other,4613,30,,359463,15,,51.88571000000000,6019,869,environmentalhealth@luton.gov.uk,Luton,http://www.luton.gov.uk/foodscore,-0.42936500000000,LU1 1DD,2014-04-10,fhrs_0_en-GB,0,,FHRS,20
23396,,203 Dunstable Road,,Luton,Haji Foods,Retailers - other,4613,10,,359465,10,,51.88571000000000,6029,869,environmentalhealth@luton.gov.uk,Luton,http://www.luton.gov.uk/foodscore,-0.42936500000000,LU1 1DD,2014-08-01,fhrs_2_en-GB,2,,FHRS,15
23397,,40 Wimborne Road,,Luton,Halal Fish and Chips,Takeaway/sandwich shop,7844,10,,449583,5,,51.88335500000000,17671,869,environmentalhealth@luton.gov.uk,Luton,http://www.luton.gov.uk/foodscore,-0.43212000000000,LU1 1PD,2013-10-08,fhrs_3_en-GB,3,,FHRS,10
23398,,139 Connaught Road,,Luton,Halifax Kashmir Catering,Other catering premises,7841,10,,643003,5,,51.88938800000000,23495,869,environmentalhealth@luton.gov.uk,Luton,http://www.luton.gov.uk/foodscore,-0.45040900000000,LU4 8ES,2014-02-18,fhrs_3_en-GB,3,,FHRS,10
23399,Hampton by Hilton London Luton,42-50 Kimpton Road,,Luton,Hampton by Hilton London Luton,Hotel/bed & breakfast/guest house,7842,5,,509039,5,,,9416,869,environmentalhealth@luton.gov.uk,Luton,http://www.luton.gov.uk/foodscore,,LU2 0NB,2014-06-04,fhrs_5_en-GB,5,,FHRS,0
23400,,223 Beechwood Road,,Luton,Hamza General Store,Retailers - other,4613,10,,404591,15,,51.89770900000000,1684,869,environmentalhealth@luton.gov.uk,Luton,http://www.luton.gov.uk/foodscore,-0.45616900000000,LU4 9RZ,2013-11-05,fhrs_2_en-GB,2,,FHRS,10
23401,The Hansom Cab,40 Wigmore Lane,,Luton,Hansom Cab,Pub/bar/nightclub,7843,0,,404596,5,,51.89830300000000,17510,869,environmentalhealth@luton.gov.uk,Luton,http://www.luton.gov.uk/foodscore,-0.38972600000000,LU2 8AB,2013-11-14,fhrs_5_en-GB,5,,FHRS,5
23402,,80 Castle Street,,Luton,Hardware Cafe,Restaurant/Cafe/Canteen,1,20,,359338,10,,51.87467400000000,3513,869,environmentalhealth@luton.gov.uk,Luton,http://www.luton.gov.uk/foodscore,-0.41698000000000,LU1 3AJ,2013-11-18,fhrs_1_en-GB,1,,FHRS,5
23403,Hart Hill Nursery School,Whitecroft Road,,Luton,Hart Hill Nursery School and Children's Centre,Hospitals/Childcare/Caring Premises,5,5,,359239,5,,51.88179600000000,17461,869,environmentalhealth@luton.gov.uk,Luton,http://www.luton.gov.uk/foodscore,-0.40111100000000,LU2 0JS,2013-10-10,fhrs_5_en-GB,5,,FHRS,0
23404,,12 Hart Lane,,Luton,Hart Lane Off Licence/Costcutter,Retailers - other,4613,20,,459614,0,,51.88368100000000,7700,869,environmentalhealth@luton.gov.uk,Luton,http://www.luton.gov.uk/foodscore,-0.40017200000000,LU2 0JQ,2014-02-04,fhrs_1_en-GB,1,,FHRS,5
23405,,130 Leagrave Road,,Luton,Hassan Catering,Other catering premises,7841,0,,359556,5,,51.88835800000000,9899,869,environmentalhealth@luton.gov.uk,Luton,http://www.luton.gov.uk/foodscore,-0.43171400000000,LU4 8HX,2013-12-04,fhrs_5_en-GB,5,,FHRS,5
23406,,22 Chapel Street,,Luton,Hatters Newsagents,Retailers - other,4613,20,,656102,0,,51.87766400000000,3650,869,environmentalhealth@luton.gov.uk,Luton,http://www.luton.gov.uk/foodscore,-0.41606200000000,LU1 2SE,2014-04-08,fhrs_1_en-GB,1,,FHRS,15
23407,,51 New Bedford Road,,Luton,Henrys Mini Market,Retailers - other,4613,10,,449615,15,,51.88268000000000,44358,869,environmentalhealth@luton.gov.uk,Luton,http://www.luton.gov.uk/foodscore,-0.41992400000000,LU1 1SE,2013-12-05,fhrs_2_en-GB,2,,FHRS,10
23408,Eaton House,137 Proctor Way,,Luton,High Flying Food Ltd,Restaurant/Cafe/Canteen,1,5,,404576,5,,51.87727300000000,118557,869,environmentalhealth@luton.gov.uk,Luton,http://www.luton.gov.uk/foodscore,-0.38395400000000,LU2 9PE,2014-12-03,fhrs_5_en-GB,5,,FHRS,0
23409,,231 & 233 High Town Road,,Luton,High Town Food & Wine,Retailers - other,4613,20,,707713,5,,51.88757800000000,131310,869,environmentalhealth@luton.gov.uk,Luton,http://www.luton.gov.uk/foodscore,-0.40644200000000,LU2 0BZ,2014-10-14,fhrs_1_en-GB,1,,FHRS,0
23410,,43 High Town Road,,Luton,High Town Kebab,Takeaway/sandwich shop,7844,20,,359340,15,,,35912,869,environmentalhealth@luton.gov.uk,Luton,http://www.luton.gov.uk/foodscore,,,2014-06-10,fhrs_1_en-GB,1,,FHRS,10
23411,,33-35 High Town Road,,Luton,High Town Supermarket,Retailers - other,4613,20,,666384,0,,51.88426400000000,8200,869,environmentalhealth@luton.gov.uk,Luton,http://www.luton.gov.uk/foodscore,-0.41269100000000,LU2 0BW,2014-05-29,fhrs_1_en-GB,1,,FHRS,0
23412,Hillborough Nursery School,Hillborough Road,,Luton,Hillborough Infant and Nursery School,School/college/university,7845,5,,359289,0,,51.87281900000000,24803,869,environmentalhealth@luton.gov.uk,Luton,http://www.luton.gov.uk/foodscore,-0.42486000000000,LU1 5EZ,2014-03-12,fhrs_5_en-GB,5,,FHRS,0
23413,Hillborough Junior School,Hillborough Road,,Luton,Hillborough Junior School (KS1),School/college/university,7845,5,,359514,5,,51.87281900000000,8591,869,environmentalhealth@luton.gov.uk,Luton,http://www.luton.gov.uk/foodscore,-0.42486000000000,LU1 5EZ,2014-03-12,fhrs_5_en-GB,5,,FHRS,0
23414,Butterfield,Hitchin Road,,Luton,Hilton Garden Inn Luton,Hotel/bed & breakfast/guest house,7842,5,,359388,0,,51.90820800000000,45830,869,environmentalhealth@luton.gov.uk,Luton,http://www.luton.gov.uk/foodscore,-0.39277400000000,LU2 8DD,2014-03-11,fhrs_5_en-GB,5,,FHRS,0
23415,Hockwell Ring Community Centre,Mayne Avenue,,Luton,Hockwell Cafe,Restaurant/Cafe/Canteen,1,0,,487039,0,,,119007,869,environmentalhealth@luton.gov.uk,Luton,http://www.luton.gov.uk/foodscore,,LU4 9LB,2014-12-10,fhrs_5_en-GB,5,,FHRS,0
23416,Express By Holiday Inn,2 Percival Way,,Luton,Holiday Inn Express Luton Airport,Hotel/bed & breakfast/guest house,7842,5,,359305,0,,51.87662200000000,27920,869,environmentalhealth@luton.gov.uk,Luton,http://www.luton.gov.uk/foodscore,-0.38041900000000,LU2 9GP,2014-03-18,fhrs_5_en-GB,5,,FHRS,0
23417,,60 Bishopscote Road,,Luton,Holloway Meats Ltd,Retailers - other,4613,5,,359270,5,,51.89880800000000,2136,869,environmentalhealth@luton.gov.uk,Luton,http://www.luton.gov.uk/foodscore,-0.43658200000000,LU3 1PB,2014-06-11,fhrs_4_en-GB,4,,FHRS,10
23418,Holy Cross Vicarage,40 Purway Close,,Luton,Holy Cross Church,Other catering premises,7841,0,,656095,0,,51.91752100000000,13006,869,environmentalhealth@luton.gov.uk,Luton,http://www.luton.gov.uk/foodscore,-0.45233400000000,LU3 3RT,2014-04-10,fhrs_5_en-GB,5,,FHRS,0
23419,,7 High Town Road,,Luton,Home Chinese Restaurant,Restaurant/Cafe/Canteen,1,10,,359307,5,,51.88429900000000,28456,869,environmentalhealth@luton.gov.uk,Luton,http://www.luton.gov.uk/foodscore,-0.41260300000000,LU2 0BW,2013-11-12,fhrs_4_en-GB,4,,FHRS,0
23420,,69 Wellington Street,,Luton,Hot N Spicy,Takeaway/sandwich shop,7844,10,,359235,15,,51.87795400000000,17157,869,environmentalhealth@luton.gov.uk,Luton,http://www.luton.gov.uk/foodscore,-0.41953800000000,LU1 5AA,2014-07-16,fhrs_2_en-GB,2,,FHRS,15
23421,London Luton Airport Departure Lounge,Airport Way,,Luton,Hotel Chocolat,Retailers - other,4613,,,459570,,,51.87785200000000,118673,869,environmentalhealth@luton.gov.uk,Luton,http://www.luton.gov.uk/foodscore,-0.37637900000000,LU2 9LY,2012-10-10,fhrs_exempt_en-GB,Exempt,,FHRS,
23422,Hotel Ibis,Spittlesea Road,,Luton,Hotel Ibis Luton,Hotel/bed & breakfast/guest house,7842,10,,404585,5,,51.87684900000000,14607,869,environmentalhealth@luton.gov.uk,Luton,http://www.luton.gov.uk/foodscore,-0.38257500000000,LU2 9NZ,2013-10-22,fhrs_4_en-GB,4,,FHRS,5
23423,,10 High Town Road,,Luton,HT Curry,Takeaway/sandwich shop,7844,10,,359505,10,,51.88330200000000,8190,869,environmentalhealth@luton.gov.uk,Luton,http://www.luton.gov.uk/foodscore,-0.41336400000000,LU2 0DD,2014-04-03,fhrs_2_en-GB,2,,FHRS,15
23424,I B C Vehicles Ltd,Kimpton Road,,Luton,IBC Vehicles (GMM Luton),Restaurant/Cafe/Canteen,1,10,,359290,15,,51.87518500000000,25015,869,environmentalhealth@luton.gov.uk,Luton,http://www.luton.gov.uk/foodscore,-0.39432900000000,LU2 0JX,2014-10-30,fhrs_2_en-GB,2,,FHRS,5
23425,,175 Dunstable Road,,Luton,Ice Box,Retailers - other,4613,10,,673740,5,,51.88525400000000,31971,869,environmentalhealth@luton.gov.uk,Luton,http://www.luton.gov.uk/foodscore,-0.42881400000000,LU1 1BT,2014-06-20,fhrs_3_en-GB,3,,FHRS,10
23426,Icknield High School,Riddy Lane,,Luton,Icknield High School,School/college/university,7845,10,,359173,10,,51.90788300000000,13299,869,environmentalhealth@luton.gov.uk,Luton,http://www.luton.gov.uk/foodscore,-0.42792300000000,LU3 2AH,2014-06-10,fhrs_3_en-GB,3,,FHRS,5
23427,Icknield Primary School,Birdsfoot Lane,,Luton,Icknield Primary School,School/college/university,7845,0,,359253,0,,51.90762000000000,1925,869,environmentalhealth@luton.gov.uk,Luton,http://www.luton.gov.uk/foodscore,-0.43453200000000,LU3 2JB,2014-03-24,fhrs_5_en-GB,5,,FHRS,0
23428,Icon Hotel Luton,Stuart Street,,Luton,Icon Hotel,Hotel/bed & breakfast/guest house,7842,10,,509036,15,,51.87765900000000,119264,869,environmentalhealth@luton.gov.uk,Luton,http://www.luton.gov.uk/foodscore,-0.41898200000000,LU1 2SA,2014-06-12,fhrs_2_en-GB,2,,FHRS,15
23429,,66 Wellington Street,,Luton,Imperial Kitchen,Takeaway/sandwich shop,7844,10,,359234,10,,51.87795400000000,17154,869,environmentalhealth@luton.gov.uk,Luton,http://www.luton.gov.uk/foodscore,-0.41953800000000,LU1 5AA,2013-08-20,fhrs_3_en-GB,3,,FHRS,5
23430,5 Sundon Park Parade,Sundon Park Road,,Luton,Indian Ocean Ltd,Restaurant/Cafe/Canteen,1,10,,459582,5,,51.91226900000000,16060,869,environmentalhealth@luton.gov.uk,Luton,http://www.luton.gov.uk/foodscore,-0.46805700000000,LU3 3AA,2014-10-22,fhrs_4_en-GB,4,,FHRS,5
23431,York Street Campus,York Street,,Luton,Innovate Services Ltd,School/college/university,7845,0,,359417,5,,51.88409300000000,52513,869,environmentalhealth@luton.gov.uk,Luton,http://www.luton.gov.uk/foodscore,-0.40937000000000,LU2 0EZ,2013-09-09,fhrs_5_en-GB,5,,FHRS,0
23432,Inspire Luton Sports Village,Butterfield Green Road,,Luton,Inspire Luton Sports Village,Other catering premises,7841,0,,459571,0,,51.90801700000000,118719,869,environmentalhealth@luton.gov.uk,Luton,http://www.luton.gov.uk/foodscore,-0.39260600000000,LU2 8DD,2014-11-10,fhrs_5_en-GB,5,,FHRS,0
23433,,28a Chapel Street,,Luton,Irmak Grill,Restaurant/Cafe/Canteen,1,5,,359345,10,,51.87764000000000,3660,869,environmentalhealth@luton.gov.uk,Luton,http://www.luton.gov.uk/foodscore,-0.41561200000000,LU1 2SE,2013-08-15,fhrs_4_en-GB,4,,FHRS,0
23434,,5 New Bedford Road,,Luton,Istanbul Grill,Restaurant/Cafe/Canteen,1,10,,359331,10,,51.88148800000000,33736,869,environmentalhealth@luton.gov.uk,Luton,http://www.luton.gov.uk/foodscore,-0.41887700000000,LU1 1SA,2014-12-16,fhrs_3_en-GB,3,,FHRS,5
23435,,197b Marsh Road,,Luton,Jade House,Restaurant/Cafe/Canteen,1,5,,359091,10,,51.90469600000000,10936,869,environmentalhealth@luton.gov.uk,Luton,http://www.luton.gov.uk/foodscore,-0.45412700000000,LU3 2QQ,2013-08-13,fhrs_3_en-GB,3,,FHRS,10
23436,1 Archway Parade,Marsh Road,,Luton,Jamaican Delicious Cuisine,Restaurant/Cafe/Canteen,1,20,,656101,15,,51.90389400000000,30112,869,environmentalhealth@luton.gov.uk,Luton,http://www.luton.gov.uk/foodscore,-0.45262800000000,LU3 2RW,2014-03-27,fhrs_1_en-GB,1,,FHRS,0
23437,,7 Market Square,,Luton,Jasmine,Takeaway/sandwich shop,7844,10,,359074,15,,51.87511300000000,10776,869,environmentalhealth@luton.gov.uk,Luton,http://www.luton.gov.uk/foodscore,-0.43911800000000,LU1 5RD,2014-02-11,fhrs_2_en-GB,2,,FHRS,15
23438,Jill Jenkins Court,Whipperley Ring,,Luton,Jay J's Restaurant,Restaurant/Cafe/Canteen,1,5,,512412,10,,51.87633500000000,119115,869,environmentalhealth@luton.gov.uk,Luton,http://www.luton.gov.uk/foodscore,-0.43835000000000,LU1 5QY,2013-02-19,fhrs_4_en-GB,4,,FHRS,0
23439,,636 Hitchin Road,,Luton,Jay Raj Indian Cuisine,Restaurant/Cafe/Canteen,1,5,,521033,5,,51.90187200000000,8860,869,environmentalhealth@luton.gov.uk,Luton,http://www.luton.gov.uk/foodscore,-0.39698300000000,LU2 7UG,2014-08-14,fhrs_5_en-GB,5,,FHRS,5
23440,,157b Biscot Road,,Luton,Jerk and Peri,Restaurant/Cafe/Canteen,1,10,,449557,10,,51.89259300000000,118478,869,environmentalhealth@luton.gov.uk,Luton,http://www.luton.gov.uk/foodscore,-0.43033100000000,LU3 1AW,2014-07-10,fhrs_2_en-GB,2,,FHRS,15
23441,,13a Windsor Street,,Luton,Jimmys Steak and Kebab House,Takeaway/sandwich shop,7844,10,,359247,5,,51.87446000000000,17733,869,environmentalhealth@luton.gov.uk,Luton,http://www.luton.gov.uk/foodscore,-0.41846900000000,LU1 3UA,2014-05-29,fhrs_4_en-GB,4,,FHRS,5
23442,,"Units 206, 207 & 208",,St Georges Square,Jimmy's World Grill & Bar,Restaurant/Cafe/Canteen,1,5,,359127,5,,51.88012500000000,118218,869,environmentalhealth@luton.gov.uk,Luton,http://www.luton.gov.uk/foodscore,-0.41651300000000,LU1 2TL,2013-07-04,fhrs_5_en-GB,5,,FHRS,5
23443,,15 Wellington Street,,Luton,Jitlada Thai Restaurant,Restaurant/Cafe/Canteen,1,5,,449579,5,,51.87892800000000,17100,869,environmentalhealth@luton.gov.uk,Luton,http://www.luton.gov.uk/foodscore,-0.41841400000000,LU1 2QH,2014-01-28,fhrs_5_en-GB,5,,FHRS,5
23444,The Pavilion,Bowling Green Lane,,Luton,JJ's Southern Kitchen Ltd,Restaurant/Cafe/Canteen,1,,,459601,,,51.89369800000000,56947,869,environmentalhealth@luton.gov.uk,Luton,http://www.luton.gov.uk/foodscore,-0.41551200000000,LU2 7HR,2014-12-15,fhrs_4_en-GB,4,,FHRS,
23445,,,,,JMS Caterers,Other catering premises,7841,5,,359364,5,,,41858,869,environmentalhealth@luton.gov.uk,Luton,http://www.luton.gov.uk/foodscore,,,2013-07-23,fhrs_5_en-GB,5,,FHRS,5
23446,,121 Icknield Way,,Luton,Jolly Milliner,Pub/bar/nightclub,7843,5,,359533,10,,51.91492000000000,9100,869,environmentalhealth@luton.gov.uk,Luton,http://www.luton.gov.uk/foodscore,-0.43580500000000,LU3 2BX,2013-09-18,fhrs_4_en-GB,4,,FHRS,5
23447,Jolly Topers,369 Hitchin Road,,Luton,Jolly Topers,Pub/bar/nightclub,7843,5,,459617,10,,51.89333900000000,8770,869,environmentalhealth@luton.gov.uk,Luton,http://www.luton.gov.uk/foodscore,-0.40158800000000,LU2 7SP,2014-01-08,fhrs_4_en-GB,4,,FHRS,5
23448,,88a Chapel Street,,Luton,Jumbo,Takeaway/sandwich shop,7844,5,,449607,10,,51.87522200000000,3689,869,environmentalhealth@luton.gov.uk,Luton,http://www.luton.gov.uk/foodscore,-0.41831200000000,LU1 5DD,2014-01-23,fhrs_3_en-GB,3,,FHRS,10
23449,,19 The Green,,Luton,K T Brooks Butchers,Retailers - other,4613,10,,359205,10,,51.90595700000000,16034,869,environmentalhealth@luton.gov.uk,Luton,http://www.luton.gov.uk/foodscore,-0.47147000000000,LU4 9PG,2014-05-30,fhrs_3_en-GB,3,,FHRS,5
23450,115 Market Hall,The Mall,,Luton,Kabayan General Store,Retailers - other,4613,5,,359394,5,,51.87938900000000,46855,869,environmentalhealth@luton.gov.uk,Luton,http://www.luton.gov.uk/foodscore,-0.41129400000000,LU1 2TP,2014-02-24,fhrs_5_en-GB,5,,FHRS,0
23451,Mobile in front of,160 Dunstable Road,,Luton,Karachi Food Center,Mobile caterer,7846,20,,706881,5,,51.88566200000000,131291,869,environmentalhealth@luton.gov.uk,Luton,http://www.luton.gov.uk/foodscore,-0.42847900000000,LU1 1EW,2014-10-07,fhrs_1_en-GB,1,,FHRS,10
23452,,122 Dunstable Road,,Luton,Karahi Centre,Restaurant/Cafe/Canteen,1,10,,359451,10,,51.88564300000000,5936,869,environmentalhealth@luton.gov.uk,Luton,http://www.luton.gov.uk/foodscore,-0.42833500000000,LU1 1EW,2014-11-20,fhrs_3_en-GB,3,,FHRS,10
23453,,399 Dunstable Road,,Luton,Karahi Roti Junction,Takeaway/sandwich shop,7844,5,,359304,10,,51.89060200000000,27674,869,environmentalhealth@luton.gov.uk,Luton,http://www.luton.gov.uk/foodscore,-0.44496100000000,LU4 8DA,2014-12-15,fhrs_4_en-GB,4,,FHRS,5
23454,,20 Gordon Street,,Luton,Karam Express,Takeaway/sandwich shop,7844,10,,359495,15,,51.88048700000000,7173,869,environmentalhealth@luton.gov.uk,Luton,http://www.luton.gov.uk/foodscore,-0.41865000000000,LU1 2QP,2014-06-18,fhrs_2_en-GB,2,,FHRS,10
23455,,88 Dallow Road,,Luton,Karam's Piri Piri,Restaurant/Cafe/Canteen,1,10,,359416,10,,51.88146200000000,5246,869,environmentalhealth@luton.gov.uk,Luton,http://www.luton.gov.uk/foodscore,-0.42906200000000,LU1 1LZ,2013-07-22,fhrs_3_en-GB,3,,FHRS,10
23456,,207a Dunstable Road,,Luton,Kashmir Stores,Retailers - other,4613,10,,359467,5,,51.88571000000000,6037,869,environmentalhealth@luton.gov.uk,Luton,http://www.luton.gov.uk/foodscore,-0.42936500000000,LU1 1DD,2011-11-14,fhrs_4_en-GB,4,,FHRS,5
23457,Curtilage of 158,Dunstable Road,,Luton,Kashmiry Tea,Mobile caterer,7846,,,359138,,,51.88564300000000,118461,869,environmentalhealth@luton.gov.uk,Luton,http://www.luton.gov.uk/foodscore,-0.42833500000000,LU1 1EW,2012-02-02,fhrs_exempt_en-GB,Exempt,,FHRS,
23458,,92 Dunstable Road,,Luton,Kentucky Fried Chicken,Takeaway/sandwich shop,7844,5,,449630,5,,51.88440800000000,5914,869,environmentalhealth@luton.gov.uk,Luton,http://www.luton.gov.uk/foodscore,-0.42679500000000,LU1 1EH,2014-10-07,fhrs_4_en-GB,4,,FHRS,10
23459,9 Wigmore Park Centre,Wigmore Lane,,Luton,KFC,Takeaway/sandwich shop,7844,0,,359134,0,,51.88922300000000,118420,869,environmentalhealth@luton.gov.uk,Luton,http://www.luton.gov.uk/foodscore,-0.37288900000000,LU2 9TA,2013-07-08,fhrs_5_en-GB,5,,FHRS,0
23460,,215 Selbourne Road,,Luton,Khan's,Restaurant/Cafe/Canteen,1,20,,459580,10,,51.89562400000000,14155,869,environmentalhealth@luton.gov.uk,Luton,http://www.luton.gov.uk/foodscore,-0.44464300000000,LU4 8NP,2014-07-31,fhrs_1_en-GB,1,,FHRS,15
23461,,160 Connaught Road,,Luton,Kharri Food Stores,Retailers - other,4613,10,,449614,5,,51.88938800000000,4434,869,environmentalhealth@luton.gov.uk,Luton,http://www.luton.gov.uk/foodscore,-0.45040900000000,LU4 8ES,2013-12-17,fhrs_4_en-GB,4,,FHRS,5
23462,,76 Dunstable Road,,Luton,Khyber House,Restaurant/Cafe/Canteen,1,20,,359446,15,,51.88440800000000,5907,869,environmentalhealth@luton.gov.uk,Luton,http://www.luton.gov.uk/foodscore,-0.42679500000000,LU1 1EH,2015-01-13,fhrs_1_en-GB,1,,FHRS,15
23463,,1a Maidenhall Road,,Luton,Kiddies Kingdom,Restaurant/Cafe/Canteen,1,10,,548193,0,,51.89151400000000,119073,869,environmentalhealth@luton.gov.uk,Luton,http://www.luton.gov.uk/foodscore,-0.44318600000000,LU4 8JZ,2014-09-08,fhrs_4_en-GB,4,,FHRS,0
23464,Bramingham Park Nursery Centre (Kindercare Learning Centres),79 Lucas Gardens,,Luton,Kids Unlimited Nursery,Hospitals/Childcare/Caring Premises,5,0,,449547,0,,51.91801800000000,10417,869,environmentalhealth@luton.gov.uk,Luton,http://www.luton.gov.uk/foodscore,-0.43545000000000,LU3 4BG,2013-12-18,fhrs_5_en-GB,5,,FHRS,0
23465,,24 Kimpton Road,,Luton,Kimpton News,Retailers - other,4613,20,,359537,5,,51.87493300000000,9405,869,environmentalhealth@luton.gov.uk,Luton,http://www.luton.gov.uk/foodscore,-0.39830400000000,LU2 0SX,2013-09-09,fhrs_1_en-GB,1,,FHRS,0
23466,Kings House School And Nursery,High Street,,Leagrave,Kings House School,School/college/university,7845,0,,706879,5,,51.90213700000000,112704,869,environmentalhealth@luton.gov.uk,Luton,http://www.luton.gov.uk/foodscore,-0.46539300000000,LU4 9JY,2014-09-23,fhrs_5_en-GB,5,,FHRS,0
