,addressline1,addressline2,addressline3,addressline4,businessname,businesstype,businesstypeid,confidenceinmanagement,extractdate,fhrsid,hygiene,itemcount,latitude,localauthoritybusinessid,localauthoritycode,localauthorityemailaddress,localauthorityname,localauthoritywebsite,longitude,postcode,ratingdate,ratingkey,ratingvalue,returncode,schemetype,structural
241519,20 Taylors Mews,Neath Hill,Milton Keynes,,123 Kolonie,Mobile caterer,7846,,,735113,,,52.05864300000000,85456,870,ehfst@milton-keynes.gov.uk,Milton Keynes,http://www.milton-keynes.gov.uk,-0.75178800000000,MK14 6HL,,fhrs_awaitinginspection_en-GB,AwaitingInspection,,FHRS,
241520,125 Queensway,Bletchley,Milton Keynes,,1st Stop,Retailers - other,4613,,,198797,,,51.99512700000000,64942,870,ehfst@milton-keynes.gov.uk,Milton Keynes,http://www.milton-keynes.gov.uk,-0.72883800000000,MK2 2DH,,fhrs_awaitinginspection_en-GB,AwaitingInspection,,FHRS,
241521,61 Alston Drive,Bradwell Abbey,Milton Keynes,,20th Street Pizza,Takeaway/sandwich shop,7844,,,643008,,,52.04603900000000,79524,870,ehfst@milton-keynes.gov.uk,Milton Keynes,http://www.milton-keynes.gov.uk,-0.79689200000000,MK13 9HB,2014-06-16,fhrs_5_en-GB,5,,FHRS,
241522,"360 Play, Roebuck Way",Knowlhill,Milton Keynes,,360 Play,Restaurant/Cafe/Canteen,1,0,,135218,5,,52.02171100000000,68752,870,ehfst@milton-keynes.gov.uk,Milton Keynes,http://www.milton-keynes.gov.uk,-0.77182100000000,MK5 8HL,2013-06-24,fhrs_5_en-GB,5,,FHRS,0
241523,,,,,4 Seasons Cuisine,Other catering premises,7841,20,,553422,10,,,82495,870,ehfst@milton-keynes.gov.uk,Milton Keynes,http://www.milton-keynes.gov.uk,,,2014-05-01,fhrs_1_en-GB,1,,FHRS,5
241524,"Unit D1, The Place Retail Park, Elder Gate",Central Milton Keynes,Milton Keynes,,99p Stores,Retailers - other,4613,5,,663899,0,,52.03789600000000,84244,870,ehfst@milton-keynes.gov.uk,Milton Keynes,http://www.milton-keynes.gov.uk,-0.77793900000000,MK9 1EN,2014-06-12,fhrs_4_en-GB,4,,FHRS,10
241525,,,,,A & J Pinoy Foods,Retailers - other,4613,10,,199288,10,,,75729,870,ehfst@milton-keynes.gov.uk,Milton Keynes,http://www.milton-keynes.gov.uk,,,2009-12-07,fhrs_4_en-GB,4,,FHRS,0
241526,"Trading Location, Roebuck Way, Knowlhill, Milton Keynes",,,,A & S Catering,Mobile caterer,7846,5,,199136,10,,52.02291900000000,54055,870,ehfst@milton-keynes.gov.uk,Milton Keynes,http://www.milton-keynes.gov.uk,-0.77282000000000,,2014-01-06,fhrs_3_en-GB,3,,FHRS,10
241527,"Trading Location, Milton Keynes Market, Milton Keynes",,,,A Baffour Trading,Retailers - other,4613,10,,198757,5,,,77575,870,ehfst@milton-keynes.gov.uk,Milton Keynes,http://www.milton-keynes.gov.uk,,,2010-08-05,fhrs_4_en-GB,4,,FHRS,5
241528,"Factory 11, Second Avenue",Bletchley,Milton Keynes,,A Moveable Feast,Restaurant/Cafe/Canteen,1,10,,622394,5,,52.00358600000000,83971,870,ehfst@milton-keynes.gov.uk,Milton Keynes,http://www.milton-keynes.gov.uk,-0.73206600000000,MK1 1ED,2013-12-17,fhrs_3_en-GB,3,,FHRS,10
241529,"Trading Location, Bletchley Market, Milton Keynes",,,,A&B Potatoes,Mobile caterer,7846,5,,629924,10,,,84067,870,ehfst@milton-keynes.gov.uk,Milton Keynes,http://www.milton-keynes.gov.uk,,,2014-03-07,fhrs_4_en-GB,4,,FHRS,5
241530,43 Victoria Road,Bletchley,Milton Keynes,,Abbey Bed & Breakfast,Hotel/bed & breakfast/guest house,7842,10,,97694,5,,51.99737900000000,30463,870,ehfst@milton-keynes.gov.uk,Milton Keynes,http://www.milton-keynes.gov.uk,-0.72006400000000,MK2 2NN,2009-11-30,fhrs_4_en-GB,4,,FHRS,5
241531,Monks Way A5 To Alston Drive,Two Mile Ash,Milton Keynes,,Abbey Hill Golf Centre,Pub/bar/nightclub,7843,10,,118626,5,,52.04363100000000,47980,870,ehfst@milton-keynes.gov.uk,Milton Keynes,http://www.milton-keynes.gov.uk,-0.81123100000000,MK8 8AA,2013-10-17,fhrs_3_en-GB,3,,FHRS,10
241532,Monks Way,Two Mile Ash,Milton Keynes,,Abbey Hill Golf Club,Restaurant/Cafe/Canteen,1,10,,69062,0,,52.04363100000000,15489,870,ehfst@milton-keynes.gov.uk,Milton Keynes,http://www.milton-keynes.gov.uk,-0.81123100000000,MK8 8AA,2013-11-26,fhrs_4_en-GB,4,,FHRS,5
241533,"Abbeys Primary School, Melrose Avenue",Bletchley,Milton Keynes,,Abbeys Primary School (Tiny Tots Cuisine Ltd),School/college/university,7845,0,,134948,0,,52.00690100000000,68455,870,ehfst@milton-keynes.gov.uk,Milton Keynes,http://www.milton-keynes.gov.uk,-0.74609000000000,MK3 6PS,2013-10-14,fhrs_5_en-GB,5,,FHRS,5
241534,"Cedars Combined School, Bury Street",Newport Pagnell,Milton Keynes,,Acorn at Cedars,Hospitals/Childcare/Caring Premises,5,0,,135857,0,,52.08522000000000,69766,870,ehfst@milton-keynes.gov.uk,Milton Keynes,http://www.milton-keynes.gov.uk,-0.72486500000000,MK16 0DT,2013-10-30,fhrs_5_en-GB,5,,FHRS,0
241535,"New Bradwell School, Bounty Street",New Bradwell,Milton Keynes,,Acorn at New Bradwell,Hospitals/Childcare/Caring Premises,5,0,,375541,10,,52.06397000000000,81045,870,ehfst@milton-keynes.gov.uk,Milton Keynes,http://www.milton-keynes.gov.uk,-0.79365300000000,MK13 0BQ,2014-06-09,fhrs_4_en-GB,4,,FHRS,5
241536,"Willows School & Early Years, Fishermead Boulevard",Fishermead,Milton Keynes,,Acorn at the Willows,School/college/university,7845,5,,142542,0,,52.03913700000000,79376,870,ehfst@milton-keynes.gov.uk,Milton Keynes,http://www.milton-keynes.gov.uk,-0.74123700000000,MK6 2LP,2014-07-10,fhrs_5_en-GB,5,,FHRS,5
241537,Wadhurst Lane,Kents Hill,Milton Keynes,,Acorn Childcare,Hospitals/Childcare/Caring Premises,5,0,,109335,5,,52.03265300000000,39441,870,ehfst@milton-keynes.gov.uk,Milton Keynes,http://www.milton-keynes.gov.uk,-0.69564500000000,MK7 6JF,2014-10-16,fhrs_5_en-GB,5,,FHRS,5
241538,17 South Street,Castlethorpe,Milton Keynes,,Acorn Day Nursery,Hospitals/Childcare/Caring Premises,5,5,,100888,0,,52.09198100000000,32685,870,ehfst@milton-keynes.gov.uk,Milton Keynes,http://www.milton-keynes.gov.uk,-0.83514100000000,MK19 7EL,2013-11-14,fhrs_5_en-GB,5,,FHRS,5
241539,"Acorn Day Nursery, Shenley Road",Shenley Church End,Milton Keynes,,Acorn Day Nursery,Hospitals/Childcare/Caring Premises,5,5,,115788,0,,52.02236700000000,44977,870,ehfst@milton-keynes.gov.uk,Milton Keynes,http://www.milton-keynes.gov.uk,-0.78824300000000,MK5 6AB,2015-01-09,fhrs_5_en-GB,5,,FHRS,5
241540,4 Wimborne Crescent,Westcroft,Milton Keynes,,Acorns at Westcroft,Hospitals/Childcare/Caring Premises,5,5,,119790,0,,52.00443700000000,48903,870,ehfst@milton-keynes.gov.uk,Milton Keynes,http://www.milton-keynes.gov.uk,-0.79510800000000,MK4 4DE,2014-07-11,fhrs_5_en-GB,5,,FHRS,5
241541,"Trading Location, Olney Market, Olney, Milton Keynes",,,,Adams Fish Merchant,Retailers - other,4613,0,,198852,5,,,73304,870,ehfst@milton-keynes.gov.uk,Milton Keynes,http://www.milton-keynes.gov.uk,,,2010-03-25,fhrs_5_en-GB,5,,FHRS,0
241542,"Trading Location, Milton Keynes Market, Milton Keynes",,,,Adom Enterprise,Retailers - other,4613,10,,198767,10,,,72008,870,ehfst@milton-keynes.gov.uk,Milton Keynes,http://www.milton-keynes.gov.uk,,,2014-05-27,fhrs_3_en-GB,3,,FHRS,5
241543,"Moulsoe Business Centre, Cranfield Road",Moulsoe,Milton Keynes,,Adoption Plus,Restaurant/Cafe/Canteen,1,0,,141319,0,,52.06794700000000,77757,870,ehfst@milton-keynes.gov.uk,Milton Keynes,http://www.milton-keynes.gov.uk,-0.65673000000000,MK16 0FJ,2013-06-06,fhrs_5_en-GB,5,,FHRS,0
241544,2 Wolverton Road,Haversham,Milton Keynes,,Adrian Michael James,Retailers - other,4613,0,,485474,0,,52.07599600000000,81937,870,ehfst@milton-keynes.gov.uk,Milton Keynes,http://www.milton-keynes.gov.uk,-0.80563000000000,MK19 7AA,2013-01-09,fhrs_5_en-GB,5,,FHRS,0
241545,,,,,Afrotaste Events,Other catering premises,7841,5,,375571,0,,,81198,870,ehfst@milton-keynes.gov.uk,Milton Keynes,http://www.milton-keynes.gov.uk,,,2014-09-17,fhrs_5_en-GB,5,,FHRS,0
241546,"Heron Lodge, 5 Woodhouse Court",Stantonbury Fields,Milton Keynes,,Age UK Heron Lodge,Restaurant/Cafe/Canteen,1,0,,140073,5,,52.06057700000000,76025,870,ehfst@milton-keynes.gov.uk,Milton Keynes,http://www.milton-keynes.gov.uk,-0.76853000000000,,2014-04-30,fhrs_5_en-GB,5,,FHRS,5
241547,1 Chadds Lane,Peartree Bridge,Milton Keynes,,Age UK Milton Keynes,Restaurant/Cafe/Canteen,1,5,,133823,0,,52.03355400000000,66775,870,ehfst@milton-keynes.gov.uk,Milton Keynes,http://www.milton-keynes.gov.uk,-0.73207900000000,MK6 3EB,2014-10-29,fhrs_5_en-GB,5,,FHRS,5
241548,413 Secklow Gate,Central Milton Keynes,Milton Keynes,,Aheed Food Centre,Retailers - other,4613,10,,199287,10,,52.04226400000000,75449,870,ehfst@milton-keynes.gov.uk,Milton Keynes,http://www.milton-keynes.gov.uk,-0.75204100000000,MK9 3NE,2012-02-07,fhrs_3_en-GB,3,,FHRS,10
241549,,,,,Aigle Royale,Other catering premises,7841,10,,485446,5,,,81775,870,ehfst@milton-keynes.gov.uk,Milton Keynes,http://www.milton-keynes.gov.uk,,,2013-05-23,fhrs_4_en-GB,4,,FHRS,5
241550,"Trading Location, Central Milton Keynes Market, Milton Keynes",,,,Akannis,Mobile caterer,7846,20,,584304,10,,,83670,870,ehfst@milton-keynes.gov.uk,Milton Keynes,http://www.milton-keynes.gov.uk,,,2013-08-29,fhrs_1_en-GB,1,,FHRS,5
241551,24 Stratford Road,Wolverton,Milton Keynes,,Akasaka,Restaurant/Cafe/Canteen,1,10,,622392,5,,52.06275500000000,83947,870,ehfst@milton-keynes.gov.uk,Milton Keynes,http://www.milton-keynes.gov.uk,-0.81215300000000,MK12 5LW,2014-03-19,fhrs_4_en-GB,4,,FHRS,5
241552,153 Queensway,Bletchley,Milton Keynes,,Al Ansar,Retailers - other,4613,10,,680447,5,,51.99528900000000,84449,870,ehfst@milton-keynes.gov.uk,Milton Keynes,http://www.milton-keynes.gov.uk,-0.72798900000000,MK2 2DY,2014-07-15,fhrs_3_en-GB,3,,FHRS,10
241553,11 Farthing Grove,Netherfield,Milton Keynes,,Al- Fairoz Kebabish,Restaurant/Cafe/Canteen,1,10,,129288,15,,52.02256100000000,59889,870,ehfst@milton-keynes.gov.uk,Milton Keynes,http://www.milton-keynes.gov.uk,-0.73400700000000,MK6 4JH,2014-09-17,fhrs_2_en-GB,2,,FHRS,5
241554,3 Stratford Road,Wolverton,Milton keynes,,Al Kebab Hut,Takeaway/sandwich shop,7844,5,,132540,10,,52.06304300000000,64519,870,ehfst@milton-keynes.gov.uk,Milton Keynes,http://www.milton-keynes.gov.uk,-0.80950500000000,MK12 5LJ,2014-12-01,fhrs_2_en-GB,2,,FHRS,15
241555,"Alban Hill Nursery, High Street To A509",Sherington,Milton Keynes,,Alban Hill Nursery,Restaurant/Cafe/Canteen,1,5,,375527,5,,52.11202100000000,79893,870,ehfst@milton-keynes.gov.uk,Milton Keynes,http://www.milton-keynes.gov.uk,-0.70572900000000,MK16 9QP,2012-06-07,fhrs_5_en-GB,5,,FHRS,0
241556,1 Bradwell Common Boulevard,Bradwell Common,Milton Keynes,,Aldi Stores Ltd,Retailers - supermarkets/hypermarkets,7840,5,,198738,0,,52.04301100000000,31424,870,ehfst@milton-keynes.gov.uk,Milton Keynes,http://www.milton-keynes.gov.uk,-0.77607900000000,MK13 8BF,2009-03-12,fhrs_5_en-GB,5,,FHRS,0
241557,7 Victoria Road,Bletchley,Milton Keynes,,Ali Halal Meat Shop,Retailers - other,4613,5,,198936,5,,51.99666600000000,30477,870,ehfst@milton-keynes.gov.uk,Milton Keynes,http://www.milton-keynes.gov.uk,-0.72063800000000,MK2 2NG,2010-11-05,fhrs_5_en-GB,5,,FHRS,5
241558,47 Oxford Street,Wolverton,Milton Keynes,,Ali's Mart,Retailers - other,4613,10,,485438,5,,52.05980400000000,81722,870,ehfst@milton-keynes.gov.uk,Milton Keynes,http://www.milton-keynes.gov.uk,-0.81192500000000,MK12 5HP,2012-12-11,fhrs_4_en-GB,4,,FHRS,5
241559,320 Midsummer Boulevard,Central Milton Keynes,Milton Keynes,,All Bar One,Pub/bar/nightclub,7843,0,,126363,0,,52.03922100000000,55338,870,ehfst@milton-keynes.gov.uk,Milton Keynes,http://www.milton-keynes.gov.uk,-0.76100500000000,MK9 2EA,2012-01-25,fhrs_5_en-GB,5,,FHRS,5
241560,,,,,All you need is cake,Other catering premises,7841,,,142196,,,,78767,870,ehfst@milton-keynes.gov.uk,Milton Keynes,http://www.milton-keynes.gov.uk,,,,fhrs_awaitinginspection_en-GB,AwaitingInspection,,FHRS,
241561,"Alpla Ltd, Lasborough Road",Kingston,Milton Keynes,,Alpla UK Ltd (Shared Catering),Restaurant/Cafe/Canteen,1,0,,132044,10,,52.03498100000000,63645,870,ehfst@milton-keynes.gov.uk,Milton Keynes,http://www.milton-keynes.gov.uk,-0.68500800000000,MK10 0AB,2011-03-14,fhrs_4_en-GB,4,,FHRS,5
241562,Yardley Road,Olney,Milton Keynes,,Amaya Indian Restaurant,Restaurant/Cafe/Canteen,1,5,,115229,0,,52.15912300000000,44380,870,ehfst@milton-keynes.gov.uk,Milton Keynes,http://www.milton-keynes.gov.uk,-0.70386600000000,MK46 5DX,2014-02-13,fhrs_5_en-GB,5,,FHRS,5
241563,,,,,Amazing Grains,Other catering premises,7841,,,142653,,,,79581,870,ehfst@milton-keynes.gov.uk,Milton Keynes,http://www.milton-keynes.gov.uk,,,,fhrs_awaitinginspection_en-GB,AwaitingInspection,,FHRS,
241564,"Coffe Kiosk, Milton Keynes Central Station, 302 Elder Gate",Central Milton Keynes,Milton Keynes,,AMT Coffee Ltd,Retailers - other,4613,0,,198789,0,,52.03457200000000,73835,870,ehfst@milton-keynes.gov.uk,Milton Keynes,http://www.milton-keynes.gov.uk,-0.77388900000000,MK9 1LA,2012-04-16,fhrs_5_en-GB,5,,FHRS,0
241565,"St Annes House, Caldecotte Lake Drive",Caldecotte,Milton Keynes,,Amway (UK) Ltd,Distributors/Transporters,7,5,,199005,0,,52.00333900000000,72176,870,ehfst@milton-keynes.gov.uk,Milton Keynes,http://www.milton-keynes.gov.uk,-0.70268900000000,MK7 8JU,2011-02-11,fhrs_5_en-GB,5,,FHRS,0
241566,,,,,Amy Smith,Other catering premises,7841,,,680440,,,,84386,870,ehfst@milton-keynes.gov.uk,Milton Keynes,http://www.milton-keynes.gov.uk,,,,fhrs_awaitinginspection_en-GB,AwaitingInspection,,FHRS,
241567,,,,,Amy's Cupcakery,Other catering premises,7841,,,535446,,,,82470,870,ehfst@milton-keynes.gov.uk,Milton Keynes,http://www.milton-keynes.gov.uk,,,,fhrs_awaitinginspection_en-GB,AwaitingInspection,,FHRS,
241568,"Trading Location, carpark off V10 Tilbrook, Milton Keynes",,,,Anatolian Kebabs,Mobile caterer,7846,10,,198805,5,,,79614,870,ehfst@milton-keynes.gov.uk,Milton Keynes,http://www.milton-keynes.gov.uk,,,2014-11-11,fhrs_4_en-GB,4,,FHRS,5
241569,,,,,Anderson Cakes,Other catering premises,7841,5,,139673,5,,,75462,870,ehfst@milton-keynes.gov.uk,Milton Keynes,http://www.milton-keynes.gov.uk,,,2009-07-20,fhrs_5_en-GB,5,,FHRS,5
241570,"Trading Location, Olney Farmers Market, Olney, Milton Keynes",,,,Angela Janes Farmhouse Kitchen,Retailers - other,4613,0,,199308,0,,,63876,870,ehfst@milton-keynes.gov.uk,Milton Keynes,http://www.milton-keynes.gov.uk,,,2013-08-13,fhrs_5_en-GB,5,,FHRS,0
241571,,,,,Angella Roach,Other catering premises,7841,5,,565298,5,,,83273,870,ehfst@milton-keynes.gov.uk,Milton Keynes,http://www.milton-keynes.gov.uk,,,2013-08-28,fhrs_4_en-GB,4,,FHRS,10
241572,"Trading Location, Olney Farmers Market, Olney, Milton Keynes",,,,Anjon Chillies,Retailers - other,4613,0,,198787,0,,,73288,870,ehfst@milton-keynes.gov.uk,Milton Keynes,http://www.milton-keynes.gov.uk,,,2010-10-03,fhrs_5_en-GB,5,,FHRS,0
241573,,,,,Annie's Cakery,Other catering premises,7841,,,680467,,,,84660,870,ehfst@milton-keynes.gov.uk,Milton Keynes,http://www.milton-keynes.gov.uk,,,,fhrs_awaitinginspection_en-GB,AwaitingInspection,,FHRS,
241574,,,,,Annies Cakes,Other catering premises,7841,10,,141782,10,,,78291,870,ehfst@milton-keynes.gov.uk,Milton Keynes,http://www.milton-keynes.gov.uk,,,2010-12-04,fhrs_4_en-GB,4,,FHRS,0
241575,,,,,ANS Catering,Mobile caterer,7846,5,,199166,5,,,76853,870,ehfst@milton-keynes.gov.uk,Milton Keynes,http://www.milton-keynes.gov.uk,,,2013-10-18,fhrs_5_en-GB,5,,FHRS,5
241576,,,,,Anya & You,Other catering premises,7841,,,142888,,,,79948,870,ehfst@milton-keynes.gov.uk,Milton Keynes,http://www.milton-keynes.gov.uk,,,,fhrs_awaitinginspection_en-GB,AwaitingInspection,,FHRS,
241577,"Interchange Park, 2 Plover Close",Newport Pagnell,Milton Keynes,,Apetito,Other catering premises,7841,5,,142814,0,,52.08023700000000,79830,870,ehfst@milton-keynes.gov.uk,Milton Keynes,http://www.milton-keynes.gov.uk,-0.70402200000000,MK16 9PS,2013-04-30,fhrs_5_en-GB,5,,FHRS,0
241578,309 Avebury Boulevard,Central Milton Keynes,Milton Keynes,,Aqua,Other catering premises,7841,5,,142011,5,,52.03758100000000,78512,870,ehfst@milton-keynes.gov.uk,Milton Keynes,http://www.milton-keynes.gov.uk,-0.76237700000000,MK9 2GA,2015-01-26,fhrs_5_en-GB,5,,FHRS,5
241579,"The Mansion, Bletchley Park, Sherwood Drive",Bletchley,Milton Keynes,,Aramark UK Ltd,Restaurant/Cafe/Canteen,1,5,,508863,0,,51.99732100000000,82079,870,ehfst@milton-keynes.gov.uk,Milton Keynes,http://www.milton-keynes.gov.uk,-0.74309500000000,MK3 6EB,2013-02-05,fhrs_4_en-GB,4,,FHRS,10
241580,489-499 Avebury Boulevard,Central Milton Keynes,Milton Keynes,,Argos (Aramark),Restaurant/Cafe/Canteen,1,0,,123807,0,,52.03947500000000,52217,870,ehfst@milton-keynes.gov.uk,Milton Keynes,http://www.milton-keynes.gov.uk,-0.75526800000000,MK9 3DB,2011-02-10,fhrs_5_en-GB,5,,FHRS,5
241581,"Beacon Retail Park, Watling Street",Bletchley,Milton Keynes,,Argos Extra,Retailers - other,4613,,,199046,,,52.00285200000000,65579,870,ehfst@milton-keynes.gov.uk,Milton Keynes,http://www.milton-keynes.gov.uk,-0.72478800000000,MK1 1BN,2011-01-13,fhrs_exempt_en-GB,Exempt,,FHRS,
241582,700 Grafton Gate H5 To H6,Central Milton Keynes,Milton Keynes,,Argos Super Store,Retailers - other,4613,,,198771,,,52.03338800000000,3443,870,ehfst@milton-keynes.gov.uk,Milton Keynes,http://www.milton-keynes.gov.uk,-0.76895000000000,MK9 1DL,2010-02-10,fhrs_exempt_en-GB,Exempt,,FHRS,
241583,28 St John Street,Newport Pagnell,Milton Keynes,,Arisia Lounge,Pub/bar/nightclub,7843,10,,142300,10,,52.08615500000000,78936,870,ehfst@milton-keynes.gov.uk,Milton Keynes,http://www.milton-keynes.gov.uk,-0.72154000000000,MK16 8HJ,2013-11-26,fhrs_3_en-GB,3,,FHRS,10
241584,Soskin Drive,Stantonbury Fields,Milton Keynes,,Aristo-Tots Day Nursery,Hospitals/Childcare/Caring Premises,5,5,,132415,0,,52.06112500000000,64381,870,ehfst@milton-keynes.gov.uk,Milton Keynes,http://www.milton-keynes.gov.uk,-0.76465800000000,MK14 6DP,2013-10-23,fhrs_5_en-GB,5,,FHRS,5
241585,43 Aylesbury Street,Bletchley,Milton Keynes,,Aromas,Restaurant/Cafe/Canteen,1,5,,93357,10,,51.99694600000000,26785,870,ehfst@milton-keynes.gov.uk,Milton Keynes,http://www.milton-keynes.gov.uk,-0.71748400000000,MK2 2BQ,2014-03-05,fhrs_4_en-GB,4,,FHRS,5
241586,"The Courtyard, Parklands",Great Linford,Milton Keynes,,Artworks (MK) Ltd.,Restaurant/Cafe/Canteen,1,10,,107945,5,,52.07116000000000,38291,870,ehfst@milton-keynes.gov.uk,Milton Keynes,http://www.milton-keynes.gov.uk,-0.76212000000000,MK14 5DZ,2011-02-02,fhrs_4_en-GB,4,,FHRS,5
241587,Bletcham Way V4 - V6 To V7,Milton Keynes,Milton Keynes,,Asda (Eurest),Restaurant/Cafe/Canteen,1,5,,136019,5,,52.00531600000000,70038,870,ehfst@milton-keynes.gov.uk,Milton Keynes,http://www.milton-keynes.gov.uk,-0.72898700000000,MK1 1QB,2015-01-15,fhrs_4_en-GB,4,,FHRS,10
241588,Bletcham Way,Bletchley,Milton Keynes,,Asda Stores Ltd,Retailers - supermarkets/hypermarkets,7840,5,,198953,10,,52.00710000000000,69620,870,ehfst@milton-keynes.gov.uk,Milton Keynes,http://www.milton-keynes.gov.uk,-0.73107800000000,MK1 1QB,2014-03-17,fhrs_4_en-GB,4,,FHRS,0
241589,1-2 Glyn Square,Wolverton,Milton Keynes,,Asda Supermarket,Retailers - supermarkets/hypermarkets,7840,5,,199290,5,,52.06318200000000,49949,870,ehfst@milton-keynes.gov.uk,Milton Keynes,http://www.milton-keynes.gov.uk,-0.80718200000000,MK12 5JQ,2013-07-17,fhrs_5_en-GB,5,,FHRS,0
241590,"Ashbrook School, The High Street",Two Mile Ash,Milton Keynes,,Ashbrook First School (Cygnet Catering),School/college/university,7845,5,,138455,0,,52.03816200000000,73759,870,ehfst@milton-keynes.gov.uk,Milton Keynes,http://www.milton-keynes.gov.uk,-0.80471400000000,MK8 8NA,2011-07-21,fhrs_5_en-GB,5,,FHRS,0
241591,"Ashbrook School, The High Street",Two Mile Ash,Milton Keynes,,Ashbrook School (Compass Contract Services (UK) Ltd,School/college/university,7845,,,699392,,,52.03816200000000,84974,870,ehfst@milton-keynes.gov.uk,Milton Keynes,http://www.milton-keynes.gov.uk,-0.80471400000000,MK8 8NA,,fhrs_awaitinginspection_en-GB,AwaitingInspection,,FHRS,
241592,"Ashbrook School, The High Street",Two Mile Ash,Milton Keynes,,Ashbrook School After School/ Breakfast Club,Hospitals/Childcare/Caring Premises,5,5,,136206,5,,52.03816200000000,70392,870,ehfst@milton-keynes.gov.uk,Milton Keynes,http://www.milton-keynes.gov.uk,-0.80471400000000,MK8 8NA,2011-02-03,fhrs_5_en-GB,5,,FHRS,5
241593,100 Chadwick Drive,Eaglestone - West,Milton Keynes,,Ashby House,Hospitals/Childcare/Caring Premises,5,0,,104015,0,,52.02790900000000,35229,870,ehfst@milton-keynes.gov.uk,Milton Keynes,http://www.milton-keynes.gov.uk,-0.74060500000000,MK6 5LS,2014-01-03,fhrs_5_en-GB,5,,FHRS,5
241594,,,,,Ash's Cakes,Other catering premises,7841,5,,516878,5,,,82335,870,ehfst@milton-keynes.gov.uk,Milton Keynes,http://www.milton-keynes.gov.uk,,,2013-04-16,fhrs_5_en-GB,5,,FHRS,0
241595,"Unit 12, Xscape Building, 602 Marlborough Gate",Central Milton Keynes,Milton Keynes,,Ask Italian,Restaurant/Cafe/Canteen,1,10,,128420,0,,52.04143700000000,58337,870,ehfst@milton-keynes.gov.uk,Milton Keynes,http://www.milton-keynes.gov.uk,-0.74871000000000,MK9 3XA,2013-04-22,fhrs_4_en-GB,4,,FHRS,5
241596,"Unit 19 (Ground Floor), 602 Marlborough Gate",Central Milton Keynes,Milton Keynes,,Aspers MK,Pub/bar/nightclub,7843,5,,375566,0,,52.04143700000000,81142,870,ehfst@milton-keynes.gov.uk,Milton Keynes,http://www.milton-keynes.gov.uk,-0.74871000000000,MK9 3XA,2013-09-13,fhrs_5_en-GB,5,,FHRS,5
241597,"George Farm, George Farm Close",Little Brickhill,Milton Keynes,,Aston Quality Meats Ltd,Retailers - other,4613,10,,375540,0,,51.98337400000000,81028,870,ehfst@milton-keynes.gov.uk,Milton Keynes,http://www.milton-keynes.gov.uk,-0.67884600000000,MK17 9LT,2012-05-22,fhrs_4_en-GB,4,,FHRS,5
241598,,,,,Atelier the Brigadeiro,Other catering premises,7841,5,,375569,5,,,81150,870,ehfst@milton-keynes.gov.uk,Milton Keynes,http://www.milton-keynes.gov.uk,,,2012-06-14,fhrs_5_en-GB,5,,FHRS,0
241599,73 High Street,Woburn Sands,Milton Keynes,,Aubergine Fine Foods,Retailers - other,4613,5,,199341,0,,52.01235400000000,72581,870,ehfst@milton-keynes.gov.uk,Milton Keynes,http://www.milton-keynes.gov.uk,-0.64730600000000,MK17 8QY,2013-11-18,fhrs_5_en-GB,5,,FHRS,5
241600,"Unit 1, Pineham Farm",Haversham,Milton Keynes,,Auction Keynes,Restaurant/Cafe/Canteen,1,0,,485485,0,,52.08975700000000,82020,870,ehfst@milton-keynes.gov.uk,Milton Keynes,http://www.milton-keynes.gov.uk,-0.80248900000000,MK19 7DP,2013-08-15,fhrs_5_en-GB,5,,FHRS,0
241601,,,,,Avondale Cakes,Other catering premises,7841,10,,140831,10,,,76861,870,ehfst@milton-keynes.gov.uk,Milton Keynes,http://www.milton-keynes.gov.uk,,,2010-08-19,fhrs_4_en-GB,4,,FHRS,0
241602,258 Conniburrow Boulevard,Conniburrow,Milton Keynes,,B & K News,Retailers - other,4613,10,,199315,10,,52.04949400000000,34121,870,ehfst@milton-keynes.gov.uk,Milton Keynes,http://www.milton-keynes.gov.uk,-0.75812500000000,MK14 7AH,2011-11-15,fhrs_3_en-GB,3,,FHRS,5
241603,103 Watling Street,Bletchley,Milton Keynes,,B & M Stores,Retailers - other,4613,,,553418,,,52.00285200000000,81607,870,ehfst@milton-keynes.gov.uk,Milton Keynes,http://www.milton-keynes.gov.uk,-0.72478800000000,MK1 1BN,,fhrs_awaitinginspection_en-GB,AwaitingInspection,,FHRS,
241604,22a Barnsdale Drive,Westcroft,Milton Keynes,,B & M Stores,Retailers - other,4613,,,199041,,,52.00415000000000,52439,870,ehfst@milton-keynes.gov.uk,Milton Keynes,http://www.milton-keynes.gov.uk,-0.79434400000000,MK4 4DD,2013-05-13,fhrs_exempt_en-GB,Exempt,,FHRS,
241605,"Unit B, Routeco Retail Park, Snowdon Drive",Winterhill,Milton Keynes,,B & M Stores,Retailers - other,4613,10,,485473,5,,52.02899800000000,81920,870,ehfst@milton-keynes.gov.uk,Milton Keynes,http://www.milton-keynes.gov.uk,-0.76361900000000,MK6 1BN,2012-12-14,fhrs_4_en-GB,4,,FHRS,0
241606,"Rooksley Retail Park, Patriot Drive",Rooksley,Milton Keynes,,B and Q (Autograph),Restaurant/Cafe/Canteen,1,0,,136205,0,,52.04128400000000,70391,870,ehfst@milton-keynes.gov.uk,Milton Keynes,http://www.milton-keynes.gov.uk,-0.77783200000000,MK13 8PU,2014-09-16,fhrs_5_en-GB,5,,FHRS,5
241607,"Unit B Libra, Maidstone Road",Kingston,Milton Keynes,,Babcock Technical Acadamy (Elior UK),Restaurant/Cafe/Canteen,1,,,735112,,,,85455,870,ehfst@milton-keynes.gov.uk,Milton Keynes,http://www.milton-keynes.gov.uk,,MK10 0BE,,fhrs_awaitinginspection_en-GB,AwaitingInspection,,FHRS,
241608,128 Dunthorne Way,Grange Farm,Milton Keynes,,Baby Bears Day Care,Hospitals/Childcare/Caring Premises,5,5,,136906,0,,52.02188600000000,71433,870,ehfst@milton-keynes.gov.uk,Milton Keynes,http://www.milton-keynes.gov.uk,-0.80724600000000,MK8 0LW,2014-11-20,fhrs_4_en-GB,4,,FHRS,10
241609,38 Market Place,Olney,Milton Keynes,,Bacchus Wine,Retailers - other,4613,,,198957,,,52.15251500000000,71338,870,ehfst@milton-keynes.gov.uk,Milton Keynes,http://www.milton-keynes.gov.uk,-0.70150000000000,MK46 4AJ,2010-07-01,fhrs_exempt_en-GB,Exempt,,FHRS,
241610,66 Station Road,Woburn Sands,Milton Keynes,,Bacchus Wine Bars Ltd,Retailers - other,4613,,,553445,,,52.01544000000000,83168,870,ehfst@milton-keynes.gov.uk,Milton Keynes,http://www.milton-keynes.gov.uk,-0.64979200000000,MK17 8RZ,,fhrs_awaitinginspection_en-GB,AwaitingInspection,,FHRS,
241611,,,,,Baked by Bim,Other catering premises,7841,,,605904,,,,83795,870,ehfst@milton-keynes.gov.uk,Milton Keynes,http://www.milton-keynes.gov.uk,,,,fhrs_awaitinginspection_en-GB,AwaitingInspection,,FHRS,
241612,Unit 6-8 4 Oxford Street,Bletchley,Milton Keynes,,Bakelite Food Shop,Retailers - other,4613,5,,198742,5,,51.99558500000000,75484,870,ehfst@milton-keynes.gov.uk,Milton Keynes,http://www.milton-keynes.gov.uk,-0.73131600000000,MK2 2UA,2009-07-15,fhrs_5_en-GB,5,,FHRS,5
241613,,,,,Bakery One,Other catering premises,7841,,,485458,,,,81876,870,ehfst@milton-keynes.gov.uk,Milton Keynes,http://www.milton-keynes.gov.uk,,,,fhrs_awaitinginspection_en-GB,AwaitingInspection,,FHRS,
241614,"Brooklyn House, Unit 800 Holkham Walk",Central Milton Keynes,Milton Keynes,,Banana Tree,Restaurant/Cafe/Canteen,1,,,663888,,,52.03927800000000,72747,870,ehfst@milton-keynes.gov.uk,Milton Keynes,http://www.milton-keynes.gov.uk,-0.76477900000000,MK9 2HP,,fhrs_awaitinginspection_en-GB,AwaitingInspection,,FHRS,
241615,"Community Centre, 29 Hadrians Drive",Bancroft,Milton Keynes,,Bancroft Pre-School,Hospitals/Childcare/Caring Premises,5,,,142546,,,52.05426700000000,79379,870,ehfst@milton-keynes.gov.uk,Milton Keynes,http://www.milton-keynes.gov.uk,-0.78997600000000,MK13 0QB,,fhrs_awaitinginspection_en-GB,AwaitingInspection,,FHRS,
241616,477-488 Midsummer Boulevard,Central Milton Keynes,Milton Keynes,,Bannatyne's Health Club,Restaurant/Cafe/Canteen,1,0,,88365,0,,52.03947500000000,2311,870,ehfst@milton-keynes.gov.uk,Milton Keynes,http://www.milton-keynes.gov.uk,-0.75526800000000,MK9 3DB,2012-04-17,fhrs_5_en-GB,5,,FHRS,0
241617,"Extracare Retirement Village, Japonica Lane",Willen Park,Milton Keynes,,Banyan Tree,Retailers - other,4613,10,,448727,0,,52.05414800000000,81602,870,ehfst@milton-keynes.gov.uk,Milton Keynes,http://www.milton-keynes.gov.uk,-0.72532800000000,MK15 9LE,2012-12-07,fhrs_4_en-GB,4,,FHRS,0
241618,,,,,Barabelle Delights,Other catering premises,7841,,,577233,,,,83480,870,ehfst@milton-keynes.gov.uk,Milton Keynes,http://www.milton-keynes.gov.uk,,,,fhrs_awaitinginspection_en-GB,AwaitingInspection,,FHRS,
241619,2 The Green,Newport Pagnell,Milton Keynes,,Bargain Booze,Retailers - other,4613,,,199112,,,52.08393200000000,42699,870,ehfst@milton-keynes.gov.uk,Milton Keynes,http://www.milton-keynes.gov.uk,-0.72879800000000,MK16 0JW,2009-04-23,fhrs_exempt_en-GB,Exempt,,FHRS,
241620,4 Benbow Court,Shenley Church End,Milton Keynes,,Bargain Booze,Retailers - other,4613,,,199199,,,52.02598000000000,17636,870,ehfst@milton-keynes.gov.uk,Milton Keynes,http://www.milton-keynes.gov.uk,-0.78896200000000,MK5 6JG,2012-04-23,fhrs_exempt_en-GB,Exempt,,FHRS,
241621,"Normandy House, 2 Laser Close",Shenley Lodge,Milton Keynes,,Barleycare Ltd,Hospitals/Childcare/Caring Premises,5,5,,136907,5,,52.02113400000000,71434,870,ehfst@milton-keynes.gov.uk,Milton Keynes,http://www.milton-keynes.gov.uk,-0.77508700000000,MK5 7AZ,2008-10-28,fhrs_5_en-GB,5,,FHRS,5
241622,"Barleyhurst Park Primary School, Forfar Drive",Bletchley,Milton Keynes,,Barleyhurst Park Primary School (Cygnet Catering),School/college/university,7845,0,,134394,0,,52.00295200000000,67759,870,ehfst@milton-keynes.gov.uk,Milton Keynes,http://www.milton-keynes.gov.uk,-0.75603300000000,MK3 7NA,2012-02-06,fhrs_5_en-GB,5,,FHRS,0
241623,"BSH Home Appliances Ltd, Old Wolverton Road",Old Wolverton,Milton Keynes,,Bartlett Mitchell Limited,Restaurant/Cafe/Canteen,1,5,,508865,0,,52.06605900000000,82085,870,ehfst@milton-keynes.gov.uk,Milton Keynes,http://www.milton-keynes.gov.uk,-0.81168600000000,MK12 5PT,2013-01-04,fhrs_5_en-GB,5,,FHRS,5
241624,"Trading Location, Olney Farmers Market, Olney, Milton Keynes",,,,Bassingthorpe Beef,Retailers - other,4613,0,,199201,0,,,73289,870,ehfst@milton-keynes.gov.uk,Milton Keynes,http://www.milton-keynes.gov.uk,,,2010-10-03,fhrs_5_en-GB,5,,FHRS,0
241625,Delaware Drive,Tongwell,Milton Keynes,,Baxter Storey Ltd (Mercedes Benz Financial Services UK Ltd.),Restaurant/Cafe/Canteen,1,5,,129847,0,,52.06433700000000,60835,870,ehfst@milton-keynes.gov.uk,Milton Keynes,http://www.milton-keynes.gov.uk,-0.73265100000000,MK15 8BA,2010-06-08,fhrs_5_en-GB,5,,FHRS,0
241626,"Bay House, 31 Weston Road",Olney,Milton Keynes,,Bay House Residential Home,Hospitals/Childcare/Caring Premises,5,5,,134928,5,,52.15209500000000,68420,870,ehfst@milton-keynes.gov.uk,Milton Keynes,http://www.milton-keynes.gov.uk,-0.70412900000000,MK46 5BD,2013-10-29,fhrs_5_en-GB,5,,FHRS,0
241627,"Unit 99 Caxton Court, Garamonde Drive",Wymbush,Milton Keynes,,Bazaar Foods,Retailers - other,4613,10,,198711,5,,52.04411100000000,69968,870,ehfst@milton-keynes.gov.uk,Milton Keynes,http://www.milton-keynes.gov.uk,-0.80006400000000,MK8 8DD,2009-08-04,fhrs_4_en-GB,4,,FHRS,5
241628,25 Mortimer Square,Central Milton Keynes,Milton Keynes,,Be At One Limited,Pub/bar/nightclub,7843,,,141876,,,52.03804500000000,78363,870,ehfst@milton-keynes.gov.uk,Milton Keynes,http://www.milton-keynes.gov.uk,-0.76288900000000,MK9 2FB,,fhrs_awaitinginspection_en-GB,AwaitingInspection,,FHRS,
241629,"Moorlands Centre, Dodkin",Beanhill,Milton Keynes,,Beanhill Nursery,Hospitals/Childcare/Caring Premises,5,10,,51847,5,,52.01736200000000,11651,870,ehfst@milton-keynes.gov.uk,Milton Keynes,http://www.milton-keynes.gov.uk,-0.73469300000000,MK6 4LP,2011-03-28,fhrs_4_en-GB,4,,FHRS,5
241630,"Unit 1, Dodkin",Beanhill,Milton Keynes,,Beanhill Stores Ltd,Retailers - other,4613,10,,199254,0,,52.01736200000000,69354,870,ehfst@milton-keynes.gov.uk,Milton Keynes,http://www.milton-keynes.gov.uk,-0.73469300000000,MK6 4LP,2009-07-23,fhrs_4_en-GB,4,,FHRS,0
241631,24-25 Market Place,Olney,Milton Keynes,,Beans Coffee Stop Ltd,Restaurant/Cafe/Canteen,1,10,,138423,5,,52.15300500000000,73713,870,ehfst@milton-keynes.gov.uk,Milton Keynes,http://www.milton-keynes.gov.uk,-0.70103300000000,MK46 4BA,2014-04-28,fhrs_4_en-GB,4,,FHRS,5
241632,,,,,Beckah's Cupcakes,Other catering premises,7841,,,553423,,,,82499,870,ehfst@milton-keynes.gov.uk,Milton Keynes,http://www.milton-keynes.gov.uk,,,,fhrs_awaitinginspection_en-GB,AwaitingInspection,,FHRS,
241633,"Becket House, 10 Pitcher Lane",Loughton,Milton Keynes,,Becket House Nursing Home,Hospitals/Childcare/Caring Premises,5,10,,110433,5,,52.03183100000000,40108,870,ehfst@milton-keynes.gov.uk,Milton Keynes,http://www.milton-keynes.gov.uk,-0.77829300000000,MK5 8AU,2014-02-06,fhrs_4_en-GB,4,,FHRS,5
241634,,,,,Bec's Buns,Other catering premises,7841,10,,141617,5,,,78138,870,ehfst@milton-keynes.gov.uk,Milton Keynes,http://www.milton-keynes.gov.uk,,,2010-10-14,fhrs_4_en-GB,4,,FHRS,0
241635,74 Newport Road,New Bradwell,Milton Keynes,,Bed & Breakfast,Hotel/bed & breakfast/guest house,7842,10,,111976,5,,52.06708100000000,41279,870,ehfst@milton-keynes.gov.uk,Milton Keynes,http://www.milton-keynes.gov.uk,-0.78575000000000,MK13 0AD,2009-10-15,fhrs_4_en-GB,4,,FHRS,5
241636,50 Garraways,Coffee Hall,Milton Keynes,,Beijing Peters Chinese Food,Takeaway/sandwich shop,7844,5,,102150,5,,52.02329500000000,33753,870,ehfst@milton-keynes.gov.uk,Milton Keynes,http://www.milton-keynes.gov.uk,-0.74547100000000,MK6 5EG,2013-08-14,fhrs_5_en-GB,5,,FHRS,5
241637,50 High Street,Stony Stratford,Milton Keynes,,Bekash Restaurant,Restaurant/Cafe/Canteen,1,5,,117563,0,,52.05719100000000,46793,870,ehfst@milton-keynes.gov.uk,Milton Keynes,http://www.milton-keynes.gov.uk,-0.85306700000000,MK11 1AQ,2012-08-28,fhrs_5_en-GB,5,,FHRS,0
241638,"Xscape Building, 602 Marlborough Gate",Central Milton Keynes,Milton Keynes,,Belissimo,Takeaway/sandwich shop,7844,10,,128543,5,,52.04143700000000,58590,870,ehfst@milton-keynes.gov.uk,Milton Keynes,http://www.milton-keynes.gov.uk,-0.74871000000000,MK9 3XA,2011-03-28,fhrs_4_en-GB,4,,FHRS,0
241639,,,,,Belistore,Mobile caterer,7846,,,680452,,,,84494,870,ehfst@milton-keynes.gov.uk,Milton Keynes,http://www.milton-keynes.gov.uk,,,,fhrs_awaitinginspection_en-GB,AwaitingInspection,,FHRS,
241640,12 Savoy Crescent,Central Milton Keynes,Milton Keynes,,Bella Italia,Restaurant/Cafe/Canteen,1,5,,131457,10,,52.04382700000000,62989,870,ehfst@milton-keynes.gov.uk,Milton Keynes,http://www.milton-keynes.gov.uk,-0.74931500000000,MK9 3PU,2013-08-22,fhrs_4_en-GB,4,,FHRS,5
241641,15 Stadium Way West,Denbigh North,Milton Keynes,,Bella Italia,Restaurant/Cafe/Canteen,1,0,,590140,5,,52.01070900000000,83716,870,ehfst@milton-keynes.gov.uk,Milton Keynes,http://www.milton-keynes.gov.uk,-0.73641100000000,MK1 1ST,2015-01-08,fhrs_5_en-GB,5,,FHRS,5
241642,"Bellfounder House, Walgrave Drive",Bradwell,Milton Keynes,,Bellfounder House (Age UK),Restaurant/Cafe/Canteen,1,5,,100526,5,,,32357,870,ehfst@milton-keynes.gov.uk,Milton Keynes,http://www.milton-keynes.gov.uk,,,2015-01-22,fhrs_5_en-GB,5,,FHRS,5
241643,"Mannings Farm, Common Street",Ravenstone,Milton Keynes,,Ben Howkins & Son,Retailers - other,4613,,,577218,,,52.14441000000000,5555,870,ehfst@milton-keynes.gov.uk,Milton Keynes,http://www.milton-keynes.gov.uk,-0.75957900000000,MK46 5AS,,fhrs_awaitinginspection_en-GB,AwaitingInspection,,FHRS,
241644,16-18 High Street,Olney,Milton Keynes,,Bengal Tiger Indian Takeaway,Takeaway/sandwich shop,7844,10,,128022,5,,52.15421500000000,57720,870,ehfst@milton-keynes.gov.uk,Milton Keynes,http://www.milton-keynes.gov.uk,-0.70153900000000,MK46 4BB,2014-03-26,fhrs_3_en-GB,3,,FHRS,10
241645,77 Shearmans,Fullers Slade,Milton Keynes,,Ben's Chinese Takeaway,Takeaway/sandwich shop,7844,5,,132600,10,,52.04963000000000,64636,870,ehfst@milton-keynes.gov.uk,Milton Keynes,http://www.milton-keynes.gov.uk,-0.82759500000000,MK11 2BQ,2013-08-22,fhrs_3_en-GB,3,,FHRS,10
241646,"Trading Location, Olney Farmers Market, Olney, Milton Keynes",,,,Berrichon Grass Ranges,Retailers - other,4613,0,,198853,0,,,73384,870,ehfst@milton-keynes.gov.uk,Milton Keynes,http://www.milton-keynes.gov.uk,,,2010-10-03,fhrs_5_en-GB,5,,FHRS,0
241647,"Trading Location, Barton Road, Bletchley, Milton Keynes",,,,Bespoke Doorstep Sandwiches,Mobile caterer,7846,5,,283179,5,,51.98663900000000,80836,870,ehfst@milton-keynes.gov.uk,Milton Keynes,http://www.milton-keynes.gov.uk,-0.73213100000000,,2013-10-04,fhrs_5_en-GB,5,,FHRS,0
241648,"Trading Location, Milton Keynes Market, Milton Keynes",,,,Best Fruit,Retailers - other,4613,5,,198732,5,,,56353,870,ehfst@milton-keynes.gov.uk,Milton Keynes,http://www.milton-keynes.gov.uk,,,2010-06-29,fhrs_5_en-GB,5,,FHRS,0
241649,"Trading Location, Fishermead Blvd, Fishermead, Milton Keynes",,,,Best Kebab,Mobile caterer,7846,5,,199351,0,,52.03530000000000,78917,870,ehfst@milton-keynes.gov.uk,Milton Keynes,http://www.milton-keynes.gov.uk,-0.74851100000000,,2011-04-20,fhrs_5_en-GB,5,,FHRS,0
241650,"Trading Location, Lammas, Beanhill, Milton Keynes",,,,Best Kebab,Mobile caterer,7846,5,,198997,0,,52.01835700000000,76085,870,ehfst@milton-keynes.gov.uk,Milton Keynes,http://www.milton-keynes.gov.uk,-0.74150000000000,,2013-05-17,fhrs_5_en-GB,5,,FHRS,5
241651,"Trading Location, Springfield Blvd, Springfield, Milton Keynes",,,,Best Kebab 2,Mobile caterer,7846,5,,198806,0,,52.04024700000000,80135,870,ehfst@milton-keynes.gov.uk,Milton Keynes,http://www.milton-keynes.gov.uk,-0.73565900000000,,2011-09-22,fhrs_5_en-GB,5,,FHRS,0
241652,"Trading Location Wandsworth Place, Bradwell Common,Milton Keynes",,,,Best Kebabs,Mobile caterer,7846,5,,622398,10,,,83998,870,ehfst@milton-keynes.gov.uk,Milton Keynes,http://www.milton-keynes.gov.uk,,,2014-11-03,fhrs_4_en-GB,4,,FHRS,5
241653,"Trading Location, St Dunstans, Coffee Hall, Milton Keynes",,,,Best Kebabs,Mobile caterer,7846,5,,198766,10,,52.02302900000000,71755,870,ehfst@milton-keynes.gov.uk,Milton Keynes,http://www.milton-keynes.gov.uk,-0.74717600000000,,2013-04-08,fhrs_4_en-GB,4,,FHRS,0
241654,"Trading Location, Springfield Blvd, Springfield, Milton Keynes",,,,Best Kebabs 2,Mobile caterer,7846,5,,198916,0,,52.04024700000000,59879,870,ehfst@milton-keynes.gov.uk,Milton Keynes,http://www.milton-keynes.gov.uk,-0.73565900000000,,2009-09-17,fhrs_5_en-GB,5,,FHRS,0
241655,"Trading Location, Milton Keynes Market, Milton Keynes",,,,Best of British,Mobile caterer,7846,5,,199129,0,,,67031,870,ehfst@milton-keynes.gov.uk,Milton Keynes,http://www.milton-keynes.gov.uk,,,2014-01-22,fhrs_5_en-GB,5,,FHRS,5
241656,104 Serpentine Court,Bletchley,Milton Keynes,,Best One,Retailers - other,4613,10,,199289,5,,51.98069300000000,3294,870,ehfst@milton-keynes.gov.uk,Milton Keynes,http://www.milton-keynes.gov.uk,-0.72610200000000,MK2 3QL,2012-01-17,fhrs_3_en-GB,3,,FHRS,10
241657,15-17 Melrose Avenue,Bletchley,Milton Keynes,,Best One,Retailers - other,4613,10,,199114,5,,52.00598300000000,28738,870,ehfst@milton-keynes.gov.uk,Milton Keynes,http://www.milton-keynes.gov.uk,-0.74851900000000,MK3 6PB,2012-02-07,fhrs_3_en-GB,3,,FHRS,10
241658,28 St Marys Avenue,Bletchley,Milton Keynes,,Best One Food & Wine,Retailers - other,4613,10,,199196,5,,51.98995100000000,30028,870,ehfst@milton-keynes.gov.uk,Milton Keynes,http://www.milton-keynes.gov.uk,-0.75774800000000,MK3 5DT,2013-06-17,fhrs_4_en-GB,4,,FHRS,0
241659,"Trading Location, H7 Car Park opp Westcroft, Milton Keynes",,,,Best Original Kebab,Mobile caterer,7846,5,,199063,5,,,73574,870,ehfst@milton-keynes.gov.uk,Milton Keynes,http://www.milton-keynes.gov.uk,,,2013-05-15,fhrs_5_en-GB,5,,FHRS,5
241660,5 Wolverton Road,Stony Stratford,Milton Keynes,,Best Stony Kebab House,Takeaway/sandwich shop,7844,5,,134724,5,,52.05611600000000,68214,870,ehfst@milton-keynes.gov.uk,Milton Keynes,http://www.milton-keynes.gov.uk,-0.85074600000000,MK11 1DZ,2014-10-06,fhrs_5_en-GB,5,,FHRS,0
241661,,,,,Bev's Food Haven,Other catering premises,7841,,,663909,,,,84278,870,ehfst@milton-keynes.gov.uk,Milton Keynes,http://www.milton-keynes.gov.uk,,,,fhrs_awaitinginspection_en-GB,AwaitingInspection,,FHRS,
241662,116 Silbury Arcade,Central Milton Keynes,Milton Keynes,,BHS - Restaurant and Coffee Lounge,Restaurant/Cafe/Canteen,1,5,,101746,5,,52.04321800000000,33402,870,ehfst@milton-keynes.gov.uk,Milton Keynes,http://www.milton-keynes.gov.uk,-0.75638900000000,MK9 3BE,2013-10-16,fhrs_5_en-GB,5,,FHRS,5
241663,3-4 Stadium Way West,Denbigh North,Milton Keynes,,BHS Limited,Restaurant/Cafe/Canteen,1,5,,448725,5,,52.01070900000000,81593,870,ehfst@milton-keynes.gov.uk,Milton Keynes,http://www.milton-keynes.gov.uk,-0.73641100000000,MK1 1ST,2014-11-13,fhrs_5_en-GB,5,,FHRS,5
241664,"Trading Location, Bradbourne Drive, Tilbrook, Milton Keynes",,,,Bianco's Bistro,Mobile caterer,7846,0,,198871,5,,52.00859800000000,61781,870,ehfst@milton-keynes.gov.uk,Milton Keynes,http://www.milton-keynes.gov.uk,-0.69038500000000,,2011-11-08,fhrs_5_en-GB,5,,FHRS,0
241665,"Agora Centre, Queensway",Bletchley,Milton Keynes,,Big 'D's Fruit and Veg,Retailers - other,4613,,,283188,,,51.99446600000000,80885,870,ehfst@milton-keynes.gov.uk,Milton Keynes,http://www.milton-keynes.gov.uk,-0.72920700000000,MK2 2RS,,fhrs_exempt_en-GB,Exempt,,FHRS,
241666,1 Newmarket Court,Kingston,Milton Keynes,,Big Rock Climbing,Restaurant/Cafe/Canteen,1,10,,141641,10,,52.03865000000000,78175,870,ehfst@milton-keynes.gov.uk,Milton Keynes,http://www.milton-keynes.gov.uk,-0.68672300000000,MK10 0AG,2010-11-29,fhrs_3_en-GB,3,,FHRS,5
241667,,,,,Big Star Bakery,Other catering premises,7841,,,485454,,,,81870,870,ehfst@milton-keynes.gov.uk,Milton Keynes,http://www.milton-keynes.gov.uk,,,,fhrs_awaitinginspection_en-GB,AwaitingInspection,,FHRS,
241668,,,,,Bikash Foods,Other catering premises,7841,,,705599,,,,85015,870,ehfst@milton-keynes.gov.uk,Milton Keynes,http://www.milton-keynes.gov.uk,,,,fhrs_awaitinginspection_en-GB,AwaitingInspection,,FHRS,
241669,116 High Street,Stony Stratford,Milton Keynes,,Bills B & B,Hotel/bed & breakfast/guest house,7842,5,,117482,5,,52.05807000000000,46725,870,ehfst@milton-keynes.gov.uk,Milton Keynes,http://www.milton-keynes.gov.uk,-0.85478000000000,MK11 1AH,2010-02-19,fhrs_5_en-GB,5,,FHRS,5
241670,,,,,"Bips, Dips and Doughnuts",Mobile caterer,7846,,,735120,,,,85479,870,ehfst@milton-keynes.gov.uk,Milton Keynes,http://www.milton-keynes.gov.uk,,,,fhrs_awaitinginspection_en-GB,AwaitingInspection,,FHRS,
241671,"Bishop Parker Catholic School, Barton Road",Bletchley,Milton Keynes,,Bishop Parker RC School (Cygnet Catering),School/college/university,7845,0,,137130,5,,51.98614800000000,71828,870,ehfst@milton-keynes.gov.uk,Milton Keynes,http://www.milton-keynes.gov.uk,-0.72827700000000,MK2 3BT,2012-02-20,fhrs_5_en-GB,5,,FHRS,0
241672,15-17 Farthing Grove,Netherfield,Milton Keynes,,Bismi Cash & Carry,Retailers - other,4613,10,,198869,15,,52.02256100000000,59493,870,ehfst@milton-keynes.gov.uk,Milton Keynes,http://www.milton-keynes.gov.uk,-0.73400700000000,MK6 4JH,2014-04-24,fhrs_2_en-GB,2,,FHRS,15
241673,488 Midsummer Boulevard,Central Milton Keynes,Milton Keynes,,Bistro Live,Restaurant/Cafe/Canteen,1,0,,132353,0,,52.03922100000000,64252,870,ehfst@milton-keynes.gov.uk,Milton Keynes,http://www.milton-keynes.gov.uk,-0.76100500000000,MK9 2EA,2013-11-28,fhrs_5_en-GB,5,,FHRS,0
241674,"Trading Location, Birdlip Lane, Kents Hill, Milton Keynes",,,,Bitez Kebabs,Mobile caterer,7846,5,,198928,10,,52.02508100000000,62924,870,ehfst@milton-keynes.gov.uk,Milton Keynes,http://www.milton-keynes.gov.uk,-0.69628100000000,,2013-10-24,fhrs_4_en-GB,4,,FHRS,5
241675,18 Fyfield Barrow,Walnut Tree,Milton Keynes,,Bitz 'n' Pizza,Takeaway/sandwich shop,7844,5,,131332,10,,52.02274000000000,62766,870,ehfst@milton-keynes.gov.uk,Milton Keynes,http://www.milton-keynes.gov.uk,-0.68953600000000,MK7 7AN,2013-11-20,fhrs_3_en-GB,3,,FHRS,10
241676,"Trading Location, Chesney Wold, Bleakhall, Milton Keynes",,,,Bleakies,Mobile caterer,7846,10,,680457,10,,,84589,870,ehfst@milton-keynes.gov.uk,Milton Keynes,http://www.milton-keynes.gov.uk,,,2014-06-10,fhrs_3_en-GB,3,,FHRS,10
241677,"21 A Unit 15 Lloyds Court, 9 North Tenth Street",Central Milton Keynes,Milton Keynes,,Blessed Cafe,Restaurant/Cafe/Canteen,1,10,,553438,10,,52.04487300000000,83105,870,ehfst@milton-keynes.gov.uk,Milton Keynes,http://www.milton-keynes.gov.uk,-0.75816500000000,MK9 3EL,2013-11-19,fhrs_3_en-GB,3,,FHRS,10
241678,1 Chandos Place,Bletchley,Milton Keynes,,Bletchley & Fenny Stratford WMSC,Pub/bar/nightclub,7843,10,,94133,5,,51.99391000000000,27323,870,ehfst@milton-keynes.gov.uk,Milton Keynes,http://www.milton-keynes.gov.uk,-0.73443700000000,MK2 2SQ,2008-04-23,fhrs_4_en-GB,4,,FHRS,5
241679,140 Queensway,Bletchley,Milton Keynes,,Bletchley Agora Fish Bazar,Retailers - other,4613,10,,656112,10,,51.99461200000000,84193,870,ehfst@milton-keynes.gov.uk,Milton Keynes,http://www.milton-keynes.gov.uk,-0.72949400000000,MK2 2AA,2014-06-10,fhrs_3_en-GB,3,,FHRS,10
241680,"Milton Keynes College, Sherwood Drive",Bletchley,Milton Keynes,,Bletchley Campus (MK College) Catering,School/college/university,7845,0,,85433,0,,51.99458100000000,21517,870,ehfst@milton-keynes.gov.uk,Milton Keynes,http://www.milton-keynes.gov.uk,-0.74081200000000,MK3 6DR,2012-11-29,fhrs_5_en-GB,5,,FHRS,0
241681,105-111 Queensway,Bletchley,Milton Keynes,,Bletchley Conservative Club,Pub/bar/nightclub,7843,5,,137443,5,,51.99510600000000,72384,870,ehfst@milton-keynes.gov.uk,Milton Keynes,http://www.milton-keynes.gov.uk,-0.72942100000000,MK2 2DN,2013-11-21,fhrs_5_en-GB,5,,FHRS,5
241682,169 Water Eaton Road,Bletchley,Milton Keynes,,Bletchley Food & Wine,Retailers - other,4613,10,,199232,10,,51.98952400000000,14781,870,ehfst@milton-keynes.gov.uk,Milton Keynes,http://www.milton-keynes.gov.uk,-0.72288000000000,MK2 3AG,2009-01-23,fhrs_4_en-GB,4,,FHRS,0
241683,Beaverbrook Court,Bletchley,Milton Keynes,,Bletchley House (Gold Care Homes),Hospitals/Childcare/Caring Premises,5,5,,65587,0,,52.00053100000000,14747,870,ehfst@milton-keynes.gov.uk,Milton Keynes,http://www.milton-keynes.gov.uk,-0.74816100000000,MK3 7JS,2014-12-03,fhrs_5_en-GB,5,,FHRS,0
241684,"Bletchley Leisure Centre, Princes Way",Bletchley,Milton Keynes,,Bletchley Leisure Centre,Restaurant/Cafe/Canteen,1,10,,140270,10,,51.99644000000000,76423,870,ehfst@milton-keynes.gov.uk,Milton Keynes,http://www.milton-keynes.gov.uk,-0.72718400000000,MK2 2HQ,2014-11-20,fhrs_3_en-GB,3,,FHRS,5
241685,"Masonic Centre, 263 Queensway",Bletchley,Milton Keynes,,Bletchley Masonic Hall (B M Celebrations),Pub/bar/nightclub,7843,0,,96479,0,,51.98493300000000,29369,870,ehfst@milton-keynes.gov.uk,Milton Keynes,http://www.milton-keynes.gov.uk,-0.72333100000000,MK2 2SR,2012-10-12,fhrs_5_en-GB,5,,FHRS,0
241686,18 Watling Street,Bletchley,Milton Keynes,,Bletchley Mini Market,Retailers - other,4613,5,,199042,0,,51.99845000000000,77438,870,ehfst@milton-keynes.gov.uk,Milton Keynes,http://www.milton-keynes.gov.uk,-0.71527000000000,MK2 2BL,2010-08-12,fhrs_4_en-GB,4,,FHRS,10
241687,"Bletchley Park, Sherwood Drive",Bletchley,Milton Keynes,,Bletchley Park Mansion,Pub/bar/nightclub,7843,5,,98329,5,,51.99732100000000,30963,870,ehfst@milton-keynes.gov.uk,Milton Keynes,http://www.milton-keynes.gov.uk,-0.74309500000000,MK3 6EB,2010-10-13,fhrs_5_en-GB,5,,FHRS,5
241688,"Bletchley Activity Centre, Porchester Close",Bletchley,Milton Keynes,,Bletchley Pre-School,Hospitals/Childcare/Caring Premises,5,5,,133302,5,,51.99571100000000,65883,870,ehfst@milton-keynes.gov.uk,Milton Keynes,http://www.milton-keynes.gov.uk,-0.75492300000000,MK3 7DF,2010-07-21,fhrs_5_en-GB,5,,FHRS,5
241689,"Manor Fields, Watling Street",Bletchley,Milton Keynes,,Bletchley Rugby Club,Pub/bar/nightclub,7843,5,,95666,0,,51.99492100000000,28648,870,ehfst@milton-keynes.gov.uk,Milton Keynes,http://www.milton-keynes.gov.uk,-0.71237100000000,MK2 2HX,2013-06-05,fhrs_5_en-GB,5,,FHRS,5
241690,174 Queensway,Bletchley,Milton Keynes,,Bletchley Supermarket,Retailers - other,4613,10,,199352,10,,51.99483800000000,79492,870,ehfst@milton-keynes.gov.uk,Milton Keynes,http://www.milton-keynes.gov.uk,-0.72785600000000,MK2 2SW,2014-06-10,fhrs_2_en-GB,2,,FHRS,15
241691,Derwent Drive,Bletchley,Milton Keynes,,Bletchley Youth Centre,Other catering premises,7841,5,,94498,10,,51.99685200000000,27675,870,ehfst@milton-keynes.gov.uk,Milton Keynes,http://www.milton-keynes.gov.uk,-0.76077600000000,MK3 7BE,2011-01-17,fhrs_4_en-GB,4,,FHRS,0
241692,Oldbrook Boulevard,Oldbrook,Milton Keynes,,Blockbuster Video,Retailers - other,4613,0,,198839,0,,52.03039300000000,43375,870,ehfst@milton-keynes.gov.uk,Milton Keynes,http://www.milton-keynes.gov.uk,-0.76199200000000,MK6 2YA,2008-10-22,fhrs_5_en-GB,5,,FHRS,5
241693,,,,,Blue Bridge Bakery,Other catering premises,7841,,,448720,,,,81586,870,ehfst@milton-keynes.gov.uk,Milton Keynes,http://www.milton-keynes.gov.uk,,,,fhrs_awaitinginspection_en-GB,AwaitingInspection,,FHRS,
241694,"Suites 1-2, Warren House, Harnett Drive",Wolverton Mill,Milton Keynes,,Blue Mountain Yard Ltd,Restaurant/Cafe/Canteen,1,5,,713331,5,,52.05919900000000,85164,870,ehfst@milton-keynes.gov.uk,Milton Keynes,http://www.milton-keynes.gov.uk,-0.83414100000000,MK12 5NX,2014-12-03,fhrs_5_en-GB,5,,FHRS,5
241695,"Trading Location, Olney Farmers Market, Olney, Milton Keynes",,,,Blueberry House Country Products,Retailers - other,4613,5,,199155,5,,,73284,870,ehfst@milton-keynes.gov.uk,Milton Keynes,http://www.milton-keynes.gov.uk,,,2009-02-01,fhrs_5_en-GB,5,,FHRS,5
241696,Faraday Drive,Shenley Lodge,Milton Keynes,,Bluebirds Nursing Home,Hospitals/Childcare/Caring Premises,5,5,,131447,5,,52.01780300000000,62963,870,ehfst@milton-keynes.gov.uk,Milton Keynes,http://www.milton-keynes.gov.uk,-0.77299200000000,MK5 7FY,2014-01-09,fhrs_5_en-GB,5,,FHRS,5
241697,"Saxon Clinic, Chadwick Drive",Eaglestone - West,Milton Keynes,,BMI Saxon Clinic,Hospitals/Childcare/Caring Premises,5,0,,130145,5,,52.02562300000000,61193,870,ehfst@milton-keynes.gov.uk,Milton Keynes,http://www.milton-keynes.gov.uk,-0.74037800000000,MK6 5LR,2013-05-21,fhrs_5_en-GB,5,,FHRS,5
241698,37 High Street,Woburn Sands,Milton Keynes,,Bodrum Kebab and Pizza House,Restaurant/Cafe/Canteen,1,10,,131874,10,,52.01168500000000,63474,870,ehfst@milton-keynes.gov.uk,Milton Keynes,http://www.milton-keynes.gov.uk,-0.64699100000000,MK17 8RB,2015-01-05,fhrs_3_en-GB,3,,FHRS,5
241699,"3a The Stacey Bushes Trading Centre, Erica Road",Stacey Bushes,Milton Keynes,,Body Limits Transition,Restaurant/Cafe/Canteen,1,5,,643009,5,,52.05064700000000,83244,870,ehfst@milton-keynes.gov.uk,Milton Keynes,http://www.milton-keynes.gov.uk,-0.79822600000000,MK12 6HS,2014-02-06,fhrs_5_en-GB,5,,FHRS,5
241700,"Bodycraft, Janlins, Northampton Road",Warrington,Milton Keynes,,Bodycraft (Car Wash),Retailers - other,4613,10,,199348,5,,52.18812600000000,78069,870,ehfst@milton-keynes.gov.uk,Milton Keynes,http://www.milton-keynes.gov.uk,-0.69881000000000,MK46 4HW,2010-07-02,fhrs_4_en-GB,4,,FHRS,5
241701,7-9 Silbury Arcade,Central Milton Keynes,Milton Keynes,,Bogota Coffee Company @ Jigsaw,Restaurant/Cafe/Canteen,1,,,735111,,,52.04340900000000,85454,870,ehfst@milton-keynes.gov.uk,Milton Keynes,http://www.milton-keynes.gov.uk,-0.75749100000000,MK9 3AG,,fhrs_awaitinginspection_en-GB,AwaitingInspection,,FHRS,
241702,,,,,Bombay Chaat,Other catering premises,7841,5,,143161,10,,,80349,870,ehfst@milton-keynes.gov.uk,Milton Keynes,http://www.milton-keynes.gov.uk,,,2011-11-10,fhrs_4_en-GB,4,,FHRS,5
241703,11 Wolverton Road,Stony Stratford,Milton Keynes,,Bombay Cuisine,Takeaway/sandwich shop,7844,10,,132430,5,,52.05611600000000,64398,870,ehfst@milton-keynes.gov.uk,Milton Keynes,http://www.milton-keynes.gov.uk,-0.85074600000000,MK11 1DZ,2014-11-12,fhrs_4_en-GB,4,,FHRS,5
241704,280 Witan Gate West,Central Milton Keynes,Milton Keynes,,Bon Viveur,Takeaway/sandwich shop,7844,0,,129524,5,,52.03892100000000,60361,870,ehfst@milton-keynes.gov.uk,Milton Keynes,http://www.milton-keynes.gov.uk,-0.76668400000000,MK9 1EJ,2013-05-20,fhrs_5_en-GB,5,,FHRS,0
241705,"460 Exchange House Cbx1, Midsummer Boulevard",Central Milton Keynes,Milton Keynes,,Bon Viveur,Restaurant/Cafe/Canteen,1,10,,101385,5,,52.03922100000000,33118,870,ehfst@milton-keynes.gov.uk,Milton Keynes,http://www.milton-keynes.gov.uk,-0.76100500000000,MK9 2EA,2014-07-04,fhrs_4_en-GB,4,,FHRS,5
241706,"Challenge House, Sherwood Drive",Bletchley,Milton Keynes,,Bon Viveur,Restaurant/Cafe/Canteen,1,10,,139729,10,,52.00173300000000,75516,870,ehfst@milton-keynes.gov.uk,Milton Keynes,http://www.milton-keynes.gov.uk,-0.74030500000000,MK3 6DP,2013-12-18,fhrs_3_en-GB,3,,FHRS,5
241707,"Countrywide House, 88-103 Caldecotte Lake Drive",Caldecotte,Milton Keynes,,Bon Viveur,Restaurant/Cafe/Canteen,1,,,141046,,,52.00276000000000,77302,870,ehfst@milton-keynes.gov.uk,Milton Keynes,http://www.milton-keynes.gov.uk,-0.70240000000000,MK7 8JT,,fhrs_awaitinginspection_en-GB,AwaitingInspection,,FHRS,
241708,"Linford Forum, Rockingham Drive",Linford Wood,Milton Keynes,,Bon Viveur,Takeaway/sandwich shop,7844,5,,139918,10,,52.05603000000000,75880,870,ehfst@milton-keynes.gov.uk,Milton Keynes,http://www.milton-keynes.gov.uk,-0.75807500000000,MK14 6LY,2014-03-25,fhrs_4_en-GB,4,,FHRS,5
241709,"Regus House, Fairbourne Drive",Atterbury,Milton Keynes,,Bon Viveur,Restaurant/Cafe/Canteen,1,5,,140794,5,,52.04213600000000,76817,870,ehfst@milton-keynes.gov.uk,Milton Keynes,http://www.milton-keynes.gov.uk,-0.75620500000000,MK9 9RG,2014-10-30,fhrs_5_en-GB,5,,FHRS,0
241710,"Shenley Pavilions, Chalkdell Drive",Shenley Wood,Milton Keynes,,Bon Viveur,Restaurant/Cafe/Canteen,1,5,,139664,5,,52.01570000000000,75447,870,ehfst@milton-keynes.gov.uk,Milton Keynes,http://www.milton-keynes.gov.uk,-0.79397500000000,MK5 6LB,2013-09-30,fhrs_5_en-GB,5,,FHRS,5
241711,"1 The Concourse, Brunel Centre, Locke Road",Bletchley,Milton Keynes,,Boots The Chemist,Retailers - other,4613,,,199197,,,51.99404100000000,30251,870,ehfst@milton-keynes.gov.uk,Milton Keynes,http://www.milton-keynes.gov.uk,-0.73318000000000,MK2 2ES,2014-07-03,fhrs_5_en-GB,5,,FHRS,
241712,18 Crown Walk,Central Milton Keynes,Milton Keynes,,Boots The Chemist,Retailers - other,4613,0,,199115,5,,52.04357300000000,2971,870,ehfst@milton-keynes.gov.uk,Milton Keynes,http://www.milton-keynes.gov.uk,-0.75595600000000,MK9 3AH,2008-06-19,fhrs_5_en-GB,5,,FHRS,5
241713,19 Barnsdale Drive,Westcroft,Milton Keynes,,Boots The Chemist,Retailers - other,4613,5,,198979,5,,52.00415000000000,48893,870,ehfst@milton-keynes.gov.uk,Milton Keynes,http://www.milton-keynes.gov.uk,-0.79434400000000,MK4 4DD,2009-05-21,fhrs_5_en-GB,5,,FHRS,5
241714,43 High Street,Stony Stratford,Milton Keynes,,Boots The Chemist,Retailers - other,4613,5,,199283,5,,52.05646500000000,46777,870,ehfst@milton-keynes.gov.uk,Milton Keynes,http://www.milton-keynes.gov.uk,-0.85242900000000,MK11 1AA,2009-05-14,fhrs_5_en-GB,5,,FHRS,5
241715,86 High Street,Newport Pagnell,Milton Keynes,,Boots The Chemist,Retailers - other,4613,5,,199148,5,,52.08695700000000,42033,870,ehfst@milton-keynes.gov.uk,Milton Keynes,http://www.milton-keynes.gov.uk,-0.72249500000000,MK16 8AQ,2009-11-27,fhrs_5_en-GB,5,,FHRS,5
241716,"Beacon Retail Park, Watling Street",Bletchley,Milton Keynes,,Boots The Chemist,Retailers - other,4613,0,,198947,5,,52.00285200000000,67150,870,ehfst@milton-keynes.gov.uk,Milton Keynes,http://www.milton-keynes.gov.uk,-0.72478800000000,MK1 1BN,2011-03-08,fhrs_5_en-GB,5,,FHRS,0
241717,"Cmk Medical Centre, 68 Bradwell Common Boulevard",Bradwell Common,Milton Keynes,,Boots the Chemist,Retailers - other,4613,,,198908,,,52.04201800000000,72767,870,ehfst@milton-keynes.gov.uk,Milton Keynes,http://www.milton-keynes.gov.uk,-0.77485200000000,MK13 8RN,2008-06-20,fhrs_exempt_en-GB,Exempt,,FHRS,
241718,1 Peverel Drive,Granby,Milton Keynes,,Bounce,Restaurant/Cafe/Canteen,1,,,663886,,,52.00786900000000,23943,870,ehfst@milton-keynes.gov.uk,Milton Keynes,http://www.milton-keynes.gov.uk,-0.73737900000000,MK1 1NL,,fhrs_awaitinginspection_en-GB,AwaitingInspection,,FHRS,
241719,"Community Centre, Rushmere Close",Bow Brickhill,Milton Keynes,,Bow Brickhill Pavilion,Hospitals/Childcare/Caring Premises,5,,,99097,,,52.00363700000000,31272,870,ehfst@milton-keynes.gov.uk,Milton Keynes,http://www.milton-keynes.gov.uk,-0.68336300000000,MK17 9JB,,fhrs_awaitinginspection_en-GB,AwaitingInspection,,FHRS,
241720,"Bow Brickhill Church Hall, Church Road",Bow Brickhill,Milton Keynes,,Bow Brickhill Pre-School,Hospitals/Childcare/Caring Premises,5,5,,141175,5,,52.00136300000000,77527,870,ehfst@milton-keynes.gov.uk,Milton Keynes,http://www.milton-keynes.gov.uk,-0.67788000000000,MK17 9LH,2010-08-10,fhrs_5_en-GB,5,,FHRS,5
241721,84 Station Road,Bow Brickhill,Milton Keynes,,Bow Brickhill School (Cygnet Catering),School/college/university,7845,0,,140116,0,,52.00241800000000,76103,870,ehfst@milton-keynes.gov.uk,Milton Keynes,http://www.milton-keynes.gov.uk,-0.68211700000000,MK17 9JT,2010-03-11,fhrs_5_en-GB,5,,FHRS,0
241722,10-14 Aylesbury Street,Bletchley,Milton Keynes,,BP Connect,Retailers - other,4613,0,,198989,0,,51.99703800000000,26769,870,ehfst@milton-keynes.gov.uk,Milton Keynes,http://www.milton-keynes.gov.uk,-0.71685500000000,MK2 2BA,2014-08-26,fhrs_5_en-GB,5,,FHRS,0
241723,Conniburrow Service Station,Milton Keynes,Milton Keynes,,BP Connect,Retailers - other,4613,0,,198693,0,,52.04796100000000,34234,870,ehfst@milton-keynes.gov.uk,Milton Keynes,http://www.milton-keynes.gov.uk,-0.75598000000000,MK14 7BF,2012-09-19,fhrs_5_en-GB,5,,FHRS,0
241724,"H8 Standing Way, BP Connect Emerson Valley",Milton Keynes,Milton Keynes,,BP Connect,Retailers - other,4613,0,,198903,0,,51.99991600000000,35837,870,ehfst@milton-keynes.gov.uk,Milton Keynes,http://www.milton-keynes.gov.uk,-0.77005800000000,MK4 2DZ,2011-03-31,fhrs_5_en-GB,5,,FHRS,5
241725,"Wavendon Gate Sf Connect, Wavendon Service Area, Newport Road",Wavendon,Milton Keynes,,BP Connect,Retailers - other,4613,0,,199149,0,,52.03376600000000,15613,870,ehfst@milton-keynes.gov.uk,Milton Keynes,http://www.milton-keynes.gov.uk,-0.67693800000000,MK17 8DB,2013-04-30,fhrs_5_en-GB,5,,FHRS,0
241726,82 Bradwell Road,Bradville,Milton Keynes,,Bradville Post Office and Stores,Retailers - other,4613,10,,198952,0,,52.06068400000000,68865,870,ehfst@milton-keynes.gov.uk,Milton Keynes,http://www.milton-keynes.gov.uk,-0.78622900000000,MK13 7AD,2013-01-31,fhrs_4_en-GB,4,,FHRS,5
241727,"Bradwell Abbey Petrol Filling, Monks Way A5 To Alston Drive",Milton Keynes,Milton Keynes,,Bradwell Abbey Service Station (BP),Retailers - other,4613,0,,198875,0,,52.04985100000000,8999,870,ehfst@milton-keynes.gov.uk,Milton Keynes,http://www.milton-keynes.gov.uk,-0.79953100000000,MK12 6HU,2015-01-23,fhrs_5_en-GB,5,,FHRS,0
241728,Abbey Road,Bradwell,Milton Keynes,,Bradwell Bowls Club,Pub/bar/nightclub,7843,5,,100397,5,,52.05064500000000,32234,870,ehfst@milton-keynes.gov.uk,Milton Keynes,http://www.milton-keynes.gov.uk,-0.79185300000000,MK13 9AR,2008-01-16,fhrs_5_en-GB,5,,FHRS,5
241729,125 Bradwell Common Boulevard,Bradwell Common,Milton Keynes,,Bradwell Common Playgroup,Hospitals/Childcare/Caring Premises,5,10,,132067,5,,52.04442500000000,63703,870,ehfst@milton-keynes.gov.uk,Milton Keynes,http://www.milton-keynes.gov.uk,-0.77204500000000,MK13 8DY,2011-02-16,fhrs_4_en-GB,4,,FHRS,5
241730,"Bradwell Sports And Social Club, Abbey Road",Bradwell,Milton Keynes,,Bradwell Sports & Social Club,Pub/bar/nightclub,7843,0,,100156,0,,52.05064500000000,32049,870,ehfst@milton-keynes.gov.uk,Milton Keynes,http://www.milton-keynes.gov.uk,-0.79185300000000,MK13 9AR,2011-08-30,fhrs_5_en-GB,5,,FHRS,0
241731,"Memorial Hall, Vicarage Road",Bradwell,Milton Keynes,,Bradwell Village Pre-School,Hospitals/Childcare/Caring Premises,5,0,,132855,0,,52.04824000000000,65045,870,ehfst@milton-keynes.gov.uk,Milton Keynes,http://www.milton-keynes.gov.uk,-0.78792300000000,MK13 9AG,2014-12-04,fhrs_5_en-GB,5,,FHRS,0
241732,Walgrave Drive,Bradwell,Milton Keynes,,Bradwell Village School (Cygnet Catering),School/college/university,7845,5,,135192,0,,52.04939500000000,68728,870,ehfst@milton-keynes.gov.uk,Milton Keynes,http://www.milton-keynes.gov.uk,-0.78310800000000,MK13 9AZ,2010-03-22,fhrs_5_en-GB,5,,FHRS,0
241733,301 Avebury Boulevard,Central Milton Keynes,Milton Keynes,,Brasserie Blanc,Restaurant/Cafe/Canteen,1,5,,137499,0,,52.03758100000000,72477,870,ehfst@milton-keynes.gov.uk,Milton Keynes,http://www.milton-keynes.gov.uk,-0.76237700000000,MK9 2GA,2014-02-04,fhrs_4_en-GB,4,,FHRS,10
241734,"Unit 4, Dodkin",Beanhill,Milton Keynes,,Breadline Co-Operative Ltd,Takeaway/sandwich shop,7844,5,,92681,10,,52.01736200000000,26223,870,ehfst@milton-keynes.gov.uk,Milton Keynes,http://www.milton-keynes.gov.uk,-0.73469300000000,MK6 4LP,2013-03-25,fhrs_4_en-GB,4,,FHRS,0
241735,"Langland Community School, Langland Road",Netherfield,Milton Keynes,,Breakfast Club,School/college/university,7845,10,,137149,10,,52.02122200000000,71866,870,ehfst@milton-keynes.gov.uk,Milton Keynes,http://www.milton-keynes.gov.uk,-0.72738500000000,MK6 4HA,2010-03-03,fhrs_4_en-GB,4,,FHRS,0
241736,13 Winchester Circle,Kingston,Milton Keynes,,Bridges Childrens Centre (Sure Start),Hospitals/Childcare/Caring Premises,5,,,142699,,,52.03551700000000,79659,870,ehfst@milton-keynes.gov.uk,Milton Keynes,http://www.milton-keynes.gov.uk,-0.68795200000000,MK10 0BA,,fhrs_awaitinginspection_en-GB,AwaitingInspection,,FHRS,
241737,,,,,Bristow-Bass,Retailers - other,4613,,,691941,,,,84777,870,ehfst@milton-keynes.gov.uk,Milton Keynes,http://www.milton-keynes.gov.uk,,,,fhrs_exempt_en-GB,Exempt,,FHRS,
241738,"Kitemark Court, Davy Avenue",Knowlhill,Milton Keynes,,British Standards Institute (Autograph the food people),Restaurant/Cafe/Canteen,1,0,,142698,0,,52.02479300000000,79658,870,ehfst@milton-keynes.gov.uk,Milton Keynes,http://www.milton-keynes.gov.uk,-0.77424400000000,MK5 8PP,2014-06-27,fhrs_5_en-GB,5,,FHRS,0
241739,"British Telecom Administration, Tavistock Street",Bletchley,Milton Keynes,,British Telecom (Eurest),Restaurant/Cafe/Canteen,1,,,97384,,,51.99982900000000,30192,870,ehfst@milton-keynes.gov.uk,Milton Keynes,http://www.milton-keynes.gov.uk,-0.72551500000000,MK2 2AP,2008-10-15,fhrs_exempt_en-GB,Exempt,,FHRS,
241740,"Brooklands Farm Primary School, 152 Fen Street",Brooklands,Milton Keynes,,Brooklands Farm School (Cygnet Catering),School/college/university,7845,0,,141552,5,,52.04988300000000,78037,870,ehfst@milton-keynes.gov.uk,Milton Keynes,http://www.milton-keynes.gov.uk,-0.68780900000000,MK10 7EU,2010-12-09,fhrs_5_en-GB,5,,FHRS,0
241741,"Brooksward School, Tower Drive",Neath Hill,Milton Keynes,,Brooksward School (Cygnet Catering),School/college/university,7845,0,,138454,0,,52.06144300000000,73758,870,ehfst@milton-keynes.gov.uk,Milton Keynes,http://www.milton-keynes.gov.uk,-0.74875000000000,MK14 6JZ,2010-03-06,fhrs_5_en-GB,5,,FHRS,0
241742,Yardley Road,Olney,Milton Keynes,,Broomfield Residential Care,Hospitals/Childcare/Caring Premises,5,5,,134824,5,,52.15912300000000,68313,870,ehfst@milton-keynes.gov.uk,Milton Keynes,http://www.milton-keynes.gov.uk,-0.70386600000000,MK46 5DX,2015-01-06,fhrs_5_en-GB,5,,FHRS,5
241743,4 Harrier Court,Eaglestone,Milton Keynes,,Brothers Fish Bar,Takeaway/sandwich shop,7844,0,,132797,5,,52.03211800000000,64993,870,ehfst@milton-keynes.gov.uk,Milton Keynes,http://www.milton-keynes.gov.uk,-0.74149200000000,MK6 5BZ,2011-09-07,fhrs_5_en-GB,5,,FHRS,0
241744,81 Tanfield Lane,Broughton,Milton Keynes,,Broughton Award Winning Fish & Chips,Takeaway/sandwich shop,7844,0,,137746,5,,52.04834000000000,72781,870,ehfst@milton-keynes.gov.uk,Milton Keynes,http://www.milton-keynes.gov.uk,-0.69866000000000,MK10 9NJ,2010-02-24,fhrs_5_en-GB,5,,FHRS,0
241745,"Broughton Fields School, Milton Road",Broughton,Milton Keynes,,Broughton Fields Primary School (Cygnet Catering),School/college/university,7845,5,,138539,0,,52.04752700000000,73830,870,ehfst@milton-keynes.gov.uk,Milton Keynes,http://www.milton-keynes.gov.uk,-0.69422100000000,MK10 9LS,2011-01-28,fhrs_5_en-GB,5,,FHRS,0
241746,"Broughton Hotel, Milton Road",Broughton,Milton Keynes,,Broughton Hotel,Hotel/bed & breakfast/guest house,7842,5,,100563,0,,52.05157000000000,32393,870,ehfst@milton-keynes.gov.uk,Milton Keynes,http://www.milton-keynes.gov.uk,-0.69559100000000,MK10 9AA,2014-01-30,fhrs_5_en-GB,5,,FHRS,5
241747,"Broughton Manor Preparatory School, Newport Road",Broughton,Milton Keynes,,Broughton Manor Preparatory School,School/college/university,7845,0,,125374,0,,52.05157000000000,53871,870,ehfst@milton-keynes.gov.uk,Milton Keynes,http://www.milton-keynes.gov.uk,-0.69559100000000,MK10 9AA,2014-11-17,fhrs_5_en-GB,5,,FHRS,0
241748,312 Midsummer Boulevard,Central Milton Keynes,Milton Keynes,,Browns Bar & Brasserie,Restaurant/Cafe/Canteen,1,5,,136273,5,,52.03922100000000,70509,870,ehfst@milton-keynes.gov.uk,Milton Keynes,http://www.milton-keynes.gov.uk,-0.76100500000000,MK9 2EA,2013-09-10,fhrs_5_en-GB,5,,FHRS,5
241749,8-9 Cochran Close,Crownhill,Milton Keynes,,Brunches Delivery Centre,Takeaway/sandwich shop,7844,0,,124140,0,,52.02742500000000,52622,870,ehfst@milton-keynes.gov.uk,Milton Keynes,http://www.milton-keynes.gov.uk,-0.80014600000000,MK8 0AJ,2011-08-22,fhrs_5_en-GB,5,,FHRS,0
241750,"Grand Union House, Old Wolverton Road",Old Wolverton,Milton Keynes,,BSH Home Appliances (Demonstration Kitchens),Other catering premises,7841,0,,142004,0,,52.06605900000000,78509,870,ehfst@milton-keynes.gov.uk,Milton Keynes,http://www.milton-keynes.gov.uk,-0.81168600000000,MK12 5PT,2011-01-05,fhrs_5_en-GB,5,,FHRS,0
241751,151 Grafton Gate H5 To H6,Central Milton Keynes,Milton Keynes,,B-Town Restaurant,Restaurant/Cafe/Canteen,1,5,,129805,0,,52.03858800000000,60775,870,ehfst@milton-keynes.gov.uk,Milton Keynes,http://www.milton-keynes.gov.uk,-0.77181100000000,MK9 1AE,2014-09-12,fhrs_5_en-GB,5,,FHRS,0
241752,Midsummer Arcade,Central Milton Keynes,Milton Keynes,,Bubble Heaven,Restaurant/Cafe/Canteen,1,,,663915,,,52.04260600000000,84341,870,ehfst@milton-keynes.gov.uk,Milton Keynes,http://www.milton-keynes.gov.uk,-0.75802400000000,MK9 3ES,,fhrs_awaitinginspection_en-GB,AwaitingInspection,,FHRS,
241753,"Buckingham Foods Ltd, Wimblington Drive",Redmoor,Milton Keynes,,Buckingham Foods (Mitie Catering),Restaurant/Cafe/Canteen,1,0,,130573,0,,52.01390400000000,61850,870,ehfst@milton-keynes.gov.uk,Milton Keynes,http://www.milton-keynes.gov.uk,-0.74676800000000,MK6 4AH,2011-03-08,fhrs_5_en-GB,5,,FHRS,5
241754,110-112 Buckingham Road,Bletchley,Milton Keynes,,Buckingham Road Convenience Store,Retailers - other,4613,10,,375556,5,,51.99243300000000,81105,870,ehfst@milton-keynes.gov.uk,Milton Keynes,http://www.milton-keynes.gov.uk,-0.74597000000000,MK3 5HL,2012-11-20,fhrs_4_en-GB,4,,FHRS,5
241755,"Buckland Lodge, Buckland Drive",Netherfield,Milton Keynes,,Buckland Lodge (Age UK),Restaurant/Cafe/Canteen,1,0,,111347,0,,52.02212500000000,40806,870,ehfst@milton-keynes.gov.uk,Milton Keynes,http://www.milton-keynes.gov.uk,-0.73205000000000,,2014-10-03,fhrs_5_en-GB,5,,FHRS,5
241756,"Fire Station, Haddon",Great Holm,Milton Keynes,,Bucks Fire & Rescue (Canteen),Restaurant/Cafe/Canteen,1,10,,107270,0,,52.03163400000000,37792,870,ehfst@milton-keynes.gov.uk,Milton Keynes,http://www.milton-keynes.gov.uk,-0.79322600000000,MK8 9HP,2014-11-13,fhrs_4_en-GB,4,,FHRS,0
241757,"Home Farm, Hanslope Road",Castlethorpe,Milton Keynes,,Bucks Meat Co,Manufacturers/packers,7839,5,,199293,10,,52.09571900000000,72385,870,ehfst@milton-keynes.gov.uk,Milton Keynes,http://www.milton-keynes.gov.uk,-0.83860500000000,MK19 7HD,2009-03-17,fhrs_4_en-GB,4,,FHRS,5
241758,,,,,Buffetstore Crepes,Mobile caterer,7846,5,,553440,0,,,83122,870,ehfst@milton-keynes.gov.uk,Milton Keynes,http://www.milton-keynes.gov.uk,,,2013-07-11,fhrs_5_en-GB,5,,FHRS,0
241759,30 Aylesbury Street,Bletchley,Milton Keynes,,Bull & Butcher,Pub/bar/nightclub,7843,0,,130515,0,,51.99703800000000,61771,870,ehfst@milton-keynes.gov.uk,Milton Keynes,http://www.milton-keynes.gov.uk,-0.71685500000000,MK2 2BA,2014-03-10,fhrs_5_en-GB,5,,FHRS,0
241760,,,,,Bunnycakes,Other catering premises,7841,,,535448,,,,82475,870,ehfst@milton-keynes.gov.uk,Milton Keynes,http://www.milton-keynes.gov.uk,,,,fhrs_awaitinginspection_en-GB,AwaitingInspection,,FHRS,
241761,36 Church Street,Wolverton,Milton Keynes,,Burger Bar,Restaurant/Cafe/Canteen,1,5,,121040,5,,52.06252700000000,49831,870,ehfst@milton-keynes.gov.uk,Milton Keynes,http://www.milton-keynes.gov.uk,-0.80908100000000,MK12 5JN,2013-04-04,fhrs_5_en-GB,5,,FHRS,0
241762,71 Midsummer Place,Central Milton Keynes,Milton Keynes,,Burger King,Restaurant/Cafe/Canteen,1,0,,129972,0,,52.04102200000000,60997,870,ehfst@milton-keynes.gov.uk,Milton Keynes,http://www.milton-keynes.gov.uk,-0.75698900000000,MK9 3GB,2011-11-21,fhrs_5_en-GB,5,,FHRS,5
241763,99 Silbury Arcade,Central Milton Keynes,Milton Keynes,,Burger King,Restaurant/Cafe/Canteen,1,0,,69562,0,,52.04341000000000,15662,870,ehfst@milton-keynes.gov.uk,Milton Keynes,http://www.milton-keynes.gov.uk,-0.75749200000000,MK9 3AG,2013-11-12,fhrs_5_en-GB,5,,FHRS,5
241764,"Burger King, Albert Street",Bletchley,Milton Keynes,,Burger King,Restaurant/Cafe/Canteen,1,0,,85423,0,,51.99673400000000,21505,870,ehfst@milton-keynes.gov.uk,Milton Keynes,http://www.milton-keynes.gov.uk,-0.73358500000000,MK2 2EN,2012-05-01,fhrs_5_en-GB,5,,FHRS,5
241765,"Burger King, Portway A5 to V6",Milton Keynes,Milton Keynes,,Burger King,Restaurant/Cafe/Canteen,1,0,,101616,5,,52.03896800000000,33305,870,ehfst@milton-keynes.gov.uk,Milton Keynes,http://www.milton-keynes.gov.uk,-0.77642200000000,MK9 1DY,2010-12-03,fhrs_5_en-GB,5,,FHRS,0
241766,"M1 Motorway Service Area North, Little Linford Lane",Newport Pagnell,Milton Keynes,,Burger King,Restaurant/Cafe/Canteen,1,0,,127985,5,,52.08316000000000,57680,870,ehfst@milton-keynes.gov.uk,Milton Keynes,http://www.milton-keynes.gov.uk,-0.74901800000000,MK16 8DS,2014-05-21,fhrs_5_en-GB,5,,FHRS,5
241767,9 Station Road,Woburn Sands,Milton Keynes,,Burlington Hall Care Home,Hospitals/Childcare/Caring Premises,5,0,,123749,5,,52.01338200000000,52161,870,ehfst@milton-keynes.gov.uk,Milton Keynes,http://www.milton-keynes.gov.uk,-0.64752300000000,MK17 8RR,2014-07-07,fhrs_5_en-GB,5,,FHRS,0
241768,"Bushfield School, Moon Street",Wolverton,Milton Keynes,,Bushfield School (Radcliffe),School/college/university,7845,5,,131753,0,,52.05958200000000,63283,870,ehfst@milton-keynes.gov.uk,Milton Keynes,http://www.milton-keynes.gov.uk,-0.80681100000000,MK12 5JG,2011-09-22,fhrs_5_en-GB,5,,FHRS,0
241769,"1 Triangle Building, Wolverton Park Road",Wolverton,Milton Keynes,,Buskers Coffee Shop,Restaurant/Cafe/Canteen,1,10,,432909,5,,52.06463400000000,81385,870,ehfst@milton-keynes.gov.uk,Milton Keynes,http://www.milton-keynes.gov.uk,-0.80587400000000,MK12 5FJ,2014-04-28,fhrs_4_en-GB,4,,FHRS,5
241770,11 Duckworth Court,Oldbrook,Milton Keynes,,Busy Bees,Hospitals/Childcare/Caring Premises,5,0,,129284,0,,52.02942000000000,59875,870,ehfst@milton-keynes.gov.uk,Milton Keynes,http://www.milton-keynes.gov.uk,-0.76094000000000,MK6 2RX,2014-10-17,fhrs_5_en-GB,5,,FHRS,0
241771,"Buzzy Bees Tender Loving Care, Chadwick Drive",Eaglestone - West,Milton Keynes,,Busy Bees,Hospitals/Childcare/Caring Premises,5,0,,131732,0,,52.02790900000000,63269,870,ehfst@milton-keynes.gov.uk,Milton Keynes,http://www.milton-keynes.gov.uk,-0.74060500000000,MK6 5LS,2014-03-03,fhrs_5_en-GB,5,,FHRS,0
241772,"Coffee Hall Community Centre, 60 Garraways",Coffee Hall,Milton Keynes,,Busy Bees Lunch Club (Age UK),Other catering premises,7841,0,,65156,5,,52.02329500000000,14599,870,ehfst@milton-keynes.gov.uk,Milton Keynes,http://www.milton-keynes.gov.uk,-0.74547100000000,MK6 5EG,2012-06-12,fhrs_5_en-GB,5,,FHRS,0
241773,,,,,Busy Bites,Mobile caterer,7846,,,735119,,,,85478,870,ehfst@milton-keynes.gov.uk,Milton Keynes,http://www.milton-keynes.gov.uk,,,,fhrs_awaitinginspection_en-GB,AwaitingInspection,,FHRS,
241774,,,,,Butterfly Pie,Other catering premises,7841,,,535445,,,,82467,870,ehfst@milton-keynes.gov.uk,Milton Keynes,http://www.milton-keynes.gov.uk,,,,fhrs_awaitinginspection_en-GB,AwaitingInspection,,FHRS,
241775,55-57 Silbury Arcade,Central Milton Keynes,Milton Keynes,,Byron,Restaurant/Cafe/Canteen,1,5,,577230,5,,52.04341000000000,83472,870,ehfst@milton-keynes.gov.uk,Milton Keynes,http://www.milton-keynes.gov.uk,-0.75749200000000,MK9 3AG,2014-04-23,fhrs_5_en-GB,5,,FHRS,5
241776,"Trading Location, Chippenham Drive, Kingston, Milton Keynes",,,,C F Snacks,Mobile caterer,7846,0,,199328,5,,52.03738400000000,69928,870,ehfst@milton-keynes.gov.uk,Milton Keynes,http://www.milton-keynes.gov.uk,-0.68458800000000,,2014-11-19,fhrs_5_en-GB,5,,FHRS,5
241777,52 Church Street,Wolverton,Milton Keynes,,Cafe Balti,Restaurant/Cafe/Canteen,1,10,,134785,5,,52.06220300000000,68275,870,ehfst@milton-keynes.gov.uk,Milton Keynes,http://www.milton-keynes.gov.uk,-0.81174500000000,MK12 5JW,2015-01-07,fhrs_4_en-GB,4,,FHRS,5
241778,36a Market Place,Olney,Milton Keynes,,Cafe Brio Limited,Restaurant/Cafe/Canteen,1,0,,127063,5,,52.15251500000000,56129,870,ehfst@milton-keynes.gov.uk,Milton Keynes,http://www.milton-keynes.gov.uk,-0.70150000000000,MK46 4AJ,2014-10-20,fhrs_4_en-GB,4,,FHRS,10
241779,"Milton Keynes Coachway, 1-7 Coachway Road",Broughton,Milton Keynes,,Cafe Express,Restaurant/Cafe/Canteen,1,5,,142284,0,,52.05577100000000,78903,870,ehfst@milton-keynes.gov.uk,Milton Keynes,http://www.milton-keynes.gov.uk,-0.69982900000000,MK16 0AA,2014-02-03,fhrs_5_en-GB,5,,FHRS,5
241780,27 Denmark Street,Bletchley,Milton Keynes,,"Cafe Express - 22"" Events Catering Trailer",Mobile caterer,7846,5,,198756,0,,51.99686100000000,76894,870,ehfst@milton-keynes.gov.uk,Milton Keynes,http://www.milton-keynes.gov.uk,-0.71873900000000,MK2 2NH,2013-05-29,fhrs_5_en-GB,5,,FHRS,5
241781,"Trading Location, Snowdon Drive, Winterhill, Milton Keynes",,,,Cafe Express MK,Mobile caterer,7846,10,,199161,0,,52.02914300000000,69592,870,ehfst@milton-keynes.gov.uk,Milton Keynes,http://www.milton-keynes.gov.uk,-0.76511200000000,,2014-10-08,fhrs_4_en-GB,4,,FHRS,10
241782,54 High Street,Newport Pagnell,Milton Keynes,,Cafe Latte,Restaurant/Cafe/Canteen,1,,,139379,,,52.08695700000000,75008,870,ehfst@milton-keynes.gov.uk,Milton Keynes,http://www.milton-keynes.gov.uk,-0.72249500000000,MK16 8AQ,2014-04-22,fhrs_5_en-GB,5,,FHRS,
241783,34 Stratford Road,Wolverton,Milton Keynes,,Cafe Lounge,Restaurant/Cafe/Canteen,1,0,,615498,0,,52.06275500000000,83891,870,ehfst@milton-keynes.gov.uk,Milton Keynes,http://www.milton-keynes.gov.uk,-0.81215300000000,MK12 5LW,2014-07-22,fhrs_5_en-GB,5,,FHRS,5
241784,113 Queensway,Bletchley,Milton Keynes,,Cafe Mediterraneo,Restaurant/Cafe/Canteen,1,10,,132595,5,,51.99512700000000,64622,870,ehfst@milton-keynes.gov.uk,Milton Keynes,http://www.milton-keynes.gov.uk,-0.72883800000000,MK2 2DH,2014-04-14,fhrs_3_en-GB,3,,FHRS,10
241785,"Bouverie House, 192-200 Silbury Boulevard",Central Milton Keynes,Milton Keynes,,Cafe Nino - UC MK,Restaurant/Cafe/Canteen,1,0,,139046,0,,52.04213600000000,74417,870,ehfst@milton-keynes.gov.uk,Milton Keynes,http://www.milton-keynes.gov.uk,-0.75620400000000,MK9 1LL,2014-02-21,fhrs_5_en-GB,5,,FHRS,0
241786,5 Fountain Court,Olney,Milton Keynes,,Cafe Rosco,Restaurant/Cafe/Canteen,1,5,,138289,0,,52.15412000000000,73575,870,ehfst@milton-keynes.gov.uk,Milton Keynes,http://www.milton-keynes.gov.uk,-0.70107400000000,MK46 4DG,2014-10-15,fhrs_4_en-GB,4,,FHRS,10
241787,"1 Queens Court, Midsummer Arcade",Central Milton Keynes,Milton Keynes,,Cafe Rouge,Restaurant/Cafe/Canteen,1,5,,139985,5,,52.04293100000000,75963,870,ehfst@milton-keynes.gov.uk,Milton Keynes,http://www.milton-keynes.gov.uk,-0.75734400000000,MK9 3FH,2013-10-10,fhrs_5_en-GB,5,,FHRS,5
241788,"Dakota House, 30a Mortimer Square",Central Milton Keynes,Milton Keynes,,Cafe Rouge,Restaurant/Cafe/Canteen,1,0,,136560,0,,52.03804500000000,70886,870,ehfst@milton-keynes.gov.uk,Milton Keynes,http://www.milton-keynes.gov.uk,-0.76288900000000,MK9 2FB,2012-04-23,fhrs_5_en-GB,5,,FHRS,5
241789,3 Oliver Road,Bletchley,Milton Keynes,,Cafe Three,Takeaway/sandwich shop,7844,10,,128164,0,,51.99395400000000,57994,870,ehfst@milton-keynes.gov.uk,Milton Keynes,http://www.milton-keynes.gov.uk,-0.73262900000000,MK2 2SF,2013-09-11,fhrs_4_en-GB,4,,FHRS,0
241790,40 Midsummer Place,Central Milton Keynes,Milton Keynes,,Caffe Italia,Restaurant/Cafe/Canteen,1,5,,136276,5,,52.04116000000000,70510,870,ehfst@milton-keynes.gov.uk,Milton Keynes,http://www.milton-keynes.gov.uk,-0.75650400000000,MK9 3GA,2014-09-22,fhrs_5_en-GB,5,,FHRS,0
241791,11-13 Eagle Walk,Central Milton Keynes,Milton Keynes,,Caffe Nero,Restaurant/Cafe/Canteen,1,5,,584299,5,,52.04433100000000,83659,870,ehfst@milton-keynes.gov.uk,Milton Keynes,http://www.milton-keynes.gov.uk,-0.75368900000000,MK9 3AJ,2013-11-19,fhrs_5_en-GB,5,,FHRS,5
241792,53 Winchester Circle,Kingston,Milton Keynes,,Caffe Nero,Restaurant/Cafe/Canteen,1,0,,629916,0,,52.03565000000000,84034,870,ehfst@milton-keynes.gov.uk,Milton Keynes,http://www.milton-keynes.gov.uk,-0.68775900000000,MK10 0BA,2014-03-11,fhrs_5_en-GB,5,,FHRS,0
241793,,,,,Cake Carpenter,Other catering premises,7841,,,615495,,,,83874,870,ehfst@milton-keynes.gov.uk,Milton Keynes,http://www.milton-keynes.gov.uk,,,,fhrs_awaitinginspection_en-GB,AwaitingInspection,,FHRS,
241794,31 Winchester Circle,Kingston,Milton Keynes,,Cake Frills,Retailers - other,4613,5,,198773,5,,52.03551700000000,39683,870,ehfst@milton-keynes.gov.uk,Milton Keynes,http://www.milton-keynes.gov.uk,-0.68795200000000,MK10 0BA,2009-08-28,fhrs_5_en-GB,5,,FHRS,0
241795,,,,,Caked To Perfection,Other catering premises,7841,5,,139614,5,,,75363,870,ehfst@milton-keynes.gov.uk,Milton Keynes,http://www.milton-keynes.gov.uk,,,2009-05-15,fhrs_5_en-GB,5,,FHRS,5
241796,,,,,Cakes By Emma B,Other catering premises,7841,,,663892,,,,84224,870,ehfst@milton-keynes.gov.uk,Milton Keynes,http://www.milton-keynes.gov.uk,,,,fhrs_awaitinginspection_en-GB,AwaitingInspection,,FHRS,
241797,,,,,Cakes Lou Bakes,Other catering premises,7841,,,615500,,,,83901,870,ehfst@milton-keynes.gov.uk,Milton Keynes,http://www.milton-keynes.gov.uk,,,,fhrs_awaitinginspection_en-GB,AwaitingInspection,,FHRS,
241798,,,,,Cakes the Biscuits,Other catering premises,7841,,,142733,,,,79711,870,ehfst@milton-keynes.gov.uk,Milton Keynes,http://www.milton-keynes.gov.uk,,,,fhrs_awaitinginspection_en-GB,AwaitingInspection,,FHRS,
241799,,,,,Cakes with a Conscience,Other catering premises,7841,,,485476,,,,81940,870,ehfst@milton-keynes.gov.uk,Milton Keynes,http://www.milton-keynes.gov.uk,,,,fhrs_awaitinginspection_en-GB,AwaitingInspection,,FHRS,
241800,7 St Pauls Court,Stony Stratford,Milton Keynes,,Calcutta Brasserie,Restaurant/Cafe/Canteen,1,10,,117940,5,,52.05907900000000,47244,870,ehfst@milton-keynes.gov.uk,Milton Keynes,http://www.milton-keynes.gov.uk,-0.85583400000000,MK11 1LJ,2014-10-16,fhrs_3_en-GB,3,,FHRS,10
241801,"Caldecotte Arms, Lakeside Grove",Walton Park,Milton Keynes,,Caldecotte Arms,Restaurant/Cafe/Canteen,1,,,132826,,,52.01140600000000,65006,870,ehfst@milton-keynes.gov.uk,Milton Keynes,http://www.milton-keynes.gov.uk,-0.70780300000000,MK7 8HP,2014-06-12,fhrs_5_en-GB,5,,FHRS,
241802,5 Odells Yard,Stony Stratford,Milton Keynes,,Cameron's Brasserie,Restaurant/Cafe/Canteen,1,5,,142647,5,,52.05723700000000,79559,870,ehfst@milton-keynes.gov.uk,Milton Keynes,http://www.milton-keynes.gov.uk,-0.85322600000000,MK11 1FA,2013-10-18,fhrs_4_en-GB,4,,FHRS,10
241803,"Camphill Community Centre, Japonica Lane",Willen Park,Milton Keynes,,Camphill Cafe,Restaurant/Cafe/Canteen,1,0,,125034,0,,52.05721600000000,53530,870,ehfst@milton-keynes.gov.uk,Milton Keynes,http://www.milton-keynes.gov.uk,-0.73097100000000,MK15 9JY,2011-09-08,fhrs_5_en-GB,5,,FHRS,0
241804,Japonica Lane,Willen Park,Milton Keynes,,Camphill Communities Bakery,Retailers - other,4613,5,,199105,0,,52.05721600000000,64518,870,ehfst@milton-keynes.gov.uk,Milton Keynes,http://www.milton-keynes.gov.uk,-0.73097100000000,MK15 9JY,2011-09-30,fhrs_5_en-GB,5,,FHRS,5
241805,"Camphill Milton Keynes Communi, Japonica Lane",Willen Park,Milton Keynes,,Camphill Food Processing,Restaurant/Cafe/Canteen,1,0,,375519,0,,52.05721600000000,53529,870,ehfst@milton-keynes.gov.uk,Milton Keynes,http://www.milton-keynes.gov.uk,-0.73097100000000,MK15 9JY,2012-07-10,fhrs_5_en-GB,5,,FHRS,0
241806,"Camphill Milton Keynes Community Trust, Japonica Lane",Willen Park,Milton Keynes,,Camphill Shop,Retailers - other,4613,5,,432890,0,,52.05721600000000,81282,870,ehfst@milton-keynes.gov.uk,Milton Keynes,http://www.milton-keynes.gov.uk,-0.73097100000000,MK15 9JY,2012-07-09,fhrs_5_en-GB,5,,FHRS,0
241807,81-82 Stratford Road,Wolverton,Milton Keynes,,Candy Box,Retailers - other,4613,5,,198914,5,,52.06245000000000,760,870,ehfst@milton-keynes.gov.uk,Milton Keynes,http://www.milton-keynes.gov.uk,-0.81570600000000,MK12 5LT,2011-12-01,fhrs_5_en-GB,5,,FHRS,5
241808,50 High Street,Newport Pagnell,Milton Keynes,,Cannon Public House,Pub/bar/nightclub,7843,5,,112847,5,,52.08695700000000,41996,870,ehfst@milton-keynes.gov.uk,Milton Keynes,http://www.milton-keynes.gov.uk,-0.72249500000000,MK16 8AQ,2010-12-13,fhrs_5_en-GB,5,,FHRS,5
241809,"20 The Concourse, Brunel Centr, Locke Road",Bletchley,Milton Keynes,,Card Factory,Retailers - other,4613,,,283169,,,51.99384600000000,74404,870,ehfst@milton-keynes.gov.uk,Milton Keynes,http://www.milton-keynes.gov.uk,-0.73349200000000,MK2 2HE,,fhrs_exempt_en-GB,Exempt,,FHRS,
241810,5-6 Barnsdale Drive,Westcroft,Milton Keynes,,Card Factory,Retailers - other,4613,,,723798,,,52.00415000000000,85342,870,ehfst@milton-keynes.gov.uk,Milton Keynes,http://www.milton-keynes.gov.uk,-0.79434400000000,MK4 4DD,,fhrs_exempt_en-GB,Exempt,,FHRS,
241811,93-95 Silbury Arcade,Central Milton Keynes,Milton Keynes,,Card Factory,Retailers - other,4613,,,283164,,,52.04341000000000,17066,870,ehfst@milton-keynes.gov.uk,Milton Keynes,http://www.milton-keynes.gov.uk,-0.75749200000000,MK9 3AG,,fhrs_exempt_en-GB,Exempt,,FHRS,
241812,"2 Queens Court, Midsummer Arcade",Central Milton Keynes,Milton Keynes,,Carluccio's Caffe,Restaurant/Cafe/Canteen,1,5,,140525,5,,52.04293100000000,76640,870,ehfst@milton-keynes.gov.uk,Milton Keynes,http://www.milton-keynes.gov.uk,-0.75734400000000,MK9 3FH,2013-10-07,fhrs_5_en-GB,5,,FHRS,0
241813,,,,,Carole Hammelev,Other catering premises,7841,,,142692,,,,79649,870,ehfst@milton-keynes.gov.uk,Milton Keynes,http://www.milton-keynes.gov.uk,,,,fhrs_awaitinginspection_en-GB,AwaitingInspection,,FHRS,
241814,Faraday Drive,Shenley Lodge,Milton Keynes,,Caroline Haslett Combined School,School/college/university,7845,0,,116094,0,,52.01466200000000,45273,870,ehfst@milton-keynes.gov.uk,Milton Keynes,http://www.milton-keynes.gov.uk,-0.77782900000000,MK5 7DF,2014-04-23,fhrs_5_en-GB,5,,FHRS,0
241815,,,,,Carolyn,Mobile caterer,7846,10,,565301,10,,,83282,870,ehfst@milton-keynes.gov.uk,Milton Keynes,http://www.milton-keynes.gov.uk,,,2013-09-13,fhrs_4_en-GB,4,,FHRS,0
241816,,,,,Caron's Cakery,Other catering premises,7841,,,590146,,,,83733,870,ehfst@milton-keynes.gov.uk,Milton Keynes,http://www.milton-keynes.gov.uk,,,,fhrs_awaitinginspection_en-GB,AwaitingInspection,,FHRS,
241817,51 Carters Close,Sherington,Milton Keynes,,Carters Guesthouse,Hotel/bed & breakfast/guest house,7842,,,735101,,,52.10911400000000,82448,870,ehfst@milton-keynes.gov.uk,Milton Keynes,http://www.milton-keynes.gov.uk,-0.70225000000000,MK16 9NW,,fhrs_awaitinginspection_en-GB,AwaitingInspection,,FHRS,
241818,133 Queensway,Bletchley,Milton Keynes,,Cashino Gaming,Restaurant/Cafe/Canteen,1,,,150097,,,51.99512700000000,9723,870,ehfst@milton-keynes.gov.uk,Milton Keynes,http://www.milton-keynes.gov.uk,-0.72883800000000,MK2 2DH,2011-03-22,fhrs_exempt_en-GB,Exempt,,FHRS,
241819,Wolverton Road,Newport Pagnell,Milton Keynes,,Castlemead Court (Excelcare Holdings Ltd),Hospitals/Childcare/Caring Premises,5,5,,137508,0,,52.08563700000000,72489,870,ehfst@milton-keynes.gov.uk,Milton Keynes,http://www.milton-keynes.gov.uk,-0.72929000000000,MK16 8HW,2015-01-12,fhrs_5_en-GB,5,,FHRS,5
241820,"Castlethorpe First School, North Street",Castlethorpe,Milton Keynes,,Castlethorpe First School (Radcliffe Catering),School/college/university,7845,0,,135574,0,,52.09301900000000,69365,870,ehfst@milton-keynes.gov.uk,Milton Keynes,http://www.milton-keynes.gov.uk,-0.83378500000000,MK19 7EW,2014-10-06,fhrs_5_en-GB,5,,FHRS,0
241821,"Village Hall, North Street",Castlethorpe,Milton Keynes,,Castlethorpe Pre School,Hospitals/Childcare/Caring Premises,5,0,,553414,0,,52.09301900000000,70293,870,ehfst@milton-keynes.gov.uk,Milton Keynes,http://www.milton-keynes.gov.uk,-0.83378500000000,MK19 7EW,2013-07-17,fhrs_5_en-GB,5,,FHRS,0
241822,6a The Chestnuts,Castlethorpe,Milton Keynes,,Castlethorpe Village Shop,Retailers - other,4613,0,,198800,0,,52.09281500000000,72449,870,ehfst@milton-keynes.gov.uk,Milton Keynes,http://www.milton-keynes.gov.uk,-0.83763000000000,MK19 7EU,2011-03-01,fhrs_5_en-GB,5,,FHRS,0
241823,"Trading Location, Milton Keynes Market, Milton Keynes",,,,Catalanotto - Jacket Potatoes,Mobile caterer,7846,,,199189,,,,56357,870,ehfst@milton-keynes.gov.uk,Milton Keynes,http://www.milton-keynes.gov.uk,,,2015-01-16,fhrs_5_en-GB,5,,FHRS,
241824,,,,,Catering U Like,Other catering premises,7841,10,,375563,0,,,81136,870,ehfst@milton-keynes.gov.uk,Milton Keynes,http://www.milton-keynes.gov.uk,,,2014-02-25,fhrs_4_en-GB,4,,FHRS,0
241825,"Unit 2, Maidstone Road",Kingston,Milton Keynes,,Catermasters,Restaurant/Cafe/Canteen,1,5,,198890,0,,52.04049300000000,80688,870,ehfst@milton-keynes.gov.uk,Milton Keynes,http://www.milton-keynes.gov.uk,-0.68592600000000,MK10 0BE,2014-01-30,fhrs_5_en-GB,5,,FHRS,5
241826,"Olney House, 15a-15b High Street",Olney,Milton Keynes,,Catherine Rose's Office Ltd,Retailers - other,4613,,,198755,,,52.15466000000000,76850,870,ehfst@milton-keynes.gov.uk,Milton Keynes,http://www.milton-keynes.gov.uk,-0.70196400000000,MK46 4EB,2010-04-27,fhrs_exempt_en-GB,Exempt,,FHRS,
241827,,,,,Catherine's Cake Pops,Other catering premises,7841,,,516861,,,,23634,870,ehfst@milton-keynes.gov.uk,Milton Keynes,http://www.milton-keynes.gov.uk,,,,fhrs_awaitinginspection_en-GB,AwaitingInspection,,FHRS,
241828,,,,,Catherine's Creperie,Other catering premises,7841,,,142527,,,,79346,870,ehfst@milton-keynes.gov.uk,Milton Keynes,http://www.milton-keynes.gov.uk,,,,fhrs_awaitinginspection_en-GB,AwaitingInspection,,FHRS,
241829,"Caton House, 37 Epsom Grove",Bletchley,Milton Keynes,,Caton House (Sanctuary Care Ltd),Hospitals/Childcare/Caring Premises,5,5,,131275,0,,51.98839200000000,62689,870,ehfst@milton-keynes.gov.uk,Milton Keynes,http://www.milton-keynes.gov.uk,-0.76773800000000,MK3 5NR,2014-12-03,fhrs_5_en-GB,5,,FHRS,5
241830,,,,,CAYK,Other catering premises,7841,,,565306,,,,83297,870,ehfst@milton-keynes.gov.uk,Milton Keynes,http://www.milton-keynes.gov.uk,,,,fhrs_awaitinginspection_en-GB,AwaitingInspection,,FHRS,
241831,"Trading Location, Clarke Road, Mount Farm, Milton Keynes",,,,Caz Bar,Mobile caterer,7846,10,,199343,0,,,56721,870,ehfst@milton-keynes.gov.uk,Milton Keynes,http://www.milton-keynes.gov.uk,,,2014-01-09,fhrs_4_en-GB,4,,FHRS,0
241832,,,,,CB Vending,Retailers - other,4613,,,199342,,,,72766,870,ehfst@milton-keynes.gov.uk,Milton Keynes,http://www.milton-keynes.gov.uk,,,2008-11-10,fhrs_exempt_en-GB,Exempt,,FHRS,
241833,Bury Street,Newport Pagnell,Milton Keynes,,Cedars Primary School (Cygnet Catering),School/college/university,7845,0,,138485,0,,52.08522000000000,73789,870,ehfst@milton-keynes.gov.uk,Milton Keynes,http://www.milton-keynes.gov.uk,-0.72486500000000,MK16 0DT,2012-02-02,fhrs_5_en-GB,5,,FHRS,0
241834,73 Alston Drive,Bradwell Abbey,Milton Keynes,,Central Cash & Carry,Distributors/Transporters,7,5,,199095,5,,52.04575100000000,62077,870,ehfst@milton-keynes.gov.uk,Milton Keynes,http://www.milton-keynes.gov.uk,-0.79418700000000,MK13 9HG,2014-07-30,fhrs_4_en-GB,4,,FHRS,10
241835,"454 Exchange House Cbx1, Midsummer Boulevard",Central Milton Keynes,Milton Keynes,,Central Wine Exchange,Retailers - other,4613,,,198790,,,52.03922100000000,33114,870,ehfst@milton-keynes.gov.uk,Milton Keynes,http://www.milton-keynes.gov.uk,-0.76100500000000,MK9 2EA,2010-02-10,fhrs_exempt_en-GB,Exempt,,FHRS,
241836,1 Eelbrook Avenue,Bradwell Common,Milton Keynes,,Centre MK Day Nursery (Asquith Nursery Ltd),Hospitals/Childcare/Caring Premises,5,0,,134244,5,,52.04260600000000,67524,870,ehfst@milton-keynes.gov.uk,Milton Keynes,http://www.milton-keynes.gov.uk,-0.77092800000000,MK13 8RD,2013-11-04,fhrs_5_en-GB,5,,FHRS,5
241837,"Trading Location, Queensway Market, Bletchley, Milton Keynes",,,,Chai Hut,Retailers - other,4613,5,,198723,15,,,78458,870,ehfst@milton-keynes.gov.uk,Milton Keynes,http://www.milton-keynes.gov.uk,,,2011-01-06,fhrs_2_en-GB,2,,FHRS,0
241838,3 Swinden Court,Heelands,Milton Keynes,,Chapharm Chemist Ltd,Retailers - other,4613,,,199239,,,52.05107900000000,39074,870,ehfst@milton-keynes.gov.uk,Milton Keynes,http://www.milton-keynes.gov.uk,-0.77986900000000,MK13 7PN,2008-07-24,fhrs_exempt_en-GB,Exempt,,FHRS,
241839,129 High Street,Newport Pagnell,Milton Keynes,,Charcoal Grill,Takeaway/sandwich shop,7844,10,,112795,10,,52.08527300000000,41953,870,ehfst@milton-keynes.gov.uk,Milton Keynes,http://www.milton-keynes.gov.uk,-0.72641000000000,MK16 8HD,2014-10-06,fhrs_3_en-GB,3,,FHRS,10
241840,Old Groveway,Simpson,Milton Keynes,,Charles Warren Academy (Cygnet Catering),School/college/university,7845,0,,138527,0,,50.41884994506836,73825,870,ehfst@milton-keynes.gov.uk,Milton Keynes,http://www.milton-keynes.gov.uk,-4.47666978836060,MK6 3AZ,2013-11-13,fhrs_5_en-GB,5,,FHRS,0
241841,321 Avebury Boulevard,Central Milton Keynes,Milton Keynes,,Chartered Institute of Accountants (ISS Eaton),Restaurant/Cafe/Canteen,1,0,,138582,0,,52.03758100000000,73882,870,ehfst@milton-keynes.gov.uk,Milton Keynes,http://www.milton-keynes.gov.uk,-0.76237700000000,MK9 2GA,2008-11-05,fhrs_5_en-GB,5,,FHRS,0
241842,107 Chepstow Drive,Bletchley,Milton Keynes,,Chepstow Community Centre,Other catering premises,7841,5,,94166,5,,51.98808100000000,27357,870,ehfst@milton-keynes.gov.uk,Milton Keynes,http://www.milton-keynes.gov.uk,-0.76889700000000,MK3 5NG,2011-04-11,fhrs_5_en-GB,5,,FHRS,5
241843,48 Watling Street,Bletchley,Milton Keynes,,Chequers,Pub/bar/nightclub,7843,10,,126710,5,,51.99933000000000,55815,870,ehfst@milton-keynes.gov.uk,Milton Keynes,http://www.milton-keynes.gov.uk,-0.71764800000000,MK2 2BY,2008-10-23,fhrs_4_en-GB,4,,FHRS,5
241844,"Chestnuts Primary School, Buckingham Road",Bletchley,Milton Keynes,,Chestnuts Primary School,School/college/university,7845,10,,93835,0,,51.98897500000000,27042,870,ehfst@milton-keynes.gov.uk,Milton Keynes,http://www.milton-keynes.gov.uk,-0.76502800000000,MK3 5EN,2014-03-13,fhrs_4_en-GB,4,,FHRS,10
241845,"Chicheley Park Connect, Tickford Street",Newport Pagnell,Milton Keynes,,Chicheley Park Service Station,Retailers - other,4613,0,,199223,0,,52.08338900000000,57739,870,ehfst@milton-keynes.gov.uk,Milton Keynes,http://www.milton-keynes.gov.uk,-0.71274500000000,MK16 9BA,2013-04-30,fhrs_5_en-GB,5,,FHRS,0
241846,112 Serpentine Court,Bletchley,Milton Keynes,,Chicken & Pizza Palace,Takeaway/sandwich shop,7844,5,,135867,5,,51.98069300000000,69778,870,ehfst@milton-keynes.gov.uk,Milton Keynes,http://www.milton-keynes.gov.uk,-0.72610200000000,MK2 3QL,2015-01-12,fhrs_5_en-GB,5,,FHRS,5
241847,2a Albert Street,Bletchley,Milton Keynes,,Chicken Village,Restaurant/Cafe/Canteen,1,5,,142392,10,,51.99550700000000,79089,870,ehfst@milton-keynes.gov.uk,Milton Keynes,http://www.milton-keynes.gov.uk,-0.73242500000000,MK2 2UG,2013-09-11,fhrs_4_en-GB,4,,FHRS,5
241848,44 High Street,New Bradwell,Milton Keynes,,Chicken Village,Takeaway/sandwich shop,7844,5,,713325,5,,52.06490900000000,21136,870,ehfst@milton-keynes.gov.uk,Milton Keynes,http://www.milton-keynes.gov.uk,-0.79135200000000,MK13 0BT,2015-01-05,fhrs_4_en-GB,4,,FHRS,10
241849,1 St Leger Court,Great Linford,Milton Keynes,,Chicko,Restaurant/Cafe/Canteen,1,5,,663917,10,,52.06657900000000,84345,870,ehfst@milton-keynes.gov.uk,Milton Keynes,http://www.milton-keynes.gov.uk,-0.75997100000000,MK14 5HA,2014-11-05,fhrs_3_en-GB,3,,FHRS,10
241850,32 Redgrave Drive,Oxley Park,Milton Keynes,,Chiki Ceramiki,Other catering premises,7841,10,,141035,10,,52.00750800000000,77293,870,ehfst@milton-keynes.gov.uk,Milton Keynes,http://www.milton-keynes.gov.uk,-0.80442300000000,MK4 4TB,2010-12-01,fhrs_3_en-GB,3,,FHRS,5
241851,Childs Way V7 To V8,Milton Keynes,Milton Keynes,,Childs Way Service Station,Retailers - other,4613,0,,199235,0,,52.04053700000000,15257,870,ehfst@milton-keynes.gov.uk,Milton Keynes,http://www.milton-keynes.gov.uk,-0.74773000000000,MK9 3DA,2012-02-21,fhrs_5_en-GB,5,,FHRS,5
241852,9 Stadium Way West,Denbigh North,Milton Keynes,,Chimichanga,Restaurant/Cafe/Canteen,1,,,516871,,,52.01070900000000,82288,870,ehfst@milton-keynes.gov.uk,Milton Keynes,http://www.milton-keynes.gov.uk,-0.73641100000000,MK1 1ST,,fhrs_awaitinginspection_en-GB,AwaitingInspection,,FHRS,
241853,"Unit 4, Xscape Building, 602 Marlborough Gate",Central Milton Keynes,Milton Keynes,,Chimichanga,Restaurant/Cafe/Canteen,1,5,,141007,0,,52.04143700000000,77226,870,ehfst@milton-keynes.gov.uk,Milton Keynes,http://www.milton-keynes.gov.uk,-0.74871000000000,MK9 3XA,2014-09-04,fhrs_4_en-GB,4,,FHRS,10
241854,22 Fyfield Barrow,Walnut Tree,Milton Keynes,,Chinese Chef,Takeaway/sandwich shop,7844,10,,118947,5,,52.02274000000000,48203,870,ehfst@milton-keynes.gov.uk,Milton Keynes,http://www.milton-keynes.gov.uk,-0.68953600000000,MK7 7AN,2014-01-02,fhrs_4_en-GB,4,,FHRS,0
241855,Padstow Avenue,Fishermead,Milton Keynes,,Chinese Overseas Christian Mission,School/college/university,7845,5,,139359,0,,52.03769400000000,74998,870,ehfst@milton-keynes.gov.uk,Milton Keynes,http://www.milton-keynes.gov.uk,-0.75098700000000,MK6 2ES,2011-04-07,fhrs_5_en-GB,5,,FHRS,0
241856,,,,,Chin's Kitchen,Other catering premises,7841,0,,629917,0,,,84037,870,ehfst@milton-keynes.gov.uk,Milton Keynes,http://www.milton-keynes.gov.uk,,,2014-03-26,fhrs_5_en-GB,5,,FHRS,5
241857,"Community Centre And Sports Pavilion, St Bartholomews",Monkston,Milton Keynes,,Chipmonks Pre School,Hospitals/Childcare/Caring Premises,5,,,432882,,,52.03504100000000,80750,870,ehfst@milton-keynes.gov.uk,Milton Keynes,http://www.milton-keynes.gov.uk,-0.70019700000000,MK10 9FJ,2012-10-09,fhrs_exempt_en-GB,Exempt,,FHRS,
241858,199 Midsummer Boulevard,Central Milton Keynes,Milton Keynes,,Chiquito Restaurant & Bar,Restaurant/Cafe/Canteen,1,0,,87809,5,,52.03801900000000,22833,870,ehfst@milton-keynes.gov.uk,Milton Keynes,http://www.milton-keynes.gov.uk,-0.76735100000000,MK9 1EA,2012-02-24,fhrs_5_en-GB,5,,FHRS,0
241859,49 Winchester Circle,Kingston,Milton Keynes,,Chiquito Restaurant & Bar,Restaurant/Cafe/Canteen,1,0,,508889,0,,52.03565000000000,82182,870,ehfst@milton-keynes.gov.uk,Milton Keynes,http://www.milton-keynes.gov.uk,-0.68775900000000,MK10 0BA,2014-03-04,fhrs_5_en-GB,5,,FHRS,5
241860,,,,,Chloe's Cakes,Other catering premises,7841,,,508877,,,,82124,870,ehfst@milton-keynes.gov.uk,Milton Keynes,http://www.milton-keynes.gov.uk,,,,fhrs_awaitinginspection_en-GB,AwaitingInspection,,FHRS,
241861,,,,,Choc and Lolly,Other catering premises,7841,,,713343,,,,85261,870,ehfst@milton-keynes.gov.uk,Milton Keynes,http://www.milton-keynes.gov.uk,,,,fhrs_awaitinginspection_en-GB,AwaitingInspection,,FHRS,
241862,,,,,Chocolatier Fountains,Retailers - other,4613,,,198876,,,,77477,870,ehfst@milton-keynes.gov.uk,Milton Keynes,http://www.milton-keynes.gov.uk,,,2010-10-15,fhrs_exempt_en-GB,Exempt,,FHRS,
241863,"The Centre MK, Silbury Boulevard",Central Milton Keynes,Milton Keynes,,Choice Ice Cream And Frozen Yoghurt Shop,Retailers - other,4613,10,,680449,5,,52.04260600000000,84453,870,ehfst@milton-keynes.gov.uk,Milton Keynes,http://www.milton-keynes.gov.uk,-0.75802400000000,MK9 3ES,2014-07-31,fhrs_4_en-GB,4,,FHRS,5
241864,75 Midsummer Place,Central Milton Keynes,Milton Keynes,,Chopstix Noodle Bar,Restaurant/Cafe/Canteen,1,5,,132898,5,,52.04102200000000,65101,870,ehfst@milton-keynes.gov.uk,Milton Keynes,http://www.milton-keynes.gov.uk,-0.75698900000000,MK9 3GB,2014-01-15,fhrs_5_en-GB,5,,FHRS,5
241865,,,,,Chrissie's Cakes,Other catering premises,7841,10,,123922,10,,,52352,870,ehfst@milton-keynes.gov.uk,Milton Keynes,http://www.milton-keynes.gov.uk,,,2009-08-18,fhrs_4_en-GB,4,,FHRS,0
241866,,,,,Chrissy's Cakery,Other catering premises,7841,,,565291,,,,83223,870,ehfst@milton-keynes.gov.uk,Milton Keynes,http://www.milton-keynes.gov.uk,,,,fhrs_awaitinginspection_en-GB,AwaitingInspection,,FHRS,
241867,,,,,Chrissy's Cupcakes,Other catering premises,7841,,,375545,,,,81054,870,ehfst@milton-keynes.gov.uk,Milton Keynes,http://www.milton-keynes.gov.uk,,,,fhrs_awaitinginspection_en-GB,AwaitingInspection,,FHRS,
241868,"Christ The Sower Ecumenical Primary School, Singleton Drive",Grange Farm,Milton Keynes,,Christ the Sower School (Cygnet Catering),School/college/university,7845,0,,135193,5,,52.02118300000000,68729,870,ehfst@milton-keynes.gov.uk,Milton Keynes,http://www.milton-keynes.gov.uk,-0.80792100000000,MK8 0PZ,2010-03-03,fhrs_5_en-GB,5,,FHRS,0
241869,74c High Street,Newport Pagnell,Milton Keynes,,Christos,Retailers - other,4613,,,198689,,,52.08695700000000,42020,870,ehfst@milton-keynes.gov.uk,Milton Keynes,http://www.milton-keynes.gov.uk,-0.72249500000000,MK16 8AQ,2010-12-13,fhrs_exempt_en-GB,Exempt,,FHRS,
241870,,,,,Chubby's Event Catering,Mobile caterer,7846,5,,590143,5,,,83726,870,ehfst@milton-keynes.gov.uk,Milton Keynes,http://www.milton-keynes.gov.uk,,,2014-05-23,fhrs_4_en-GB,4,,FHRS,10
241871,"Trading Location, Third Avenue, Bletchley, Milton Keynes",,,,Chunky Bite,Mobile caterer,7846,5,,198777,0,,52.00434500000000,27844,870,ehfst@milton-keynes.gov.uk,Milton Keynes,http://www.milton-keynes.gov.uk,-0.73467000000000,,2013-09-30,fhrs_5_en-GB,5,,FHRS,5
241872,50 Rowsham Dell,Giffard Park,Milton Keynes,,Church House Hotel Ltd,Hotel/bed & breakfast/guest house,7842,10,,132820,5,,52.07747900000000,65001,870,ehfst@milton-keynes.gov.uk,Milton Keynes,http://www.milton-keynes.gov.uk,-0.75005200000000,MK14 5JS,2011-02-14,fhrs_4_en-GB,4,,FHRS,5
241873,37a Aylesbury Street,Bletchley,Milton Keynes,,Chutneys,Takeaway/sandwich shop,7844,0,,131638,5,,51.99694600000000,63165,870,ehfst@milton-keynes.gov.uk,Milton Keynes,http://www.milton-keynes.gov.uk,-0.71748400000000,MK2 2BQ,2010-09-14,fhrs_5_en-GB,5,,FHRS,0
241874,"Xscape Building, 602 Marlborough Gate",Central Milton Keynes,Milton Keynes,,Cineworld,Retailers - other,4613,0,,198700,5,,52.04143700000000,58377,870,ehfst@milton-keynes.gov.uk,Milton Keynes,http://www.milton-keynes.gov.uk,-0.74871000000000,MK9 3XA,2008-10-23,fhrs_5_en-GB,5,,FHRS,0
241875,,,,,Cinnfull,Other catering premises,7841,10,,535443,10,,,82457,870,ehfst@milton-keynes.gov.uk,Milton Keynes,http://www.milton-keynes.gov.uk,,,2014-05-19,fhrs_4_en-GB,4,,FHRS,0
241876,,,,,Cinnfull,Other catering premises,7841,,,485453,,,,81868,870,ehfst@milton-keynes.gov.uk,Milton Keynes,http://www.milton-keynes.gov.uk,,,,fhrs_awaitinginspection_en-GB,AwaitingInspection,,FHRS,
241877,Alston Drive,Bradwell Abbey,Milton Keynes,,City Discovery Centre,Restaurant/Cafe/Canteen,1,10,,77618,0,,52.04754000000000,18263,870,ehfst@milton-keynes.gov.uk,Milton Keynes,http://www.milton-keynes.gov.uk,-0.79510200000000,MK13 9AP,2008-12-22,fhrs_4_en-GB,4,,FHRS,0
241878,"Trading Location, City Camping,Willen,Milton Keynes",,,,City Grill Limited,Mobile caterer,7846,5,,680465,5,,,84638,870,ehfst@milton-keynes.gov.uk,Milton Keynes,http://www.milton-keynes.gov.uk,,,2014-07-10,fhrs_5_en-GB,5,,FHRS,5
241879,"Trading Location, Pitch A Xscape, Marlborough Gate, Milton Keynes",,,,City Kebabs,Mobile caterer,7846,10,,198804,10,,,79155,870,ehfst@milton-keynes.gov.uk,Milton Keynes,http://www.milton-keynes.gov.uk,,,2014-03-07,fhrs_3_en-GB,3,,FHRS,5
241880,637 Silbury Boulevard,Central Milton Keynes,Milton Keynes,,City Store,Retailers - other,4613,5,,198845,15,,52.04408500000000,74247,870,ehfst@milton-keynes.gov.uk,Milton Keynes,http://www.milton-keynes.gov.uk,-0.75842100000000,MK9 3AR,2013-02-12,fhrs_2_en-GB,2,,FHRS,0
241881,144 Queensway,Bletchley,Milton Keynes,,CJ's Plus,Takeaway/sandwich shop,7844,5,,137305,5,,51.99446600000000,72137,870,ehfst@milton-keynes.gov.uk,Milton Keynes,http://www.milton-keynes.gov.uk,-0.72920700000000,MK2 2RS,2013-05-03,fhrs_5_en-GB,5,,FHRS,5
241882,22-24 High Street,Newport Pagnell,Milton Keynes,,Clayton's Pound 'N' Bargain,Retailers - other,4613,,,199258,,,52.08745800000000,77244,870,ehfst@milton-keynes.gov.uk,Milton Keynes,http://www.milton-keynes.gov.uk,-0.72064100000000,MK16 8YX,2010-08-11,fhrs_exempt_en-GB,Exempt,,FHRS,
241883,Timpsons Row,Olney,Milton Keynes,,Clifton Court - MONDAY CLUB,Hospitals/Childcare/Caring Premises,5,5,,131403,0,,52.15271600000000,62894,870,ehfst@milton-keynes.gov.uk,Milton Keynes,http://www.milton-keynes.gov.uk,-0.69766500000000,MK46 4AW,2014-10-20,fhrs_5_en-GB,5,,FHRS,0
241884,"Clifton Court, Timpsons Row",Olney,Milton Keynes,,Clifton Court Tuesday Club (Age UK),Restaurant/Cafe/Canteen,1,0,,114687,5,,52.15366600000000,43818,870,ehfst@milton-keynes.gov.uk,Milton Keynes,http://www.milton-keynes.gov.uk,-0.69822200000000,MK46 4JJ,2014-06-10,fhrs_5_en-GB,5,,FHRS,0
241885,91-93 Queensway,Bletchley,Milton Keynes,,Clinton Cards,Retailers - other,4613,,,199021,,,51.99501700000000,29406,870,ehfst@milton-keynes.gov.uk,Milton Keynes,http://www.milton-keynes.gov.uk,-0.73031200000000,MK2 2DW,2008-10-30,fhrs_exempt_en-GB,Exempt,,FHRS,
241886,26-28 Midsummer Arcade,Central Milton Keynes,Milton Keynes,,Clinton Cards Plc,Retailers - other,4613,,,198946,,,52.04262400000000,3170,870,ehfst@milton-keynes.gov.uk,Milton Keynes,http://www.milton-keynes.gov.uk,-0.75631800000000,MK9 3BB,2010-03-25,fhrs_exempt_en-GB,Exempt,,FHRS,
241887,117 High Street,Newport Pagnell,Milton Keynes,,Coachmakers Arms,Pub/bar/nightclub,7843,10,,129471,10,,52.08585700000000,60270,870,ehfst@milton-keynes.gov.uk,Milton Keynes,http://www.milton-keynes.gov.uk,-0.72550300000000,MK16 8EN,2013-09-23,fhrs_3_en-GB,3,,FHRS,10
