,businessname,ratingvalue,structural,hygiene,confidenceinmanagement,ratingdate,latitude,longitude
241519,123 Kolonie,AwaitingInspection,nan,nan,nan,,52.058643,-0.751788
241520,1st Stop,AwaitingInspection,nan,nan,nan,,51.995127,-0.728838
241521,20th Street Pizza,5,nan,nan,nan,2014-06-16,52.046039,-0.796892
241522,360 Play,5,0,5,0,2013-06-24,52.021711,-0.771821
241523,4 Seasons Cuisine,1,5,10,20,2014-05-01,,
241524,99p Stores,4,10,0,5,2014-06-12,52.037896,-0.777939
241525,A & J Pinoy Foods,4,0,10,10,2009-12-07,,
241526,A & S Catering,3,10,10,5,2014-01-06,52.022919,-0.77282
241527,A Baffour Trading,4,5,5,10,2010-08-05,,
241528,A Moveable Feast,3,10,5,10,2013-12-17,52.003586,-0.732066
241529,A&B Potatoes,4,5,10,5,2014-03-07,,
241530,Abbey Bed & Breakfast,4,5,5,10,2009-11-30,51.997379,-0.720064
241531,Abbey Hill Golf Centre,3,10,5,10,2013-10-17,52.043631,-0.811231
241532,Abbey Hill Golf Club,4,5,0,10,2013-11-26,52.043631,-0.811231
241533,Abbeys Primary School (Tiny Tots Cuisine Ltd),5,5,0,0,2013-10-14,52.006901,-0.74609
241534,Acorn at Cedars,5,0,0,0,2013-10-30,52.08522,-0.724865
241535,Acorn at New Bradwell,4,5,10,0,2014-06-09,52.06397,-0.793653
241536,Acorn at the Willows,5,5,0,5,2014-07-10,52.039137,-0.741237
241537,Acorn Childcare,5,5,5,0,2014-10-16,52.032653,-0.695645
241538,Acorn Day Nursery,5,5,0,5,2013-11-14,52.091981,-0.835141
241539,Acorn Day Nursery,5,5,0,5,2015-01-09,52.022367,-0.788243
241540,Acorns at Westcroft,5,5,0,5,2014-07-11,52.004437,-0.795108
241541,Adams Fish Merchant,5,0,5,0,2010-03-25,,
241542,Adom Enterprise,3,5,10,10,2014-05-27,,
241543,Adoption Plus,5,0,0,0,2013-06-06,52.067947,-0.65673
241544,Adrian Michael James,5,0,0,0,2013-01-09,52.075996,-0.80563
241545,Afrotaste Events,5,0,0,5,2014-09-17,,
241546,Age UK Heron Lodge,5,5,5,0,2014-04-30,52.060577,-0.76853
241547,Age UK Milton Keynes,5,5,0,5,2014-10-29,52.033554,-0.732079
241548,Aheed Food Centre,3,10,10,10,2012-02-07,52.042264,-0.752041
241549,Aigle Royale,4,5,5,10,2013-05-23,,
241550,Akannis,1,5,10,20,2013-08-29,,
241551,Akasaka,4,5,5,10,2014-03-19,52.062755,-0.812153
241552,Al Ansar,3,10,5,10,2014-07-15,51.995289,-0.727989
241553,Al- Fairoz Kebabish,2,5,15,10,2014-09-17,52.022561,-0.734007
241554,Al Kebab Hut,2,15,10,5,2014-12-01,52.063043,-0.809505
241555,Alban Hill Nursery,5,0,5,5,2012-06-07,52.112021,-0.705729
241556,Aldi Stores Ltd,5,0,0,5,2009-03-12,52.043011,-0.776079
241557,Ali Halal Meat Shop,5,5,5,5,2010-11-05,51.996666,-0.720638
241558,Ali's Mart,4,5,5,10,2012-12-11,52.059804,-0.811925
241559,All Bar One,5,5,0,0,2012-01-25,52.039221,-0.761005
241560,All you need is cake,AwaitingInspection,nan,nan,nan,,,
241561,Alpla UK Ltd (Shared Catering),4,5,10,0,2011-03-14,52.034981,-0.685008
241562,Amaya Indian Restaurant,5,5,0,5,2014-02-13,52.159123,-0.703866
241563,Amazing Grains,AwaitingInspection,nan,nan,nan,,,
241564,AMT Coffee Ltd,5,0,0,0,2012-04-16,52.034572,-0.773889
241565,Amway (UK) Ltd,5,0,0,5,2011-02-11,52.003339,-0.702689
241566,Amy Smith,AwaitingInspection,nan,nan,nan,,,
241567,Amy's Cupcakery,AwaitingInspection,nan,nan,nan,,,
241568,Anatolian Kebabs,4,5,5,10,2014-11-11,,
241569,Anderson Cakes,5,5,5,5,2009-07-20,,
241570,Angela Janes Farmhouse Kitchen,5,0,0,0,2013-08-13,,
241571,Angella Roach,4,10,5,5,2013-08-28,,
241572,Anjon Chillies,5,0,0,0,2010-10-03,,
241573,Annie's Cakery,AwaitingInspection,nan,nan,nan,,,
241574,Annies Cakes,4,0,10,10,2010-12-04,,
241575,ANS Catering,5,5,5,5,2013-10-18,,
241576,Anya & You,AwaitingInspection,nan,nan,nan,,,
241577,Apetito,5,0,0,5,2013-04-30,52.080237,-0.704022
241578,Aqua,5,5,5,5,2015-01-26,52.037581,-0.762377
241579,Aramark UK Ltd,4,10,0,5,2013-02-05,51.997321,-0.743095
241580,Argos (Aramark),5,5,0,0,2011-02-10,52.039475,-0.755268
241581,Argos Extra,Exempt,nan,nan,nan,2011-01-13,52.002852,-0.724788
241582,Argos Super Store,Exempt,nan,nan,nan,2010-02-10,52.033388,-0.76895
241583,Arisia Lounge,3,10,10,10,2013-11-26,52.086155,-0.72154
241584,Aristo-Tots Day Nursery,5,5,0,5,2013-10-23,52.061125,-0.764658
241585,Aromas,4,5,10,5,2014-03-05,51.996946,-0.717484
241586,Artworks (MK) Ltd.,4,5,5,10,2011-02-02,52.07116,-0.76212
241587,Asda (Eurest),4,10,5,5,2015-01-15,52.005316,-0.728987
241588,Asda Stores Ltd,4,0,10,5,2014-03-17,52.0071,-0.731078
241589,Asda Supermarket,5,0,5,5,2013-07-17,52.063182,-0.807182
241590,Ashbrook First School (Cygnet Catering),5,0,0,5,2011-07-21,52.038162,-0.804714
241591,Ashbrook School (Compass Contract Services (UK) Ltd,AwaitingInspection,nan,nan,nan,,52.038162,-0.804714
241592,Ashbrook School After School/ Breakfast Club,5,5,5,5,2011-02-03,52.038162,-0.804714
241593,Ashby House,5,5,0,0,2014-01-03,52.027909,-0.740605
241594,Ash's Cakes,5,0,5,5,2013-04-16,,
241595,Ask Italian,4,5,0,10,2013-04-22,52.041437,-0.74871
241596,Aspers MK,5,5,0,5,2013-09-13,52.041437,-0.74871
241597,Aston Quality Meats Ltd,4,5,0,10,2012-05-22,51.983374,-0.678846
241598,Atelier the Brigadeiro,5,0,5,5,2012-06-14,,
241599,Aubergine Fine Foods,5,5,0,5,2013-11-18,52.012354,-0.647306
241600,Auction Keynes,5,0,0,0,2013-08-15,52.089757,-0.802489
241601,Avondale Cakes,4,0,10,10,2010-08-19,,
241602,B & K News,3,5,10,10,2011-11-15,52.049494,-0.758125
241603,B & M Stores,AwaitingInspection,nan,nan,nan,,52.002852,-0.724788
241604,B & M Stores,Exempt,nan,nan,nan,2013-05-13,52.00415,-0.794344
241605,B & M Stores,4,0,5,10,2012-12-14,52.028998,-0.763619
241606,B and Q (Autograph),5,5,0,0,2014-09-16,52.041284,-0.777832
241607,Babcock Technical Acadamy (Elior UK),AwaitingInspection,nan,nan,nan,,,
241608,Baby Bears Day Care,4,10,0,5,2014-11-20,52.021886,-0.807246
241609,Bacchus Wine,Exempt,nan,nan,nan,2010-07-01,52.152515,-0.7015
241610,Bacchus Wine Bars Ltd,AwaitingInspection,nan,nan,nan,,52.01544,-0.649792
241611,Baked by Bim,AwaitingInspection,nan,nan,nan,,,
241612,Bakelite Food Shop,5,5,5,5,2009-07-15,51.995585,-0.731316
241613,Bakery One,AwaitingInspection,nan,nan,nan,,,
241614,Banana Tree,AwaitingInspection,nan,nan,nan,,52.039278,-0.764779
241615,Bancroft Pre-School,AwaitingInspection,nan,nan,nan,,52.054267,-0.789976
241616,Bannatyne's Health Club,5,0,0,0,2012-04-17,52.039475,-0.755268
241617,Banyan Tree,4,0,0,10,2012-12-07,52.054148,-0.725328
241618,Barabelle Delights,AwaitingInspection,nan,nan,nan,,,
241619,Bargain Booze,Exempt,nan,nan,nan,2009-04-23,52.083932,-0.728798
241620,Bargain Booze,Exempt,nan,nan,nan,2012-04-23,52.02598,-0.788962
241621,Barleycare Ltd,5,5,5,5,2008-10-28,52.021134,-0.775087
241622,Barleyhurst Park Primary School (Cygnet Catering),5,0,0,0,2012-02-06,52.002952,-0.756033
241623,Bartlett Mitchell Limited,5,5,0,5,2013-01-04,52.066059,-0.811686
241624,Bassingthorpe Beef,5,0,0,0,2010-10-03,,
241625,Baxter Storey Ltd (Mercedes Benz Financial Services UK Ltd.),5,0,0,5,2010-06-08,52.064337,-0.732651
241626,Bay House Residential Home,5,0,5,5,2013-10-29,52.152095,-0.704129
241627,Bazaar Foods,4,5,5,10,2009-08-04,52.044111,-0.800064
241628,Be At One Limited,AwaitingInspection,nan,nan,nan,,52.038045,-0.762889
241629,Beanhill Nursery,4,5,5,10,2011-03-28,52.017362,-0.734693
241630,Beanhill Stores Ltd,4,0,0,10,2009-07-23,52.017362,-0.734693
241631,Beans Coffee Stop Ltd,4,5,5,10,2014-04-28,52.153005,-0.701033
241632,Beckah's Cupcakes,AwaitingInspection,nan,nan,nan,,,
241633,Becket House Nursing Home,4,5,5,10,2014-02-06,52.031831,-0.778293
241634,Bec's Buns,4,0,5,10,2010-10-14,,
241635,Bed & Breakfast,4,5,5,10,2009-10-15,52.067081,-0.78575
241636,Beijing Peters Chinese Food,5,5,5,5,2013-08-14,52.023295,-0.745471
241637,Bekash Restaurant,5,0,0,5,2012-08-28,52.057191,-0.853067
241638,Belissimo,4,0,5,10,2011-03-28,52.041437,-0.74871
241639,Belistore,AwaitingInspection,nan,nan,nan,,,
241640,Bella Italia,4,5,10,5,2013-08-22,52.043827,-0.749315
241641,Bella Italia,5,5,5,0,2015-01-08,52.010709,-0.736411
241642,Bellfounder House (Age UK),5,5,5,5,2015-01-22,,
241643,Ben Howkins & Son,AwaitingInspection,nan,nan,nan,,52.14441,-0.759579
241644,Bengal Tiger Indian Takeaway,3,10,5,10,2014-03-26,52.154215,-0.701539
241645,Ben's Chinese Takeaway,3,10,10,5,2013-08-22,52.04963,-0.827595
241646,Berrichon Grass Ranges,5,0,0,0,2010-10-03,,
241647,Bespoke Doorstep Sandwiches,5,0,5,5,2013-10-04,51.986639,-0.732131
241648,Best Fruit,5,0,5,5,2010-06-29,,
241649,Best Kebab,5,0,0,5,2011-04-20,52.0353,-0.748511
241650,Best Kebab,5,5,0,5,2013-05-17,52.018357,-0.7415
241651,Best Kebab 2,5,0,0,5,2011-09-22,52.040247,-0.735659
241652,Best Kebabs,4,5,10,5,2014-11-03,,
241653,Best Kebabs,4,0,10,5,2013-04-08,52.023029,-0.747176
241654,Best Kebabs 2,5,0,0,5,2009-09-17,52.040247,-0.735659
241655,Best of British,5,5,0,5,2014-01-22,,
241656,Best One,3,10,5,10,2012-01-17,51.980693,-0.726102
241657,Best One,3,10,5,10,2012-02-07,52.005983,-0.748519
241658,Best One Food & Wine,4,0,5,10,2013-06-17,51.989951,-0.757748
241659,Best Original Kebab,5,5,5,5,2013-05-15,,
241660,Best Stony Kebab House,5,0,5,5,2014-10-06,52.056116,-0.850746
241661,Bev's Food Haven,AwaitingInspection,nan,nan,nan,,,
241662,BHS - Restaurant and Coffee Lounge,5,5,5,5,2013-10-16,52.043218,-0.756389
241663,BHS Limited,5,5,5,5,2014-11-13,52.010709,-0.736411
241664,Bianco's Bistro,5,0,5,0,2011-11-08,52.008598,-0.690385
241665,Big 'D's Fruit and Veg,Exempt,nan,nan,nan,,51.994466,-0.729207
241666,Big Rock Climbing,3,5,10,10,2010-11-29,52.03865,-0.686723
241667,Big Star Bakery,AwaitingInspection,nan,nan,nan,,,
241668,Bikash Foods,AwaitingInspection,nan,nan,nan,,,
241669,Bills B & B,5,5,5,5,2010-02-19,52.05807,-0.85478
241670,"Bips, Dips and Doughnuts",AwaitingInspection,nan,nan,nan,,,
241671,Bishop Parker RC School (Cygnet Catering),5,0,5,0,2012-02-20,51.986148,-0.728277
241672,Bismi Cash & Carry,2,15,15,10,2014-04-24,52.022561,-0.734007
241673,Bistro Live,5,0,0,0,2013-11-28,52.039221,-0.761005
241674,Bitez Kebabs,4,5,10,5,2013-10-24,52.025081,-0.696281
241675,Bitz 'n' Pizza,3,10,10,5,2013-11-20,52.02274,-0.689536
241676,Bleakies,3,10,10,10,2014-06-10,,
241677,Blessed Cafe,3,10,10,10,2013-11-19,52.044873,-0.758165
241678,Bletchley & Fenny Stratford WMSC,4,5,5,10,2008-04-23,51.99391,-0.734437
241679,Bletchley Agora Fish Bazar,3,10,10,10,2014-06-10,51.994612,-0.729494
241680,Bletchley Campus (MK College) Catering,5,0,0,0,2012-11-29,51.994581,-0.740812
241681,Bletchley Conservative Club,5,5,5,5,2013-11-21,51.995106,-0.729421
241682,Bletchley Food & Wine,4,0,10,10,2009-01-23,51.989524,-0.72288
241683,Bletchley House (Gold Care Homes),5,0,0,5,2014-12-03,52.000531,-0.748161
241684,Bletchley Leisure Centre,3,5,10,10,2014-11-20,51.99644,-0.727184
241685,Bletchley Masonic Hall (B M Celebrations),5,0,0,0,2012-10-12,51.984933,-0.723331
241686,Bletchley Mini Market,4,10,0,5,2010-08-12,51.99845,-0.71527
241687,Bletchley Park Mansion,5,5,5,5,2010-10-13,51.997321,-0.743095
241688,Bletchley Pre-School,5,5,5,5,2010-07-21,51.995711,-0.754923
241689,Bletchley Rugby Club,5,5,0,5,2013-06-05,51.994921,-0.712371
241690,Bletchley Supermarket,2,15,10,10,2014-06-10,51.994838,-0.727856
241691,Bletchley Youth Centre,4,0,10,5,2011-01-17,51.996852,-0.760776
241692,Blockbuster Video,5,5,0,0,2008-10-22,52.030393,-0.761992
241693,Blue Bridge Bakery,AwaitingInspection,nan,nan,nan,,,
241694,Blue Mountain Yard Ltd,5,5,5,5,2014-12-03,52.059199,-0.834141
241695,Blueberry House Country Products,5,5,5,5,2009-02-01,,
241696,Bluebirds Nursing Home,5,5,5,5,2014-01-09,52.017803,-0.772992
241697,BMI Saxon Clinic,5,5,5,0,2013-05-21,52.025623,-0.740378
241698,Bodrum Kebab and Pizza House,3,5,10,10,2015-01-05,52.011685,-0.646991
241699,Body Limits Transition,5,5,5,5,2014-02-06,52.050647,-0.798226
241700,Bodycraft (Car Wash),4,5,5,10,2010-07-02,52.188126,-0.69881
241701,Bogota Coffee Company @ Jigsaw,AwaitingInspection,nan,nan,nan,,52.043409,-0.757491
241702,Bombay Chaat,4,5,10,5,2011-11-10,,
241703,Bombay Cuisine,4,5,5,10,2014-11-12,52.056116,-0.850746
241704,Bon Viveur,5,0,5,0,2013-05-20,52.038921,-0.766684
241705,Bon Viveur,4,5,5,10,2014-07-04,52.039221,-0.761005
241706,Bon Viveur,3,5,10,10,2013-12-18,52.001733,-0.740305
241707,Bon Viveur,AwaitingInspection,nan,nan,nan,,52.00276,-0.7024
241708,Bon Viveur,4,5,10,5,2014-03-25,52.05603,-0.758075
241709,Bon Viveur,5,0,5,5,2014-10-30,52.042136,-0.756205
241710,Bon Viveur,5,5,5,5,2013-09-30,52.0157,-0.793975
241711,Boots The Chemist,5,nan,nan,nan,2014-07-03,51.994041,-0.73318
241712,Boots The Chemist,5,5,5,0,2008-06-19,52.043573,-0.755956
241713,Boots The Chemist,5,5,5,5,2009-05-21,52.00415,-0.794344
241714,Boots The Chemist,5,5,5,5,2009-05-14,52.056465,-0.852429
241715,Boots The Chemist,5,5,5,5,2009-11-27,52.086957,-0.722495
241716,Boots The Chemist,5,0,5,0,2011-03-08,52.002852,-0.724788
241717,Boots the Chemist,Exempt,nan,nan,nan,2008-06-20,52.042018,-0.774852
241718,Bounce,AwaitingInspection,nan,nan,nan,,52.007869,-0.737379
241719,Bow Brickhill Pavilion,AwaitingInspection,nan,nan,nan,,52.003637,-0.683363
241720,Bow Brickhill Pre-School,5,5,5,5,2010-08-10,52.001363,-0.67788
241721,Bow Brickhill School (Cygnet Catering),5,0,0,0,2010-03-11,52.002418,-0.682117
241722,BP Connect,5,0,0,0,2014-08-26,51.997038,-0.716855
241723,BP Connect,5,0,0,0,2012-09-19,52.047961,-0.75598
241724,BP Connect,5,5,0,0,2011-03-31,51.999916,-0.770058
241725,BP Connect,5,0,0,0,2013-04-30,52.033766,-0.676938
241726,Bradville Post Office and Stores,4,5,0,10,2013-01-31,52.060684,-0.786229
241727,Bradwell Abbey Service Station (BP),5,0,0,0,2015-01-23,52.049851,-0.799531
241728,Bradwell Bowls Club,5,5,5,5,2008-01-16,52.050645,-0.791853
241729,Bradwell Common Playgroup,4,5,5,10,2011-02-16,52.044425,-0.772045
241730,Bradwell Sports & Social Club,5,0,0,0,2011-08-30,52.050645,-0.791853
241731,Bradwell Village Pre-School,5,0,0,0,2014-12-04,52.04824,-0.787923
241732,Bradwell Village School (Cygnet Catering),5,0,0,5,2010-03-22,52.049395,-0.783108
241733,Brasserie Blanc,4,10,0,5,2014-02-04,52.037581,-0.762377
241734,Breadline Co-Operative Ltd,4,0,10,5,2013-03-25,52.017362,-0.734693
241735,Breakfast Club,4,0,10,10,2010-03-03,52.021222,-0.727385
241736,Bridges Childrens Centre (Sure Start),AwaitingInspection,nan,nan,nan,,52.035517,-0.687952
241737,Bristow-Bass,Exempt,nan,nan,nan,,,
241738,British Standards Institute (Autograph the food people),5,0,0,0,2014-06-27,52.024793,-0.774244
241739,British Telecom (Eurest),Exempt,nan,nan,nan,2008-10-15,51.999829,-0.725515
241740,Brooklands Farm School (Cygnet Catering),5,0,5,0,2010-12-09,52.049883,-0.687809
241741,Brooksward School (Cygnet Catering),5,0,0,0,2010-03-06,52.061443,-0.74875
241742,Broomfield Residential Care,5,5,5,5,2015-01-06,52.159123,-0.703866
241743,Brothers Fish Bar,5,0,5,0,2011-09-07,52.032118,-0.741492
241744,Broughton Award Winning Fish & Chips,5,0,5,0,2010-02-24,52.04834,-0.69866
241745,Broughton Fields Primary School (Cygnet Catering),5,0,0,5,2011-01-28,52.047527,-0.694221
241746,Broughton Hotel,5,5,0,5,2014-01-30,52.05157,-0.695591
241747,Broughton Manor Preparatory School,5,0,0,0,2014-11-17,52.05157,-0.695591
241748,Browns Bar & Brasserie,5,5,5,5,2013-09-10,52.039221,-0.761005
241749,Brunches Delivery Centre,5,0,0,0,2011-08-22,52.027425,-0.800146
241750,BSH Home Appliances (Demonstration Kitchens),5,0,0,0,2011-01-05,52.066059,-0.811686
241751,B-Town Restaurant,5,0,0,5,2014-09-12,52.038588,-0.771811
241752,Bubble Heaven,AwaitingInspection,nan,nan,nan,,52.042606,-0.758024
241753,Buckingham Foods (Mitie Catering),5,5,0,0,2011-03-08,52.013904,-0.746768
241754,Buckingham Road Convenience Store,4,5,5,10,2012-11-20,51.992433,-0.74597
241755,Buckland Lodge (Age UK),5,5,0,0,2014-10-03,52.022125,-0.73205
241756,Bucks Fire & Rescue (Canteen),4,0,0,10,2014-11-13,52.031634,-0.793226
241757,Bucks Meat Co,4,5,10,5,2009-03-17,52.095719,-0.838605
241758,Buffetstore Crepes,5,0,0,5,2013-07-11,,
241759,Bull & Butcher,5,0,0,0,2014-03-10,51.997038,-0.716855
241760,Bunnycakes,AwaitingInspection,nan,nan,nan,,,
241761,Burger Bar,5,0,5,5,2013-04-04,52.062527,-0.809081
241762,Burger King,5,5,0,0,2011-11-21,52.041022,-0.756989
241763,Burger King,5,5,0,0,2013-11-12,52.04341,-0.757492
241764,Burger King,5,5,0,0,2012-05-01,51.996734,-0.733585
241765,Burger King,5,0,5,0,2010-12-03,52.038968,-0.776422
241766,Burger King,5,5,5,0,2014-05-21,52.08316,-0.749018
241767,Burlington Hall Care Home,5,0,5,0,2014-07-07,52.013382,-0.647523
241768,Bushfield School (Radcliffe),5,0,0,5,2011-09-22,52.059582,-0.806811
241769,Buskers Coffee Shop,4,5,5,10,2014-04-28,52.064634,-0.805874
241770,Busy Bees,5,0,0,0,2014-10-17,52.02942,-0.76094
241771,Busy Bees,5,0,0,0,2014-03-03,52.027909,-0.740605
241772,Busy Bees Lunch Club (Age UK),5,0,5,0,2012-06-12,52.023295,-0.745471
241773,Busy Bites,AwaitingInspection,nan,nan,nan,,,
241774,Butterfly Pie,AwaitingInspection,nan,nan,nan,,,
241775,Byron,5,5,5,5,2014-04-23,52.04341,-0.757492
241776,C F Snacks,5,5,5,0,2014-11-19,52.037384,-0.684588
241777,Cafe Balti,4,5,5,10,2015-01-07,52.062203,-0.811745
241778,Cafe Brio Limited,4,10,5,0,2014-10-20,52.152515,-0.7015
241779,Cafe Express,5,5,0,5,2014-02-03,52.055771,-0.699829
241780,"Cafe Express - 22"" Events Catering Trailer",5,5,0,5,2013-05-29,51.996861,-0.718739
241781,Cafe Express MK,4,10,0,10,2014-10-08,52.029143,-0.765112
241782,Cafe Latte,5,nan,nan,nan,2014-04-22,52.086957,-0.722495
241783,Cafe Lounge,5,5,0,0,2014-07-22,52.062755,-0.812153
241784,Cafe Mediterraneo,3,10,5,10,2014-04-14,51.995127,-0.728838
241785,Cafe Nino - UC MK,5,0,0,0,2014-02-21,52.042136,-0.756204
241786,Cafe Rosco,4,10,0,5,2014-10-15,52.15412,-0.701074
241787,Cafe Rouge,5,5,5,5,2013-10-10,52.042931,-0.757344
241788,Cafe Rouge,5,5,0,0,2012-04-23,52.038045,-0.762889
241789,Cafe Three,4,0,0,10,2013-09-11,51.993954,-0.732629
241790,Caffe Italia,5,0,5,5,2014-09-22,52.04116,-0.756504
241791,Caffe Nero,5,5,5,5,2013-11-19,52.044331,-0.753689
241792,Caffe Nero,5,0,0,0,2014-03-11,52.03565,-0.687759
241793,Cake Carpenter,AwaitingInspection,nan,nan,nan,,,
241794,Cake Frills,5,0,5,5,2009-08-28,52.035517,-0.687952
241795,Caked To Perfection,5,5,5,5,2009-05-15,,
241796,Cakes By Emma B,AwaitingInspection,nan,nan,nan,,,
241797,Cakes Lou Bakes,AwaitingInspection,nan,nan,nan,,,
241798,Cakes the Biscuits,AwaitingInspection,nan,nan,nan,,,
241799,Cakes with a Conscience,AwaitingInspection,nan,nan,nan,,,
241800,Calcutta Brasserie,3,10,5,10,2014-10-16,52.059079,-0.855834
241801,Caldecotte Arms,5,nan,nan,nan,2014-06-12,52.011406,-0.707803
241802,Cameron's Brasserie,4,10,5,5,2013-10-18,52.057237,-0.853226
241803,Camphill Cafe,5,0,0,0,2011-09-08,52.057216,-0.730971
241804,Camphill Communities Bakery,5,5,0,5,2011-09-30,52.057216,-0.730971
241805,Camphill Food Processing,5,0,0,0,2012-07-10,52.057216,-0.730971
241806,Camphill Shop,5,0,0,5,2012-07-09,52.057216,-0.730971
241807,Candy Box,5,5,5,5,2011-12-01,52.06245,-0.815706
241808,Cannon Public House,5,5,5,5,2010-12-13,52.086957,-0.722495
241809,Card Factory,Exempt,nan,nan,nan,,51.993846,-0.733492
241810,Card Factory,Exempt,nan,nan,nan,,52.00415,-0.794344
241811,Card Factory,Exempt,nan,nan,nan,,52.04341,-0.757492
241812,Carluccio's Caffe,5,0,5,5,2013-10-07,52.042931,-0.757344
241813,Carole Hammelev,AwaitingInspection,nan,nan,nan,,,
241814,Caroline Haslett Combined School,5,0,0,0,2014-04-23,52.014662,-0.777829
241815,Carolyn,4,0,10,10,2013-09-13,,
241816,Caron's Cakery,AwaitingInspection,nan,nan,nan,,,
241817,Carters Guesthouse,AwaitingInspection,nan,nan,nan,,52.109114,-0.70225
241818,Cashino Gaming,Exempt,nan,nan,nan,2011-03-22,51.995127,-0.728838
241819,Castlemead Court (Excelcare Holdings Ltd),5,5,0,5,2015-01-12,52.085637,-0.72929
241820,Castlethorpe First School (Radcliffe Catering),5,0,0,0,2014-10-06,52.093019,-0.833785
241821,Castlethorpe Pre School,5,0,0,0,2013-07-17,52.093019,-0.833785
241822,Castlethorpe Village Shop,5,0,0,0,2011-03-01,52.092815,-0.83763
241823,Catalanotto - Jacket Potatoes,5,nan,nan,nan,2015-01-16,,
241824,Catering U Like,4,0,0,10,2014-02-25,,
241825,Catermasters,5,5,0,5,2014-01-30,52.040493,-0.685926
241826,Catherine Rose's Office Ltd,Exempt,nan,nan,nan,2010-04-27,52.15466,-0.701964
241827,Catherine's Cake Pops,AwaitingInspection,nan,nan,nan,,,
241828,Catherine's Creperie,AwaitingInspection,nan,nan,nan,,,
241829,Caton House (Sanctuary Care Ltd),5,5,0,5,2014-12-03,51.988392,-0.767738
241830,CAYK,AwaitingInspection,nan,nan,nan,,,
241831,Caz Bar,4,0,0,10,2014-01-09,,
241832,CB Vending,Exempt,nan,nan,nan,2008-11-10,,
241833,Cedars Primary School (Cygnet Catering),5,0,0,0,2012-02-02,52.08522,-0.724865
241834,Central Cash & Carry,4,10,5,5,2014-07-30,52.045751,-0.794187
241835,Central Wine Exchange,Exempt,nan,nan,nan,2010-02-10,52.039221,-0.761005
241836,Centre MK Day Nursery (Asquith Nursery Ltd),5,5,5,0,2013-11-04,52.042606,-0.770928
241837,Chai Hut,2,0,15,5,2011-01-06,,
241838,Chapharm Chemist Ltd,Exempt,nan,nan,nan,2008-07-24,52.051079,-0.779869
241839,Charcoal Grill,3,10,10,10,2014-10-06,52.085273,-0.72641
241840,Charles Warren Academy (Cygnet Catering),5,0,0,0,2013-11-13,50.4188499451,-4.47666978836
241841,Chartered Institute of Accountants (ISS Eaton),5,0,0,0,2008-11-05,52.037581,-0.762377
241842,Chepstow Community Centre,5,5,5,5,2011-04-11,51.988081,-0.768897
241843,Chequers,4,5,5,10,2008-10-23,51.99933,-0.717648
241844,Chestnuts Primary School,4,10,0,10,2014-03-13,51.988975,-0.765028
241845,Chicheley Park Service Station,5,0,0,0,2013-04-30,52.083389,-0.712745
241846,Chicken & Pizza Palace,5,5,5,5,2015-01-12,51.980693,-0.726102
241847,Chicken Village,4,5,10,5,2013-09-11,51.995507,-0.732425
241848,Chicken Village,4,10,5,5,2015-01-05,52.064909,-0.791352
241849,Chicko,3,10,10,5,2014-11-05,52.066579,-0.759971
241850,Chiki Ceramiki,3,5,10,10,2010-12-01,52.007508,-0.804423
241851,Childs Way Service Station,5,5,0,0,2012-02-21,52.040537,-0.74773
241852,Chimichanga,AwaitingInspection,nan,nan,nan,,52.010709,-0.736411
241853,Chimichanga,4,10,0,5,2014-09-04,52.041437,-0.74871
241854,Chinese Chef,4,0,5,10,2014-01-02,52.02274,-0.689536
241855,Chinese Overseas Christian Mission,5,0,0,5,2011-04-07,52.037694,-0.750987
241856,Chin's Kitchen,5,5,0,0,2014-03-26,,
241857,Chipmonks Pre School,Exempt,nan,nan,nan,2012-10-09,52.035041,-0.700197
241858,Chiquito Restaurant & Bar,5,0,5,0,2012-02-24,52.038019,-0.767351
241859,Chiquito Restaurant & Bar,5,5,0,0,2014-03-04,52.03565,-0.687759
241860,Chloe's Cakes,AwaitingInspection,nan,nan,nan,,,
241861,Choc and Lolly,AwaitingInspection,nan,nan,nan,,,
241862,Chocolatier Fountains,Exempt,nan,nan,nan,2010-10-15,,
241863,Choice Ice Cream And Frozen Yoghurt Shop,4,5,5,10,2014-07-31,52.042606,-0.758024
241864,Chopstix Noodle Bar,5,5,5,5,2014-01-15,52.041022,-0.756989
241865,Chrissie's Cakes,4,0,10,10,2009-08-18,,
241866,Chrissy's Cakery,AwaitingInspection,nan,nan,nan,,,
241867,Chrissy's Cupcakes,AwaitingInspection,nan,nan,nan,,,
241868,Christ the Sower School (Cygnet Catering),5,0,5,0,2010-03-03,52.021183,-0.807921
241869,Christos,Exempt,nan,nan,nan,2010-12-13,52.086957,-0.722495
241870,Chubby's Event Catering,4,10,5,5,2014-05-23,,
241871,Chunky Bite,5,5,0,5,2013-09-30,52.004345,-0.73467
241872,Church House Hotel Ltd,4,5,5,10,2011-02-14,52.077479,-0.750052
241873,Chutneys,5,0,5,0,2010-09-14,51.996946,-0.717484
241874,Cineworld,5,0,5,0,2008-10-23,52.041437,-0.74871
241875,Cinnfull,4,0,10,10,2014-05-19,,
241876,Cinnfull,AwaitingInspection,nan,nan,nan,,,
241877,City Discovery Centre,4,0,0,10,2008-12-22,52.04754,-0.795102
241878,City Grill Limited,5,5,5,5,2014-07-10,,
241879,City Kebabs,3,5,10,10,2014-03-07,,
241880,City Store,2,0,15,5,2013-02-12,52.044085,-0.758421
241881,CJ's Plus,5,5,5,5,2013-05-03,51.994466,-0.729207
241882,Clayton's Pound 'N' Bargain,Exempt,nan,nan,nan,2010-08-11,52.087458,-0.720641
241883,Clifton Court - MONDAY CLUB,5,0,0,5,2014-10-20,52.152716,-0.697665
241884,Clifton Court Tuesday Club (Age UK),5,0,5,0,2014-06-10,52.153666,-0.698222
241885,Clinton Cards,Exempt,nan,nan,nan,2008-10-30,51.995017,-0.730312
241886,Clinton Cards Plc,Exempt,nan,nan,nan,2010-03-25,52.042624,-0.756318
241887,Coachmakers Arms,3,10,10,10,2013-09-23,52.085857,-0.725503
241888,Coal Grill and Bar,4,10,5,0,2013-11-13,52.041437,-0.74871
241889,Coast to Coast,AwaitingInspection,nan,nan,nan,,,
241890,Coca Cola Enterprises Ltd (Eurest Services),4,10,5,5,2014-03-13,52.068217,-0.731433
241891,Coca Cola Enterprises Ltd (Sodexo),5,5,0,0,2014-03-12,52.052946,-0.70627
241892,Coffee Cavern,5,5,5,5,2008-10-23,,
241893,Coffee Hall Fish & Chip Shop,3,10,10,10,2014-10-23,52.023295,-0.745471
241894,Coffee Hall Out Of School Project,5,0,5,0,2011-07-19,52.020851,-0.745627
241895,Coffee On The Spot,5,5,5,5,2013-06-05,,
241896,Cold Brew Cafe,4,5,5,10,2014-10-01,,
241897,Cold Harbour C of E Combined School (Cygnet Catering),5,0,0,5,2010-02-10,52.008941,-0.753565
241898,Coldharbour Childrens Centre,5,0,0,5,2011-01-24,52.008941,-0.753565
241899,Colosseo,2,10,15,10,2014-11-10,51.99775,-0.716994
241900,Compass Contract Services (UK)Ltd,AwaitingInspection,nan,nan,nan,,52.092432,-0.649061
241901,Conifers,5,5,5,5,2010-03-11,52.046336,-0.725942
241902,Connexions MK,AwaitingInspection,nan,nan,nan,,52.041364,-0.75539
241903,Conniburrow Childrens Centre (Sure Start),AwaitingInspection,nan,nan,nan,,52.048725,-0.762754
241904,Construction Catering,AwaitingInspection,nan,nan,nan,,,
241905,Convenience Store,4,0,10,10,2015-01-16,52.066579,-0.759971
241906,Cookie Chic,4,0,5,10,2010-09-10,,
241907,Cookies & Cream,4,10,0,0,2013-03-21,52.043827,-0.749315
241908,Cookies Cupcakes,AwaitingInspection,nan,nan,nan,,,
241909,Co-op,5,0,5,0,2014-12-11,52.034144,-0.710238
241910,Co-op,AwaitingInspection,nan,nan,nan,,52.032232,-0.796358
241911,Co-op,5,5,5,0,2015-01-08,52.021886,-0.807246
241912,Co-op,5,0,0,0,2008-10-23,52.022561,-0.734007
241913,Co-op,5,5,5,5,2011-03-01,51.989356,-0.723977
241914,Co-op,5,5,0,5,2014-09-24,52.066579,-0.759971
241915,Co-op,5,5,0,5,2008-08-27,52.001908,-0.779123
241916,Co-op,5,5,0,0,2011-08-10,52.01116,-0.646643
241917,Co-op,4,10,5,0,2015-01-19,52.061862,-0.810047
241918,Co-op,4,10,5,5,2014-01-13,52.064909,-0.791352
241919,Co-op,5,5,0,0,2014-12-10,52.044936,-0.701412
241920,Co-op,5,5,5,5,2009-01-07,52.086957,-0.722495
241921,Co-op,5,5,0,0,2014-09-04,52.060421,-0.747334
241922,Co-op,5,0,5,0,2013-12-04,52.086294,-0.724323
241923,Co-op,AwaitingInspection,nan,nan,nan,,52.043655,-0.683281
241924,Co-op,5,0,0,0,2008-10-22,52.036684,-0.746409
241925,Co-op,5,0,0,0,2014-02-17,51.99035,-0.753819
241926,Co-op,4,10,5,5,2014-01-22,,
241927,Co-op,3,10,10,10,2013-08-12,52.152309,-0.703144
241928,Coral Racing,Exempt,nan,nan,nan,2010-03-25,52.045147,-0.757662
241929,Corley Cycles Ltd.,Exempt,nan,nan,nan,2009-11-09,52.050647,-0.798226
241930,Corner Pin Stores,5,5,0,5,2013-06-27,52.064612,-0.798391
241931,Cory's Patisserie,AwaitingInspection,nan,nan,nan,,,
241932,Costa,5,0,5,5,2014-03-19,,
241933,Costa,5,5,5,5,2014-06-27,52.152515,-0.7015
241934,COSTA,5,0,0,0,2014-03-11,52.018122,-0.653981
241935,Costa Coffee,5,5,0,0,2011-04-06,52.042123,-0.759116
241936,Costa Coffee,5,5,0,0,2012-08-08,51.995017,-0.730312
241937,Costa Coffee,5,5,5,5,2015-01-13,52.044002,-0.753115
241938,Costa Coffee,5,5,0,0,2011-07-20,52.035517,-0.687952
241939,Costa Coffee,2,15,10,10,2013-08-02,52.056465,-0.852429
241940,Costa Coffee,5,5,0,0,2013-11-18,52.086957,-0.722495
241941,Costa Coffee,5,5,0,5,2013-02-11,52.034572,-0.773889
241942,Costa Coffee,2,15,5,10,2014-01-23,52.04116,-0.756504
241943,Costa Coffee,5,0,5,0,2012-07-31,52.063965,-0.809933
241944,Costa Coffee,5,0,5,0,2011-01-14,52.041437,-0.74871
241945,Costa@Cotswold,5,0,5,0,2011-05-09,52.037896,-0.777939
241946,Costa@Next,5,0,0,0,2013-12-12,52.041284,-0.777832
241947,Costco Wholesale UK Limited,5,5,5,0,2013-06-04,52.039583,-0.689772
241948,Costcutter,3,5,10,10,2010-02-10,52.052619,-0.808236
241949,Costcutter,5,5,5,5,2014-02-05,51.996391,-0.755443
241950,Costcutter,4,0,10,10,2011-07-05,52.04963,-0.827595
241951,Costcutter,5,5,0,0,2011-02-15,52.061255,-0.810501
241952,Country Style,Exempt,nan,nan,nan,2010-08-11,52.153005,-0.701033
241953,Court House Coffee,5,0,5,0,2014-08-19,52.041057,-0.766305
241954,Courtyard Diner Brasserie,5,5,5,5,2013-08-12,52.152938,-0.700699
241955,Couture Catering,5,0,0,5,2012-03-05,,
241956,Cowpers Oak,3,10,10,5,2014-06-19,52.146331,-0.738042
241957,Cox & Robinson,Exempt,nan,nan,nan,2011-01-07,52.02274,-0.689536
241958,Cox & Robinson,Exempt,nan,nan,nan,2008-11-19,52.019996,-0.737971
241959,Cox & Robinson,Exempt,nan,nan,nan,2008-07-08,51.996295,-0.722921
241960,Cox & Robinson (Chemists),Exempt,nan,nan,nan,2011-01-18,52.022561,-0.734007
241961,Cox & Robinson (Chemists) Ltd,Exempt,nan,nan,nan,2009-05-14,52.056187,-0.854332
241962,Cox & Robinson (Chemists) Ltd,Exempt,nan,nan,nan,2009-11-18,52.005983,-0.748519
241963,Cox & Robinson (Chemists)Ltd,Exempt,nan,nan,nan,2009-08-12,52.153005,-0.701033
241964,Crafty Cooks,AwaitingInspection,nan,nan,nan,,,
241965,Crafty Cooks,5,5,5,5,2010-06-22,,
241966,Craving Cakes,AwaitingInspection,nan,nan,nan,,,
241967,Crawley Mart Limited,AwaitingInspection,nan,nan,nan,,52.093317,-0.648639
241968,Crayfish Capers,5,5,5,5,2013-06-14,,
241969,Crazy Cow Catering,4,10,10,0,2014-05-20,52.006879,-0.739782
241970,Crepes n Wraps,1,10,5,20,2013-11-18,52.037288,-0.686682
241971,Crosslands Nursery,5,0,5,5,2015-01-07,52.067168,-0.763864
241972,Crosslinks Centre,5,5,5,5,2008-05-15,51.980693,-0.726102
241973,Crownhill Supermarket,4,5,5,10,2011-01-25,52.026495,-0.802488
241974,Cruga Ltd,5,5,5,5,2014-09-26,52.043037,-0.82367
241975,Crumbs,5,0,0,0,2013-06-06,52.05734,-0.84809
241976,Cuckoo Hill Farm B&B,4,5,5,10,2009-09-02,52.111391,-0.834109
241977,Cupcake Cuddles,AwaitingInspection,nan,nan,nan,,,
241978,Cupcake Cuties,5,5,5,0,2011-05-12,,
241979,Cupcake Hut,4,5,5,10,2011-05-03,,
241980,Cupcakes By Holly Smith,AwaitingInspection,nan,nan,nan,,,
241981,Cupcakesbyhollysmith,AwaitingInspection,nan,nan,nan,,,
241982,Curbside Kitchen,4,0,0,10,2014-10-30,,
241983,D R Kent,5,5,5,5,2015-01-23,52.14133,-0.795481
241984,Daan,3,10,10,10,2014-03-18,52.049613,-0.803519
241985,Daily Fresh Catering,3,10,10,10,2014-07-23,,
241986,Daily Kebab,4,10,5,5,2014-11-24,,
241987,Daisychain Childrens Centre,Exempt,nan,nan,nan,,52.006901,-0.74609
241988,Danyals Peri Peri,4,10,5,5,2014-08-13,52.060421,-0.747334
241989,DA's Diner,2,10,15,10,2014-12-31,,
241990,Data And Research Services (BPM Catering Services),5,0,5,0,2011-01-19,52.054107,-0.758989
241991,Davenport B&B,5,0,0,5,2012-05-01,52.01484,-0.673752
241992,David Lloyd Centre Limited,5,5,0,0,2010-09-29,52.053024,-0.732403
241993,Dawn's Cake Kitchen,AwaitingInspection,nan,nan,nan,,,
241994,Dawns Cakes,AwaitingInspection,nan,nan,nan,,,
241995,Day's Inn,4,10,0,0,2014-11-03,52.08316,-0.749018
241996,Daytona International,5,5,5,5,2013-07-10,52.040409,-0.785321
241997,De Vere Venues,4,5,10,5,2014-06-25,52.103736,-0.679366
241998,De Vere Venues Group Limited,1,15,5,20,2014-01-31,52.08294,-0.714422
241999,Debbies,5,5,5,5,2009-02-01,,
242000,Debenhams Department Store,Exempt,nan,nan,nan,2011-03-08,52.04116,-0.756504
242001,Debenhams Restaurant,5,5,5,0,2014-09-08,52.04116,-0.756504
242002,Debenhams Staff Canteen,5,0,0,0,2011-03-08,52.04116,-0.756504
242003,Debs Catering Services,AwaitingInspection,nan,nan,nan,,,
242004,Dec-O-Cake,AwaitingInspection,nan,nan,nan,,,
242005,Dee-Vine,AwaitingInspection,nan,nan,nan,,,
242006,Delhi Flames,3,10,5,10,2013-10-16,52.056116,-0.850746
242007,Deli Vegeteria,AwaitingInspection,nan,nan,nan,,,
242008,Delicious Fish and Chips,5,5,5,5,2014-02-11,52.053748,-0.817657
242009,Delight Kebabs,4,10,5,5,2014-03-24,52.034139,-0.751198
242010,Delight Oza Kebabs,4,5,0,10,2013-11-26,52.030187,-0.788481
242011,Denbigh Hall S & S Club,4,5,5,10,2008-05-23,52.005425,-0.747588
242012,Denbigh School,5,5,5,5,2014-03-17,52.025075,-0.790181
242013,Desy,3,10,5,10,2014-01-11,51.997038,-0.716855
242014,Devine Cafe and Sandwich Bar,3,10,5,10,2014-01-20,52.002475,-0.730713
242015,Devine Catering MK,3,10,5,10,2014-07-07,,
242016,Devon Lodge Retirement Home,5,5,0,0,2014-01-13,52.013664,-0.650152
242017,Dhaniya Limited,4,5,5,10,2011-05-17,,
242018,Dial a Curry,2,10,15,10,2014-09-22,52.017546,-0.748561
242019,Diamond Kebabs,4,0,0,10,2013-10-02,52.04807,-0.762965
242020,Diane Roder,4,5,5,10,2011-01-19,,
242021,Dianes Bakes,AwaitingInspection,nan,nan,nan,,,
242022,Dinajpur Indian Restaurant,3,10,10,5,2014-06-11,51.996946,-0.717484
242023,Dina's Discount,Exempt,nan,nan,nan,2010-02-03,51.996439,-0.728801
242024,Dinky Donuts,4,5,5,10,2008-10-30,,
242025,Discount Brands,2,5,15,10,2014-11-29,,
242026,Disney Store Ltd,Exempt,nan,nan,nan,2008-10-22,52.04341,-0.757492
242027,Dixy Chicken,1,15,5,20,2014-11-27,52.062755,-0.812153
242028,DMF Fruits Limited,5,5,5,5,2009-10-06,,
242029,Dobbies Garden World,5,5,5,0,2013-05-17,51.997181,-0.709378
242030,Dom&Daks Snax's,4,10,0,5,2014-01-31,,
242031,Domino's Pizza,5,5,0,5,2013-10-08,51.997813,-0.733656
242032,Domino's Pizza,5,5,0,5,2014-02-07,52.083932,-0.728798
242033,Domino's Pizza,5,0,0,5,2011-01-21,52.061255,-0.810501
242034,Domino's Pizza,5,0,5,0,2010-12-09,52.035517,-0.687952
242035,Domino's Pizza,4,5,10,5,2015-01-14,52.007508,-0.804423
242036,Domino's Pizza,5,5,5,5,2014-04-30,52.030393,-0.761992
242037,Dominos Pizza Mobile (Jason Prescott),5,5,0,5,2013-11-07,,
242038,Doms Doorsteps,3,10,5,10,2014-04-17,52.031412,-0.682682
242039,Donzella,4,5,10,5,2014-03-19,52.152309,-0.703144
242040,Dorothy Perkins,Exempt,nan,nan,nan,,52.042624,-0.756318
242041,DOSTI Club,5,5,5,5,2009-09-29,52.041123,-0.761477
242042,Double Tree@Stadium MK,5,5,5,5,2013-11-04,52.009349,-0.734496
242043,Dough-Ray-me,AwaitingInspection,nan,nan,nan,,,
242044,Dovecote Manor Health Care Ltd (Excelcare Holdings Ltd),5,5,0,0,2014-10-01,51.997423,-0.747651
242045,Downs Barn First School (Cygnet Catering),5,0,0,0,2010-01-23,52.053301,-0.749108
242046,Downs Barn Stores Limited,1,15,5,20,2013-12-04,52.053679,-0.748266
242047,Dr Augustus Concoctions,4,0,5,10,2013-12-16,,
242048,DRA Newsagents,4,0,10,10,2012-05-17,52.082439,-0.740428
242049,Dragon Boat,2,15,5,10,2014-02-20,52.045147,-0.757662
242050,Drayton Park Combined School (Tiny Tots Cuisine),5,5,0,0,2012-12-10,51.982624,-0.726731
242051,Dreams & Cupcakes,AwaitingInspection,nan,nan,nan,,,
242052,Dromo,4,10,5,5,2013-12-16,,
242053,DSV Solutions Ltd,4,10,5,5,2014-10-30,52.040112,-0.679915
242054,Ducklings Preschool,5,5,5,5,2008-10-16,52.004437,-0.795108
242055,Ducklings Preschool,5,5,5,5,2008-10-17,52.002346,-0.777188
242056,Ducklings Preschool,5,5,5,5,2008-10-17,52.019612,-0.801098
242057,Ducklings Preschool,5,5,5,5,2008-10-16,51.995232,-0.787461
242058,Dulcie's,4,10,5,5,2014-02-06,51.984933,-0.723331
242059,Dunelm Mill,5,5,5,5,2015-01-28,52.03145,-0.766759
242060,Eagle News,5,nan,nan,nan,2015-01-08,52.03383,-0.752859
242061,Eaglestone Playgroup,5,0,0,0,2009-03-02,52.033716,-0.737978
242062,Eaglestone Restaurant,4,5,5,10,2013-11-06,52.026392,-0.735808
242063,Early Years Nursery,5,5,0,5,2014-01-13,52.027996,-0.752161
242064,East Ocean Chinese Take Away,4,5,5,10,2014-11-18,52.086294,-0.724323
242065,Eastern Express,3,5,10,10,2013-10-10,52.062527,-0.809081
242066,Eastern Paradise,5,5,0,5,2014-01-09,52.062527,-0.809081
242067,Eat And Meet Cafe,5,0,0,0,2014-02-11,52.03962,-0.763049
242068,Eat In,4,10,0,0,2014-05-21,52.08316,-0.749018
242069,Eat Your Heart Out,5,5,0,0,2010-09-03,52.062468,-0.731887
242070,Eat your Heart Out Buffets,5,5,0,0,2010-09-03,52.062468,-0.731887
242071,Ebelleo,5,5,5,5,2011-11-09,,
242072,Eclipz,Exempt,nan,nan,nan,2011-01-27,52.011685,-0.646991
242073,Edi Kebabs,5,0,5,5,2015-01-22,,
242074,EDS (ISS Eaton),5,5,0,0,2011-07-05,52.025306,-0.678558
242075,Ed's Outside,5,5,5,5,2013-07-31,52.041022,-0.756989
242076,Eight Belles Public House,4,5,5,10,2014-10-23,51.992433,-0.74597
242077,Ellen Pettit Memorial Hall,4,10,5,5,2012-04-28,52.01104,-0.647142
242078,Ellen's Cakes and Bakes,AwaitingInspection,nan,nan,nan,,,
242079,Elza Catering,4,5,5,10,2014-01-25,,
242080,Emberton First School (Cygnet Catering),5,0,5,5,2010-03-15,52.138376,-0.706719
242081,Emberton Park Sailing Club,4,5,5,10,2008-08-06,52.141826,-0.705669
242082,Emberton Sports & Social Club & Cricket Pavilion,5,0,0,0,2008-12-12,52.139905,-0.706762
242083,Emerson Valley Playgroup,5,0,0,5,2009-09-09,52.001432,-0.767118
242084,Emerson Valley School (Cygnet Catering),5,5,0,0,2012-06-20,52.005367,-0.771977
242085,Emerton News,3,10,5,10,2011-06-07,52.061988,-0.811853
242086,EMW Law (Wilson Vale Catering),5,5,0,0,2011-02-23,52.026875,-0.773793
242087,Enigma Tavern,3,5,10,10,2014-06-05,51.996734,-0.733585
242088,Enzos Fish Bar,5,5,5,5,2013-04-23,52.154215,-0.701539
242089,Euro Halal,3,10,10,10,2014-05-29,52.063043,-0.809505
242090,Euro Off Licence,Exempt,nan,nan,nan,2010-02-02,52.060421,-0.747334
242091,Euthymia Cakes,AwaitingInspection,nan,nan,nan,,,
242092,Evelyn's Bakery,AwaitingInspection,nan,nan,nan,,,
242093,Everglade Sheltered Housing (Age UK),5,0,0,0,2014-11-21,52.03123,-0.741678
242094,Evergreen Foods,3,5,10,10,2011-11-14,52.038099,-0.745101
242095,Exotic Meals,3,10,10,10,2014-01-27,,
242096,Exquisite Fudge,AwaitingInspection,nan,nan,nan,,,
242097,F & S Kebabs,5,5,5,5,2014-02-18,52.053314,-0.768817
242098,Faith Dimensions Ministries,5,0,5,0,2011-01-21,52.06245,-0.815706
242099,Falaise (Age UK),5,5,5,0,2014-01-20,52.063295,-0.735248
242100,Falak Spice,4,5,5,10,2014-10-18,,
242101,Falconhurst School (Breakfast Club),5,5,0,5,2014-01-10,52.032494,-0.739645
242102,Falconhurst School (Cygnet Foods Ltd),5,5,0,0,2013-06-17,52.032494,-0.739645
242103,Farm Foods Freezer Centre,5,5,0,0,2009-11-30,52.063182,-0.807182
242104,Farmfoods Freezer Centre,5,0,0,0,2010-11-19,51.994041,-0.73318
242105,Fast Foods,5,5,5,5,2013-08-04,,
242106,Favorite Chicken,5,5,5,5,2014-01-09,52.053748,-0.817657
242107,Favorite Chicken & Ribs,5,5,5,5,2015-01-28,52.022561,-0.734007
242108,Favorite Chicken & Ribs,3,10,10,10,2013-11-20,51.991318,-0.762939
242109,Fayes Fancies,AwaitingInspection,nan,nan,nan,,,
242110,"Feed Your Stomach, Feed Your Spirit",4,0,5,10,2010-09-27,52.061054,-0.772479
242111,Fenny Fish Bar,5,5,0,0,2012-10-11,51.997038,-0.716855
242112,Fenny Stratford Convenience Store,AwaitingInspection,nan,nan,nan,,51.99845,-0.71527
242113,Fero Kebab,2,10,15,5,2013-07-08,,
242114,First Class Restaurant,3,10,10,10,2013-08-15,52.057191,-0.853067
242115,First School After School Club,4,10,5,5,2013-10-22,52.031845,-0.789313
242116,First Steps Nursery,5,0,0,0,2010-01-20,52.052619,-0.808236
242117,Fish 'N' Chick'n,5,5,0,0,2013-05-13,52.02598,-0.788962
242118,Fishermead Convenience Store,4,5,0,10,2012-10-09,52.03778,-0.743797
242119,Fishermead Trinity Centre,5,5,5,5,2013-04-11,52.036684,-0.746409
242120,Fistful of Spice,5,0,5,5,2013-06-20,,
242121,Fit4Less,5,5,5,5,2010-02-03,52.043827,-0.749315
242122,Five Acres Nursing Home,5,5,0,5,2013-07-18,52.017466,-0.715192
242123,Five Star,1,15,10,20,2014-03-18,52.062133,-0.774199
242124,Fizz Experience Ltd,5,5,0,0,2013-01-09,52.039583,-0.689772
242125,Flamed Foods Co,5,0,0,5,2011-08-11,52.031005,-0.798534
242126,Flavour Full Stop,AwaitingInspection,nan,nan,nan,,,
242127,Flavour on Wheels,4,10,5,5,2013-07-09,,
242128,Flipeeze Pancakes,AwaitingInspection,nan,nan,nan,,,
242129,Flo's Cakes,AwaitingInspection,nan,nan,nan,,,
242130,Folake Kufeji,AwaitingInspection,nan,nan,nan,,,
242131,Foodbod,AwaitingInspection,nan,nan,nan,,,
242132,For Heavens Cake,AwaitingInspection,nan,nan,nan,,,
242133,Foresters Arms Public House,4,5,5,10,2008-04-18,52.066022,-0.789425
242134,Forget Me Not,4,0,10,10,2012-08-24,52.021526,-0.787849
242135,Fowlers of Earlswood,5,0,0,0,2010-10-03,,
242136,Fox & Hounds,4,5,10,5,2014-01-07,52.058727,-0.856645
242137,Frances Cake Boutique,5,5,5,5,2014-07-03,,
242138,Frankie & Bennys,5,5,5,0,2014-01-30,52.041437,-0.74871
242139,Frankie & Benny's,AwaitingInspection,nan,nan,nan,,52.010709,-0.736411
242140,Frankie and Benny's,4,5,10,5,2014-02-25,52.03565,-0.687759
242141,Franklins of Thorncote,4,5,5,10,2010-10-03,,
242142,Freeman Pre-School,5,5,5,0,2008-11-14,51.993003,-0.740404
242143,Frelli Cakes,AwaitingInspection,nan,nan,nan,,,
242144,Fremantle Trust,5,0,0,0,2009-05-12,52.049725,-0.759591
242145,Friars Fish and Chips,4,10,5,5,2014-03-14,52.062527,-0.809081
242146,Friends of the Caribbean,4,0,5,10,2014-09-02,,
242147,Frosts Garden Centre Ltd,4,5,5,10,2014-01-24,52.020642,-0.658147
242148,Frowey Farm Shop,5,5,5,5,2014-07-09,51.983374,-0.678846
242149,Fur & Purr,Exempt,nan,nan,nan,2009-11-11,52.05807,-0.85478
242150,Furze House,5,0,0,5,2008-10-08,52.006888,-0.761854
242151,Furzton Lake Public House,4,nan,nan,nan,2014-05-30,52.017348,-0.768954
242152,Furzton Tots Pre-School,5,5,5,5,2010-01-28,52.008529,-0.770011
242153,G Dads Collectables Ltd,Exempt,nan,nan,nan,2012-03-14,52.067125,-0.819302
242154,G J Douglas,5,5,5,5,2014-08-13,52.086957,-0.722495
242155,G Scrocca,4,5,5,10,2011-05-04,,
242156,Gala Club,4,10,5,5,2014-04-17,52.041364,-0.75539
242157,Galleon Inn,3,10,10,10,2013-08-29,52.065909,-0.819962
242158,Game Retail Ltd,Exempt,nan,nan,nan,,52.043573,-0.755956
242159,Ganges Lounge,5,5,5,5,2014-03-11,51.996946,-0.717484
242160,General Handy Stores,4,10,5,5,2010-04-22,52.033419,-0.753934
242161,Genesis After School Club/Playscheme,5,5,5,5,2011-11-08,52.060514,-0.751883
242162,Georges Fish & Kebab Bar,5,0,5,0,2014-09-03,52.04963,-0.827595
242163,Germander Park School (Compass Contract Services (UK) Ltd),AwaitingInspection,nan,nan,nan,,52.048725,-0.762754
242164,Giardino14,3,10,10,10,2013-11-26,52.034572,-0.773889
242165,Giardino14,4,5,0,10,2012-11-30,51.994893,-0.737176
242166,Giffard Park Pre School,5,0,0,0,2011-12-15,52.073778,-0.745297
242167,Giffard Park Primary School (Compass Contract Services (UK) Ltd,AwaitingInspection,nan,nan,nan,,52.073778,-0.745297
242168,Giffard Park Public House,5,5,5,0,2014-09-30,52.073366,-0.746315
242169,Gilesbrook Combined School (Compass Contract Services (UK)Ltd,AwaitingInspection,nan,nan,nan,,51.993526,-0.792051
242170,Giovanni's Downtown Gelato,AwaitingInspection,nan,nan,nan,,52.042606,-0.758024
242171,Giraffe,4,10,5,5,2014-03-06,52.04341,-0.757492
242172,Giraffe,5,0,0,0,2014-05-28,52.03565,-0.687759
242173,Givaudan UK Ltd (Wilson Vale Catering),5,0,5,0,2012-07-31,52.036424,-0.678245
242174,Glastonbury Thorn School (Cygnet Catering),5,5,0,0,2012-10-17,52.021508,-0.785162
242175,Glenmore Farm Slaughterhouse,5,0,0,5,2010-12-17,52.093952,-0.830798
242176,GM Wines,Exempt,nan,nan,nan,2008-07-24,52.05034,-0.758203
242177,Gold Street Stores,5,0,0,5,2015-01-13,52.114812,-0.827288
242178,Golden Fry Fish & Chips,5,5,5,5,2013-07-29,52.086472,-0.721706
242179,Golden House,4,10,5,5,2014-01-13,51.992364,-0.734451
242180,Golden Palace,5,0,0,0,2013-11-14,51.994838,-0.727856
242181,Golden Phoenix,AwaitingInspection,nan,nan,nan,,51.995859,-0.725904
242182,Golden Sea,4,5,10,5,2014-08-04,52.056116,-0.850746
242183,Gone Fishing,5,5,5,5,2009-02-01,,
242184,Gone Retro,AwaitingInspection,nan,nan,nan,,52.058727,-0.856645
242185,Good Food 4 U,3,5,10,10,2013-08-27,52.065428,-0.789383
242186,Good News,4,0,5,10,2008-06-23,52.065297,-0.795864
242187,Gourmet Burger Kitchen Ltd,5,5,5,0,2014-01-29,52.038045,-0.762889
242188,Granary Tea Room,4,10,5,5,2013-10-17,52.056324,-0.80296
242189,Great Holm Pre-School,5,0,0,0,2014-01-10,52.034058,-0.793817
242190,Great Linford Primary School (Cygnet Catering),5,0,0,5,2012-01-11,52.068272,-0.758538
242191,Great Linford Takeaway,3,5,10,10,2014-03-10,52.066579,-0.759971
242192,Great Linford Village Preschool,5,5,5,5,2011-02-02,52.070363,-0.757269
242193,Green Valley Bakery,AwaitingInspection,nan,nan,nan,,,
242194,Greenleys Community Cafe,5,5,0,0,2013-04-17,52.05385,-0.817975
242195,Greenleys Community PreSchool,5,5,5,5,2011-05-12,52.05385,-0.817975
242196,Greenleys First School (Caterer),5,0,0,5,2011-09-20,52.054308,-0.819699
242197,Greenleys Junior School,5,5,5,5,2013-06-19,52.055045,-0.817914
242198,Greenleys Kebabs,4,5,10,5,2014-04-09,52.05523,-0.823901
242199,Greenleys Wine Limited,Exempt,nan,nan,nan,2008-07-24,52.053748,-0.817657
242200,Greensleeves Homes Trust,5,5,0,5,2014-10-08,52.087483,-0.712993
242201,Greenway Cafe,3,10,10,5,2014-04-07,51.994041,-0.73318
242202,Greggs,5,5,0,0,2012-03-15,52.043218,-0.756389
242203,Greggs,5,5,0,0,2012-03-05,51.99436,-0.731088
242204,Greggs,5,5,0,5,2013-07-01,52.002852,-0.724788
242205,Grill & Peri Peri,4,5,10,5,2014-03-18,51.997038,-0.716855
242206,Grove Independant School (Kitchen),4,5,5,10,2014-11-12,52.027539,-0.775437
242207,GT Enterprise Limited,AwaitingInspection,nan,nan,nan,,,
242208,Gulivers Dinosaur and Farm Park,3,10,10,5,2014-04-09,52.051256,-0.730236
242209,Gullivers Land,3,10,10,5,2014-04-09,52.051256,-0.730236
242210,Gunter Weber,5,5,5,5,2009-03-23,,
242211,H G Foods,3,5,10,10,2012-09-26,,
242212,H Green & Son,5,5,0,5,2014-02-18,52.056441,-0.851817
242213,H M Prison Main Kitchen (Aramark),5,5,5,0,2014-09-18,52.014677,-0.807365
242214,Hairy Hogs,4,5,5,10,2011-04-15,52.156009,-0.730021
242215,Hakkibabs,5,0,0,0,2014-09-16,52.049186,-0.782374
242216,Haley's Cakes and Crafts,AwaitingInspection,nan,nan,nan,,,
242217,Halfords,Exempt,nan,nan,nan,,52.041284,-0.777832
242218,Halley's Comet,4,nan,nan,nan,2013-11-19,52.059044,-0.785005
242219,Hannahj Foods,AwaitingInspection,nan,nan,nan,,52.029561,-0.80691
242220,Hanslope After School Club,5,5,5,5,2011-02-03,52.1181,-0.83243
242221,Hanslope Kebab,2,5,15,10,2014-06-12,52.124494,-0.84124
242222,Hanslope Methodist Church,4,0,5,10,2008-02-15,52.115032,-0.828596
242223,Hanslope News,4,5,10,0,2013-06-28,52.114812,-0.827288
242224,Hanslope Park (Compass ESS),5,5,0,0,2014-10-27,52.103226,-0.809677
242225,Hanslope Park Day Nursery,5,0,0,0,2013-11-18,52.103226,-0.809677
242226,Hanslope Pre-School,5,5,5,5,2009-09-11,52.113553,-0.825408
242227,Hanslope Primary School (Cygnet Catering),5,0,0,5,2011-10-31,52.1181,-0.83243
242228,Hanslope Wines,Exempt,nan,nan,nan,2009-11-02,52.114812,-0.827288
242229,Hanslope Working Mens Club,4,5,5,10,2008-02-15,52.115032,-0.828596
242230,Happy Carrot,4,5,5,10,2011-02-23,,
242231,Happy Herefords,5,5,0,0,2012-06-11,52.160031,-0.644676
242232,Happy Shopper,4,10,0,10,2014-11-20,51.98057,-0.725508
242233,Harvester,2,15,5,10,2014-03-26,52.048974,-0.70968
242234,Harvester,5,5,0,0,2014-09-08,52.041437,-0.74871
242235,Harvester Pub & Restaurant,5,5,5,5,2013-10-08,52.02634,-0.784623
242236,Have Cake?Eat it!,AwaitingInspection,nan,nan,nan,,,
242237,Haversham Pre-School,5,0,0,0,2010-03-10,52.075405,-0.803223
242238,Haversham Sailing Club,4,5,5,10,2010-03-16,52.080261,-0.789201
242239,Haversham School Canteen (Radcliffe School),5,0,0,0,2011-01-27,52.075405,-0.803223
242240,Havishams,5,5,0,5,2013-10-16,52.057765,-0.853855
242241,Haywoody Gifts,Exempt,nan,nan,nan,,,
242242,Hazeley School (Cucina Restaurants Ltd),5,0,0,0,2014-01-20,52.019377,-0.811568
242243,Hazel's Homegrown,4,10,0,5,2008-10-22,,
242244,Head Start Nursery,5,0,5,0,2010-03-09,52.044722,-0.706449
242245,Heartfelt Nutrition,AwaitingInspection,nan,nan,nan,,,
242246,Heathers Cakes,4,5,0,10,2008-07-14,,
242247,Hedgerows Childrens Centre,4,0,5,10,2011-02-02,52.021222,-0.727385
242248,Heelands First School (Essence Catering),5,5,5,5,2013-06-20,52.050064,-0.779969
242249,Heelands Takeaway,5,0,5,0,2014-02-20,52.051079,-0.779869
242250,Herald Snooker Ltd,4,10,5,5,2011-02-08,52.056324,-0.80296
242251,Herbi-Care,4,0,0,10,2010-01-20,,
242252,Herbies Pizza,3,10,10,5,2014-04-01,51.994466,-0.729207
242253,Heronsgate School (Cygnet Catering),5,0,0,5,2012-02-09,52.01583,-0.695552
242254,Heronshaw First School (Cygnet Catering),5,0,0,5,2012-02-09,52.016042,-0.694453
242255,HG Sunrise Breakfast Club,5,5,5,5,2012-07-05,51.989951,-0.757748
242256,Highclere Nursing Home (Bupa),5,5,0,5,2013-05-14,52.055722,-0.746809
242257,Hilarys Cakes MK,AwaitingInspection,nan,nan,nan,,,
242258,Hilton Milton Keynes,4,5,5,10,2014-07-16,52.023875,-0.701876
242259,Himalaya Tandoori Restaurant,2,10,15,5,2014-01-10,51.996439,-0.728801
242260,Hinton Court (Age UK),5,5,0,0,2014-06-26,51.999797,-0.750221
242261,HKS Retail,5,0,0,0,2013-05-13,51.998809,-0.731793
242262,HKS Retail,3,10,10,10,2013-05-31,51.998809,-0.731792
242263,HKS Tongwell,4,10,0,10,2015-01-12,52.067658,-0.736292
242264,HMV,Exempt,nan,nan,nan,2010-08-19,52.042606,-0.758024
242265,Ho Ho Fish And Chips,4,5,10,5,2014-11-12,52.07299,-0.744692
242266,Hodge Lea Food & Wine,3,5,10,10,2012-11-06,52.049359,-0.809504
242267,Holiday Inn Express,4,10,5,5,2013-05-29,52.049132,-0.710959
242268,Holiday Inn Milton Keynes,5,5,0,0,2013-11-25,52.039206,-0.759591
242269,Holiday Inn Milton Keynes East,4,5,10,5,2014-01-09,52.065574,-0.700901
242270,Holland & Barratt,5,0,0,0,2010-01-29,51.993846,-0.733492
242271,Holland & Barrett,5,5,5,5,2008-10-02,52.043573,-0.755956
242272,Hollington Wood,Exempt,nan,nan,nan,,,
242273,Hollywood Bowl,5,0,5,5,2013-10-31,52.041437,-0.74871
242274,Holmwood First School (Compass Contract Services (UK) Ltd),AwaitingInspection,nan,nan,nan,,52.036155,-0.798382
242275,Holne Chase School (Cygnet Catering),5,0,0,0,2012-02-06,51.991451,-0.747468
242276,Home Bargains,4,5,5,10,2012-02-28,51.994785,-0.731295
242277,Home Deliverys,AwaitingInspection,nan,nan,nan,,,
242278,Home From Home,2,10,15,5,2014-10-16,52.156362,-0.700585
242279,Home Made Cakes,4,0,5,10,2013-11-07,,
242280,Honeybun Bakery,AwaitingInspection,nan,nan,nan,,,
242281,Hong Kong Take Away,2,15,15,10,2014-08-26,52.008719,-0.772702
242282,Hoo Hing Ltd,5,0,0,0,2014-07-17,52.006866,-0.719356
242283,Horsatack,Exempt,nan,nan,nan,2010-09-30,52.037896,-0.777939
242284,Hotel Campanile,5,5,5,0,2014-06-09,51.997049,-0.713781
242285,Hotel Chocolat Ltd,Exempt,nan,nan,nan,2008-10-22,52.04341,-0.757492
242286,House of Fraser (Catermaster),4,10,5,5,2014-02-07,52.053173,-0.70482
242287,House of Punjab,5,5,0,5,2014-03-04,52.063043,-0.809505
242288,Howe Park School (Cygnet Catering),5,0,0,0,2012-06-19,52.001928,-0.778496
242289,Hoyo's Hot Sauce,4,5,5,10,2014-08-13,,
242290,Hudsons Organics,AwaitingInspection,nan,nan,nan,,,
242291,Hungerford House (Age UK),5,0,5,0,2014-09-16,52.003013,-0.768662
242292,Iced Gems,AwaitingInspection,nan,nan,nan,,,
242293,Iceland Foods Ltd,5,0,0,0,2010-11-19,51.997813,-0.733656
242294,Iceland Foods Ltd,5,0,5,5,2008-12-02,52.042685,-0.750192
242295,Ideal Chef,5,5,0,0,2014-07-17,52.014487,-0.783574
242296,Iggy Brunches,AwaitingInspection,nan,nan,nan,,,
242297,IKEA Ltd,5,0,0,0,2012-02-21,52.005316,-0.728987
242298,Imperial Garden Chinese Restaurant,5,5,5,5,2014-09-24,52.086294,-0.724323
242299,Incy Wincy Pre School,4,5,5,10,2011-03-18,52.054014,-0.739215
242300,Indian Cottage,3,10,10,10,2014-11-11,52.085641,-0.72713
242301,Ingram Micro (Blue Apple Catering),3,10,10,10,2014-01-09,52.040825,-0.79343
242302,Inn on the Lake,5,5,5,5,2014-09-02,52.007415,-0.721104
242303,Intervet Walton Manor Club,4,5,5,10,2008-06-12,52.020877,-0.704018
242304,iPlay Golf Ltd,5,0,5,0,2014-11-17,52.079603,-0.703573
242305,Ishkhana,4,0,0,10,2013-04-18,,
242306,Istanbul Food Centre,AwaitingInspection,nan,nan,nan,,52.034547,-0.799401
242307,Istanbul Kebabs,4,10,5,5,2013-07-06,52.064909,-0.791352
242308,J & S Catering Donuts,5,5,5,0,2009-07-29,,
242309,J & S Catering Slushie,4,10,0,10,2009-07-29,,
242310,J A J Sawbridge & Sons,4,5,10,5,2007-12-04,52.103862,-0.860397
242311,J H Parkin & S Parkin,5,0,5,5,2009-09-29,52.156817,-0.701872
242312,J Hunter Farm Shop,4,5,10,5,2009-12-16,51.990847,-0.699205
242313,J W & D Adams,5,0,5,0,2010-03-11,52.119932,-0.860718
242314,J&S Catering,AwaitingInspection,nan,nan,nan,,52.061443,-0.79911
242315,Jacks Snacks,5,0,0,0,2013-11-22,52.049386,-0.823147
242316,Jade Garden,2,15,10,5,2014-01-07,52.015091,-0.695413
242317,Jade Garden,5,5,5,5,2014-03-26,52.156658,-0.701321
242318,Jaki MK Seafood,2,5,15,5,2014-06-12,52.038087,-0.743074
242319,Jalori Indian Cuisine,5,0,5,0,2011-09-26,52.01116,-0.646643
242320,James' Jams,4,5,5,10,2009-02-10,,
242321,Jamie Bakes Cakes,AwaitingInspection,nan,nan,nan,,,
242322,Jamie's Italian,5,0,5,0,2013-11-01,52.04341,-0.757492
242323,Jardines Pharmacy,Exempt,nan,nan,nan,2010-02-10,52.02598,-0.788962
242324,Jardines Pharmacy,Exempt,nan,nan,nan,2008-07-08,52.008931,-0.773191
242325,Jardines Pharmacy,Exempt,nan,nan,nan,2009-05-19,52.086294,-0.724323
242326,Jardines Pharmacy & PO,Exempt,nan,nan,nan,2011-02-02,52.060421,-0.747334
242327,Jas Masala Bite,AwaitingInspection,nan,nan,nan,,52.034572,-0.773889
242328,Jaspers Corporate Catering,4,5,5,10,2014-04-15,52.044111,-0.800064
242329,Jeffs Kebabs,5,5,5,5,2014-06-19,,
242330,Jemma's Cakes,AwaitingInspection,nan,nan,nan,,,
242331,Jennifer Bailey (sweets),AwaitingInspection,nan,nan,nan,,,
242332,Jenny's Homemade Fudge,AwaitingInspection,nan,nan,nan,,,
242333,JL Cakes,AwaitingInspection,nan,nan,nan,,,
242334,Jo Cooke's Cakes,AwaitingInspection,nan,nan,nan,,,
242335,Johanna John,AwaitingInspection,nan,nan,nan,,,
242336,John Lewis,5,0,0,0,2011-01-07,52.007869,-0.737379
242337,John Lewis Distribution Centre (Staff Canteen),5,0,0,0,2012-07-03,52.037213,-0.658934
242338,John Lewis Plc,5,5,0,0,2011-01-12,52.044858,-0.75245
242339,John Lewis Plc,5,0,5,0,2014-11-18,52.07146,-0.738651
242340,John Robins Quality Butchers,3,10,5,10,2011-01-10,52.056441,-0.851817
242341,Jo-Lucious Cakes,AwaitingInspection,nan,nan,nan,,,
242342,Juice Shack Ltd,AwaitingInspection,nan,nan,nan,,52.002974,-0.719526
242343,Juice with Benefits,AwaitingInspection,nan,nan,nan,,,
242344,Julia Hair & Beauty,Exempt,nan,nan,nan,2010-11-18,51.99436,-0.731088
242345,Jumpstart,5,0,0,5,2009-11-13,52.015091,-0.695413
242346,June's Partys,5,0,0,5,2013-10-14,,
242347,Jurys Inn Milton Keynes,5,5,0,0,2012-04-25,52.039278,-0.764779
242348,Just Snacks,5,5,5,5,2013-08-30,,
242349,Just Snaxs,AwaitingInspection,nan,nan,nan,,,
242350,JVL Express,AwaitingInspection,nan,nan,nan,,,
242351,JVL Fruit & Veg,4,10,0,10,2013-01-08,52.013049,-0.755214
242352,Kafila,5,5,5,5,2014-01-14,52.007818,-0.717624
242353,Kam Tong Garden,4,10,5,5,2014-07-21,52.034539,-0.791617
242354,Kardamom Lounge,5,5,5,5,2014-02-12,52.056441,-0.851817
242355,Karlas Kakes,AwaitingInspection,nan,nan,nan,,,
242356,Katherine Emma Faulkner,AwaitingInspection,nan,nan,nan,,,
242357,KC Cakes,AwaitingInspection,nan,nan,nan,,,
242358,KC Robins,5,0,0,0,2010-10-03,,
242359,KC's (Kingston Coffee Shop),4,5,10,5,2013-10-24,52.035517,-0.687952
242360,Kelly's Cupcakes,AwaitingInspection,nan,nan,nan,,,
242361,Kenrol Cafe,AwaitingInspection,nan,nan,nan,,52.031005,-0.798534
242362,Kents Hill Care Club,5,0,5,5,2013-07-18,52.02515,-0.696024
242363,Kents Hill Care Home,5,5,0,0,2014-04-24,52.031939,-0.695316
242364,Kents Hill First School (Cygnet Catering),5,0,0,0,2010-03-05,52.02515,-0.696024
242365,Kents Hill Park and Training Conference Centre,5,5,0,5,2014-07-08,52.0304,-0.690288
242366,Kents Hill Stores Ltd,4,5,10,0,2010-03-30,52.025349,-0.695319
242367,Kentucky Fried Chicken,5,0,0,0,2012-07-04,52.00415,-0.794344
242368,Kentucky Fried Chicken,5,0,0,0,2014-07-20,52.050647,-0.798226
242369,Kentucky Fried Chicken,4,10,5,0,2014-05-21,52.08316,-0.749018
242370,Kentucky Fried Chicken,5,5,5,0,2014-06-19,52.08316,-0.749018
242371,Kentucky Fried Chicken,4,0,10,5,2013-02-19,52.041437,-0.74871
242372,Kentucky Fried Chicken,5,5,0,0,2013-10-30,52.010436,-0.731931
242373,Kenyan Style Biscuits,4,5,5,10,2010-09-30,,
242374,Keyline Builders Merchants,Exempt,nan,nan,nan,,52.017032,-0.748415
242375,Kiddi Caru Day Nursery,5,0,5,5,2014-08-21,52.006218,-0.701222
242376,Kiddi Caru Day Nursery,4,0,10,5,2014-11-26,52.02274,-0.689536
242377,Kiddicare,Exempt,nan,nan,nan,2012-05-02,51.997352,-0.715185
242378,Kids Play,5,5,5,5,2014-08-05,52.021711,-0.771821
242379,Kilkenny House,5,5,0,0,2011-01-26,52.002489,-0.801283
242380,Kiln Farm Pub Limited,4,10,0,5,2015-01-07,52.043228,-0.823971
242381,Kilning Me Softly,AwaitingInspection,nan,nan,nan,,52.086957,-0.722495
242382,Kind of Choux,AwaitingInspection,nan,nan,nan,,,
242383,King Edwards Day Nursery,5,0,0,0,2010-12-14,52.051614,-0.756185
242384,King Kebab,AwaitingInspection,nan,nan,nan,,,
242385,King Kebabs,5,0,5,0,2011-09-13,,
242386,King Kebabs,5,5,5,5,2014-04-02,,
242387,King of the Raw,AwaitingInspection,nan,nan,nan,,,
242388,Kingfisher Public House,4,5,10,5,2014-02-06,52.078502,-0.729682
242389,King's Church Milton Keynes,AwaitingInspection,nan,nan,nan,,52.06273,-0.807807
242390,King's Kebabs,3,5,10,10,2014-09-16,52.033651,-0.709232
242391,Kingston Day Nursery (Acorn),5,5,0,5,2014-07-22,52.035517,-0.687952
242392,KJ's Catering,4,5,5,10,2013-07-11,,
242393,Knowles Primary School (Cygnet Catering),5,0,0,5,2011-12-06,51.995581,-0.723422
242394,Kokoro Sushi & Bento,2,0,15,5,2014-12-30,52.041022,-0.756989
242395,Kolkata,4,5,5,10,2014-04-07,52.085641,-0.72713
242396,KP Store,4,5,5,10,2010-02-11,51.996666,-0.720638
242397,KPMG (Eurest),5,5,0,0,2011-04-06,52.040718,-0.769143
242398,Krish Convenience Store,5,5,5,5,2014-05-19,52.064909,-0.791352
242399,Krishna Numar,AwaitingInspection,nan,nan,nan,,,
242400,Krispy Foods,3,10,10,10,2014-08-06,52.005983,-0.748519
242401,Krispy Kreme,4,5,5,10,2010-01-11,52.042123,-0.759116
242402,Kuehne & Nagel,5,0,0,0,2012-12-04,52.002087,-0.785735
242403,Kuehne & Nagel,5,0,0,0,2011-11-16,52.0325,-0.683492
242404,L Giles,5,5,5,5,2010-10-19,,
242405,La Bon Bon,Exempt,nan,nan,nan,2011-02-27,51.91616986,-0.43900892
242406,La Hind,5,5,0,0,2014-02-04,52.033898,-0.772216
242407,La Rose Des Sables Patisserie,AwaitingInspection,nan,nan,nan,,,
242408,La Tasca,3,10,10,5,2014-10-21,52.041437,-0.74871
242409,Lachmanns,5,5,5,0,2010-03-24,,
242410,Lacris,5,5,5,0,2014-04-30,51.994466,-0.729207
242411,Laddi's Delights Ltd,5,0,5,5,2014-04-07,,
242412,Ladybird Lab,AwaitingInspection,nan,nan,nan,,,
242413,Lagi Tasty Chicken & Ribs,4,5,5,10,2014-02-20,52.049494,-0.758125
242414,Lakers Supermarket,4,5,5,10,2011-08-02,52.062468,-0.731887
242415,Lakes Bakes,5,5,5,0,2012-11-09,,
242416,Lakes Estate Community Centre,4,5,5,10,2008-02-26,51.977938,-0.727432
242417,Lambertini's,AwaitingInspection,nan,nan,nan,,,
242418,Lamorna,AwaitingInspection,nan,nan,nan,,52.155053,-0.698459
242419,Langland Community School (Essence Catering Ltd),5,5,0,5,2013-05-14,52.021222,-0.727385
242420,Las Iguanas Limited,5,0,5,0,2014-09-16,52.038044,-0.762888
242421,Lathbury Manor Residential Home,4,10,5,5,2014-10-22,52.09818,-0.720992
242422,Lauren Wilkins,AwaitingInspection,nan,nan,nan,,,
242423,Lavalicious,AwaitingInspection,nan,nan,nan,,52.039221,-0.761005
242424,Lavendon Pavilion Pre-School,5,5,5,5,2011-01-10,52.172195,-0.658754
242425,Lavendon Post Office & General Stores Ltd,4,5,5,10,2012-11-01,52.173408,-0.661014
242426,Lavendon School (Cygnet Catering),3,5,10,10,2014-01-10,52.172195,-0.658754
242427,Lavendon Village Hall,5,5,5,5,2011-01-10,52.172195,-0.658754
242428,League of Friends,4,0,5,10,2013-11-22,52.026392,-0.735808
242429,Libation,AwaitingInspection,nan,nan,nan,,,
242430,Lidl UK GmbH,5,0,5,5,2008-10-16,52.030393,-0.761992
242431,Lidl UK GmbH,5,0,0,0,2009-11-30,51.996734,-0.733585
242432,Lila's Sweet Treats,AwaitingInspection,nan,nan,nan,,,
242433,Lilli Loves Cakes,AwaitingInspection,nan,nan,nan,,,
242434,LilyBees,AwaitingInspection,nan,nan,nan,,,
242435,Linda's Sweets,Exempt,nan,nan,nan,,51.993846,-0.733492
242436,Linford Grange,4,10,0,0,2014-02-20,52.086523,-0.730578
242437,Linford Wood Filling Station,5,0,0,5,2012-04-13,52.054629,-0.770234
242438,Little Chestnuts Day Nursery,5,5,5,5,2014-07-09,51.988975,-0.765028
242439,Little Gem,4,5,5,10,2014-01-30,,
242440,Little Meadows Day Nursery,5,5,5,5,2009-12-11,52.1181,-0.83243
242441,Little Miss Muffin,AwaitingInspection,nan,nan,nan,,,
242442,Little Owl Artisan Bakery,AwaitingInspection,nan,nan,nan,,,
242443,Little Owls - Sure Start,5,5,5,5,2010-12-01,52.006637,-0.804519
242444,Little Pancake Co,AwaitingInspection,nan,nan,nan,,,
242445,Little Reds Cake Company,Exempt,nan,nan,nan,,,
242446,Little Romania,2,10,15,10,2014-05-07,51.995092,-0.72897
242447,Little Taste of Africa,3,5,10,10,2015-01-12,52.061255,-0.810501
242448,Liz's Big Bite,5,5,5,5,2015-01-29,52.054086,-0.706499
242449,Lloyds Farm Butchers,4,5,0,10,2014-02-10,52.051079,-0.779869
242450,Lloyds No 1,5,0,5,5,2014-10-13,52.043827,-0.749315
242451,Lloyds Pharmacy,Exempt,nan,nan,nan,2010-06-15,51.980693,-0.726102
242452,Lloyds Pharmacy,Exempt,nan,nan,nan,2009-11-24,51.995127,-0.728838
242453,Lloyds Pharmacy,Exempt,nan,nan,nan,2009-09-07,52.061255,-0.810501
242454,Lloyds Pharmacy,Exempt,nan,nan,nan,2009-11-27,52.077545,-0.726003
242455,Lloyds Pharmacy,Exempt,nan,nan,nan,2009-10-05,52.062133,-0.774199
242456,LMRCA,5,5,5,5,2010-02-05,51.994893,-0.737176
242457,Loch Fyne Restaurant,5,5,5,0,2014-07-03,52.037377,-0.762674
242458,Londis,3,10,10,10,2013-08-09,52.051622,-0.838028
242459,Londis,5,5,5,5,2012-06-21,52.008932,-0.75696
242460,London Pride,4,5,5,10,2013-09-04,51.980904,-0.725615
242461,Lone Star Grill Limited,3,10,10,10,2013-09-12,52.019208,-0.807332
242462,Long Meadow School (Compass Contract Services (UK) Ltd),AwaitingInspection,nan,nan,nan,,52.010222,-0.794632
242463,Lord Grey School,5,0,5,5,2014-03-10,51.998485,-0.751103
242464,Loughton Manor Equestrian Centre,Exempt,nan,nan,nan,2009-09-08,52.030605,-0.778925
242465,Loughton Manor First School (Compass Contract Services (UK) Ltd),AwaitingInspection,nan,nan,nan,,52.031845,-0.789313
242466,Loughton School (Cygnet Catering),5,5,0,0,2010-09-14,52.028066,-0.78634
242467,Loughton Village Stores,4,5,5,10,2012-03-05,52.02634,-0.784623
242468,Loulou's Patisserie,AwaitingInspection,nan,nan,nan,,,
242469,Lovat Fields Village,5,0,5,5,2013-10-23,52.057216,-0.730971
242470,Lovat Hall (Bethany Luncheon Club),5,0,0,0,2014-04-30,52.085107,-0.722664
242471,Lovat Hall Playgroup,5,5,5,5,2009-01-06,52.085107,-0.722664
242472,Lovelight Raw Chocolate,AwaitingInspection,nan,nan,nan,,,
242473,Luella's Bakery,AwaitingInspection,nan,nan,nan,,,
242474,Lundbeck Ltd,5,5,5,5,2013-07-15,52.003165,-0.700829
242475,Lydia Chian Harn Ng,AwaitingInspection,nan,nan,nan,,,
242476,Lynsey Bakes Cakes,AwaitingInspection,nan,nan,nan,,,
242477,M K Supersnacks,4,0,0,10,2014-11-26,,
242478,M Whatsize Fruit & Veg,Exempt,nan,nan,nan,2011-03-08,52.555026,-1.154922
242479,M&S Simply Food,5,5,0,5,2011-03-16,52.034572,-0.773889
242480,Mace,AwaitingInspection,nan,nan,nan,,52.085016,-0.729278
242481,MacIntyre @ The Point,5,5,5,5,2014-04-17,52.041364,-0.75539
242482,MacIntyre Care,4,0,10,10,2009-09-30,52.024924,-0.806189
242483,Macintyre Care Bakery,4,0,10,5,2014-11-13,52.02598,-0.788962
242484,Macintyre Coffee Shop,5,0,0,0,2014-10-15,52.031634,-0.793226
242485,Made with Sugar,AwaitingInspection,nan,nan,nan,,,
242486,Madison's,5,0,5,5,2014-01-22,52.037288,-0.686682
242487,Magic Corn,4,0,5,10,2014-11-29,,
242488,Magna Snack Bar,3,10,10,10,2014-04-11,,
242489,Mahbir's Tandoori,AwaitingInspection,nan,nan,nan,,52.017546,-0.748561
242490,Majestic Caterers,3,10,5,10,2014-08-04,52.017546,-0.748561
242491,Majestic Caterers 2,4,10,0,10,2014-08-06,52.068688,-0.731007
242492,Majestic Wine Warehouse,Exempt,nan,nan,nan,2010-09-09,52.02942,-0.76094
242493,Mak Chocolatiers & Nut Co Ltd Uk,5,0,0,5,2008-11-19,52.035517,-0.687952
242494,Mallard House Nursing Home,5,0,5,0,2011-11-02,52.023613,-0.80908
242495,Malt Mill Farm,Exempt,nan,nan,nan,2007-12-18,,
242496,Malthurst Service Station,Exempt,nan,nan,nan,2009-01-26,52.040537,-0.74773
242497,Maltsters Arms Public House,5,5,5,5,2011-03-01,51.996946,-0.717484
242498,Mama Dee's Kitchen,5,5,5,5,2013-07-17,,
242499,Mama Reyna Ltd,AwaitingInspection,nan,nan,nan,,,
242500,Mama's Cookies,AwaitingInspection,nan,nan,nan,,,
242501,Mangetout,4,10,0,5,2013-05-31,52.057481,-0.854285
242502,Manor Farm House,4,5,10,5,2008-03-06,52.091981,-0.835141
242503,Manor Farm Shop,5,5,5,5,2009-02-01,,
242504,Manor Road Day Care Centre (Milton Keynes Council),5,0,0,5,2013-10-03,51.993039,-0.718731
242505,Maria's Fish Bar,5,5,5,5,2013-10-16,52.037915,-0.800755
242506,Marie's Snacks,4,0,10,10,2013-11-19,52.044355,-0.801119
242507,Mario's Fish & Chips,5,0,5,5,2014-01-15,52.153005,-0.701033
242508,Market Hill Greengrocers,4,5,5,10,2008-08-18,52.085857,-0.725503
242509,Market Meats,4,5,5,10,2011-02-24,,
242510,Marks & Spencer,5,0,0,5,2012-12-17,52.010709,-0.736411
242511,Marks & Spencer plc,5,0,0,0,2014-02-17,52.042123,-0.759116
242512,Marks and Spencer plc,5,5,0,0,2010-05-14,52.035517,-0.687952
242513,Marlborough Annexe,5,0,5,5,2013-06-27,52.026392,-0.735808
242514,Marle Inn,5,0,0,0,2011-04-18,52.07715,-0.772606
242515,Mars Continental Ltd,3,10,10,10,2014-02-06,51.994838,-0.727856
242516,Marsh Euro Express,5,5,0,0,2014-06-16,51.994918,-0.727781
242517,Martin McColl Ltd,5,5,5,5,2010-06-02,52.153005,-0.701033
242518,Martins,5,5,5,5,2009-11-18,51.996391,-0.755443
242519,Martins,5,0,0,0,2010-02-10,52.012354,-0.647306
242520,Martins,5,5,5,5,2010-05-14,52.086957,-0.722495
242521,Martins,5,5,5,0,2010-11-19,51.995017,-0.730312
242522,Martins Greengrocers,4,5,5,10,2010-03-26,52.051079,-0.779869
242523,Martuccio Ice Cream Van,4,0,0,10,2008-07-04,,
242524,Marvellous Cup Cakes,5,5,5,5,2010-08-06,,
242525,Masonic Hall,4,5,5,10,2007-12-17,52.061255,-0.810501
242526,Massala,5,5,0,0,2013-11-28,52.027751,-0.731718
242527,Mastee,3,10,10,10,2014-10-08,51.992433,-0.74597
242528,Mathiesen Centre,4,5,5,10,2011-03-28,52.057379,-0.786596
242529,Max Kebab,4,5,10,5,2013-12-15,52.018896,-0.729625
242530,Maydwell Cakes,AwaitingInspection,nan,nan,nan,,,
242531,MB,3,10,10,10,2013-08-22,,
242532,McColls,3,5,10,10,2009-11-11,52.056465,-0.852429
242533,McDonalds Restaurant,5,5,0,5,2014-12-03,52.00415,-0.794344
242534,McDonalds Restaurant,5,5,0,0,2012-12-06,52.035517,-0.687952
242535,McDonalds Restaurant,4,10,0,0,2014-03-10,52.042624,-0.756318
242536,McDonalds Restaurant,5,0,5,5,2013-07-01,51.991942,-0.698984
242537,McDonalds Restaurant,5,5,0,0,2011-05-31,52.038968,-0.776422
242538,McDonalds Restaurant,5,5,0,0,2010-10-03,52.041437,-0.74871
242539,McDonalds Restaurant Ltd,5,5,5,5,2014-07-15,52.010436,-0.731931
242540,McIntyre Catering,5,0,0,0,2013-01-31,52.061054,-0.772479
242541,McLaren Pharmacy,Exempt,nan,nan,nan,2008-09-09,52.064341,-0.793016
242542,Meadow View Nursery,5,5,5,0,2014-03-12,52.087438,-0.742097
242543,Meals by Malik,4,0,0,10,2013-11-01,,
242544,Meat And Grocery Store,4,10,5,5,2010-02-01,51.992364,-0.734451
242545,Meat World,4,10,5,5,2015-01-07,51.99436,-0.731088
242546,Meddy's Bakery,AwaitingInspection,nan,nan,nan,,,
242547,Melis,1,10,5,20,2014-03-17,52.152211,-0.701626
242548,Memlings Grill,3,5,10,10,2015-01-12,52.061862,-0.810047
242549,Mercedes-Benz Apprentice Training Academy (Baxter Storey Ltd),4,0,10,0,2008-11-20,52.003417,-0.731357
242550,Mercure Milton Keynes Abbey Hill Hotel,4,5,5,10,2014-08-07,52.044484,-0.807592
242551,Mercure Parkside Hotel,5,0,0,0,2014-07-03,52.030428,-0.722357
242552,Mercury Catering,5,0,0,0,2015-01-29,52.160881,-0.705339
242553,Merebrook Childrens Club,5,0,0,5,2012-06-14,52.008305,-0.771766
242554,Merebrook First School (Cygnet Catering),5,0,0,0,2010-03-04,52.008305,-0.771766
242555,MIB (Olive Catering Services),5,0,5,0,2012-01-27,52.059285,-0.758904
242556,Michigan Snack Van,4,0,0,10,2014-06-30,,
242557,Micks Munch,4,0,5,10,2013-09-11,52.054086,-0.706499
242558,Middle East Food,5,nan,nan,nan,2014-12-29,,
242559,Middleton Primary School (Cygnet Catering),5,0,5,5,2013-11-11,52.04266,-0.712764
242560,Middleton Steakhouse & Grills,5,0,5,0,2014-06-26,52.039221,-0.761005
242561,Midsummer Cafe,2,5,15,10,2014-03-26,52.040085,-0.761987
242562,Mike's Books C.I.C.,5,5,5,5,2012-12-21,52.066579,-0.759971
242563,Milford Leys Farm B & B,4,5,10,5,2007-12-13,52.095525,-0.851836
242564,Milkeyn Cupcakes and Bakes,AwaitingInspection,nan,nan,nan,,,
242565,Mill Farm B & B,4,5,5,10,2011-02-08,52.100661,-0.761406
242566,Millennium,3,10,10,5,2013-09-05,52.063043,-0.809505
242567,Millfield Service Station,Exempt,nan,nan,nan,2009-05-14,52.05537,-0.849832
242568,Millies Cookies,5,5,5,5,2009-12-21,52.044267,-0.755222
242569,Millies Cookies Limited,5,5,5,5,2011-11-03,52.041022,-0.756989
242570,Mil's on Wheels,5,0,0,0,2011-03-31,,
242571,Milton Court Care Centre,5,0,0,0,2014-01-23,52.031939,-0.695316
242572,Milton Keynes (Stony Stratford) Lions Club,4,5,10,5,2009-11-23,,
242573,Milton Keynes Athletics Club,3,5,10,10,2011-09-08,52.061054,-0.772479
242574,Milton Keynes Buds and Blooms,4,5,5,10,2011-05-23,,
242575,Milton Keynes Catering,5,0,0,0,2014-10-01,52.017065,-0.681308
242576,Milton Keynes College Campus,5,0,5,0,2011-05-10,52.027996,-0.752161
242577,Milton Keynes Council Corporate Council,5,5,5,5,2012-03-01,52.043562,-0.760885
242578,Milton Keynes Country Markets Ltd,4,5,10,5,2008-10-31,52.061111,-0.822844
242579,Milton Keynes Hospital Trust,5,5,5,5,2014-11-06,52.026392,-0.735808
242580,Milton Keynes Irish Centre Ltd,5,5,5,0,2014-01-08,51.994921,-0.712371
242581,Milton Keynes Magistrates Court (Custody Services),5,0,0,0,2009-01-27,52.041057,-0.766305
242582,Milton Keynes Oldbrook Lodge,3,10,10,10,2010-04-14,52.030004,-0.758344
242583,Milton Keynes Parks Trust,5,0,0,5,2011-03-22,52.049905,-0.736691
242584,Milton Keynes PCT (Campbell Centre),5,0,5,5,2013-11-08,52.026392,-0.735808
242585,Milton Keynes Primary Referral Unit (Compass Contract Services (uk) Lt,AwaitingInspection,nan,nan,nan,,52.000693,-0.760087
242586,Milton Keynes Rugby Club,5,0,0,0,2013-08-07,52.00359,-0.778378
242587,Milton Keynes Sailing Club Limited,4,5,5,10,2006-12-17,52.01631,-0.691242
242588,Milton Keynes Snooker Club,4,5,5,10,2011-02-02,52.061255,-0.810501
242589,Milton Keynes Super Hub (Compass Contract Services (UK) Ltd,AwaitingInspection,nan,nan,nan,,52.080237,-0.704022
242590,Milton Keynes Theatre,3,5,10,10,2010-03-17,52.043983,-0.748785
242591,Milton Keynes Village Pavilion,5,5,5,0,2012-09-07,52.043419,-0.700013
242592,Milton Mallows,AwaitingInspection,nan,nan,nan,,,
242593,Ming Garden,4,5,10,5,2014-03-10,52.044425,-0.772045
242594,Minkiemoo Bakery,Exempt,nan,nan,nan,,,
242595,Minster Pathways,5,5,5,5,2012-06-18,52.085641,-0.72713
242596,Mirch and Masala Lunch Club,4,0,5,10,2013-09-17,52.063461,-0.809013
242597,Miss Marie Donalde Amajie,AwaitingInspection,nan,nan,nan,,,
242598,Missoula Montana Bar & Grill,4,10,5,5,2013-12-02,52.037967,-0.764043
242599,Mister Softee,4,5,5,10,2009-03-12,,
242600,Mister Softee Van,5,5,5,5,2011-03-03,,
242601,Mister Teas Cafe,5,5,0,5,2013-11-19,51.996724,-0.720199
242602,MJs American Diner,AwaitingInspection,nan,nan,nan,,51.99391,-0.734437
242603,MK Christian Foundation,3,10,10,10,2013-06-18,52.061255,-0.810501
242604,MK City Kebab,AwaitingInspection,nan,nan,nan,,,
242605,MK Dance Centre,Exempt,nan,nan,nan,2009-02-24,52.065914,-0.791223
242606,MK Dilo Food,1,10,15,20,2014-06-26,52.035915,-0.750235
242607,MK Dosa Corner,3,10,5,10,2015-01-09,52.0353,-0.748511
242608,MK Dosa Corner Kitchen,5,5,0,5,2014-02-05,52.017546,-0.748561
242609,MK Driving Academy,4,10,5,5,2013-10-26,,
242610,MK Early Intervention Centre (Cygnet Catering),4,10,0,0,2009-05-12,52.017466,-0.715192
242611,MK Express,2,0,15,10,2011-11-10,52.043013,-0.763393
242612,MK Food & Wine,5,0,5,5,2009-10-29,52.042264,-0.752041
242613,MK Food Court,3,10,10,5,2014-05-28,52.014777,-0.756186
242614,MK Fried Chicken,2,10,15,10,2014-07-31,,
242615,MK Halal Food,3,10,10,10,2014-03-27,,
242616,MK Ices,3,10,10,5,2013-04-04,,
242617,MK Kebabish,3,10,10,10,2013-11-28,52.062755,-0.812153
242618,MK Peri Peri Hut,0,20,15,20,2014-11-14,52.07299,-0.744692
242619,MK Pewex,4,5,10,5,2014-03-13,52.042264,-0.752041
242620,MK Preparatory School,5,5,0,5,2014-11-25,51.996537,-0.767587
242621,MK SNAP,AwaitingInspection,nan,nan,nan,,,
242622,MK Social,5,5,5,5,2014-12-30,52.043366,-0.749954
242623,MK Supplements,AwaitingInspection,nan,nan,nan,,52.066157,-0.76522
242624,Monkey Puzzle Day Nursery,5,0,0,5,2013-10-23,52.014504,-0.682243
242625,Monkey Puzzle Day Nursery,5,0,0,5,2013-11-04,52.007164,-0.805059
242626,Monkston Primary School (Cygnet Catering),5,0,0,0,2010-02-25,52.035384,-0.696207
242627,Monsoon Accessorize,Exempt,nan,nan,nan,2008-10-22,52.042624,-0.756318
242628,Moon Under Water,5,5,0,0,2011-07-12,52.041437,-0.74871
242629,Moores Stores,4,0,5,10,2013-12-06,52.045147,-0.757662
242630,Moorland Infant School (Cygnet Catering),5,0,0,0,2010-02-02,52.018423,-0.736354
242631,More Than A Burger,5,0,5,0,2012-10-16,,
242632,Moreton Mushrooms,5,0,0,0,2010-10-03,,
242633,Morrisons,4,10,5,5,2014-11-18,52.00415,-0.794344
242634,Morrisons - opened 6/01/2015,AwaitingInspection,nan,nan,nan,,52.032346,-0.770787
242635,Morrisons M Local,AwaitingInspection,nan,nan,nan,,51.992561,-0.762336
242636,Mothercare World,Exempt,nan,nan,nan,2011-02-28,52.035517,-0.687952
242637,Moza,2,10,15,5,2014-05-20,52.086472,-0.721706
242638,Mr and Mrs Denning,5,5,5,5,2011-02-27,,
242639,Mr and Mrs Modhwadia,4,0,10,10,2011-08-17,,
242640,Mr Dean Murphy,Exempt,nan,nan,nan,2009-11-18,52.037112,-0.745259
242641,Mr Dicks,5,5,5,5,2011-02-27,,
242642,Mr Fahri Canturk,4,0,10,0,2011-05-09,,
242643,Mr Jason King (mobile caterer),AwaitingInspection,nan,nan,nan,,,
242644,Mr John Dutson's Hot Bread Shop,5,5,5,5,2013-11-05,52.051079,-0.779869
242645,Mr Laws Chinese Fish & Chips,3,10,5,10,2014-02-24,52.022561,-0.734007
242646,Mr Pretzels,3,10,5,10,2013-07-26,52.04116,-0.756504
242647,Mr Simms Olde Sweet Shoppe,AwaitingInspection,nan,nan,nan,,52.044267,-0.755222
242648,Mr Softee,4,0,0,10,2009-03-17,,
242649,MrDrinks.co.uk,4,5,5,10,2010-08-16,51.986041,-0.729256
242650,Mrs B'S Biscuits,AwaitingInspection,nan,nan,nan,,52.010558,-0.700149
242651,Mrs Celia M Griffiths,5,5,5,5,2010-01-18,,
242652,Mrs Dollys,5,0,0,0,2014-02-21,52.086958,-0.720962
242653,Mrs P's Bakery,5,5,5,5,2010-12-06,,
242654,Mrs Sharon Bishop,AwaitingInspection,nan,nan,nan,,,
242655,Mrs Sprinkle,4,0,10,5,2010-09-15,,
242656,Mrs Tilu Dave,AwaitingInspection,nan,nan,nan,,,
242657,MRSC'C Cupcakery,AwaitingInspection,nan,nan,nan,,,
242658,Ms Pamela Mott,5,nan,nan,nan,2012-01-26,,
242659,Ms Valerie Haisman,5,5,5,5,2009-09-06,,
242660,MSD (Blue Apple Catering),5,5,0,0,2012-08-29,52.020877,-0.704018
242661,Much Ado Catering,4,5,5,10,2014-11-03,52.152309,-0.703144
242662,Muffin Break Milton Keynes,3,10,10,10,2013-10-07,52.044267,-0.755222
242663,Muffin But Cakes,AwaitingInspection,nan,nan,nan,,,
242664,Muffins,4,5,10,0,2014-10-01,52.05577,-0.851237
242665,Mulberry Bear Day Nursery & Pre School,4,5,5,10,2014-12-03,52.024923,-0.70976
242666,Mum's Rasoi,AwaitingInspection,nan,nan,nan,,,
242667,"Munch Box,Peri Peri,SFC & Pizza Ltd",4,10,5,5,2014-10-20,51.99391,-0.734437
242668,Munchiees,3,10,5,10,2014-07-31,,
242669,My Party in a Box,AwaitingInspection,nan,nan,nan,,,
242670,Mysore Indian Cuisine,2,15,10,10,2014-02-19,52.085857,-0.725503
242671,Mystery Chef,3,5,10,10,2014-09-10,,
242672,N H Service Station,5,0,0,0,2013-08-13,52.061111,-0.822844
242673,Naidni Restaurant,4,5,10,5,2013-10-23,52.05639,-0.849368
242674,Nandos,AwaitingInspection,nan,nan,nan,,52.010709,-0.736411
242675,Nandos,5,5,0,0,2014-03-04,52.03565,-0.687759
242676,Nandos,5,0,5,5,2013-12-03,52.041437,-0.74871
242677,Nando's Chickenland Ltd,5,5,5,0,2014-01-13,52.042606,-0.758024
242678,Nandos/Mortimer Square,5,5,0,0,2012-03-19,52.038045,-0.762889
242679,Nans Donuts,4,10,5,5,2010-11-04,,
242680,Napoli Fish Bar,5,0,5,5,2014-07-24,52.064766,-0.797629
242681,Narrowboat Funion Bargee,Exempt,nan,nan,nan,2012-05-01,52.052912,-0.839728
242682,Nasz Sklep,1,10,20,10,2014-11-11,52.061502,-0.809079
242683,National Badminton Centre (Blue Apple Contract Catering),5,5,5,5,2013-06-21,52.038197,-0.785337
242684,Neath Hill Fish & Chips,5,5,5,5,2013-10-01,52.060421,-0.747334
242685,Neath Hill Indian,3,10,5,10,2014-02-04,52.060421,-0.747334
242686,Neath House Care Centre (Excelcare Holdings Ltd),5,0,5,5,2015-01-06,52.060998,-0.751694
242687,Neil Bowler,AwaitingInspection,nan,nan,nan,,,
242688,Neils Meals,3,10,10,10,2013-09-30,52.06563,-0.817123
242689,Netherfield  Wine  &  Spirits,Exempt,nan,nan,nan,2011-01-18,52.022561,-0.734007
242690,Netherfield Post Office,4,0,0,10,2010-03-16,52.022561,-0.734007
242691,Netherfield Tavern,5,5,5,5,2011-01-18,52.022561,-0.734007
242692,New Amsterdam,AwaitingInspection,nan,nan,nan,,,
242693,New Bradwell Food and Wine,3,10,5,10,2011-02-15,52.066022,-0.789425
242694,New Bradwell School,5,5,5,5,2013-07-18,52.06397,-0.793653
242695,New Bradwell Sports Association,5,0,0,5,2011-08-04,52.062867,-0.787133
242696,New Bradwell Tandoori Takeaway,3,10,10,10,2013-10-30,52.064909,-0.791352
242697,New Chapter Primary School (Cygnet Catering),4,5,5,10,2014-11-13,52.019367,-0.744707
242698,New China Garden,2,5,15,10,2013-10-14,52.060421,-0.747334
242699,New City Kebab,5,0,5,5,2014-01-15,,
242700,New City Kebabs,5,5,0,5,2012-05-18,,
242701,New City Service Station,Exempt,nan,nan,nan,2011-06-10,51.997983,-0.752923
242702,New Hong Kong,4,10,5,5,2014-07-01,52.001908,-0.779123
242703,New Lin Wah,5,5,0,0,2011-05-31,52.064859,-0.792681
242704,New Look,Exempt,nan,nan,nan,2010-12-03,52.04116,-0.756504
242705,New Mandarin Restaurant,4,10,5,5,2014-01-09,52.02598,-0.788962
242706,New Moon Chinese Buffet,4,5,10,5,2014-04-04,52.042926,-0.752562
242707,Newport Food and Wine,3,10,5,10,2012-04-20,52.080813,-0.736431
242708,Newport News,4,5,10,5,2009-11-27,52.085641,-0.72713
242709,Newport Pagnell Bowling Club,5,5,5,5,2010-11-12,52.085079,-0.718175
242710,Newport Pagnell Kebab,3,10,10,10,2014-07-23,52.086958,-0.720962
242711,Newport Pagnell Town Football and Social Club,5,5,5,5,2010-12-06,52.080983,-0.722154
242712,Newport Pagnell Working Mens Club,5,5,5,5,2010-09-17,52.084843,-0.723212
242713,Newport Pagnell Youth Club,5,5,5,5,2010-12-06,52.085478,-0.732943
242714,Newport Pagnell Youth Club Preschool,5,5,5,5,2009-09-18,52.085478,-0.732943
242715,Newton Blossomville Church of England School,5,0,5,5,2014-11-11,52.154323,-0.648738
242716,Next Clearance,Exempt,nan,nan,nan,2009-07-24,52.002852,-0.724788
242717,Next Retail Limited,Exempt,nan,nan,nan,2009-02-28,52.035517,-0.687952
242718,Next Retail Plc,Exempt,nan,nan,nan,2010-02-01,52.044664,-0.754497
242719,NHBC House/Glenn Management (Wilson Vale Catering),5,5,5,0,2014-02-20,52.022307,-0.765174
242720,Nickies Sticks,5,0,0,5,2011-01-19,,
242721,Nicky's Store,3,10,5,10,2012-01-11,52.059044,-0.785005
242722,Nicola's Kitchen,AwaitingInspection,nan,nan,nan,,,
242723,Nicole's Kitchen,AwaitingInspection,nan,nan,nan,,,
242724,NINA'S,4,0,5,10,2013-08-11,51.993954,-0.732629
242725,Nirvana's Baking and Catering,AwaitingInspection,nan,nan,nan,,,
242726,NISA Local,5,5,5,5,2012-11-08,52.05734,-0.84809
242727,Nisa Supermarket,3,10,5,10,2014-03-18,51.995072,-0.733777
242728,NJ's,5,0,5,5,2010-01-19,,
242729,NKN Market Traders MK,4,5,5,10,2011-01-28,,
242730,Nookies Cakes,AwaitingInspection,nan,nan,nan,,,
242731,North Crawley Institute,5,5,5,5,2011-03-14,52.093318,-0.64864
242732,North Furzton Fish Bar,5,5,0,0,2013-02-01,52.008719,-0.772702
242733,Novotel Milton Keynes,4,5,10,5,2013-10-14,52.052289,-0.771683
242734,NT Trading,AwaitingInspection,nan,nan,nan,,,
242735,NUIS,3,10,5,10,2014-01-03,52.020969,-0.754033
242736,Number 68,5,5,5,0,2010-12-14,52.053128,-0.828538
242737,Nursery On The Green,5,5,5,5,2014-10-30,51.994174,-0.747334
242738,Nut & Squirrel,4,nan,nan,nan,2014-10-21,52.00415,-0.794344
242739,Nutrition by Nature,AwaitingInspection,nan,nan,nan,,,
242740,NutureVille Nursery,4,10,0,5,2015-01-08,52.028638,-0.784298
242741,Oakgrove School,5,5,0,5,2013-06-11,52.038955,-0.7094
242742,Oakhill Secure Training Centre (Aramark),5,5,5,0,2014-09-12,52.015867,-0.811253
242743,Oaktree Court Limited,5,0,0,5,2013-11-18,52.06332,-0.728391
242744,Oasis Cafe,5,5,5,5,2012-06-28,52.028865,-0.658513
242745,Oasis Playscheme,5,5,5,0,2008-08-04,52.055045,-0.817914
242746,Occasion Cakes Milton Keynes,AwaitingInspection,nan,nan,nan,,,
242747,Ocean Fish and Pizza,5,5,5,5,2013-04-04,52.017362,-0.734693
242748,Odeon,5,5,5,5,2013-07-16,52.041364,-0.75539
242749,Officers Mess (Aramark Ltd),5,5,5,0,2014-06-24,52.014677,-0.807365
242750,Oh Lolly Lollipop,AwaitingInspection,nan,nan,nan,,,
242751,Ohans Catering,AwaitingInspection,nan,nan,nan,,,
242752,Old Bath House (Age UK),5,5,5,0,2013-01-14,52.063461,-0.809013
242753,Old Shanghai Restaurant,4,5,10,5,2014-11-18,52.15466,-0.701964
242754,Old Swan Inn,5,5,5,5,2013-11-12,52.116173,-0.610735
242755,Oldbrook First School (Compass Contract Svs UK Ltd),AwaitingInspection,nan,nan,nan,,52.031151,-0.755412
242756,Older Peoples Rehabilitation of Falls Services,5,0,0,0,2010-03-09,51.997423,-0.747651
242757,Oliver Adams Bakery,5,5,0,0,2011-01-26,52.085857,-0.725503
242758,Oliver Adams Bakery,5,5,5,5,2013-03-04,52.056465,-0.852429
242759,Oliver Adams Bakery,5,5,0,0,2012-08-28,52.086958,-0.720962
242760,Oliver Adams Bakery,3,10,5,10,2014-11-26,52.012354,-0.647306
242761,Oliver Adams Ltd,4,10,5,5,2014-03-19,52.152515,-0.7015
242762,Olney Cake Company,4,5,5,10,2011-05-04,,
242763,Olney Centre (Age UK),5,0,5,5,2015-01-08,52.156817,-0.701872
242764,Olney Deli,5,5,5,5,2013-07-10,52.152759,-0.70237
242765,Olney First School (Cygnet Catering),5,0,0,5,2010-02-25,52.153825,-0.710203
242766,Olney Infant Academy,4,5,5,10,2014-09-09,52.153825,-0.710203
242767,Olney Middle School (Cygnet Catering),5,0,0,5,2010-03-05,52.161747,-0.70705
242768,Olney Pre-School,5,0,0,0,2014-04-28,52.156817,-0.701872
242769,Olney Rugby Football Club,4,5,10,5,2015-01-11,52.155053,-0.698459
242770,Olney Town Bowling Club,5,5,0,5,2014-06-04,52.155053,-0.698459
242771,Olney Town Cricket Club,4,0,0,10,2014-07-16,52.156362,-0.700585
242772,Olney Wine Bar,5,5,0,5,2013-10-30,52.151989,-0.70191
242773,Olney Youth Club,5,5,5,5,2010-11-03,52.156362,-0.700585
242774,Omron Electronics Limited (Servest Catering),5,5,5,5,2014-10-15,52.049743,-0.711817
242775,One 4 Six,4,10,0,5,2014-04-30,52.048979,-0.722528
242776,One Stop Stores Ltd,5,5,0,0,2009-12-01,52.044425,-0.772045
242777,One Stop Stores Ltd,5,5,5,5,2009-08-04,52.07299,-0.744692
242778,One Stop Stores Ltd,4,5,0,10,2012-04-18,52.001432,-0.767118
242779,One Stop Stores Ltd,1,10,5,20,2014-11-24,52.023295,-0.745471
242780,One Stop Stores Ltd,3,10,5,10,2011-01-18,52.038163,-0.802206
242781,One Stop Stores Ltd,5,5,0,0,2014-09-09,52.156817,-0.701872
242782,Open Kitchen,3,10,10,10,2014-08-07,51.996666,-0.720638
242783,Open University (ISS Eaton),5,0,5,0,2011-07-26,52.024923,-0.70976
242784,Open University East Campus Kitchen (ISS Eaton),4,5,10,5,2014-04-28,52.024923,-0.70976
242785,Opsydupsy Tasty Kitchen,1,15,15,20,2013-08-29,,
242786,Ora Cafe,4,10,5,5,2014-01-10,52.059784,-0.763645
242787,Orbit News,5,5,5,5,2010-06-30,52.01993,-0.771754
242788,Orchard Academy (Two Mile Ash School),AwaitingInspection,nan,nan,nan,,52.040001,-0.737976
242789,Orchard House,5,5,5,5,2011-01-17,51.987334,-0.723263
242790,Orchid Lounge,4,5,0,10,2013-10-03,52.035986,-0.768967
242791,Ousedale School (Absolutely Catering Ltd),AwaitingInspection,nan,nan,nan,,52.0835151672,-0.731881976128
242792,Ousedale School (Absolutely Catering Ltd),AwaitingInspection,nan,nan,nan,,52.080217,-0.734478
242793,Outdoor Shop,Exempt,nan,nan,nan,2009-05-14,52.056465,-0.852429
242794,Oxfam,Exempt,nan,nan,nan,2009-10-05,52.056441,-0.851817
242795,Oxfam,Exempt,nan,nan,nan,2009-05-19,52.086957,-0.722495
242796,Oxfam Books & Music Shop,Exempt,nan,nan,nan,2010-04-21,52.152309,-0.703144
242797,Oxford Health NHT FT,5,5,0,5,2013-06-27,52.026392,-0.735808
242798,Oxley Fish Bar,4,10,5,5,2014-03-19,52.008226,-0.804346
242799,Oxley Park Primary Academy (Cygnet Catering),5,0,0,5,2012-06-15,52.006637,-0.804519
242800,Ozzie Kebabs,2,5,15,10,2014-08-06,52.033739,-0.793706
242801,P I Smith Ltd,Exempt,nan,nan,nan,2009-11-18,51.996213,-0.755652
242802,Pact Visitor Centre,5,0,5,0,2008-07-31,52.014677,-0.807365
242803,Paellas D'olney,5,5,0,0,2014-09-09,,
242804,Page and Moyse 1,5,0,5,5,2013-04-22,,
242805,Page and Moyse 2,5,0,0,5,2011-11-29,,
242806,Palace Day Nursery,5,5,5,5,2014-01-17,51.99222,-0.731062
242807,Palmers Quality Butchers,4,10,5,5,2011-09-12,51.995017,-0.730312
242808,Pamela Reynolds,5,5,5,5,2011-02-27,,
242809,Pamela's Pantry,5,5,0,0,2013-01-10,52.009126,-0.719671
242810,Panshake,AwaitingInspection,nan,nan,nan,,,
242811,Papa Johns,5,0,5,0,2013-11-01,52.02942,-0.76094
242812,Papa Johns Pizza,4,10,5,5,2014-01-31,51.99391,-0.734437
242813,Papa Johns Pizza,3,10,5,10,2014-01-21,52.085857,-0.725503
242814,Papa J's Restaurant,4,10,5,5,2014-11-10,52.007508,-0.804423
242815,Papa Luigi,4,5,5,10,2014-09-18,52.049613,-0.803519
242816,Papa Pan Pizza,4,10,5,5,2013-07-30,52.066579,-0.759971
242817,Paris Showman News,5,5,5,5,2010-02-10,52.040222,-0.760184
242818,Paris Showman Xscape,4,5,5,10,2011-01-12,,
242819,Park House,5,0,0,0,2015-01-05,52.118516,-0.751081
242820,Parklands Nursing Home,5,5,0,5,2013-10-02,52.040081,-0.726966
242821,Party Bags For Kids,Exempt,nan,nan,nan,,,
242822,Party Bake,Exempt,nan,nan,nan,,52.04931,-0.80115
242823,Passage To India,4,5,5,10,2013-07-17,52.055984,-0.852004
242824,Pat-a-Cake,AwaitingInspection,nan,nan,nan,,,
242825,Patience Phillips,4,5,0,10,2010-11-22,,
242826,Patisserie Valerie,4,5,5,10,2014-03-04,52.042606,-0.758024
242827,Peartree Bridge Inn & Hotel,5,0,0,5,2013-05-20,52.028023,-0.731113
242828,Pebbles Children's Centre (Sure Start),Exempt,nan,nan,nan,2011-03-10,52.039137,-0.741237
242829,Pecorella Whip - Ice Cream Van,5,5,5,0,2013-05-16,,
242830,Penny's Sweets,AwaitingInspection,nan,nan,nan,,52.152774,-0.702165
242831,Pepe Ianelli,3,10,10,10,2013-06-23,,
242832,Pepper Hill First School (Cygnet Catering),5,0,0,5,2010-03-29,52.06305,-0.785436
242833,Peppi's Curry,4,0,10,10,2013-09-04,,
242834,Peppi's Pepper Sauce,3,5,10,10,2013-04-19,,
242835,Percy's Ltd,3,10,10,5,2015-01-14,52.031005,-0.798534
242836,Peri Peri Original,1,15,15,20,2014-10-16,52.062755,-0.812153
242837,Phils Beef Chilli Co,2,5,15,10,2014-06-17,,
242838,Phoenix Catering MK,4,5,10,0,2013-07-09,52.010925,-0.691601
242839,Phoenix Gentlemen's Club,4,5,5,10,2010-01-07,52.032346,-0.770787
242840,Phoenix Gentlemen's Club,AwaitingInspection,nan,nan,nan,,52.039221,-0.761005
242841,Phoenix Pearl Limited,4,5,5,10,2011-02-03,52.060421,-0.747334
242842,Photo Me,4,5,5,10,2008-07-07,,
242843,Piano Bar,5,5,0,5,2013-01-21,52.043983,-0.748785
242844,Pick n Mix (Stadium MK),5,0,5,0,2009-11-24,,
242845,Picnics Catering Limited,4,5,5,10,2014-01-21,52.086567,-0.723046
242846,Picture House Cafe,5,nan,nan,nan,2014-11-12,52.088203,-0.722999
242847,Pin Petch Thai Restaurant,5,5,0,5,2014-02-18,52.086958,-0.720962
242848,Pink Punters,4,5,5,10,2009-11-30,51.997442,-0.712706
242849,PippiBakes,AwaitingInspection,nan,nan,nan,,,
242850,Pit Stop Cafe,4,10,5,5,2014-01-29,52.042136,-0.756205
242851,Pizza Express,AwaitingInspection,nan,nan,nan,,52.010709,-0.736411
242852,Pizza Express,5,0,5,0,2014-03-04,52.044002,-0.753115
242853,Pizza Express,5,5,0,5,2013-05-15,52.039221,-0.761005
242854,Pizza Express,5,0,5,0,2014-03-03,52.041437,-0.74871
242855,Pizza Gogo,1,5,5,20,2014-02-06,51.995289,-0.727989
242856,Pizza Hut,5,5,0,5,2014-08-27,52.02942,-0.76094
242857,Pizza Hut,5,nan,nan,nan,2013-09-11,51.995565,-0.726961
242858,Pizza Hut,5,5,5,5,2013-05-08,52.00415,-0.794344
242859,Pizza Hut,5,5,5,5,2013-07-17,52.063043,-0.809505
242860,Pizza Hut,5,5,5,0,2014-03-25,52.042624,-0.756318
242861,Pizza Max,2,15,5,5,2014-08-06,52.154215,-0.701539
242862,PJ Care Ltd,4,10,0,10,2012-05-29,52.000618,-0.739477
242863,Planet Dosa,3,10,10,5,2013-10-08,52.02942,-0.76094
242864,Planet Ice,4,10,5,5,2013-12-04,52.032346,-0.770787
242865,Planet Sandwich,5,0,5,0,2013-12-12,52.044111,-0.800064
242866,Playzone Day Nursery (Cygnet Catering),5,0,0,0,2014-10-16,52.020542,-0.726879
242867,Pledgers Bakery,5,5,5,5,2010-09-30,,
242868,Poffley's Bread,5,nan,nan,nan,2014-03-10,,
242869,Pop-a-lot Popcorn Company,4,5,5,10,2009-03-12,,
242870,Popbakery,AwaitingInspection,nan,nan,nan,,,
242871,Portfields Combined School (Cygnet Catering),5,0,0,0,2012-02-02,52.087979,-0.743965
242872,Portway Filling Station,4,0,0,10,2013-07-04,52.043131,-0.766962
242873,Post Office and Convenience Store,AwaitingInspection,nan,nan,nan,,51.994612,-0.729494
242874,Poundland,Exempt,nan,nan,nan,2010-08-05,52.044664,-0.754497
242875,Poundland,5,0,0,0,2010-01-29,51.993846,-0.733492
242876,Poundstretcher,Exempt,nan,nan,nan,2010-11-19,51.994466,-0.729207
242877,Poundstretcher,Exempt,nan,nan,nan,2009-05-21,52.00415,-0.794344
242878,Preethi's Kitchen,5,5,5,5,2014-09-29,,
242879,Premier,4,5,10,5,2012-02-28,51.997569,-0.764019
242880,Premier,5,0,5,0,2010-08-05,52.032118,-0.741492
242881,Premier Inn,AwaitingInspection,nan,nan,nan,,,
242882,Pret A Manger,5,0,5,0,2011-01-31,52.041022,-0.756989
242883,Pret A Manger,5,0,0,5,2013-07-26,52.044331,-0.753689
242884,Pretty Sweet Things,AwaitingInspection,nan,nan,nan,,,
242885,Prezzo,5,5,5,5,2015-01-08,52.010709,-0.736411
242886,Prezzo PLC,4,10,10,0,2014-04-29,52.03565,-0.687759
242887,Prime Foods,3,10,10,10,2012-10-02,51.995859,-0.725904
242888,Prince Albert,4,5,5,10,2012-07-23,52.04824,-0.787923
242889,Priory Common School (Compass Contract Services UK Ltd),AwaitingInspection,nan,nan,nan,,52.050591,-0.782259
242890,Priory Healthcare,5,0,0,0,2011-10-06,52.027909,-0.740605
242891,Priory Rise School,5,0,0,5,2014-09-16,51.992708,-0.800826
242892,Pronto Pizza,5,0,0,0,2012-03-06,51.997038,-0.716855
242893,Puddleducks Pre-School,Exempt,nan,nan,nan,2009-09-17,52.014941,-0.678791
242894,Pumpkin Cafe,5,5,0,0,2010-11-22,52.034572,-0.773889
242895,Purple Mango,4,5,10,5,2013-12-16,52.02274,-0.689536
242896,Quality Fish & Chips,4,5,5,10,2014-05-09,52.085857,-0.725503
242897,Quality Food Store,3,10,10,10,2014-02-11,52.062755,-0.812153
242898,Queen Eleanor Primary School (Radcliffe Catering),4,5,10,5,2014-10-06,52.052639,-0.839066
242899,R Yea Sports,Exempt,nan,nan,nan,2009-05-19,52.086958,-0.720962
242900,R.B Snacks,5,5,5,5,2011-02-27,,
242901,R.o.o.f Charity,1,5,10,20,2012-08-01,,
242902,Radcliffe School,4,5,10,5,2013-09-19,52.05968,-0.822824
242903,Radcote Lodge,Exempt,nan,nan,nan,2010-03-01,52.03857,-0.803288
242904,Radcote Lodge (Age UK),5,5,5,5,2014-07-09,52.038466,-0.801906
242905,Ragamuffin's Bakery,AwaitingInspection,nan,nan,nan,,,
242906,Railway Nursery School,5,5,0,0,2013-08-16,52.173408,-0.661014
242907,Raj Douth Indian Restaurant,4,5,10,5,2013-10-09,52.001432,-0.767118
242908,Rajdhani,3,10,5,10,2014-03-11,52.042926,-0.752562
242909,Ramada Encore,5,5,5,0,2013-10-24,52.039221,-0.761005
242910,Ramgarhia Sabha Lunch Club,5,5,5,5,2012-02-08,52.043228,-0.823971
242911,Raw Perfection Ltd.,5,5,5,5,2010-04-26,52.06044,-0.818822
242912,Rawberry  Cafe,AwaitingInspection,nan,nan,nan,,,
242913,Recognise Limited T/A Bucks Star,AwaitingInspection,nan,nan,nan,,52.060705,-0.800538
242914,Red Bull Technologies (Baxter Storey),4,10,5,0,2013-01-16,52.008256,-0.692873
242915,Red Hot World Buffet & Bar,4,10,5,5,2014-02-26,52.043827,-0.749315
242916,Red Rose Kebab,3,5,10,10,2014-04-23,51.99679,-0.779011
242917,Redway School,5,0,0,5,2014-02-03,52.023146,-0.732417
242918,Redwood Day Centre,5,0,5,5,2013-09-02,52.022053,-0.736965
242919,Renesas Electronics (Eurest),5,5,0,0,2012-05-25,52.056921,-0.758984
242920,Revolution,5,5,0,5,2014-05-13,52.041437,-0.74871
242921,Rexam Beverages (Sodexo Food Services),3,10,10,10,2014-05-19,52.052484,-0.710031
242922,Rhodsac Community Care Home,4,0,10,10,2013-11-18,52.04446,-0.701514
242923,Rich N Scrumptious,AwaitingInspection,nan,nan,nan,,,
242924,Rickley Park Primary School (Cygnet Catering),5,0,0,0,2010-01-13,51.998485,-0.751103
242925,Rickley Primary School (Cygnet Catering),5,0,0,0,2010-01-12,51.998485,-0.751103
242926,River Island,5,0,0,0,2012-09-12,52.037213,-0.658934
242927,River Meadow PreSchool & Breakfast Club,5,0,5,0,2011-05-04,52.082201,-0.715085
242928,Robinsons,5,5,0,0,2014-01-21,52.086155,-0.72154
242929,Rod Hot Food,5,0,0,5,2014-02-25,52.068688,-0.731007
242930,Roman Park Residents Club,4,5,5,10,2014-02-03,52.055686,-0.796881
242931,Romanelli's Italian Food,AwaitingInspection,nan,nan,nan,,,
242932,Romans Field School (RFS),AwaitingInspection,nan,nan,nan,,52.000693,-0.760087
242933,Roni Hand Car Wash Cafe,3,10,10,5,2014-03-04,52.027751,-0.731718
242934,Ronis Hand Car Wash,Exempt,nan,nan,nan,,52.014777,-0.756186
242935,Room Zone Ltd,5,5,5,5,2010-01-12,52.061862,-0.810047
242936,Rose and Crown,4,5,5,10,2014-01-13,52.084094,-0.724649
242937,Rose of India,2,5,15,5,2013-09-20,51.992364,-0.734451
242938,Rosewood Care Centre,5,0,5,5,2014-08-01,52.00062,-0.720496
242939,Rosies Bed & Breakfast,5,5,5,5,2009-02-17,52.051342,-0.845269
242940,Rosie's Delights,AwaitingInspection,nan,nan,nan,,,
242941,Routeco Plc (Bartlett Mitchell Ltd),5,5,5,5,2013-07-29,52.023355,-0.768249
242942,Rowlands Pharmacy,Exempt,nan,nan,nan,2011-05-12,52.061948,-0.731246
242943,Royal Air Force Association,5,5,5,5,2011-03-16,51.996499,-0.770865
242944,Royal British Legion,2,15,10,10,2013-08-14,52.005425,-0.747588
242945,Royal British Legion,5,0,5,5,2013-09-23,52.087758,-0.720093
242946,Royal Emperor,1,15,15,20,2014-10-29,51.998887,-0.71989
242947,Royal Grill & Sweets,1,10,10,20,2014-04-28,52.063043,-0.809505
242948,Royal Mail (Quadrant Catering Limited),3,10,10,5,2013-11-18,52.047592,-0.828785
242949,Royal Sweets,5,0,5,0,2011-05-12,,
242950,Royal Thai Restaurant,3,10,5,10,2015-01-19,52.056441,-0.851817
242951,Rudgard Catering,5,5,5,5,2009-03-20,,
242952,Rumour,5,5,5,0,2012-09-27,52.043827,-0.749315
242953,Russell County First School (Essence Catering Limited),5,0,0,5,2011-11-04,52.057242,-0.850965
242954,Russell First For Fun,5,5,5,5,2008-05-20,52.057242,-0.850965
242955,Russell Street Day Nursery (Cygnet Catering),5,5,5,5,2010-11-17,52.057242,-0.850965
242956,S & J Homespun,4,10,0,10,2010-01-14,,
242957,S Daveson Meats Limited,5,5,5,5,2009-09-06,,
242958,S G  Stores  Ltd,4,5,5,10,2011-03-08,52.13074,-0.777329
242959,S.W.A.L.C,AwaitingInspection,nan,nan,nan,,,
242960,Sabeeh Halal Meat & Fish,1,10,10,20,2014-07-29,52.048855,-0.759732
242961,Sabeeh Mini Market,3,10,5,10,2012-05-14,52.039029,-0.746285
242962,Sadies Cupcakes,5,5,5,5,2010-10-13,,
242963,Safari MK,5,0,5,5,2014-10-14,52.047434,-0.828294
242964,Saf's Kitchen,4,5,5,10,2014-09-30,,
242965,Sai Mantra,4,10,5,5,2014-03-26,51.994838,-0.727856
242966,Sainsbury Supermarkets Limited,5,5,0,0,2012-07-24,51.993301,-0.732968
242967,Sainsbury's,AwaitingInspection,nan,nan,nan,,52.062468,-0.731887
242968,Sainsburys (7 Day Catering Ltd),5,0,0,0,2012-07-31,51.993301,-0.732968
242969,Sainsburys Supermarket Ltd,5,0,0,0,2014-07-02,52.026951,-0.789912
242970,Sainsburys Supermarkets Limited,5,0,0,0,2011-06-08,52.036213,-0.761409
242971,Sainsburys Supermarkets Ltd,5,5,0,0,2012-01-04,52.02598,-0.788962
242972,Sajan's/Londis Stores,3,5,10,10,2012-02-03,51.996724,-0.720199
242973,Sala UK Ltd,3,10,10,10,2014-07-23,52.050647,-0.798226
242974,Sally's Cakes,AwaitingInspection,nan,nan,nan,,,
242975,Sam's,2,15,10,10,2014-09-03,52.021886,-0.807246
242976,Sams Chinese Take Away,5,0,0,5,2011-03-02,52.027751,-0.731718
242977,Sand Lake Drinks Co,AwaitingInspection,nan,nan,nan,,,
242978,Sandwich Land,5,0,5,5,2014-07-30,52.156817,-0.701872
242979,Sandwich@Sams,5,0,5,5,2014-07-21,52.086958,-0.720962
242980,Sandys Catering Services,5,5,0,5,2014-07-23,,
242981,Santa Lucia Limited,3,10,10,10,2014-02-11,52.08657,-0.722418
242982,Santander (Sodexo UK Limited),5,5,0,0,2013-09-19,51.992533,-0.739311
242983,Santander (Sodexo UK Ltd),5,5,5,5,2013-10-08,52.037232,-0.770288
242984,Santander (Sodexo UK Ltd),5,5,0,5,2013-10-03,52.017507,-0.789584
242985,Sarlen's Cakes,4,10,10,0,2008-09-24,,
242986,Sarnies,5,5,5,5,2013-07-19,52.043013,-0.763393
242987,Savers Health & Beauty,Exempt,nan,nan,nan,2010-01-29,51.993846,-0.733492
242988,Say it with Biscuits,AwaitingInspection,nan,nan,nan,,,
242989,Say it with cakes,5,5,5,5,2010-05-04,,
242990,Scania Gb Ltd (Wilson Vale Catering),5,0,5,0,2011-06-13,52.066149,-0.736437
242991,Schnellimbiss,AwaitingInspection,nan,nan,nan,,,
242992,School Tuck Truck,Exempt,nan,nan,nan,,52.073778,-0.745297
242993,Schueco International (Thomas Franks),5,5,0,0,2014-07-22,52.034523,-0.681917
242994,Scone in Sixty Seconds,AwaitingInspection,nan,nan,nan,,,
242995,Scott Sports and Social Club,4,5,5,10,2011-01-07,51.98909,-0.75368
242996,"Scrummy, Yummy Cupcakes",5,5,5,5,2010-02-22,,
242997,Scrumptious Bakes,4,5,5,10,2010-09-30,,
242998,Seacourt Fish Bar,4,5,10,5,2014-07-01,52.0874,-0.743601
242999,Seafood Fish & Chip Shop,5,5,0,0,2012-04-16,51.996213,-0.755652
243000,Sebastian's Coffee Shop,AwaitingInspection,nan,nan,nan,,52.085273,-0.72641
243001,Secklow Hundred,5,5,0,0,2012-01-25,52.039221,-0.761005
243002,Seedlings Children's Centre,AwaitingInspection,nan,nan,nan,,52.021183,-0.807921
243003,Sensient Flavors Limited (Canteen),4,10,5,5,2013-11-18,52.003716,-0.718237
243004,Shake a Shake,4,5,5,10,2010-12-22,52.041437,-0.74871
243005,Shakeaway,5,0,0,0,2009-06-18,52.041727,-0.758209
243006,Shanghai House Chinese Takeaway,5,5,5,5,2014-01-28,51.989951,-0.757748
243007,Shell Blakelands,5,5,5,5,2011-01-18,52.068217,-0.736437
243008,Shell Bleak Hall,5,0,5,5,2008-11-05,52.021224,-0.753632
243009,Shell Broughton Service Station,5,0,0,0,2013-07-18,52.048637,-0.70603
243010,Shell Leadenhall,5,0,0,0,2009-11-26,52.021918,-0.752972
243011,Shell Milton Keynes South,5,0,0,5,2013-05-10,51.981923,-0.673749
243012,Shenley Brook End School,5,5,0,0,2012-10-26,52.007323,-0.789888
243013,Shenley Church Inn Toby Carvery,4,nan,nan,nan,2014-04-29,52.025019,-0.786466
243014,Shenley Kebabs,4,5,5,10,2014-10-08,52.022919,-0.77282
243015,Shenley Leisure Centre,Exempt,nan,nan,nan,2011-01-06,52.025717,-0.790485
243016,Shenley Lodge Pre School,5,0,0,0,2009-01-07,52.01993,-0.771754
243017,Shenley News/Video Film Hire,4,0,10,5,2011-01-06,52.02598,-0.788962
243018,Shenley Wood Village,4,10,5,5,2014-10-24,52.017366,-0.793377
243019,Shepherdswell Academy (Two Mile Ash School),AwaitingInspection,nan,nan,nan,,52.041939,-0.733387
243020,Sherington C of E School (Olney Infant Academy),5,5,5,0,2015-01-21,52.110571,-0.698952
243021,Sherington Pre School,3,10,5,10,2014-09-03,52.110113,-0.702251
243022,Sherington Village Shop and Post Office,4,5,10,5,2013-10-23,52.110113,-0.702251
243023,Shishakhaima Ltd (Carpark of Enigma Tavern),AwaitingInspection,nan,nan,nan,,,
243024,Short but sweet designs,AwaitingInspection,nan,nan,nan,,,
243025,SI5 Secret Intelligence Ltd,5,5,5,5,2014-07-15,52.028476,-0.740206
243026,Sikh Temple,5,0,5,5,2013-07-05,52.026109,-0.755653
243027,Silver Sea Take Away,5,5,0,0,2014-09-16,52.062755,-0.812153
243028,Simona's Cakes,3,5,10,10,2014-11-17,,
243029,Simply Race Ltd,5,0,0,0,2015-01-19,52.050647,-0.798226
243030,Simply Sweets,4,0,5,10,2008-06-23,52.086957,-0.722495
243031,Sinclair Condiments Co,5,5,5,5,2013-04-05,,
243032,Singleton's Wife,3,10,5,10,2013-09-13,,
243033,Sir Herbert Leon Academy (Cygnet Catering),5,5,5,5,2014-03-06,51.980274,-0.727191
243034,Sirajco & Sons,4,0,5,10,2014-08-21,52.050998,-0.756625
243035,Sirajco Mini Market,4,0,0,10,2014-08-28,52.044875,-0.76776
243036,Sizzling Grillz,4,10,5,5,2015-01-14,52.033898,-0.772216
243037,Slated Row School,5,0,0,0,2012-01-05,52.06291,-0.826736
243038,Slug & Lettuce,4,nan,nan,nan,2014-05-30,52.043827,-0.749315
243039,Smart Hospitality Limited - The Marquee,5,5,5,5,2013-07-17,,
243040,Smart Raspberry Cookery School,5,0,5,5,2011-07-20,,
243041,Smarts Fish & Chips,4,5,5,10,2014-07-05,52.005983,-0.748519
243042,Smarts Fish and Chip Shop,3,10,10,10,2014-03-10,51.994838,-0.727856
243043,Smarts Fish Bar,5,5,5,0,2013-05-20,52.05639,-0.849368
243044,SMC Pneumatics UK Ltd (TNS Catering),5,5,0,0,2011-09-20,52.029769,-0.799865
243045,Smithys Traditional Catering,4,5,5,10,2014-07-29,52.042081,-0.782026
243046,Smoke Shack,3,10,10,5,2014-09-22,52.056116,-0.850746
243047,Smyths,Exempt,nan,nan,nan,,52.041284,-0.777832
243048,Snack & Chat (Age UK),3,5,10,10,2013-08-12,52.042685,-0.750192
243049,Snack in the Box,5,5,5,5,2008-11-21,,
243050,Snackhub,5,0,0,0,2012-10-11,,
243051,Snacks 2 U,5,5,5,0,2014-10-08,,
243052,Snax 24 CMK,5,0,0,0,2014-07-07,52.047961,-0.75598
243053,Snozone Ltd MK Division,1,10,10,20,2014-07-24,52.041437,-0.74871
243054,Somali Cuisine,AwaitingInspection,nan,nan,nan,,,
243055,Sonny's Caribbean Food & Beverages,4,5,10,5,2014-07-03,52.003586,-0.732066
243056,South Lodge,5,5,0,0,2009-03-03,,
243057,Southwood School (Cygnet Catering),5,0,0,5,2011-06-30,52.051614,-0.756185
243058,Spar Shop,5,5,5,5,2011-01-27,52.015091,-0.695413
243059,Sparkle Cakes,4,0,5,10,2011-03-31,,
243060,Spectrum for Arcadia (Host Catering),5,5,5,5,2015-01-28,52.014284,-0.744542
243061,Spice Garden,2,10,15,10,2013-09-02,52.152309,-0.703144
243062,Spice Pot,5,0,0,0,2014-06-13,,
