,addressline1,addressline2,addressline3,addressline4,businessname,businesstype,businesstypeid,confidenceinmanagement,extractdate,fhrsid,hygiene,itemcount,latitude,localauthoritybusinessid,localauthoritycode,localauthorityemailaddress,localauthorityname,localauthoritywebsite,longitude,postcode,ratingdate,ratingkey,ratingvalue,returncode,schemetype,structural
215381,5 Market Street,Bracknell,,,A & I Oriental Foods,Retailers - other,4613,5,,518322,5,,51.41590000000000,PI/000062601,882,environmental.health@bracknell-forest.gov.uk,Bracknell Forest,http://www.bracknell-forest.gov.uk,-0.75208500000000,RG12 1JG,2011-01-24,fhrs_5_en-GB,5,,FHRS,5
215382,19 High Street,Bracknell,,,A.K Home Stores Ltd,Retailers - other,4613,,,594419,,,51.41627400000000,PI/000066353,882,environmental.health@bracknell-forest.gov.uk,Bracknell Forest,http://www.bracknell-forest.gov.uk,-0.74832200000000,RG12 1DL,2014-02-26,fhrs_exempt_en-GB,Exempt,,FHRS,
215383,Pyramid House,Easthampstead Road,Bracknell,,Absolutely Fitness,Retailers - other,4613,,,619634,,,51.41524800000000,PI/000066372,882,environmental.health@bracknell-forest.gov.uk,Bracknell Forest,http://www.bracknell-forest.gov.uk,-0.76262900000000,RG12 1NS,,fhrs_exempt_en-GB,Exempt,,FHRS,
215384,43 Longshot Lane,Bracknell,,,Acorn Cafe,Restaurant/Cafe/Canteen,1,5,,517819,5,,51.41401500000000,PI/000026707,882,environmental.health@bracknell-forest.gov.uk,Bracknell Forest,http://www.bracknell-forest.gov.uk,-0.77541700000000,RG12 1RL,2012-11-27,fhrs_5_en-GB,5,,FHRS,5
215385,Priestwood Court Road,Bracknell,,,Admiral Cunningham,Pub/bar/nightclub,7843,10,,518060,10,,51.42102500000000,PI/000050717,882,environmental.health@bracknell-forest.gov.uk,Bracknell Forest,http://www.bracknell-forest.gov.uk,-0.76391100000000,RG42 1TU,2014-07-29,fhrs_4_en-GB,4,,FHRS,0
215386,Day Centre,Worlds End Hill,Bracknell,,Age Concern,Restaurant/Cafe/Canteen,1,0,,517983,0,,51.39742100000000,PI/000048914,882,environmental.health@bracknell-forest.gov.uk,Bracknell Forest,http://www.bracknell-forest.gov.uk,-0.72772000000000,RG12 0XH,2014-05-30,fhrs_5_en-GB,5,,FHRS,0
215387,College Town Infant School,Branksome Hill Road,College Town,Sandhurst,Alder & Chestnuts Children Centre,School/college/university,7845,0,,518307,5,,51.34620800000000,PI/000060745,882,environmental.health@bracknell-forest.gov.uk,Bracknell Forest,http://www.bracknell-forest.gov.uk,-0.77817300000000,GU47 0QF,2010-04-19,fhrs_5_en-GB,5,,FHRS,0
215388,Aldi,136 Liscombe,Bracknell,,Aldi,Retailers - supermarkets/hypermarkets,7840,5,,518234,0,,51.39204400000000,PI/000060098,882,environmental.health@bracknell-forest.gov.uk,Bracknell Forest,http://www.bracknell-forest.gov.uk,-0.75207300000000,RG12 7DE,2012-09-11,fhrs_5_en-GB,5,,FHRS,0
215389,Cadence Design Systems,Bagshot Road,Bracknell,,Alston Catering (staff canteen),Restaurant/Cafe/Canteen,1,0,,517589,5,,51.40108200000000,PI/000002341,882,environmental.health@bracknell-forest.gov.uk,Bracknell Forest,http://www.bracknell-forest.gov.uk,-0.74543000000000,RG12 0PH,2013-01-14,fhrs_5_en-GB,5,,FHRS,5
215390,Holly Spring Infant School,Lily Hill Road,Bracknell,,Amazing Allstars Out of School Club,School/college/university,7845,0,,518067,5,,51.41589300000000,PI/000050750,882,environmental.health@bracknell-forest.gov.uk,Bracknell Forest,http://www.bracknell-forest.gov.uk,-0.73297400000000,RG12 2SW,2014-06-04,fhrs_5_en-GB,5,,FHRS,5
215391,9 Oakmede Place,Binfield,Bracknell,,Amir Restaurant,Restaurant/Cafe/Canteen,1,5,,517855,10,,51.43083400000000,PI/000032467,882,environmental.health@bracknell-forest.gov.uk,Bracknell Forest,http://www.bracknell-forest.gov.uk,-0.79047500000000,RG42 4JF,2014-11-11,fhrs_4_en-GB,4,,FHRS,5
215392,4 Great Hollands Square,Bracknell,,,Amoy Chinese Takeaway,Takeaway/sandwich shop,7844,10,,517731,10,,51.39941900000000,PI/000017520,882,environmental.health@bracknell-forest.gov.uk,Bracknell Forest,http://www.bracknell-forest.gov.uk,-0.77087600000000,RG12 8UX,2014-10-30,fhrs_3_en-GB,3,,FHRS,10
215393,,,,,Angel's Cupcakery,Other catering premises,7841,5,,518394,0,,,PI/000063701,882,environmental.health@bracknell-forest.gov.uk,Bracknell Forest,http://www.bracknell-forest.gov.uk,,,2014-06-17,fhrs_5_en-GB,5,,FHRS,0
215394,6 Market Street,Bracknell,,,Anne Marie Patesserie,Takeaway/sandwich shop,7844,10,,518337,0,,51.41590000000000,PI/000062825,882,environmental.health@bracknell-forest.gov.uk,Bracknell Forest,http://www.bracknell-forest.gov.uk,-0.75208500000000,RG12 1JG,2014-11-26,fhrs_4_en-GB,4,,FHRS,5
215395,Dell House,The Boulevard,Cain Road,Bracknell,Aramark (staff canteen),Restaurant/Cafe/Canteen,1,5,,517640,5,,51.41310600000000,PI/000006569,882,environmental.health@bracknell-forest.gov.uk,Bracknell Forest,http://www.bracknell-forest.gov.uk,-0.77962600000000,RG12 1LF,2013-12-19,fhrs_5_en-GB,5,,FHRS,5
215396,20 Princess Square,Bracknell,,,Argos Limited,Retailers - other,4613,,,517875,,,51.41547100000000,PI/000035438,882,environmental.health@bracknell-forest.gov.uk,Bracknell Forest,http://www.bracknell-forest.gov.uk,-0.75061600000000,RG12 1LS,,fhrs_exempt_en-GB,Exempt,,FHRS,
215397,Harmans Water Leisure Centre,Oareborough,Bracknell,,Artemis Studios Performing Art Sch,Hospitals/Childcare/Caring Premises,5,,,732074,,,,PI/000067170,882,environmental.health@bracknell-forest.gov.uk,Bracknell Forest,http://www.bracknell-forest.gov.uk,,,,fhrs_awaitinginspection_en-GB,AwaitingInspection,,FHRS,
215398,Lovel Road,Winkfield,Windsor,,Ascot and Cranbourne Pre-School,Hospitals/Childcare/Caring Premises,5,5,,518191,5,,51.43629200000000,PI/000059144,882,environmental.health@bracknell-forest.gov.uk,Bracknell Forest,http://www.bracknell-forest.gov.uk,-0.67641600000000,SL4 2EU,2008-11-05,fhrs_5_en-GB,5,,FHRS,5
215399,175 New Road,Ascot,,,Ascot Baptist Church,Other catering premises,7841,10,,517843,5,,51.42175500000000,PI/000030901,882,environmental.health@bracknell-forest.gov.uk,Bracknell Forest,http://www.bracknell-forest.gov.uk,-0.68549400000000,SL5 8PX,2014-04-02,fhrs_4_en-GB,4,,FHRS,0
215400,North Ascot Community Centre,Fernbank Road,Ascot,,Ascot Day Nursery,Hospitals/Childcare/Caring Premises,5,5,,518280,5,,51.42102000000000,PI/000060529,882,environmental.health@bracknell-forest.gov.uk,Bracknell Forest,http://www.bracknell-forest.gov.uk,-0.69057700000000,SL5 8LA,2010-01-06,fhrs_5_en-GB,5,,FHRS,5
215401,The Pavilion,Ascot Jubilee Recreation Ground,Goaters Road,Ascot,Ascot Jubilee Pavilion,Other catering premises,7841,,,517723,,,51.41890900000000,PI/000016974,882,environmental.health@bracknell-forest.gov.uk,Bracknell Forest,http://www.bracknell-forest.gov.uk,-0.69475100000000,SL5 8JW,2007-02-26,fhrs_exempt_en-GB,Exempt,,FHRS,
215402,1 Warren Row,Ascot,,,Ascot Late Shop,Retailers - other,4613,0,,517953,5,,51.41704900000000,PI/000045697,882,environmental.health@bracknell-forest.gov.uk,Bracknell Forest,http://www.bracknell-forest.gov.uk,-0.69890200000000,SL5 8HN,2014-10-01,fhrs_4_en-GB,4,,FHRS,10
215403,29 Yeovil Road,Owlsmoor,Sandhurst,,Asian Grocery Store,Retailers - other,4613,10,,579707,5,,51.35276100000000,PI/000066174,882,environmental.health@bracknell-forest.gov.uk,Bracknell Forest,http://www.bracknell-forest.gov.uk,-0.77969300000000,GU47 0TF,2015-01-08,fhrs_4_en-GB,4,,FHRS,5
215404,,,,,Avedna Ltd,Retailers - other,4613,,,518426,,,,PI/000064260,882,environmental.health@bracknell-forest.gov.uk,Bracknell Forest,http://www.bracknell-forest.gov.uk,,,,fhrs_exempt_en-GB,Exempt,,FHRS,
215405,7 Rectory Row,Rectory Lane,Bracknell,,Balti King and Tandoori,Restaurant/Cafe/Canteen,1,0,,517887,5,,51.40469400000000,PI/000036638,882,environmental.health@bracknell-forest.gov.uk,Bracknell Forest,http://www.bracknell-forest.gov.uk,-0.75607100000000,RG12 7BN,2014-05-06,fhrs_5_en-GB,5,,FHRS,5
215406,144 High Street,Crowthorne,,,Baptist Church And Hall,Other catering premises,7841,,,517767,,,51.36854300000000,PI/000020285,882,environmental.health@bracknell-forest.gov.uk,Bracknell Forest,http://www.bracknell-forest.gov.uk,-0.79369700000000,RG45 7AT,,fhrs_exempt_en-GB,Exempt,,FHRS,
215407,26 Charles Square,Bracknell,,,Bar Torino,Restaurant/Cafe/Canteen,1,0,,517648,5,,51.41584100000000,PI/000007422,882,environmental.health@bracknell-forest.gov.uk,Bracknell Forest,http://www.bracknell-forest.gov.uk,-0.74900900000000,RG12 1DF,2013-11-21,fhrs_5_en-GB,5,,FHRS,5
215408,Westmorland Park Pavilion,Westmorland Drive,Warfield,Bracknell,Baseball Club,Other catering premises,7841,,,518292,,,51.42878800000000,PI/000060609,882,environmental.health@bracknell-forest.gov.uk,Bracknell Forest,http://www.bracknell-forest.gov.uk,-0.72548200000000,RG42 3QP,,fhrs_exempt_en-GB,Exempt,,FHRS,
215409,Jealotts Hill Research Station,Jealotts Hill,Warfield,Bracknell,Baxter Storey (Elements staff cafe),Restaurant/Cafe/Canteen,1,0,,518227,5,,51.45274700000000,PI/000060064,882,environmental.health@bracknell-forest.gov.uk,Bracknell Forest,http://www.bracknell-forest.gov.uk,-0.74847600000000,RG42 6EY,2012-12-10,fhrs_5_en-GB,5,,FHRS,5
215410,Honeywell House,Skimped Hill Lane,Bracknell,,Baxter Storey (staff canteen),Restaurant/Cafe/Canteen,1,5,,517908,5,,51.41661500000000,PI/000039318,882,environmental.health@bracknell-forest.gov.uk,Bracknell Forest,http://www.bracknell-forest.gov.uk,-0.75587700000000,RG12 1EB,2013-11-19,fhrs_5_en-GB,5,,FHRS,5
215411,The Arena,Downshire Way,Bracknell,,"Baxterstory (staff restaurant), GE",Restaurant/Cafe/Canteen,1,0,,517689,0,,51.41666000000000,PI/000012128,882,environmental.health@bracknell-forest.gov.uk,Bracknell Forest,http://www.bracknell-forest.gov.uk,-0.76092300000000,RG12 1PU,2014-01-08,fhrs_5_en-GB,5,,FHRS,5
215412,,,,,BeBe's,Mobile caterer,7846,5,,518402,5,,,PI/000063788,882,environmental.health@bracknell-forest.gov.uk,Bracknell Forest,http://www.bracknell-forest.gov.uk,,,2011-10-24,fhrs_5_en-GB,5,,FHRS,0
215413,Bentalls,57-67 High Street,Bracknell,,Bentalls Department Store,Retailers - other,4613,,,517756,,,51.41631000000000,PI/000019911,882,environmental.health@bracknell-forest.gov.uk,Bracknell Forest,http://www.bracknell-forest.gov.uk,-0.75090900000000,RG12 1DW,,fhrs_exempt_en-GB,Exempt,,FHRS,
215414,Swinley Road,Ascot,,,Berkshire Golf Club,Restaurant/Cafe/Canteen,1,10,,517924,10,,51.38574400000000,PI/000041424,882,environmental.health@bracknell-forest.gov.uk,Bracknell Forest,http://www.bracknell-forest.gov.uk,-0.70348300000000,SL5 8AY,2014-01-13,fhrs_3_en-GB,3,,FHRS,5
215415,The Little House,Bagshot Road,Bracknell,,Berkshire HealthCare FoundationTrust,Hospitals/Childcare/Caring Premises,5,5,,517599,5,,51.40971200000000,PI/000002434,882,environmental.health@bracknell-forest.gov.uk,Bracknell Forest,http://www.bracknell-forest.gov.uk,-0.75021200000000,RG12 9RA,2014-02-25,fhrs_5_en-GB,5,,FHRS,5
215416,12 Wildridings Square,Bracknell,,,Best Kebab in Town,Takeaway/sandwich shop,7844,5,,518200,10,,51.40729100000000,PI/000059782,882,environmental.health@bracknell-forest.gov.uk,Bracknell Forest,http://www.bracknell-forest.gov.uk,-0.76277200000000,RG12 7SJ,2014-10-09,fhrs_2_en-GB,2,,FHRS,15
215417,12 High Street,Crowthorne,,,Best One,Retailers - other,4613,10,,518094,5,,51.36979100000000,PI/000050894,882,environmental.health@bracknell-forest.gov.uk,Bracknell Forest,http://www.bracknell-forest.gov.uk,-0.79263000000000,RG45 7AZ,2009-11-03,fhrs_3_en-GB,3,,FHRS,10
215418,,,,,Bethany's Buns,Other catering premises,7841,,,610811,,,,PI/000066362,882,environmental.health@bracknell-forest.gov.uk,Bracknell Forest,http://www.bracknell-forest.gov.uk,,,,fhrs_awaitinginspection_en-GB,AwaitingInspection,,FHRS,
215419,Easthampstead House,Town Square,Bracknell,,BFBC Catering,Other catering premises,7841,,,517937,,,51.41752200000000,PI/000043281,882,environmental.health@bracknell-forest.gov.uk,Bracknell Forest,http://www.bracknell-forest.gov.uk,-0.74731000000000,RG12 1AQ,2012-02-27,fhrs_exempt_en-GB,Exempt,,FHRS,
215420,10A Portman Close,Bracknell,,,BFC- Larchwood,Hospitals/Childcare/Caring Premises,5,5,,518316,5,,51.41862100000000,PI/000062044,882,environmental.health@bracknell-forest.gov.uk,Bracknell Forest,http://www.bracknell-forest.gov.uk,-0.76192000000000,RG42 1NE,2013-01-08,fhrs_5_en-GB,5,,FHRS,5
215421,Glenfield House,Rectory Close,Bracknell,,BFC Supported Housing Unit,Hospitals/Childcare/Caring Premises,5,,,518151,,,51.40754000000000,PI/000056539,882,environmental.health@bracknell-forest.gov.uk,Bracknell Forest,http://www.bracknell-forest.gov.uk,-0.74893400000000,RG12 7BD,,fhrs_exempt_en-GB,Exempt,,FHRS,
215422,Moss End Farm And Garden Centre,Maidenhead Road,Warfield,Bracknell,Biltong Emporium,Retailers - other,4613,20,,518587,10,,51.44532300000000,PI/000065307,882,environmental.health@bracknell-forest.gov.uk,Bracknell Forest,http://www.bracknell-forest.gov.uk,-0.75132700000000,RG42 6EJ,2014-11-05,fhrs_1_en-GB,1,,FHRS,5
215423,Forest Road,Binfield,Bracknell,,Binfield Cricket Club,Pub/bar/nightclub,7843,,,518133,,,51.43049200000000,PI/000051147,882,environmental.health@bracknell-forest.gov.uk,Bracknell Forest,http://www.bracknell-forest.gov.uk,-0.79569100000000,RG42 4DU,2008-09-12,fhrs_exempt_en-GB,Exempt,,FHRS,
215424,Hill Farm Lane,Binfield,Bracknell,,Binfield Football Club,Pub/bar/nightclub,7843,10,,518057,5,,51.44367900000000,PI/000050685,882,environmental.health@bracknell-forest.gov.uk,Bracknell Forest,http://www.bracknell-forest.gov.uk,-0.76840800000000,RG42 5QZ,2013-01-11,fhrs_4_en-GB,4,,FHRS,5
215425,Binfield Memorial Hall,Terrace Road South,Binfield,Bracknell,Binfield Hall,Other catering premises,7841,,,660703,,,51.42773000000000,PI/000064358,882,environmental.health@bracknell-forest.gov.uk,Bracknell Forest,http://www.bracknell-forest.gov.uk,-0.78854300000000,RG42 4DJ,,fhrs_exempt_en-GB,Exempt,,FHRS,
215426,The Corner Shop,Terrace Road North,Binfield,Bracknell,Binfield Kitchen,Takeaway/sandwich shop,7844,5,,517927,5,,51.43175600000000,PI/000041991,882,environmental.health@bracknell-forest.gov.uk,Bracknell Forest,http://www.bracknell-forest.gov.uk,-0.79012000000000,RG42 5HS,2014-01-29,fhrs_5_en-GB,5,,FHRS,5
215427,Binfield Memorial Hall,Terrace Road South,Binfield,Bracknell,Binfield Pre-School,Hospitals/Childcare/Caring Premises,5,5,,518413,5,,51.43472000000000,PI/000063864,882,environmental.health@bracknell-forest.gov.uk,Bracknell Forest,http://www.bracknell-forest.gov.uk,-0.78973900000000,RG42 5JA,2010-02-25,fhrs_5_en-GB,5,,FHRS,5
215428,Recreation Ground,Jocks Lane,Bracknell,,Binfield Pre-School,Hospitals/Childcare/Caring Premises,5,5,,518194,5,,51.42555500000000,PI/000059151,882,environmental.health@bracknell-forest.gov.uk,Bracknell Forest,http://www.bracknell-forest.gov.uk,-0.76630600000000,RG12 2BH,2011-03-09,fhrs_5_en-GB,5,,FHRS,0
215429,Binfield Club House,Forest Road,Binfield,Bracknell,Binfield Social Club,Pub/bar/nightclub,7843,10,,518051,10,,51.43049200000000,PI/000050644,882,environmental.health@bracknell-forest.gov.uk,Bracknell Forest,http://www.bracknell-forest.gov.uk,-0.79569100000000,RG42 4DU,2014-03-07,fhrs_3_en-GB,3,,FHRS,10
215430,1 Victoria Place,Terrace Road North,Binfield,Bracknell,Binfield Village Stores,Retailers - other,4613,10,,517926,0,,51.43443300000000,PI/000041969,882,environmental.health@bracknell-forest.gov.uk,Bracknell Forest,http://www.bracknell-forest.gov.uk,-0.78986200000000,RG42 5JB,2012-12-10,fhrs_4_en-GB,4,,FHRS,5
215431,Birch Hill Pavillion,Ringmead,Birch Hill,Bracknell,Birch Hill Kiosk,Restaurant/Cafe/Canteen,1,5,,518196,5,,51.39445200000000,PI/000059161,882,environmental.health@bracknell-forest.gov.uk,Bracknell Forest,http://www.bracknell-forest.gov.uk,-0.74263600000000,RG12 0QJ,2013-03-18,fhrs_5_en-GB,5,,FHRS,0
215432,Birch Hill Primary School,Leppington,Bracknell,,Birch Hill Playgroup,Hospitals/Childcare/Caring Premises,5,0,,517804,0,,51.39084800000000,PI/000025108,882,environmental.health@bracknell-forest.gov.uk,Bracknell Forest,http://www.bracknell-forest.gov.uk,-0.75201900000000,RG12 7WW,2011-03-14,fhrs_5_en-GB,5,,FHRS,5
215433,Warfield Road,Bracknell,,,Birdsgrove Nursing Home,Hospitals/Childcare/Caring Premises,5,5,,517950,5,,51.41983800000000,PI/000045500,882,environmental.health@bracknell-forest.gov.uk,Bracknell Forest,http://www.bracknell-forest.gov.uk,-0.74356500000000,RG12 2JB,2015-01-26,fhrs_5_en-GB,5,,FHRS,5
215434,,,,,Black Pig Brewery,Retailers - other,4613,,,736204,,,,PI/000067173,882,environmental.health@bracknell-forest.gov.uk,Bracknell Forest,http://www.bracknell-forest.gov.uk,,,,fhrs_awaitinginspection_en-GB,AwaitingInspection,,FHRS,
215435,Viewpoint 1,Willoughby Road,Bracknell,,Blue Apple Catering (staff canteen),Restaurant/Cafe/Canteen,1,0,,518289,5,,51.41009600000000,PI/000060596,882,environmental.health@bracknell-forest.gov.uk,Bracknell Forest,http://www.bracknell-forest.gov.uk,-0.76613300000000,RG12 8FP,2014-02-24,fhrs_5_en-GB,5,,FHRS,5
215436,Lovel Lane,Winkfield,Windsor,,Bluebell House,Hotel/bed & breakfast/guest house,7842,10,,517820,5,,51.43325100000000,PI/000026855,882,environmental.health@bracknell-forest.gov.uk,Bracknell Forest,http://www.bracknell-forest.gov.uk,-0.65967200000000,SL4 2DG,2009-04-28,fhrs_4_en-GB,4,,FHRS,5
215437,The Red Lion,High Street,Bracknell,,Blues Smokehouse BBQ Ltd,Restaurant/Cafe/Canteen,1,5,,665014,10,,51.41706900000000,PI/000066594,882,environmental.health@bracknell-forest.gov.uk,Bracknell Forest,http://www.bracknell-forest.gov.uk,-0.75202500000000,RG12 1DS,2014-07-23,fhrs_3_en-GB,3,,FHRS,10
215438,Boots Pharmacy,70 Yorktown Road,Sandhurst,,Boots,Retailers - other,4613,,,518301,,,51.34530300000000,PI/000060693,882,environmental.health@bracknell-forest.gov.uk,Bracknell Forest,http://www.bracknell-forest.gov.uk,-0.79848500000000,GU47 9BT,,fhrs_exempt_en-GB,Exempt,,FHRS,
215439,5 The Square,Bracknell,,,Boots Pharmacy,Retailers - other,4613,,,518270,,,51.40621000000000,PI/000060494,882,environmental.health@bracknell-forest.gov.uk,Bracknell Forest,http://www.bracknell-forest.gov.uk,-0.73226400000000,RG12 9LP,,fhrs_exempt_en-GB,Exempt,,FHRS,
215440,13 Princess Square,Bracknell,,,Boots The Chemist,Retailers - other,4613,0,,517877,0,,51.41547100000000,PI/000035443,882,environmental.health@bracknell-forest.gov.uk,Bracknell Forest,http://www.bracknell-forest.gov.uk,-0.75061600000000,RG12 1LS,2011-03-11,fhrs_5_en-GB,5,,FHRS,5
215441,Bracknell Service Station,Wokingham Road,Bracknell,,BP Bracknell SF Connect,Retailers - other,4613,0,,517975,0,,51.41777000000000,PI/000048157,882,environmental.health@bracknell-forest.gov.uk,Bracknell Forest,http://www.bracknell-forest.gov.uk,-0.76306400000000,RG42 1NB,2014-03-11,fhrs_5_en-GB,5,,FHRS,5
215442,Bp Petrol Station,Bagshot Road,Bracknell,,BP Oil UK Limited (Express Shopping),Retailers - other,4613,0,,517595,0,,,PI/000002370,882,environmental.health@bracknell-forest.gov.uk,Bracknell Forest,http://www.bracknell-forest.gov.uk,,RG12 9RP,2012-12-13,fhrs_5_en-GB,5,,FHRS,0
215443,South Hill Road,Bracknell,,,Bracknell Athletics Club,Other catering premises,7841,,,517910,,,51.39954800000000,PI/000039430,882,environmental.health@bracknell-forest.gov.uk,Bracknell Forest,http://www.bracknell-forest.gov.uk,-0.75159600000000,RG12 7NS,,fhrs_exempt_en-GB,Exempt,,FHRS,
215444,Church Road,Bracknell,,,Bracknell Bowling And Social Club,Pub/bar/nightclub,7843,5,,517656,10,,51.41504500000000,PI/000008232,882,environmental.health@bracknell-forest.gov.uk,Bracknell Forest,http://www.bracknell-forest.gov.uk,-0.74609700000000,RG12 1EH,2014-01-07,fhrs_3_en-GB,3,,FHRS,10
215445,Bracknell Grampion Nursing Home,Crowthorne Road,Bracknell,,Bracknell Care Home,Hospitals/Childcare/Caring Premises,5,5,,518142,5,,51.40538300000000,PI/000053504,882,environmental.health@bracknell-forest.gov.uk,Bracknell Forest,http://www.bracknell-forest.gov.uk,-0.75829500000000,RG12 7DN,2014-12-03,fhrs_5_en-GB,5,,FHRS,5
215446,Larges Lane,Bracknell,,,Bracknell Cricket Club,Pub/bar/nightclub,7843,,,517801,,,51.41277300000000,PI/000024787,882,environmental.health@bracknell-forest.gov.uk,Bracknell Forest,http://www.bracknell-forest.gov.uk,-0.74383000000000,RG12 9AN,2012-03-12,fhrs_exempt_en-GB,Exempt,,FHRS,
215447,Bracknell Training Centre,Eastern Road,Bracknell,,Bracknell Day Services,School/college/university,7845,5,,517704,5,,51.41433600000000,PI/000013162,882,environmental.health@bracknell-forest.gov.uk,Bracknell Forest,http://www.bracknell-forest.gov.uk,-0.73779100000000,RG12 2UP,2012-09-13,fhrs_5_en-GB,5,,FHRS,5
215448,Charles Square Car Park,The Ring,Bracknell,,Bracknell Drama Club,Pub/bar/nightclub,7843,,,517657,,,51.41491200000000,PI/000008239,882,environmental.health@bracknell-forest.gov.uk,Bracknell Forest,http://www.bracknell-forest.gov.uk,-0.74794200000000,RG12 1BW,,fhrs_awaitinginspection_en-GB,AwaitingInspection,,FHRS,
215449,,,,,Bracknell Families Centre,Other catering premises,7841,0,,517951,0,,,PI/000045513,882,environmental.health@bracknell-forest.gov.uk,Bracknell Forest,http://www.bracknell-forest.gov.uk,,,2014-09-11,fhrs_5_en-GB,5,,FHRS,5
215450,Binfield House,Terrace Road North,Binfield,Bracknell,Bracknell Forest Homes,Hospitals/Childcare/Caring Premises,5,5,,518107,5,,51.43420000000000,PI/000050967,882,environmental.health@bracknell-forest.gov.uk,Bracknell Forest,http://www.bracknell-forest.gov.uk,-0.78907700000000,RG42 5JQ,2007-07-30,fhrs_5_en-GB,5,,FHRS,5
215451,Broadway House,The Broadway,Sandhurst,,Bracknell Forest Homes,Hospitals/Childcare/Caring Premises,5,0,,517930,0,,51.34591100000000,PI/000042258,882,environmental.health@bracknell-forest.gov.uk,Bracknell Forest,http://www.bracknell-forest.gov.uk,-0.79729200000000,GU47 9BX,2013-07-18,fhrs_5_en-GB,5,,FHRS,0
215452,Carlyle Court,Kings Road,Crowthorne,,Bracknell Forest Homes,Hospitals/Childcare/Caring Premises,5,5,,517797,5,,51.36931700000000,PI/000024162,882,environmental.health@bracknell-forest.gov.uk,Bracknell Forest,http://www.bracknell-forest.gov.uk,-0.79373400000000,RG45 7AG,2007-09-13,fhrs_5_en-GB,5,,FHRS,5
215453,Dennis Pilcher House,Rowley Close,Bracknell,,Bracknell Forest Homes,Hospitals/Childcare/Caring Premises,5,0,,517625,0,,51.41271300000000,PI/000005277,882,environmental.health@bracknell-forest.gov.uk,Bracknell Forest,http://www.bracknell-forest.gov.uk,-0.73159500000000,RG12 9TP,2014-07-11,fhrs_5_en-GB,5,,FHRS,0
215454,Edmonds Court,Sandy Lane,Bracknell,,Bracknell Forest Homes,Hospitals/Childcare/Caring Premises,5,5,,518062,5,,51.41617900000000,PI/000050724,882,environmental.health@bracknell-forest.gov.uk,Bracknell Forest,http://www.bracknell-forest.gov.uk,-0.76653000000000,RG12 1RE,2008-09-23,fhrs_5_en-GB,5,,FHRS,5
215455,Farningham House,Farningham,Bracknell,,Bracknell Forest Homes,Hospitals/Childcare/Caring Premises,5,5,,517710,5,,51.39805800000000,PI/000014437,882,environmental.health@bracknell-forest.gov.uk,Bracknell Forest,http://www.bracknell-forest.gov.uk,-0.73014600000000,RG12 0XR,2011-01-19,fhrs_5_en-GB,5,,FHRS,0
215456,Liscombe House,Liscombe,Bracknell,,Bracknell Forest Homes,Hospitals/Childcare/Caring Premises,5,10,,517807,10,,51.39310400000000,PI/000025616,882,environmental.health@bracknell-forest.gov.uk,Bracknell Forest,http://www.bracknell-forest.gov.uk,-0.75195800000000,RG12 7AL,2009-06-17,fhrs_4_en-GB,4,,FHRS,0
215457,Swan House,Goughs Meadow,Sandhurst,,Bracknell Forest Homes,Hospitals/Childcare/Caring Premises,5,5,,517726,5,,51.34454100000000,PI/000017192,882,environmental.health@bracknell-forest.gov.uk,Bracknell Forest,http://www.bracknell-forest.gov.uk,-0.79872100000000,GU47 9BZ,2010-12-14,fhrs_5_en-GB,5,,FHRS,0
215458,The Office,Barnett Court,Larges Lane,Bracknell,Bracknell Forest Homes,Hospitals/Childcare/Caring Premises,5,0,,517800,5,,51.41509000000000,PI/000024755,882,environmental.health@bracknell-forest.gov.uk,Bracknell Forest,http://www.bracknell-forest.gov.uk,-0.74355100000000,RG12 9AT,2014-08-28,fhrs_5_en-GB,5,,FHRS,5
215459,The Wayz,Calfridus Way,Bracknell,,Bracknell Forest Homes,Hospitals/Childcare/Caring Premises,5,,,517642,,,51.41011900000000,PI/000006732,882,environmental.health@bracknell-forest.gov.uk,Bracknell Forest,http://www.bracknell-forest.gov.uk,-0.72870500000000,RG12 9ET,,fhrs_exempt_en-GB,Exempt,,FHRS,
215460,Winkfield Manor,Forest Road,Ascot,,Bracknell Forest Homes,Hospitals/Childcare/Caring Premises,5,5,,518073,5,,51.42638200000000,PI/000050795,882,environmental.health@bracknell-forest.gov.uk,Bracknell Forest,http://www.bracknell-forest.gov.uk,-0.69403400000000,SL5 8RY,2007-08-03,fhrs_5_en-GB,5,,FHRS,5
215461,Birch Hill Recreation Centre,Ringmead,Birch Hill,Bracknell,Bracknell Hockey Club,Pub/bar/nightclub,7843,,,518116,,,51.39034300000000,PI/000051024,882,environmental.health@bracknell-forest.gov.uk,Bracknell Forest,http://www.bracknell-forest.gov.uk,-0.74177100000000,RG12 7AQ,2007-01-12,fhrs_exempt_en-GB,Exempt,,FHRS,
215462,Lily Hill Road,Bracknell,,,Bracknell Lawn Tennis Club,Pub/bar/nightclub,7843,10,,518096,5,,51.41646300000000,PI/000050903,882,environmental.health@bracknell-forest.gov.uk,Bracknell Forest,http://www.bracknell-forest.gov.uk,-0.72664500000000,RG12 2SJ,2010-02-22,fhrs_4_en-GB,4,,FHRS,5
215463,Bagshot Road,Bracknell,,,Bracknell Leisure Centre,Restaurant/Cafe/Canteen,1,5,,517596,5,,51.40479400000000,PI/000002408,882,environmental.health@bracknell-forest.gov.uk,Bracknell Forest,http://www.bracknell-forest.gov.uk,-0.74778700000000,RG12 9SE,2013-08-06,fhrs_5_en-GB,5,,FHRS,5
215464,Lily Hill Drive,Bracknell,,,Bracknell Rugby Football Club,Pub/bar/nightclub,7843,10,,518058,10,,51.41367500000000,PI/000050708,882,environmental.health@bracknell-forest.gov.uk,Bracknell Forest,http://www.bracknell-forest.gov.uk,-0.72994300000000,RG12 2UG,2014-03-25,fhrs_3_en-GB,3,,FHRS,10
215465,Wokingham Road,Bracknell,,,Bracknell Stores,Retailers - other,4613,10,,517979,0,,51.41911700000000,PI/000048306,882,environmental.health@bracknell-forest.gov.uk,Bracknell Forest,http://www.bracknell-forest.gov.uk,-0.77060700000000,RG42 1PB,2014-04-29,fhrs_4_en-GB,4,,FHRS,10
215466,Clubhouse,Larges Lane,Bracknell,,Bracknell Town Football Club,Other catering premises,7841,5,,517802,5,,51.41277300000000,PI/000024790,882,environmental.health@bracknell-forest.gov.uk,Bracknell Forest,http://www.bracknell-forest.gov.uk,-0.74383000000000,RG12 9AN,2010-08-24,fhrs_5_en-GB,5,,FHRS,5
215467,The Brakenhale School,Rectory Lane,Bracknell,,Bracknell Trampoline Centre,Other catering premises,7841,,,518264,,,51.40732700000000,PI/000060473,882,environmental.health@bracknell-forest.gov.uk,Bracknell Forest,http://www.bracknell-forest.gov.uk,-0.75090900000000,RG12 7BA,2009-11-13,fhrs_exempt_en-GB,Exempt,,FHRS,
215468,76 Binfield Road,Bracknell,,,Bracknell Youth Offending Service,Other catering premises,7841,,,517609,,,51.42066900000000,PI/000003803,882,environmental.health@bracknell-forest.gov.uk,Bracknell Forest,http://www.bracknell-forest.gov.uk,-0.75743500000000,RG42 2AR,2014-06-20,fhrs_exempt_en-GB,Exempt,,FHRS,
215469,Crowthorne Road North,Bracknell,,,Bramleywood Day Nursery,Hospitals/Childcare/Caring Premises,5,5,,517676,5,,51.41027200000000,PI/000010443,882,environmental.health@bracknell-forest.gov.uk,Bracknell Forest,http://www.bracknell-forest.gov.uk,-0.75295700000000,RG12 7AR,2014-10-20,fhrs_4_en-GB,4,,FHRS,10
215470,The Pavilion,Braybrooke Recreation Ground,Makepiece Road,Bracknell,Braybrooke Hall Recreation Cent.,Other catering premises,7841,,,517622,,,51.42461000000000,PI/000005110,882,environmental.health@bracknell-forest.gov.uk,Bracknell Forest,http://www.bracknell-forest.gov.uk,-0.75430700000000,RG42 2HF,,fhrs_exempt_en-GB,Exempt,,FHRS,
215471,Wildridings Primary School,Netherton,Bracknell,,Breakfast Club @ Wildriding School,School/college/university,7845,,,643186,,,51.40725900000000,PI/000066528,882,environmental.health@bracknell-forest.gov.uk,Bracknell Forest,http://www.bracknell-forest.gov.uk,-0.76136400000000,RG12 7DX,,fhrs_awaitinginspection_en-GB,AwaitingInspection,,FHRS,
215472,Dolphin Nursery,Wokingham Road,Bracknell,,Bright Horizons Family Solutions PLC,Hospitals/Childcare/Caring Premises,5,5,,550951,0,,51.42014800000000,PI/000065663,882,environmental.health@bracknell-forest.gov.uk,Bracknell Forest,http://www.bracknell-forest.gov.uk,-0.77194600000000,RG42 1PN,2014-11-05,fhrs_5_en-GB,5,,FHRS,0
215473,Broadmoor Hospital,Lower Broadmoor Road,Crowthorne,,Broadways,Retailers - other,4613,5,,610812,0,,51.36908000000000,PI/000066363,882,environmental.health@bracknell-forest.gov.uk,Bracknell Forest,http://www.bracknell-forest.gov.uk,-0.78128500000000,RG45 7EG,2014-08-29,fhrs_5_en-GB,5,,FHRS,0
215474,The Brownlow Memorial Hall,Newell Green,Warfield,Bracknell,Brownlow Hall,Other catering premises,7841,,,518110,,,51.43280900000000,PI/000050975,882,environmental.health@bracknell-forest.gov.uk,Bracknell Forest,http://www.bracknell-forest.gov.uk,-0.74566900000000,RG42 6AB,,fhrs_exempt_en-GB,Exempt,,FHRS,
215475,16 Brickfield Ind Park,Kiln Lane,Bracknell,,buffets4business,Other catering premises,7841,0,,518397,0,,51.41409000000000,PI/000063732,882,environmental.health@bracknell-forest.gov.uk,Bracknell Forest,http://www.bracknell-forest.gov.uk,-0.76368100000000,RG12 1NA,2013-01-12,fhrs_5_en-GB,5,,FHRS,5
215476,Bay Road,Bracknell,,,Bullbrook Community Centre,Other catering premises,7841,,,517603,,,51.41598200000000,PI/000002897,882,environmental.health@bracknell-forest.gov.uk,Bracknell Forest,http://www.bracknell-forest.gov.uk,-0.73451000000000,RG12 2NP,2014-06-19,fhrs_exempt_en-GB,Exempt,,FHRS,
215477,3 Bullbrook Row,Bracknell,,,Bullbrook Pharmacy,Retailers - other,4613,,,518398,,,51.41651300000000,PI/000063755,882,environmental.health@bracknell-forest.gov.uk,Bracknell Forest,http://www.bracknell-forest.gov.uk,-0.73370400000000,RG12 2NL,2014-05-30,fhrs_exempt_en-GB,Exempt,,FHRS,
215478,7-8 Charles Square,Bracknell,,,Burger King,Restaurant/Cafe/Canteen,1,0,,517649,0,,51.41584100000000,PI/000007440,882,environmental.health@bracknell-forest.gov.uk,Bracknell Forest,http://www.bracknell-forest.gov.uk,-0.74900900000000,RG12 1DF,2013-01-12,fhrs_5_en-GB,5,,FHRS,0
215479,Bracknell Bus Station,Station Road,Bracknell,,Bus Station Cafeteria,Restaurant/Cafe/Canteen,1,5,,518105,5,,51.41370000000000,PI/000050962,882,environmental.health@bracknell-forest.gov.uk,Bracknell Forest,http://www.bracknell-forest.gov.uk,-0.75149800000000,RG12 1HY,2013-11-13,fhrs_2_en-GB,2,,FHRS,15
215480,Westmorland Park Pavilion,Westmorland Drive,Warfield,Bracknell,Busy Bees Montessori,Hospitals/Childcare/Caring Premises,5,5,,517963,5,,51.42878800000000,PI/000046938,882,environmental.health@bracknell-forest.gov.uk,Bracknell Forest,http://www.bracknell-forest.gov.uk,-0.72548200000000,RG42 3QP,2014-09-08,fhrs_5_en-GB,5,,FHRS,5
215481,,,,,Butlers Coffee,Mobile caterer,7846,0,,518465,0,,,PI/000064555,882,environmental.health@bracknell-forest.gov.uk,Bracknell Forest,http://www.bracknell-forest.gov.uk,,,2014-11-28,fhrs_5_en-GB,5,,FHRS,0
215482,Marks And Spencer Store,The Meadows,Marshall Road,Sandhurst,Cafe Refresh (staff canteen),Restaurant/Cafe/Canteen,1,0,,518392,0,,51.33581500000000,PI/000063696,882,environmental.health@bracknell-forest.gov.uk,Bracknell Forest,http://www.bracknell-forest.gov.uk,-0.77498900000000,GU47 0FD,2014-02-06,fhrs_5_en-GB,5,,FHRS,5
215483,Marks And Spencer Store,The Meadows,Marshall Road,Sandhurst,Cafe Revive,Restaurant/Cafe/Canteen,1,0,,518267,5,,51.33581500000000,PI/000060477,882,environmental.health@bracknell-forest.gov.uk,Bracknell Forest,http://www.bracknell-forest.gov.uk,-0.77498900000000,GU47 0FD,2014-02-06,fhrs_5_en-GB,5,,FHRS,5
215484,Bentalls,57-67 High Street,Bracknell,,Caffe Nero,Restaurant/Cafe/Canteen,1,0,,518159,5,,51.41631000000000,PI/000059082,882,environmental.health@bracknell-forest.gov.uk,Bracknell Forest,http://www.bracknell-forest.gov.uk,-0.75090900000000,RG12 1DW,2014-02-13,fhrs_5_en-GB,5,,FHRS,5
215485,Unit 3,Horndean Road,Bracknell,,Cakes Crazy,Other catering premises,7841,5,,518379,5,,51.39809500000000,PI/000063619,882,environmental.health@bracknell-forest.gov.uk,Bracknell Forest,http://www.bracknell-forest.gov.uk,-0.72857800000000,RG12 0XQ,2014-09-11,fhrs_5_en-GB,5,,FHRS,5
215486,,,,,Cakes with Love Limited,Other catering premises,7841,5,,537799,5,,,PI/000065639,882,environmental.health@bracknell-forest.gov.uk,Bracknell Forest,http://www.bracknell-forest.gov.uk,,,2014-06-16,fhrs_5_en-GB,5,,FHRS,0
215487,41B Yorktown Road,Sandhurst,,,Canton Chinese Takeaway,Takeaway/sandwich shop,7844,5,,518014,5,,51.34613100000000,PI/000050043,882,environmental.health@bracknell-forest.gov.uk,Bracknell Forest,http://www.bracknell-forest.gov.uk,-0.80123500000000,GU47 9DU,2013-02-21,fhrs_5_en-GB,5,,FHRS,5
215488,165 High Street,Crowthorne,,,Capers,Takeaway/sandwich shop,7844,5,,518210,0,,51.36832300000000,PI/000059836,882,environmental.health@bracknell-forest.gov.uk,Bracknell Forest,http://www.bracknell-forest.gov.uk,-0.79327200000000,RG45 7AF,2013-01-05,fhrs_5_en-GB,5,,FHRS,5
215489,,,,,Cara's Creative Cakes,Other catering premises,7841,10,,571766,0,,,PI/000065886,882,environmental.health@bracknell-forest.gov.uk,Bracknell Forest,http://www.bracknell-forest.gov.uk,,,2014-09-12,fhrs_4_en-GB,4,,FHRS,0
215490,16 Charles Square,Bracknell,,,Card Factory,Retailers - other,4613,,,689074,,,51.41584100000000,PI/000066831,882,environmental.health@bracknell-forest.gov.uk,Bracknell Forest,http://www.bracknell-forest.gov.uk,-0.74900900000000,RG12 1DF,,fhrs_exempt_en-GB,Exempt,,FHRS,
215491,43 High Street,Bracknell,,,Cargo,Retailers - other,4613,,,550943,,,51.41642700000000,PI/000060624,882,environmental.health@bracknell-forest.gov.uk,Bracknell Forest,http://www.bracknell-forest.gov.uk,-0.75004300000000,RG12 1EA,,fhrs_exempt_en-GB,Exempt,,FHRS,
215492,,,,,Carly Jayne Burgon,Other catering premises,7841,5,,518387,5,,,PI/000063673,882,environmental.health@bracknell-forest.gov.uk,Bracknell Forest,http://www.bracknell-forest.gov.uk,,,2014-06-24,fhrs_5_en-GB,5,,FHRS,0
215493,75 Yeovil Road,Owlsmoor,Sandhurst,,Carousel Playgroup,Hospitals/Childcare/Caring Premises,5,0,,517988,0,,51.35207500000000,PI/000049411,882,environmental.health@bracknell-forest.gov.uk,Bracknell Forest,http://www.bracknell-forest.gov.uk,-0.77604900000000,GU47 0TD,2011-02-18,fhrs_5_en-GB,5,,FHRS,0
215494,The Old Hatchet,Hatchet Lane,Winkfield,Windsor,Cask and Kitchen Pub Company Ltd,Pub/bar/nightclub,7843,10,,680660,10,,51.43330200000000,PI/000066617,882,environmental.health@bracknell-forest.gov.uk,Bracknell Forest,http://www.bracknell-forest.gov.uk,-0.67444500000000,SL4 2EE,2014-11-20,fhrs_3_en-GB,3,,FHRS,10
215495,Bracknell Ice Rink And Ski Centre,John Nike Way,Binfield,Bracknell,Catering by Sally (restaurant),Restaurant/Cafe/Canteen,1,5,,518419,5,,51.41544600000000,PI/000064193,882,environmental.health@bracknell-forest.gov.uk,Bracknell Forest,http://www.bracknell-forest.gov.uk,-0.78679700000000,RG12 8TN,2014-01-27,fhrs_5_en-GB,5,,FHRS,5
215496,Boehringer Ingelheim LTD Ellesfield Avenue,Bracknell,,,Charlton House (staff restaurant),Restaurant/Cafe/Canteen,1,5,,518204,5,,51.40797500000000,PI/000059794,882,environmental.health@bracknell-forest.gov.uk,Bracknell Forest,http://www.bracknell-forest.gov.uk,-0.77395400000000,RG12 8YS,2014-06-12,fhrs_4_en-GB,4,,FHRS,10
215497,Trl Limited,Crowthorne House,Nine Mile Ride,Wokingham,Charlton House (staff restaurant),Restaurant/Cafe/Canteen,1,0,,517847,5,,51.38300800000000,PI/000031206,882,environmental.health@bracknell-forest.gov.uk,Bracknell Forest,http://www.bracknell-forest.gov.uk,-0.78380400000000,RG40 3GA,2013-08-15,fhrs_5_en-GB,5,,FHRS,5
215498,Beech House,London Road,Binfield,Bracknell,Charnley Care Homes Ltd,Hospitals/Childcare/Caring Premises,5,0,,517813,0,,51.42081900000000,PI/000026132,882,environmental.health@bracknell-forest.gov.uk,Bracknell Forest,http://www.bracknell-forest.gov.uk,-0.78285800000000,RG42 4AB,2014-10-17,fhrs_5_en-GB,5,,FHRS,0
215499,Carnation Hall,Chavey Down Road,Winkfield Row,Bracknell,Chavey Down Pre-School,Hospitals/Childcare/Caring Premises,5,0,,518193,0,,51.42750000000000,PI/000059149,882,environmental.health@bracknell-forest.gov.uk,Bracknell Forest,http://www.bracknell-forest.gov.uk,-0.70968100000000,RG42 7PA,2014-04-02,fhrs_5_en-GB,5,,FHRS,0
215500,25 High Street,Bracknell,,,Cheney Ltd,Retailers - other,4613,,,517755,,,51.41627400000000,PI/000019824,882,environmental.health@bracknell-forest.gov.uk,Bracknell Forest,http://www.bracknell-forest.gov.uk,-0.74832200000000,RG12 1DL,2010-08-23,fhrs_exempt_en-GB,Exempt,,FHRS,
215501,Wellington College,Dukes Ride,Crowthorne,,Cherry Court Cafe and Sports Club,School/college/university,7845,20,,517702,15,,51.47676400000000,PI/000012799,882,environmental.health@bracknell-forest.gov.uk,Bracknell Forest,http://www.bracknell-forest.gov.uk,-0.98471900000000,RG4 7PT,2014-08-29,fhrs_1_en-GB,1,,FHRS,0
215502,67 Branksome Hill Road,College Town,Sandhurst,,Cherrytown Nursery,Hospitals/Childcare/Caring Premises,5,0,,517619,0,,51.34620800000000,PI/000005010,882,environmental.health@bracknell-forest.gov.uk,Bracknell Forest,http://www.bracknell-forest.gov.uk,-0.77817300000000,GU47 0QF,2013-09-25,fhrs_5_en-GB,5,,FHRS,0
215503,Park Lodge,Tilehurst Lane,Binfield,Bracknell,Childrens House Day Nursery,Hospitals/Childcare/Caring Premises,5,5,,517934,0,,51.43626900000000,PI/000043051,882,environmental.health@bracknell-forest.gov.uk,Bracknell Forest,http://www.bracknell-forest.gov.uk,-0.78820200000000,RG42 5JL,2015-01-12,fhrs_5_en-GB,5,,FHRS,0
215504,204 Dukes Ride,Crowthorne,,,Chillies Restaurant,Restaurant/Cafe/Canteen,1,5,,517695,10,,51.36756300000000,PI/000012570,882,environmental.health@bracknell-forest.gov.uk,Bracknell Forest,http://www.bracknell-forest.gov.uk,-0.81749700000000,RG45 6DS,2014-10-06,fhrs_3_en-GB,3,,FHRS,10
215505,13 Wildridings Square,Bracknell,,,China Express Ltd,Takeaway/sandwich shop,7844,5,,518395,5,,51.40729100000000,PI/000063724,882,environmental.health@bracknell-forest.gov.uk,Bracknell Forest,http://www.bracknell-forest.gov.uk,-0.76277200000000,RG12 7SJ,2014-11-05,fhrs_4_en-GB,4,,FHRS,10
215506,,,,,ChocUnique,Other catering premises,7841,10,,706898,5,,,PI/000066955,882,environmental.health@bracknell-forest.gov.uk,Bracknell Forest,http://www.bracknell-forest.gov.uk,,,2014-12-17,fhrs_4_en-GB,4,,FHRS,0
215507,Yorktown Road,Sandhurst,,,Church Of The Immaculate Conception,Other catering premises,7841,,,518022,,,51.34589900000000,PI/000050192,882,environmental.health@bracknell-forest.gov.uk,Bracknell Forest,http://www.bracknell-forest.gov.uk,-0.79871400000000,GU47 9BS,,fhrs_exempt_en-GB,Exempt,,FHRS,
215508,Maidens Green,Winkfield,Windsor,,Cinnamon Tree,Restaurant/Cafe/Canteen,1,5,,518039,10,,51.44422300000000,PI/000050445,882,environmental.health@bracknell-forest.gov.uk,Bracknell Forest,http://www.bracknell-forest.gov.uk,-0.70872100000000,SL4 4SJ,2014-02-07,fhrs_3_en-GB,3,,FHRS,10
215509,,,,,Classicakes Ltd,Other catering premises,7841,10,,518565,0,,,PI/000065057,882,environmental.health@bracknell-forest.gov.uk,Bracknell Forest,http://www.bracknell-forest.gov.uk,,,2013-01-28,fhrs_4_en-GB,4,,FHRS,0
215510,Woodmancote Centre,Pinewood Avenue,Crowthorne,,COATS,Other catering premises,7841,5,,518152,0,,51.37183800000000,PI/000058528,882,environmental.health@bracknell-forest.gov.uk,Bracknell Forest,http://www.bracknell-forest.gov.uk,-0.79227400000000,RG45 6RG,2012-12-07,fhrs_5_en-GB,5,,FHRS,0
215511,Coral Reef Water World,Nine Mile Ride,Bracknell,,Coconut Grove,Restaurant/Cafe/Canteen,1,5,,518102,10,,51.39061000000000,PI/000050948,882,environmental.health@bracknell-forest.gov.uk,Bracknell Forest,http://www.bracknell-forest.gov.uk,-0.73742300000000,RG12 7JQ,2014-03-05,fhrs_4_en-GB,4,,FHRS,5
215512,Wellington College,Crowthorne,,,College Shop,School/college/university,7845,5,,585860,5,,51.36330400000000,PI/000057853,882,environmental.health@bracknell-forest.gov.uk,Bracknell Forest,http://www.bracknell-forest.gov.uk,-0.81069800000000,RG45 7PT,2014-04-09,fhrs_5_en-GB,5,,FHRS,0
215513,117 College Road,College Town,Sandhurst,,College Town Montessori,Hospitals/Childcare/Caring Premises,5,10,,517664,10,,51.34674400000000,PI/000008916,882,environmental.health@bracknell-forest.gov.uk,Bracknell Forest,http://www.bracknell-forest.gov.uk,-0.77531600000000,GU47 0RD,2014-10-21,fhrs_4_en-GB,4,,FHRS,0
215514,Post Office,364 Yorktown Road,College Town,Sandhurst,College Town Newsagency,Retailers - other,4613,10,,518010,5,,51.34116500000000,PI/000049980,882,environmental.health@bracknell-forest.gov.uk,Bracknell Forest,http://www.bracknell-forest.gov.uk,-0.77833600000000,GU47 0PU,2011-01-13,fhrs_4_en-GB,4,,FHRS,0
215515,Royal Military Academy,Yorktown Road,College Town,Sandhurst,Colours Bar,Pub/bar/nightclub,7843,0,,518028,0,,,PI/000050223,882,environmental.health@bracknell-forest.gov.uk,Bracknell Forest,http://www.bracknell-forest.gov.uk,,GU47 0HL,2013-03-14,fhrs_5_en-GB,5,,FHRS,0
215516,Afton Chemical Limited,London Road,Bracknell,,Connect Catering,Restaurant/Cafe/Canteen,1,5,,712314,5,,51.41389300000000,PI/000066960,882,environmental.health@bracknell-forest.gov.uk,Bracknell Forest,http://www.bracknell-forest.gov.uk,-0.73344600000000,RG12 2UW,2014-12-09,fhrs_5_en-GB,5,,FHRS,5
215517,South Hill Park,Ringmead,Birch Hill,Bracknell,Contractin Ltd,Restaurant/Cafe/Canteen,1,10,,518428,10,,51.39373800000000,PI/000064263,882,environmental.health@bracknell-forest.gov.uk,Bracknell Forest,http://www.bracknell-forest.gov.uk,-0.74984200000000,RG12 7PA,2014-02-17,fhrs_3_en-GB,3,,FHRS,10
215518,149 High Street,Crowthorne,,,Co-operative,Retailers - supermarkets/hypermarkets,7840,5,,518285,0,,51.36832300000000,PI/000060579,882,environmental.health@bracknell-forest.gov.uk,Bracknell Forest,http://www.bracknell-forest.gov.uk,-0.79327200000000,RG45 7AF,2011-11-29,fhrs_5_en-GB,5,,FHRS,0
215519,33-35 Yeovil Road,Owlsmoor,Sandhurst,,Co-operative,Retailers - supermarkets/hypermarkets,7840,0,,517986,0,,51.35276100000000,PI/000049372,882,environmental.health@bracknell-forest.gov.uk,Bracknell Forest,http://www.bracknell-forest.gov.uk,-0.77969300000000,GU47 0TF,2013-01-05,fhrs_5_en-GB,5,,FHRS,0
215520,53 Yorktown Road,Sandhurst,,,Co-operative,Retailers - supermarkets/hypermarkets,7840,5,,518017,0,,51.34613100000000,PI/000050097,882,environmental.health@bracknell-forest.gov.uk,Bracknell Forest,http://www.bracknell-forest.gov.uk,-0.80123500000000,GU47 9DU,2013-01-05,fhrs_5_en-GB,5,,FHRS,0
215521,5-6 Rectory Row,Rectory Lane,Bracknell,,Co-operative,Retailers - supermarkets/hypermarkets,7840,0,,517886,0,,51.40469400000000,PI/000036637,882,environmental.health@bracknell-forest.gov.uk,Bracknell Forest,http://www.bracknell-forest.gov.uk,-0.75607100000000,RG12 7BN,2011-12-14,fhrs_5_en-GB,5,,FHRS,5
215522,6 Priestwood Square,Bracknell,,,Co-operative,Retailers - supermarkets/hypermarkets,7840,5,,517872,0,,51.42159600000000,PI/000035180,882,environmental.health@bracknell-forest.gov.uk,Bracknell Forest,http://www.bracknell-forest.gov.uk,-0.76434200000000,RG42 1UD,2009-03-04,fhrs_5_en-GB,5,,FHRS,5
215523,Co-Op Super Market,61-62 Bywood,Bracknell,,Co-operative,Retailers - supermarkets/hypermarkets,7840,5,,517637,5,,51.39375800000000,PI/000006489,882,environmental.health@bracknell-forest.gov.uk,Bracknell Forest,http://www.bracknell-forest.gov.uk,-0.76530700000000,RG12 7RF,2007-07-20,fhrs_5_en-GB,5,,FHRS,5
215524,John Nike Way,Binfield,Bracknell,,Coppid Beech Hotel,Hotel/bed & breakfast/guest house,7842,10,,518092,10,,51.41521100000000,PI/000050882,882,environmental.health@bracknell-forest.gov.uk,Bracknell Forest,http://www.bracknell-forest.gov.uk,-0.79006800000000,RG12 8TF,2014-01-14,fhrs_3_en-GB,3,,FHRS,10
215525,London Road,Binfield,Bracknell,,Coppid Hill Guest House,Hotel/bed & breakfast/guest house,7842,10,,517812,0,,51.41407000000000,PI/000026116,882,environmental.health@bracknell-forest.gov.uk,Bracknell Forest,http://www.bracknell-forest.gov.uk,-0.79280100000000,RG42 4BS,2014-01-09,fhrs_4_en-GB,4,,FHRS,0
215526,51 High Street,Bracknell,,,Costa Coffee,Restaurant/Cafe/Canteen,1,0,,518221,0,,51.41642700000000,PI/000059943,882,environmental.health@bracknell-forest.gov.uk,Bracknell Forest,http://www.bracknell-forest.gov.uk,-0.75004300000000,RG12 1EA,2014-01-20,fhrs_5_en-GB,5,,FHRS,5
215527,Sherwood House,104 High Street,Crowthorne,,Costa Coffee,Restaurant/Cafe/Canteen,1,5,,518272,0,,51.36854300000000,PI/000060509,882,environmental.health@bracknell-forest.gov.uk,Bracknell Forest,http://www.bracknell-forest.gov.uk,-0.79369700000000,RG45 7AT,2013-11-08,fhrs_5_en-GB,5,,FHRS,0
215528,Tesco Stores Ltd,17 County Lane,Warfield,Bracknell,Costa Coffee,Restaurant/Cafe/Canteen,1,10,,518533,0,,51.42626200000000,PI/000064811,882,environmental.health@bracknell-forest.gov.uk,Bracknell Forest,http://www.bracknell-forest.gov.uk,-0.73137800000000,RG42 3JP,2012-12-10,fhrs_4_en-GB,4,,FHRS,0
215529,Tesco Stores Ltd,Whitton Road,Bracknell,,Costa Coffee,Restaurant/Cafe/Canteen,1,0,,518213,0,,51.40910300000000,PI/000059867,882,environmental.health@bracknell-forest.gov.uk,Bracknell Forest,http://www.bracknell-forest.gov.uk,-0.72703600000000,RG12 9TZ,2014-06-19,fhrs_5_en-GB,5,,FHRS,5
215530,3 The Peel Centre,Skimped Hill Lane,Bracknell,,"Costa Coffee, Tesco Homeplus",Restaurant/Cafe/Canteen,1,0,,518249,0,,51.41479500000000,PI/000060366,882,environmental.health@bracknell-forest.gov.uk,Bracknell Forest,http://www.bracknell-forest.gov.uk,-0.75464600000000,RG12 1EN,2013-12-12,fhrs_5_en-GB,5,,FHRS,0
215531,4 Royal Hunt House,Fernbank Road,Ascot,,Costcutters,Retailers - other,4613,5,,517712,0,,51.41968100000000,PI/000014609,882,environmental.health@bracknell-forest.gov.uk,Bracknell Forest,http://www.bracknell-forest.gov.uk,-0.69383700000000,SL5 8JR,2011-12-23,fhrs_5_en-GB,5,,FHRS,5
215532,Cranbourne Hall Stores,Squirrel Lane,Winkfield,Windsor,Cranbourne Stores,Retailers - other,4613,10,,518590,0,,51.44909800000000,PI/000065323,882,environmental.health@bracknell-forest.gov.uk,Bracknell Forest,http://www.bracknell-forest.gov.uk,-0.66618800000000,SL4 4TP,2013-01-05,fhrs_4_en-GB,4,,FHRS,0
215533,The Cranbourne And Winkfield Royal British Legion Hall,Hatchet Lane,Winkfield,Windsor,Cranbourne Winkfield,Pub/bar/nightclub,7843,5,,517744,5,,51.43330200000000,PI/000018612,882,environmental.health@bracknell-forest.gov.uk,Bracknell Forest,http://www.bracknell-forest.gov.uk,-0.67444500000000,SL4 2EE,2009-01-16,fhrs_5_en-GB,5,,FHRS,5
215534,Crossways Residential Care Home,306 Yorktown Road,College Town,Sandhurst,Crossways Rest Home,Hospitals/Childcare/Caring Premises,5,5,,518007,5,,51.34244800000000,PI/000049901,882,environmental.health@bracknell-forest.gov.uk,Bracknell Forest,http://www.bracknell-forest.gov.uk,-0.78153200000000,GU47 0PZ,2011-02-21,fhrs_5_en-GB,5,,FHRS,5
215535,Blue Mountain Golf Club And Conference Centre,Wood Lane,Binfield,Bracknell,Crown Golf,Pub/bar/nightclub,7843,,,518048,,,51.42665900000000,PI/000050551,882,environmental.health@bracknell-forest.gov.uk,Bracknell Forest,http://www.bracknell-forest.gov.uk,-0.77892000000000,RG42 4EX,2014-04-28,fhrs_5_en-GB,5,,FHRS,
215536,,,,,Crowthorne Cakes,Other catering premises,7841,5,,518390,5,,,PI/000063685,882,environmental.health@bracknell-forest.gov.uk,Bracknell Forest,http://www.bracknell-forest.gov.uk,,,2014-06-18,fhrs_5_en-GB,5,,FHRS,5
215537,Dukes Ride,Crowthorne,,,Crowthorne Methodist Church,Other catering premises,7841,,,517700,,,51.37035300000000,PI/000012780,882,environmental.health@bracknell-forest.gov.uk,Bracknell Forest,http://www.bracknell-forest.gov.uk,-0.79303200000000,RG45 6LZ,2009-03-24,fhrs_exempt_en-GB,Exempt,,FHRS,
215538,167 Dukes Ride,Crowthorne,,,Crowthorne News (UK) Ltd,Retailers - other,4613,20,,624802,15,,51.36703700000000,PI/000066415,882,environmental.health@bracknell-forest.gov.uk,Bracknell Forest,http://www.bracknell-forest.gov.uk,-0.81794200000000,RG45 6DR,2014-01-10,fhrs_1_en-GB,1,,FHRS,10
215539,Morgan Centre,Wellington Road,Crowthorne,,Crowthorne Parish Council,Other catering premises,7841,,,517959,,,51.36722000000000,PI/000046429,882,environmental.health@bracknell-forest.gov.uk,Bracknell Forest,http://www.bracknell-forest.gov.uk,-0.79094500000000,RG45 7LJ,,fhrs_exempt_en-GB,Exempt,,FHRS,
215540,Heath Hill Road South,Crowthorne,,,Crowthorne Parish Hall,Other catering premises,7841,,,517749,,,51.36811000000000,PI/000019149,882,environmental.health@bracknell-forest.gov.uk,Bracknell Forest,http://www.bracknell-forest.gov.uk,-0.79533100000000,RG45 7BN,,fhrs_exempt_en-GB,Exempt,,FHRS,
215541,Wellington Road,Crowthorne,,,Crowthorne Social Club,Pub/bar/nightclub,7843,10,,518068,5,,51.36682800000000,PI/000050757,882,environmental.health@bracknell-forest.gov.uk,Bracknell Forest,http://www.bracknell-forest.gov.uk,-0.79042400000000,RG45 7LD,2014-05-08,fhrs_4_en-GB,4,,FHRS,0
215542,Crowthorne Parish Hall,Heath Hill Road South,Crowthorne,,Crowthorne Village Pre-School,Hospitals/Childcare/Caring Premises,5,5,,665010,5,,51.36811000000000,PI/000066585,882,environmental.health@bracknell-forest.gov.uk,Bracknell Forest,http://www.bracknell-forest.gov.uk,-0.79533100000000,RG45 7BN,2014-06-20,fhrs_5_en-GB,5,,FHRS,5
215543,Edgbarrow School,Grant Road,Crowthorne,,Cucina (school kitchen),School/college/university,7845,5,,518235,5,,51.36299600000000,PI/000060105,882,environmental.health@bracknell-forest.gov.uk,Bracknell Forest,http://www.bracknell-forest.gov.uk,-0.79375600000000,RG45 7HZ,2013-07-05,fhrs_5_en-GB,5,,FHRS,0
215544,Sandhurst School,28 Owlsmoor Road,Owlsmoor,Sandhurst,Cucina (school kitchen),School/college/university,7845,5,,518244,5,,51.35094000000000,PI/000060343,882,environmental.health@bracknell-forest.gov.uk,Bracknell Forest,http://www.bracknell-forest.gov.uk,-0.78268500000000,GU47 0SD,2013-07-09,fhrs_5_en-GB,5,,FHRS,0
215545,,,,,Cupacake,Other catering premises,7841,10,,518361,0,,,PI/000063546,882,environmental.health@bracknell-forest.gov.uk,Bracknell Forest,http://www.bracknell-forest.gov.uk,,,2014-07-01,fhrs_4_en-GB,4,,FHRS,5
215546,,,,,Cupcake Creations,Other catering premises,7841,,,539687,,,,PI/000065672,882,environmental.health@bracknell-forest.gov.uk,Bracknell Forest,http://www.bracknell-forest.gov.uk,,,,fhrs_awaitinginspection_en-GB,AwaitingInspection,,FHRS,
215547,1 Bullbrook Row,Bracknell,,,Daily Food Store,Retailers - other,4613,5,,517634,0,,51.41651300000000,PI/000006227,882,environmental.health@bracknell-forest.gov.uk,Bracknell Forest,http://www.bracknell-forest.gov.uk,-0.73370400000000,RG12 2NL,2011-03-09,fhrs_5_en-GB,5,,FHRS,0
215548,Forest Road,Binfield,Bracknell,,Daruchini,Restaurant/Cafe/Canteen,1,10,,518238,10,,51.43142200000000,PI/000060130,882,environmental.health@bracknell-forest.gov.uk,Bracknell Forest,http://www.bracknell-forest.gov.uk,-0.78910700000000,RG42 4HP,2013-08-06,fhrs_3_en-GB,3,,FHRS,10
215549,,,,,Dawn Edwards,Farmers/growers,7838,,,539685,,,,PI/000065660,882,environmental.health@bracknell-forest.gov.uk,Bracknell Forest,http://www.bracknell-forest.gov.uk,,,,fhrs_awaitinginspection_en-GB,AwaitingInspection,,FHRS,
215550,,,,,DC's Kitchen,Other catering premises,7841,,,721974,,,,PI/000067053,882,environmental.health@bracknell-forest.gov.uk,Bracknell Forest,http://www.bracknell-forest.gov.uk,,,,fhrs_awaitinginspection_en-GB,AwaitingInspection,,FHRS,
215551,Great Hazes,Beenhams Heath,Mare Lane,Beenham Heath,Delta Force,Other catering premises,7841,,,518408,,,51.46855500000000,PI/000063846,882,environmental.health@bracknell-forest.gov.uk,Bracknell Forest,http://www.bracknell-forest.gov.uk,-0.77571500000000,RG10 0QH,2012-02-09,fhrs_exempt_en-GB,Exempt,,FHRS,
215552,Ocean House,The Ring,Bracknell,,DHL,Other catering premises,7841,,,517932,,,51.45526900000000,PI/000042694,882,environmental.health@bracknell-forest.gov.uk,Bracknell Forest,http://www.bracknell-forest.gov.uk,-0.96981000000000,RG12 AN,2013-03-13,fhrs_exempt_en-GB,Exempt,,FHRS,
215553,62 Dukes Ride,Crowthorne,,,Dial House Hotel,Hotel/bed & breakfast/guest house,7842,10,,517698,10,,51.37027500000000,PI/000012695,882,environmental.health@bracknell-forest.gov.uk,Bracknell Forest,http://www.bracknell-forest.gov.uk,-0.80209900000000,RG45 6DL,2014-06-27,fhrs_3_en-GB,3,,FHRS,5
215554,101 Pinewood Avenue,Crowthorne,,,Dimensions,Hospitals/Childcare/Caring Premises,5,5,,517862,0,,51.37110500000000,PI/000034500,882,environmental.health@bracknell-forest.gov.uk,Bracknell Forest,http://www.bracknell-forest.gov.uk,-0.79100000000000,RG45 6RQ,2009-05-21,fhrs_5_en-GB,5,,FHRS,0
215555,30 Spring Meadow,Bracknell,,,Dimensions,Hospitals/Childcare/Caring Premises,5,5,,517915,5,,51.42000600000000,PI/000039924,882,environmental.health@bracknell-forest.gov.uk,Bracknell Forest,http://www.bracknell-forest.gov.uk,-0.73826800000000,RG12 2JP,2008-07-03,fhrs_5_en-GB,5,,FHRS,5
215556,Denbery,Crowthorne Road,Bracknell,,Dimensions,Hospitals/Childcare/Caring Premises,5,5,,517678,0,,51.40879100000000,PI/000010659,882,environmental.health@bracknell-forest.gov.uk,Bracknell Forest,http://www.bracknell-forest.gov.uk,-0.75575800000000,RG12 7DS,2008-11-24,fhrs_5_en-GB,5,,FHRS,0
215557,Marrsham House,25 Turing Drive,Bracknell,,Dimensions,Hospitals/Childcare/Caring Premises,5,5,,517939,0,,51.40024600000000,PI/000043535,882,environmental.health@bracknell-forest.gov.uk,Bracknell Forest,http://www.bracknell-forest.gov.uk,-0.75975600000000,RG12 7GF,2009-07-13,fhrs_5_en-GB,5,,FHRS,5
215558,Phoenix,28 Boole Heights,Bracknell,,Dimensions,Hospitals/Childcare/Caring Premises,5,5,,517615,5,,51.39994300000000,PI/000004517,882,environmental.health@bracknell-forest.gov.uk,Bracknell Forest,http://www.bracknell-forest.gov.uk,-0.75837000000000,RG12 7GG,2010-03-30,fhrs_5_en-GB,5,,FHRS,0
215559,Spring Cottage,48 Yeovil Road,Owlsmoor,Sandhurst,Dimensions,Hospitals/Childcare/Caring Premises,5,5,,518214,5,,51.35204200000000,PI/000059891,882,environmental.health@bracknell-forest.gov.uk,Bracknell Forest,http://www.bracknell-forest.gov.uk,-0.77886500000000,GU47 0TE,2009-08-04,fhrs_4_en-GB,4,,FHRS,10
215560,Wayside,Jigs Lane North,Warfield,Bracknell,Dimensions,Hospitals/Childcare/Caring Premises,5,10,,518240,5,,51.43058200000000,PI/000060298,882,environmental.health@bracknell-forest.gov.uk,Bracknell Forest,http://www.bracknell-forest.gov.uk,-0.73179100000000,RG42 3DJ,2009-01-09,fhrs_4_en-GB,4,,FHRS,5
215561,6 Yorktown Road,Sandhurst,,,Dominos,Takeaway/sandwich shop,7844,5,,518019,5,,51.34572300000000,PI/000050113,882,environmental.health@bracknell-forest.gov.uk,Bracknell Forest,http://www.bracknell-forest.gov.uk,-0.80093000000000,GU47 9DT,2014-01-27,fhrs_5_en-GB,5,,FHRS,0
215562,22 High Street,Bracknell,,,Dominos Pizza,Takeaway/sandwich shop,7844,0,,518359,0,,51.41678900000000,PI/000063521,882,environmental.health@bracknell-forest.gov.uk,Bracknell Forest,http://www.bracknell-forest.gov.uk,-0.74935700000000,RG12 1LL,2014-02-26,fhrs_5_en-GB,5,,FHRS,5
215563,Dopsons Butchers,48 High Street,Crowthorne,,Dopson Butchers,Retailers - other,4613,5,,518290,0,,51.36979100000000,PI/000060597,882,environmental.health@bracknell-forest.gov.uk,Bracknell Forest,http://www.bracknell-forest.gov.uk,-0.79263000000000,RG45 7AZ,2013-01-15,fhrs_5_en-GB,5,,FHRS,0
215564,Downshire Golf Course,West Road,Wokingham,,Downshire Golf Complex Restaurant,Restaurant/Cafe/Canteen,1,,,518117,,,51.39219000000000,PI/000051025,882,environmental.health@bracknell-forest.gov.uk,Bracknell Forest,http://www.bracknell-forest.gov.uk,-0.78560100000000,RG40 3DH,2014-05-09,fhrs_4_en-GB,4,,FHRS,
215565,99 Liscombe,Bracknell,,,Dragon House,Takeaway/sandwich shop,7844,5,,517810,10,,51.39204400000000,PI/000025791,882,environmental.health@bracknell-forest.gov.uk,Bracknell Forest,http://www.bracknell-forest.gov.uk,-0.75207300000000,RG12 7DE,2014-02-28,fhrs_4_en-GB,4,,FHRS,5
215566,144 High Street,Crowthorne,,,Drop In Lunch Box,Restaurant/Cafe/Canteen,1,0,,619635,0,,51.36854300000000,PI/000066383,882,environmental.health@bracknell-forest.gov.uk,Bracknell Forest,http://www.bracknell-forest.gov.uk,-0.79369700000000,RG45 7AT,2014-02-18,fhrs_5_en-GB,5,,FHRS,0
215567,Sanctuary Community Barn,Moor Lane,Binfield,Bracknell,Dudmans,Retailers - other,4613,,,721969,,,51.41171300000000,PI/000067030,882,environmental.health@bracknell-forest.gov.uk,Bracknell Forest,http://www.bracknell-forest.gov.uk,-0.78926800000000,RG12 8TD,,fhrs_awaitinginspection_en-GB,AwaitingInspection,,FHRS,
215568,6 Oakmede Place,Binfield,Bracknell,,Duffy's Londis,Retailers - other,4613,10,,518299,5,,51.43083400000000,PI/000060674,882,environmental.health@bracknell-forest.gov.uk,Bracknell Forest,http://www.bracknell-forest.gov.uk,-0.79047500000000,RG42 4JF,2014-06-03,fhrs_2_en-GB,2,,FHRS,15
215569,196 Dukes Ride,Crowthorne,,,Dukes Pharmacy,Retailers - other,4613,,,518302,,,51.36756300000000,PI/000060705,882,environmental.health@bracknell-forest.gov.uk,Bracknell Forest,http://www.bracknell-forest.gov.uk,-0.81749700000000,RG45 6DS,,fhrs_exempt_en-GB,Exempt,,FHRS,
215570,218 Dukes Ride,Crowthorne,,,Dukes Ride Food and Wine,Retailers - other,4613,,,633435,,,51.36756300000000,PI/000066427,882,environmental.health@bracknell-forest.gov.uk,Bracknell Forest,http://www.bracknell-forest.gov.uk,-0.81749700000000,RG45 6DS,,fhrs_exempt_en-GB,Exempt,,FHRS,
215571,Petrol Filling Station,Bracknell Road,Crowthorne,,E Lightfoot And Son Ltd,Retailers - other,4613,5,,518032,5,,51.37116900000000,PI/000050313,882,environmental.health@bracknell-forest.gov.uk,Bracknell Forest,http://www.bracknell-forest.gov.uk,-0.78934700000000,RG45 6ST,2007-09-21,fhrs_5_en-GB,5,,FHRS,5
215572,South Hill Road,Bracknell,,,Easthampstead Baptist Church,Other catering premises,7841,,,517911,,,51.39954800000000,PI/000039442,882,environmental.health@bracknell-forest.gov.uk,Bracknell Forest,http://www.bracknell-forest.gov.uk,-0.75159600000000,RG12 7NS,2014-05-29,fhrs_exempt_en-GB,Exempt,,FHRS,
215573,Rectory Lane,Bracknell,,,Easthampstead Community Centre,Other catering premises,7841,,,518061,,,51.40367600000000,PI/000050721,882,environmental.health@bracknell-forest.gov.uk,Bracknell Forest,http://www.bracknell-forest.gov.uk,-0.75594000000000,RG12 7BH,2014-06-26,fhrs_exempt_en-GB,Exempt,,FHRS,
215574,Easthampstead Park,Old Wokingham Road,Wokingham,,Easthampstead Park Conference Centre,Restaurant/Cafe/Canteen,1,5,,517706,5,,51.39882100000000,PI/000013200,882,environmental.health@bracknell-forest.gov.uk,Bracknell Forest,http://www.bracknell-forest.gov.uk,-0.78776900000000,RG40 3DF,2014-12-19,fhrs_5_en-GB,5,,FHRS,5
215575,,,,,Eat and Go,Mobile caterer,7846,5,,726917,5,,,PI/000067135,882,environmental.health@bracknell-forest.gov.uk,Bracknell Forest,http://www.bracknell-forest.gov.uk,,,2015-01-07,fhrs_5_en-GB,5,,FHRS,0
215576,Grant Road,Crowthorne,,,Edgbarrow Sports Centre,Other catering premises,7841,0,,517727,0,,51.36387400000000,PI/000017413,882,environmental.health@bracknell-forest.gov.uk,Bracknell Forest,http://www.bracknell-forest.gov.uk,-0.79347500000000,RG45 7JL,2014-01-24,fhrs_5_en-GB,5,,FHRS,5
215577,,,,,Eggless Treats By Manpreet,Other catering premises,7841,,,679141,,,,PI/000066620,882,environmental.health@bracknell-forest.gov.uk,Bracknell Forest,http://www.bracknell-forest.gov.uk,,,,fhrs_awaitinginspection_en-GB,AwaitingInspection,,FHRS,
215578,Star Supermarket,Reeds Hill,Bracknell,,Ekom Superstore,Retailers - other,4613,5,,656302,5,,51.39949800000000,PI/000065927,882,environmental.health@bracknell-forest.gov.uk,Bracknell Forest,http://www.bracknell-forest.gov.uk,-0.75372500000000,RG12 7LS,2012-07-23,fhrs_5_en-GB,5,,FHRS,0
215579,,,,,Elaine's Cupcake Kitchen,Other catering premises,7841,5,,518333,5,,,PI/000062765,882,environmental.health@bracknell-forest.gov.uk,Bracknell Forest,http://www.bracknell-forest.gov.uk,,,2014-08-22,fhrs_5_en-GB,5,,FHRS,5
215580,Paratus AMC,Arlington Square,Bracknell,,Elior Catering,Restaurant/Cafe/Canteen,1,0,,580746,5,,51.41526700000000,PI/000066177,882,environmental.health@bracknell-forest.gov.uk,Bracknell Forest,http://www.bracknell-forest.gov.uk,-0.75765300000000,RG12 1WA,2014-01-14,fhrs_4_en-GB,4,,FHRS,10
215581,3m United Kingdom,Cain Road,Bracknell,,Elior Catering (staff canteen),Restaurant/Cafe/Canteen,1,0,,518435,5,,51.41646500000000,PI/000064300,882,environmental.health@bracknell-forest.gov.uk,Bracknell Forest,http://www.bracknell-forest.gov.uk,-0.77834300000000,RG12 8HT,2014-02-14,fhrs_5_en-GB,5,,FHRS,5
215582,Elizabeth House,Wokingham Road,Bracknell,,Elizabeth House Bed And Breakfast,Hotel/bed & breakfast/guest house,7842,10,,518112,0,,51.41911700000000,PI/000050986,882,environmental.health@bracknell-forest.gov.uk,Bracknell Forest,http://www.bracknell-forest.gov.uk,-0.77060700000000,RG42 1PB,2013-01-28,fhrs_4_en-GB,4,,FHRS,5
215583,14 Market Street,Bracknell,,,Empire / Club 8,Pub/bar/nightclub,7843,5,,518228,5,,51.41590000000000,PI/000060068,882,environmental.health@bracknell-forest.gov.uk,Bracknell Forest,http://www.bracknell-forest.gov.uk,-0.75208500000000,RG12 1JG,2011-03-03,fhrs_4_en-GB,4,,FHRS,10
215584,2A Yorktown Road,Sandhurst,,,Empress Garden,Restaurant/Cafe/Canteen,1,5,,518002,10,,51.34572300000000,PI/000049753,882,environmental.health@bracknell-forest.gov.uk,Bracknell Forest,http://www.bracknell-forest.gov.uk,-0.80093000000000,GU47 9DT,2014-07-08,fhrs_3_en-GB,3,,FHRS,10
215585,29 Longshot Lane,Bracknell,,,Enjoy,Restaurant/Cafe/Canteen,1,10,,518206,10,,51.41401500000000,PI/000059810,882,environmental.health@bracknell-forest.gov.uk,Bracknell Forest,http://www.bracknell-forest.gov.uk,-0.77541700000000,RG12 1RL,2013-08-05,fhrs_3_en-GB,3,,FHRS,5
215586,Royal Military Academy,Yorktown Road,College Town,Sandhurst,ESS at Fort Royal (Compass),Restaurant/Cafe/Canteen,1,0,,517993,5,,,PI/000049595,882,environmental.health@bracknell-forest.gov.uk,Bracknell Forest,http://www.bracknell-forest.gov.uk,,GU47 0HL,2014-10-28,fhrs_5_en-GB,5,,FHRS,5
215587,Twin Bridges Service Station,Downshire Way,Bracknell,,Esso,Retailers - other,4613,0,,518087,5,,51.41556900000000,PI/000050859,882,environmental.health@bracknell-forest.gov.uk,Bracknell Forest,http://www.bracknell-forest.gov.uk,-0.76070800000000,RG12 1QN,2010-03-25,fhrs_5_en-GB,5,,FHRS,0
215588,Tesco Stores Ltd,Whitton Road,Bracknell,,Euphorium (North London Limited),Retailers - other,4613,,,734022,,,51.40910300000000,PI/000067166,882,environmental.health@bracknell-forest.gov.uk,Bracknell Forest,http://www.bracknell-forest.gov.uk,-0.72703600000000,RG12 9TZ,,fhrs_awaitinginspection_en-GB,AwaitingInspection,,FHRS,
215589,Tesco Stores Ltd,The Meadows,Marshall Road,Sandhurst,Euphorium (North London Limited),Retailers - other,4613,,,734023,,,51.33581500000000,PI/000067167,882,environmental.health@bracknell-forest.gov.uk,Bracknell Forest,http://www.bracknell-forest.gov.uk,-0.77498900000000,GU47 0FD,,fhrs_awaitinginspection_en-GB,AwaitingInspection,,FHRS,
215590,Tesco Stores Ltd,17 County Lane,Warfield,Bracknell,Euphorium (North London Limited),Retailers - other,4613,,,734024,,,51.42626200000000,PI/000067168,882,environmental.health@bracknell-forest.gov.uk,Bracknell Forest,http://www.bracknell-forest.gov.uk,-0.73137800000000,RG42 3JP,,fhrs_awaitinginspection_en-GB,AwaitingInspection,,FHRS,
215591,Tesco Stores Ltd,17 County Lane,Warfield,Bracknell,Eurest (staff cafe),Restaurant/Cafe/Canteen,1,5,,517788,10,,51.42626200000000,PI/000022885,882,environmental.health@bracknell-forest.gov.uk,Bracknell Forest,http://www.bracknell-forest.gov.uk,-0.73137800000000,RG42 3JP,2014-01-15,fhrs_4_en-GB,4,,FHRS,5
215592,Fujitsu,Lovelace Road,Bracknell,,Eurest (staff canteen),Restaurant/Cafe/Canteen,1,,,517822,,,51.40806100000000,PI/000026971,882,environmental.health@bracknell-forest.gov.uk,Bracknell Forest,http://www.bracknell-forest.gov.uk,-0.77613700000000,RG12 8TZ,2015-02-04,fhrs_5_en-GB,5,,FHRS,
215593,Tesco Stores Ltd,The Meadows,Marshall Road,Sandhurst,Eurest Food Services (Staff Canteen),Restaurant/Cafe/Canteen,1,,,721976,,,51.33581500000000,PI/000067077,882,environmental.health@bracknell-forest.gov.uk,Bracknell Forest,http://www.bracknell-forest.gov.uk,-0.77498900000000,GU47 0FD,,fhrs_awaitinginspection_en-GB,AwaitingInspection,,FHRS,
215594,Vodafone,Waterside House,Longshot Lane,Bracknell,Eurest Food Services (Staff canteen),Restaurant/Cafe/Canteen,1,5,,568997,0,,51.41660400000000,PI/000065909,882,environmental.health@bracknell-forest.gov.uk,Bracknell Forest,http://www.bracknell-forest.gov.uk,-0.77277400000000,RG12 1WB,2013-10-14,fhrs_5_en-GB,5,,FHRS,5
215595,Inspired,Easthampstead Road,Bracknell,,Eurest Service,Restaurant/Cafe/Canteen,1,5,,550947,10,,51.41574000000000,PI/000065073,882,environmental.health@bracknell-forest.gov.uk,Bracknell Forest,http://www.bracknell-forest.gov.uk,-0.76327700000000,RG12 1YQ,2014-11-07,fhrs_4_en-GB,4,,FHRS,5
215596,Fujitsu,"Globe House, Viewpoint 2",Willoughby Road,Bracknell,Eurest Services (staff canteen),Restaurant/Cafe/Canteen,1,0,,518239,0,,51.40940600000000,PI/000060151,882,environmental.health@bracknell-forest.gov.uk,Bracknell Forest,http://www.bracknell-forest.gov.uk,-0.76721500000000,RG12 8FB,2014-03-11,fhrs_5_en-GB,5,,FHRS,5
215597,Sandhurst Lodge,Wokingham Road,Crowthorne,,Far End,Hospitals/Childcare/Caring Premises,5,5,,517981,0,,51.36117700000000,PI/000048362,882,environmental.health@bracknell-forest.gov.uk,Bracknell Forest,http://www.bracknell-forest.gov.uk,-0.82185600000000,RG45 7QD,2008-11-24,fhrs_4_en-GB,4,,FHRS,10
215598,237 High Street,Crowthorne,,,Farmers Kitchen,Restaurant/Cafe/Canteen,1,20,,610809,15,,51.36701900000000,PI/000066341,882,environmental.health@bracknell-forest.gov.uk,Bracknell Forest,http://www.bracknell-forest.gov.uk,-0.79415300000000,RG45 7AH,2014-12-09,fhrs_1_en-GB,1,,FHRS,15
215599,Fines Bayliwick House Hotel,London Road,Binfield,Bracknell,Fines Bayliwick Hotel,Hotel/bed & breakfast/guest house,7842,5,,518123,0,,51.42081900000000,PI/000051067,882,environmental.health@bracknell-forest.gov.uk,Bracknell Forest,http://www.bracknell-forest.gov.uk,-0.78285800000000,RG42 4AB,2013-01-11,fhrs_5_en-GB,5,,FHRS,0
215600,8-9 The Square,Bracknell,,,Fish'n' Chick'n,Takeaway/sandwich shop,7844,0,,518269,0,,51.40621000000000,PI/000060489,882,environmental.health@bracknell-forest.gov.uk,Bracknell Forest,http://www.bracknell-forest.gov.uk,-0.73226400000000,RG12 9LP,2014-01-28,fhrs_5_en-GB,5,,FHRS,5
215601,Fish And Chip Shop,2 Yorktown Road,Sandhurst,,Flying Fish,Takeaway/sandwich shop,7844,0,,518003,0,,51.34572300000000,PI/000049754,882,environmental.health@bracknell-forest.gov.uk,Bracknell Forest,http://www.bracknell-forest.gov.uk,-0.80093000000000,GU47 9DT,2014-03-06,fhrs_5_en-GB,5,,FHRS,0
215602,,,,,Food for Thought,Other catering premises,7841,10,,517585,0,,,PI/000001874,882,environmental.health@bracknell-forest.gov.uk,Bracknell Forest,http://www.bracknell-forest.gov.uk,,,2013-01-28,fhrs_4_en-GB,4,,FHRS,0
215603,,,,,Food Is,Other catering premises,7841,5,,517972,5,,,PI/000047567,882,environmental.health@bracknell-forest.gov.uk,Bracknell Forest,http://www.bracknell-forest.gov.uk,,,2010-03-22,fhrs_5_en-GB,5,,FHRS,5
215604,St Josephs R C Primary School,Gipsy Lane,Bracknell,,Footsteps Nursery,Hospitals/Childcare/Caring Premises,5,5,,700755,0,,51.41438400000000,PI/000016780,882,environmental.health@bracknell-forest.gov.uk,Bracknell Forest,http://www.bracknell-forest.gov.uk,-0.74065100000000,RG12 9AP,2014-09-05,fhrs_5_en-GB,5,,FHRS,5
215605,Berkshire Golf Club,Swinley Road,Ascot,,Forest Artisans Golf Club,Pub/bar/nightclub,7843,5,,517923,5,,51.38574400000000,PI/000041344,882,environmental.health@bracknell-forest.gov.uk,Bracknell Forest,http://www.bracknell-forest.gov.uk,-0.70348300000000,SL5 8AY,2010-03-24,fhrs_5_en-GB,5,,FHRS,5
215606,10 Horndean Road,Bracknell,,,Forest Chinese Takeaway,Takeaway/sandwich shop,7844,5,,517777,5,,51.39809500000000,PI/000021760,882,environmental.health@bracknell-forest.gov.uk,Bracknell Forest,http://www.bracknell-forest.gov.uk,-0.72857800000000,RG12 0XQ,2015-01-13,fhrs_5_en-GB,5,,FHRS,5
215607,12 Horndean Road,Bracknell,,,Forest Park Community Centre,Other catering premises,7841,,,518076,,,51.39809500000000,PI/000050803,882,environmental.health@bracknell-forest.gov.uk,Bracknell Forest,http://www.bracknell-forest.gov.uk,-0.72857800000000,RG12 0XQ,2006-11-06,fhrs_exempt_en-GB,Exempt,,FHRS,
215608,Fourways Rest Home,45 Scotland Hill,Sandhurst,,Fourways Residential Home,Hospitals/Childcare/Caring Premises,5,5,,517900,5,,51.34837000000000,PI/000038339,882,environmental.health@bracknell-forest.gov.uk,Bracknell Forest,http://www.bracknell-forest.gov.uk,-0.80470900000000,GU47 8JR,2014-08-21,fhrs_5_en-GB,5,,FHRS,0
215609,The Point Leisure Centre,Skimped Hill Lane,Bracknell,,Frankie & Benny's,Restaurant/Cafe/Canteen,1,0,,517906,5,,51.41479500000000,PI/000039298,882,environmental.health@bracknell-forest.gov.uk,Bracknell Forest,http://www.bracknell-forest.gov.uk,-0.75464600000000,RG12 1EN,2014-09-04,fhrs_5_en-GB,5,,FHRS,5
215610,Wellington College,Dukes Ride,Crowthorne,,Funzone (School Club),School/college/university,7845,,,518450,,,51.47676400000000,PI/000064467,882,environmental.health@bracknell-forest.gov.uk,Bracknell Forest,http://www.bracknell-forest.gov.uk,-0.98471900000000,RG4 7PT,,fhrs_awaitinginspection_en-GB,AwaitingInspection,,FHRS,
215611,240 High Street,Crowthorne,,,G.S Supermarkets,Retailers - other,4613,20,,517765,0,,51.36692700000000,PI/000020197,882,environmental.health@bracknell-forest.gov.uk,Bracknell Forest,http://www.bracknell-forest.gov.uk,-0.79480200000000,RG45 7AP,2013-01-05,fhrs_1_en-GB,1,,FHRS,10
215612,14 Market Street,Bracknell,,,Galo Piri Piri / Azeem Spice,Takeaway/sandwich shop,7844,10,,624800,15,,51.41590000000000,PI/000066405,882,environmental.health@bracknell-forest.gov.uk,Bracknell Forest,http://www.bracknell-forest.gov.uk,-0.75208500000000,RG12 1JG,2014-07-15,fhrs_2_en-GB,2,,FHRS,10
215613,Community Hall,Braybrooke Recreation Ground,Makepiece Road,Bracknell,Garth Under Fives Nursery,Hospitals/Childcare/Caring Premises,5,5,,517623,5,,51.42581900000000,PI/000005111,882,environmental.health@bracknell-forest.gov.uk,Bracknell Forest,http://www.bracknell-forest.gov.uk,-0.75378600000000,RG42 2HG,2007-09-25,fhrs_5_en-GB,5,,FHRS,5
215614,67 Princess Square,Bracknell,,,General Nutrition Centre,Retailers - other,4613,,,517878,,,51.41547100000000,PI/000035488,882,environmental.health@bracknell-forest.gov.uk,Bracknell Forest,http://www.bracknell-forest.gov.uk,-0.75061600000000,RG12 1LS,2008-01-04,fhrs_exempt_en-GB,Exempt,,FHRS,
215615,2 Oakmede Place,Binfield,Bracknell,,George's,Restaurant/Cafe/Canteen,1,5,,518388,5,,51.43083400000000,PI/000063678,882,environmental.health@bracknell-forest.gov.uk,Bracknell Forest,http://www.bracknell-forest.gov.uk,-0.79047500000000,RG42 4JF,2013-05-20,fhrs_2_en-GB,2,,FHRS,15
215616,Reeds Hill,Bracknell,,,Golden Farmer,Pub/bar/nightclub,7843,10,,517889,10,,51.39949800000000,PI/000036796,882,environmental.health@bracknell-forest.gov.uk,Bracknell Forest,http://www.bracknell-forest.gov.uk,-0.75372500000000,RG12 7LS,2013-12-12,fhrs_3_en-GB,3,,FHRS,10
215617,Great Hollands Primary School,Wordsworth,Bracknell,,Great Hollands After-School Club,School/college/university,7845,5,,518056,5,,51.40084400000000,PI/000050680,882,environmental.health@bracknell-forest.gov.uk,Bracknell Forest,http://www.bracknell-forest.gov.uk,-0.77221800000000,RG12 8YR,2014-09-18,fhrs_5_en-GB,5,,FHRS,5
215618,South Road,Bracknell,,,Great Hollands Bowls Club,Pub/bar/nightclub,7843,10,,518118,10,,51.38994600000000,PI/000051026,882,environmental.health@bracknell-forest.gov.uk,Bracknell Forest,http://www.bracknell-forest.gov.uk,-0.77735300000000,RG40 3EE,2008-07-31,fhrs_3_en-GB,3,,FHRS,5
215619,Great Hollands Square,Bracknell,,,Great Hollands Community Centre,Other catering premises,7841,,,518054,,,51.39941900000000,PI/000050671,882,environmental.health@bracknell-forest.gov.uk,Bracknell Forest,http://www.bracknell-forest.gov.uk,-0.77087600000000,RG12 8UX,2007-03-19,fhrs_exempt_en-GB,Exempt,,FHRS,
215620,10 Great Hollands Square,Bracknell,,,Great Hollands Off Licence,Retailers - other,4613,,,518348,,,51.39941900000000,PI/000063242,882,environmental.health@bracknell-forest.gov.uk,Bracknell Forest,http://www.bracknell-forest.gov.uk,-0.77087600000000,RG12 8UX,,fhrs_exempt_en-GB,Exempt,,FHRS,
215621,1 The Square,Bracknell,,,Great Wall Chinese Takeaway,Takeaway/sandwich shop,7844,5,,518300,10,,51.40621000000000,PI/000060688,882,environmental.health@bracknell-forest.gov.uk,Bracknell Forest,http://www.bracknell-forest.gov.uk,-0.73226400000000,RG12 9LP,2014-11-11,fhrs_4_en-GB,4,,FHRS,5
215622,34-36 Yeovil Road,Owlsmoor,Sandhurst,,Green Gables Nursery School,Hospitals/Childcare/Caring Premises,5,10,,517987,10,,51.35204200000000,PI/000049373,882,environmental.health@bracknell-forest.gov.uk,Bracknell Forest,http://www.bracknell-forest.gov.uk,-0.77886500000000,GU47 0TE,2014-11-27,fhrs_3_en-GB,3,,FHRS,10
215623,17 High Street,Bracknell,,,Greggs,Takeaway/sandwich shop,7844,5,,517673,0,,51.41627400000000,PI/000010256,882,environmental.health@bracknell-forest.gov.uk,Bracknell Forest,http://www.bracknell-forest.gov.uk,-0.74832200000000,RG12 1DL,2013-01-12,fhrs_4_en-GB,4,,FHRS,10
215624,The Pavillion,Great Hollands Recreation Ground,South Road,Bracknell,Gt Hollands Snack Bar,Restaurant/Cafe/Canteen,1,5,,518119,0,,51.38994600000000,PI/000051027,882,environmental.health@bracknell-forest.gov.uk,Bracknell Forest,http://www.bracknell-forest.gov.uk,-0.77735300000000,RG40 3EE,2009-10-05,fhrs_5_en-GB,5,,FHRS,0
215625,,,,,Guilt-free Organic Eating Ltd,Other catering premises,7841,5,,680663,5,,,PI/000066801,882,environmental.health@bracknell-forest.gov.uk,Bracknell Forest,http://www.bracknell-forest.gov.uk,,,2014-08-22,fhrs_5_en-GB,5,,FHRS,5
215626,24 New Road,Ascot,,,H A McParland Chemist,Retailers - other,4613,,,518218,,,51.42733900000000,PI/000059935,882,environmental.health@bracknell-forest.gov.uk,Bracknell Forest,http://www.bracknell-forest.gov.uk,-0.67993900000000,SL5 8QQ,,fhrs_exempt_en-GB,Exempt,,FHRS,
215627,27 Yeovil Road,Owlsmoor,Sandhurst,,H A McParland Ltd,Retailers - other,4613,,,517985,,,51.35276100000000,PI/000049364,882,environmental.health@bracknell-forest.gov.uk,Bracknell Forest,http://www.bracknell-forest.gov.uk,-0.77969300000000,GU47 0TF,,fhrs_exempt_en-GB,Exempt,,FHRS,
215628,10 Rectory Row,Rectory Lane,Bracknell,,Haka,Takeaway/sandwich shop,7844,0,,568995,5,,51.40469400000000,PI/000065902,882,environmental.health@bracknell-forest.gov.uk,Bracknell Forest,http://www.bracknell-forest.gov.uk,-0.75607100000000,RG12 7BN,2014-12-18,fhrs_5_en-GB,5,,FHRS,5
215629,127 Yorktown Road,Sandhurst,,,Haldane House Nursing Home,Hospitals/Childcare/Caring Premises,5,5,,518000,0,,51.34543100000000,PI/000049689,882,environmental.health@bracknell-forest.gov.uk,Bracknell Forest,http://www.bracknell-forest.gov.uk,-0.79608400000000,GU47 9BW,2014-01-09,fhrs_5_en-GB,5,,FHRS,5
215630,5 The Peel Centre,Skimped Hill Lane,Bracknell,,Halfords,Retailers - other,4613,,,517907,,,51.41479500000000,PI/000039314,882,environmental.health@bracknell-forest.gov.uk,Bracknell Forest,http://www.bracknell-forest.gov.uk,-0.75464600000000,RG12 1EN,2010-12-08,fhrs_exempt_en-GB,Exempt,,FHRS,
215631,London Road,Ascot,,,Heathfield School,School/college/university,7845,5,,517818,5,,51.41336800000000,PI/000026355,882,environmental.health@bracknell-forest.gov.uk,Bracknell Forest,http://www.bracknell-forest.gov.uk,-0.71003600000000,SL5 8BQ,2014-02-07,fhrs_5_en-GB,5,,FHRS,5
215632,Heathlands Home For The Aged,Crossfell,Bracknell,,Heathlands Residential Care Home,Hospitals/Childcare/Caring Premises,5,10,,517672,10,,51.40638400000000,PI/000010246,882,environmental.health@bracknell-forest.gov.uk,Bracknell Forest,http://www.bracknell-forest.gov.uk,-0.76365900000000,RG12 7RX,2014-09-03,fhrs_4_en-GB,4,,FHRS,0
215633,,,,,Heidi's Little Cakery,Other catering premises,7841,5,,606328,5,,,PI/000066348,882,environmental.health@bracknell-forest.gov.uk,Bracknell Forest,http://www.bracknell-forest.gov.uk,,,2014-03-04,fhrs_5_en-GB,5,,FHRS,5
215634,21 High Street,Bracknell,,,Herbies Pizza,Takeaway/sandwich shop,7844,5,,518341,5,,51.41627400000000,PI/000062865,882,environmental.health@bracknell-forest.gov.uk,Bracknell Forest,http://www.bracknell-forest.gov.uk,-0.74832200000000,RG12 1DL,2014-10-10,fhrs_5_en-GB,5,,FHRS,5
215635,51B Yorktown Road,Sandhurst,,,Herbies Pizza,Takeaway/sandwich shop,7844,20,,699128,15,,51.34613100000000,PI/000066862,882,environmental.health@bracknell-forest.gov.uk,Bracknell Forest,http://www.bracknell-forest.gov.uk,-0.80123500000000,GU47 9DU,2014-08-29,fhrs_1_en-GB,1,,FHRS,15
215636,,,,,Hillbilly Hog Roast,Other catering premises,7841,,,730341,,,,PI/000067152,882,environmental.health@bracknell-forest.gov.uk,Bracknell Forest,http://www.bracknell-forest.gov.uk,,,,fhrs_awaitinginspection_en-GB,AwaitingInspection,,FHRS,
215637,Bagshot Road,Bracknell,,,Hilton National Hotel,Hotel/bed & breakfast/guest house,7842,5,,517592,5,,51.39445200000000,PI/000002364,882,environmental.health@bracknell-forest.gov.uk,Bracknell Forest,http://www.bracknell-forest.gov.uk,-0.74263600000000,RG12 0QJ,2013-12-16,fhrs_4_en-GB,4,,FHRS,10
215638,55 High Street,Bracknell,,,Holland And Barrett,Retailers - other,4613,,,517754,,,51.41642700000000,PI/000019812,882,environmental.health@bracknell-forest.gov.uk,Bracknell Forest,http://www.bracknell-forest.gov.uk,-0.75004300000000,RG12 1EA,,fhrs_awaitinginspection_en-GB,AwaitingInspection,,FHRS,
215639,Goughs Lane,Bracknell,,,Holly House,Hotel/bed & breakfast/guest house,7842,10,,517725,5,,51.42301500000000,PI/000017136,882,environmental.health@bracknell-forest.gov.uk,Bracknell Forest,http://www.bracknell-forest.gov.uk,-0.74216900000000,RG12 2JR,2012-03-05,fhrs_4_en-GB,4,,FHRS,0
215640,The Point,Skimped Hill Lane,Bracknell,,Hollywood Bowl,Restaurant/Cafe/Canteen,1,0,,517909,5,,51.41479500000000,PI/000039332,882,environmental.health@bracknell-forest.gov.uk,Bracknell Forest,http://www.bracknell-forest.gov.uk,-0.75464600000000,RG12 1EN,2014-07-01,fhrs_5_en-GB,5,,FHRS,5
215641,,,,,Home Caked,Other catering premises,7841,10,,518349,5,,,PI/000063245,882,environmental.health@bracknell-forest.gov.uk,Bracknell Forest,http://www.bracknell-forest.gov.uk,,,2014-12-19,fhrs_4_en-GB,4,,FHRS,0
215642,,,,,Honey Maker,Retailers - other,4613,10,,518315,5,,,PI/000060790,882,environmental.health@bracknell-forest.gov.uk,Bracknell Forest,http://www.bracknell-forest.gov.uk,,,2014-10-31,fhrs_4_en-GB,4,,FHRS,5
215643,,,,,Hopkins Home Cooking,Other catering premises,7841,10,,668371,10,,,PI/000066600,882,environmental.health@bracknell-forest.gov.uk,Bracknell Forest,http://www.bracknell-forest.gov.uk,,,2014-09-12,fhrs_4_en-GB,4,,FHRS,0
215644,Youth Activity Centre,Mill Lane,Sandhurst,,Horseshoes Lake Activity Centre,Retailers - other,4613,,,517831,,,51.35052500000000,PI/000029229,882,environmental.health@bracknell-forest.gov.uk,Bracknell Forest,http://www.bracknell-forest.gov.uk,-0.82218600000000,GU47 8JW,,fhrs_exempt_en-GB,Exempt,,FHRS,
215645,Downmill Road Cafe Site,Downmill Road,Bracknell,,Hot Snacks Cafe,Restaurant/Cafe/Canteen,1,5,,550954,5,,51.41499500000000,PI/000065686,882,environmental.health@bracknell-forest.gov.uk,Bracknell Forest,http://www.bracknell-forest.gov.uk,-0.76677800000000,RG12 1QS,2015-01-13,fhrs_5_en-GB,5,,FHRS,5
215646,5 Bullbrook Row,Bracknell,,,Hot Wok,Takeaway/sandwich shop,7844,10,,517635,10,,51.41651300000000,PI/000006232,882,environmental.health@bracknell-forest.gov.uk,Bracknell Forest,http://www.bracknell-forest.gov.uk,-0.73370400000000,RG12 2NL,2014-12-19,fhrs_3_en-GB,3,,FHRS,5
215647,,,,,Hyderabadi Biryani,Mobile caterer,7846,10,,665016,5,,,PI/000066598,882,environmental.health@bracknell-forest.gov.uk,Bracknell Forest,http://www.bracknell-forest.gov.uk,,,2014-07-22,fhrs_4_en-GB,4,,FHRS,5
215648,4 Market Street,Bracknell,,,Ikram Continental & Halal Market,Retailers - other,4613,10,,534409,0,,51.41590000000000,PI/000065646,882,environmental.health@bracknell-forest.gov.uk,Bracknell Forest,http://www.bracknell-forest.gov.uk,-0.75208500000000,RG12 1JG,2013-04-30,fhrs_4_en-GB,4,,FHRS,0
215649,Hewlett Packard,Cain Road,Bracknell,,ISS (staff canteen),Restaurant/Cafe/Canteen,1,0,,518552,0,,51.41471500000000,PI/000064862,882,environmental.health@bracknell-forest.gov.uk,Bracknell Forest,http://www.bracknell-forest.gov.uk,-0.78385400000000,RG12 1HN,2013-12-12,fhrs_5_en-GB,5,,FHRS,0
215650,Garth Hill College,Bull Lane,Bracknell,,ISS Education (college kitchen),School/college/university,7845,5,,518360,5,,51.42019200000000,PI/000063531,882,environmental.health@bracknell-forest.gov.uk,Bracknell Forest,http://www.bracknell-forest.gov.uk,-0.74979700000000,RG42 2AD,2014-03-06,fhrs_5_en-GB,5,,FHRS,0
215651,Ascot Heath Junior School,Rhododendron Walk,Ascot,,ISS Education (school kitchen),School/college/university,7845,5,,518178,0,,51.42349100000000,PI/000059117,882,environmental.health@bracknell-forest.gov.uk,Bracknell Forest,http://www.bracknell-forest.gov.uk,-0.68794700000000,SL5 8PN,2013-07-01,fhrs_5_en-GB,5,,FHRS,5
215652,Birch Hill Primary School,Leppington,Bracknell,,ISS Education (school kitchen),School/college/university,7845,10,,518177,5,,51.39084800000000,PI/000059115,882,environmental.health@bracknell-forest.gov.uk,Bracknell Forest,http://www.bracknell-forest.gov.uk,-0.75201900000000,RG12 7WW,2013-07-04,fhrs_4_en-GB,4,,FHRS,5
215653,College Town Junior School,Branksome Hill Road,College Town,Sandhurst,ISS Education (school kitchen),School/college/university,7845,5,,518563,0,,51.34620800000000,PI/000065033,882,environmental.health@bracknell-forest.gov.uk,Bracknell Forest,http://www.bracknell-forest.gov.uk,-0.77817300000000,GU47 0QF,2015-01-21,fhrs_5_en-GB,5,,FHRS,5
215654,Cranbourne Primary School,Lovel Road,Winkfield,Windsor,ISS Education (school kitchen),School/college/university,7845,5,,518175,10,,51.43629200000000,PI/000059113,882,environmental.health@bracknell-forest.gov.uk,Bracknell Forest,http://www.bracknell-forest.gov.uk,-0.67641600000000,SL4 2EU,2014-09-29,fhrs_4_en-GB,4,,FHRS,5
215655,Crown Wood Primary School,Opladen Way,Bracknell,,ISS Education (school kitchen),School/college/university,7845,5,,734029,5,,51.39695100000000,PI/000067184,882,environmental.health@bracknell-forest.gov.uk,Bracknell Forest,http://www.bracknell-forest.gov.uk,-0.73589700000000,RG12 0PE,2014-06-12,fhrs_5_en-GB,5,,FHRS,5
215656,Crowthorne Church Of England Primary School,Dukes Ride,Crowthorne,,ISS Education (school kitchen),School/college/university,7845,10,,518173,10,,51.37122800000000,PI/000059111,882,environmental.health@bracknell-forest.gov.uk,Bracknell Forest,http://www.bracknell-forest.gov.uk,-0.79420100000000,RG45 6ND,2014-11-17,fhrs_3_en-GB,3,,FHRS,10
215657,Fox Hill Primary School,Pond Moor Road,Bracknell,,ISS Education (school kitchen),School/college/university,7845,5,,518172,5,,51.40369900000000,PI/000059110,882,environmental.health@bracknell-forest.gov.uk,Bracknell Forest,http://www.bracknell-forest.gov.uk,-0.75214400000000,RG12 7JZ,2014-06-06,fhrs_5_en-GB,5,,FHRS,0
215658,Great Hollands Primary School,Wordsworth,Bracknell,,ISS Education (school kitchen),School/college/university,7845,5,,518171,5,,51.40084400000000,PI/000059109,882,environmental.health@bracknell-forest.gov.uk,Bracknell Forest,http://www.bracknell-forest.gov.uk,-0.77221800000000,RG12 8YR,2013-05-13,fhrs_4_en-GB,4,,FHRS,10
215659,Harmans Water Primary School,Wellington Drive,Bracknell,,ISS Education (school kitchen),School/college/university,7845,0,,518170,5,,51.40298800000000,PI/000059106,882,environmental.health@bracknell-forest.gov.uk,Bracknell Forest,http://www.bracknell-forest.gov.uk,-0.73531400000000,RG12 9NE,2014-12-08,fhrs_4_en-GB,4,,FHRS,10
215660,Holly Spring Junior School,Lily Hill Road,Bracknell,,ISS Education (school kitchen),School/college/university,7845,10,,518167,10,,51.41589300000000,PI/000059103,882,environmental.health@bracknell-forest.gov.uk,Bracknell Forest,http://www.bracknell-forest.gov.uk,-0.73297400000000,RG12 2SW,2014-12-03,fhrs_3_en-GB,3,,FHRS,5
215661,Jennetts Park Church Of England Primary School,3 Tawny Owl Square,Bracknell,,ISS Education (school kitchen),School/college/university,7845,5,,518424,0,,51.40461300000000,PI/000064252,882,environmental.health@bracknell-forest.gov.uk,Bracknell Forest,http://www.bracknell-forest.gov.uk,-0.78351800000000,RG12 8EB,2013-10-14,fhrs_5_en-GB,5,,FHRS,0
215662,Kennel Lane School,Kennel Lane,Warfield,Bracknell,ISS Education (School Kitchen),School/college/university,7845,10,,727602,10,,51.42691400000000,PI/000067141,882,environmental.health@bracknell-forest.gov.uk,Bracknell Forest,http://www.bracknell-forest.gov.uk,-0.75533800000000,RG42 2EX,2014-06-23,fhrs_3_en-GB,3,,FHRS,10
215663,Meadow Vale Primary School,Moordale Avenue,Bracknell,,ISS Education (school kitchen),School/college/university,7845,0,,518169,0,,51.42259900000000,PI/000059105,882,environmental.health@bracknell-forest.gov.uk,Bracknell Forest,http://www.bracknell-forest.gov.uk,-0.76736400000000,RG42 1SY,2012-11-08,fhrs_5_en-GB,5,,FHRS,5
215664,New Scotland Hill Primary School,Grampian Road,Sandhurst,,ISS Education (school kitchen),School/college/university,7845,5,,518164,5,,51.35653700000000,PI/000059099,882,environmental.health@bracknell-forest.gov.uk,Bracknell Forest,http://www.bracknell-forest.gov.uk,-0.80843100000000,GU47 8NQ,2014-05-20,fhrs_5_en-GB,5,,FHRS,5
215665,Owlsmoor Primary School,22-42 Cambridge Road,Owlsmoor,Sandhurst,ISS Education (school kitchen),School/college/university,7845,10,,518165,10,,51.35376800000000,PI/000059101,882,environmental.health@bracknell-forest.gov.uk,Bracknell Forest,http://www.bracknell-forest.gov.uk,-0.77800100000000,GU47 0TA,2014-09-15,fhrs_3_en-GB,3,,FHRS,5
215666,Sandy Lane Primary School,Sandy Lane,Bracknell,,ISS Education (school kitchen),School/college/university,7845,10,,518166,10,,51.42197900000000,PI/000059102,882,environmental.health@bracknell-forest.gov.uk,Bracknell Forest,http://www.bracknell-forest.gov.uk,-0.74704400000000,RG12 2JG,2014-09-16,fhrs_3_en-GB,3,,FHRS,10
215667,St Josephs R C Primary School,Gipsy Lane,Bracknell,,ISS Education (School Kitchen),School/college/university,7845,5,,730339,5,,51.41438400000000,PI/000067146,882,environmental.health@bracknell-forest.gov.uk,Bracknell Forest,http://www.bracknell-forest.gov.uk,-0.74065100000000,RG12 9AP,2014-06-16,fhrs_5_en-GB,5,,FHRS,5
215668,St Margaret Clitherow County Primary School,Pembroke,Bracknell,,ISS Education (school kitchen),School/college/university,7845,5,,734030,10,,51.39076400000000,PI/000067185,882,environmental.health@bracknell-forest.gov.uk,Bracknell Forest,http://www.bracknell-forest.gov.uk,-0.76537300000000,RG12 7RD,2013-10-21,fhrs_4_en-GB,4,,FHRS,5
215669,St Michaels Church Of England Primary School,Lower Church Road,Sandhurst,,ISS Education (school kitchen),School/college/university,7845,0,,734031,5,,51.34900900000000,PI/000067186,882,environmental.health@bracknell-forest.gov.uk,Bracknell Forest,http://www.bracknell-forest.gov.uk,-0.81452800000000,GU47 8HN,2013-10-22,fhrs_4_en-GB,4,,FHRS,10
215670,St Michaels Easthampstead School,Crowthorne Road,Bracknell,,ISS Education (school kitchen),School/college/university,7845,5,,734032,5,,51.40256100000000,PI/000067187,882,environmental.health@bracknell-forest.gov.uk,Bracknell Forest,http://www.bracknell-forest.gov.uk,-0.75763700000000,RG12 7EH,2014-06-26,fhrs_4_en-GB,4,,FHRS,10
215671,The Pines Primary School,Hanworth Road,Bracknell,,ISS Education (school kitchen),School/college/university,7845,0,,518182,5,,51.39290900000000,PI/000059121,882,environmental.health@bracknell-forest.gov.uk,Bracknell Forest,http://www.bracknell-forest.gov.uk,-0.76413700000000,RG12 7WX,2014-02-14,fhrs_5_en-GB,5,,FHRS,5
215672,Uplands Primary School,Albion Road,Sandhurst,,ISS Education (school kitchen),School/college/university,7845,10,,518183,0,,51.34728300000000,PI/000059122,882,environmental.health@bracknell-forest.gov.uk,Bracknell Forest,http://www.bracknell-forest.gov.uk,-0.79778700000000,GU47 9BP,2015-01-12,fhrs_4_en-GB,4,,FHRS,10
215673,Warfield CE Primary School,All Saints Rise,Warfield,Bracknell,ISS Education (school kitchen),School/college/university,7845,10,,518184,10,,51.42475100000000,PI/000059123,882,environmental.health@bracknell-forest.gov.uk,Bracknell Forest,http://www.bracknell-forest.gov.uk,-0.73549000000000,RG42 3SS,2013-12-17,fhrs_3_en-GB,3,,FHRS,5
215674,Whitegrove Primary School,25 Westmorland Drive,Warfield,Bracknell,ISS Education (school kitchen),School/college/university,7845,5,,734033,5,,51.42470700000000,PI/000067188,882,environmental.health@bracknell-forest.gov.uk,Bracknell Forest,http://www.bracknell-forest.gov.uk,-0.72484800000000,RG42 3QS,2015-02-09,fhrs_5_en-GB,5,,FHRS,0
215675,Wildmoor Heath School,Lower Broadmoor Road,Crowthorne,,ISS Education (school kitchen),School/college/university,7845,0,,518176,5,,51.36500700000000,PI/000059114,882,environmental.health@bracknell-forest.gov.uk,Bracknell Forest,http://www.bracknell-forest.gov.uk,-0.78132100000000,RG45 7HD,2008-09-08,fhrs_5_en-GB,5,,FHRS,0
215676,Wildridings County Primary School,Netherton,Bracknell,,ISS Education (school kitchen),School/college/university,7845,0,,518186,5,,51.40725800000000,PI/000059125,882,environmental.health@bracknell-forest.gov.uk,Bracknell Forest,http://www.bracknell-forest.gov.uk,-0.76136300000000,RG12 7DX,2014-11-10,fhrs_5_en-GB,5,,FHRS,5
215677,Winkfield St Marys Church Of England Primary School,Winkfield Row,Bracknell,,ISS Education (school kitchen),School/college/university,7845,0,,734034,0,,51.43165500000000,PI/000067189,882,environmental.health@bracknell-forest.gov.uk,Bracknell Forest,http://www.bracknell-forest.gov.uk,-0.70901700000000,RG42 6NH,2015-02-05,fhrs_5_en-GB,5,,FHRS,0
215678,Wooden Hill Primary School,Staplehurst,Bracknell,,ISS Education (school kitchen),School/college/university,7845,0,,734035,10,,51.39278000000000,PI/000067190,882,environmental.health@bracknell-forest.gov.uk,Bracknell Forest,http://www.bracknell-forest.gov.uk,-0.77753700000000,RG12 8DB,2013-12-09,fhrs_4_en-GB,4,,FHRS,0
215679,72 High Street,Sandhurst,,,Istanbul Kebab,Takeaway/sandwich shop,7844,,,580744,,,51.34670300000000,PI/000066158,882,environmental.health@bracknell-forest.gov.uk,Bracknell Forest,http://www.bracknell-forest.gov.uk,-0.80791100000000,GU47 8ED,2014-01-22,fhrs_4_en-GB,4,,FHRS,
215680,,,,,Iswidi,Retailers - other,4613,,,606327,,,,PI/000066347,882,environmental.health@bracknell-forest.gov.uk,Bracknell Forest,http://www.bracknell-forest.gov.uk,,,,fhrs_awaitinginspection_en-GB,AwaitingInspection,,FHRS,
215681,8-10 High Street,Crowthorne,,,Italo Argentinian,Restaurant/Cafe/Canteen,1,10,,679142,15,,51.36979100000000,PI/000066798,882,environmental.health@bracknell-forest.gov.uk,Bracknell Forest,http://www.bracknell-forest.gov.uk,-0.79263000000000,RG45 7AZ,2014-08-13,fhrs_2_en-GB,2,,FHRS,15
215682,2 Royal Hunt House,Fernbank Road,Ascot,,J & S Meats (Ascot),Retailers - other,4613,5,,517711,0,,51.41968100000000,PI/000014604,882,environmental.health@bracknell-forest.gov.uk,Bracknell Forest,http://www.bracknell-forest.gov.uk,-0.69383700000000,SL5 8JR,2013-07-23,fhrs_5_en-GB,5,,FHRS,5
215683,Terrace Road North,Binfield,Bracknell,,Jack O'newbury,Pub/bar/nightclub,7843,,,734895,,,51.43954700000000,PI/000067197,882,environmental.health@bracknell-forest.gov.uk,Bracknell Forest,http://www.bracknell-forest.gov.uk,-0.78530900000000,RG42 5PH,,fhrs_awaitinginspection_en-GB,AwaitingInspection,,FHRS,
215684,Trilakes Country Park And Fishery,Yateley Road,Sandhurst,,Jakes @ Trilakes,Restaurant/Cafe/Canteen,1,0,,518320,0,,51.34579300000000,PI/000062585,882,environmental.health@bracknell-forest.gov.uk,Bracknell Forest,http://www.bracknell-forest.gov.uk,-0.81392200000000,GU47 8JQ,2014-01-14,fhrs_5_en-GB,5,,FHRS,0
215685,,,,,Jireh Enterprises,Retailers - other,4613,,,517940,,,,PI/000043994,882,environmental.health@bracknell-forest.gov.uk,Bracknell Forest,http://www.bracknell-forest.gov.uk,,,,fhrs_awaitinginspection_en-GB,AwaitingInspection,,FHRS,
215686,Crowthorne Church Of England Primary School,Dukes Ride,Crowthorne,,Jitterbugs After School Club,School/college/university,7845,10,,517699,10,,51.37122800000000,PI/000012759,882,environmental.health@bracknell-forest.gov.uk,Bracknell Forest,http://www.bracknell-forest.gov.uk,-0.79420100000000,RG45 6ND,2014-02-03,fhrs_4_en-GB,4,,FHRS,0
215687,Bracknell Ice Rink And Ski Centre,John Nike Way,Binfield,Bracknell,John Nike Leisuresport Ltd,Restaurant/Cafe/Canteen,1,5,,517791,5,,51.41544600000000,PI/000023057,882,environmental.health@bracknell-forest.gov.uk,Bracknell Forest,http://www.bracknell-forest.gov.uk,-0.78679700000000,RG12 8TN,2014-01-27,fhrs_5_en-GB,5,,FHRS,5
215688,,,,,John's Spitroasts,Other catering premises,7841,,,550956,,,,PI/000065730,882,environmental.health@bracknell-forest.gov.uk,Bracknell Forest,http://www.bracknell-forest.gov.uk,,,,fhrs_awaitinginspection_en-GB,AwaitingInspection,,FHRS,
215689,,,,,K Bouqkakes,Other catering premises,7841,5,,571765,0,,,PI/000065885,882,environmental.health@bracknell-forest.gov.uk,Bracknell Forest,http://www.bracknell-forest.gov.uk,,,2014-07-02,fhrs_5_en-GB,5,,FHRS,0
215690,Indian Restaurant,1-3 Dukes Ride,Crowthorne,,Kabir's,Restaurant/Cafe/Canteen,1,10,,539686,5,,51.37042700000000,PI/000065667,882,environmental.health@bracknell-forest.gov.uk,Bracknell Forest,http://www.bracknell-forest.gov.uk,-0.79328800000000,RG45 6LZ,2014-03-20,fhrs_3_en-GB,3,,FHRS,10
215691,2 Priestwood Square,Bracknell,,,KAMS,Takeaway/sandwich shop,7844,5,,517870,10,,51.42159600000000,PI/000035175,882,environmental.health@bracknell-forest.gov.uk,Bracknell Forest,http://www.bracknell-forest.gov.uk,-0.76434200000000,RG42 1UD,2014-01-22,fhrs_4_en-GB,4,,FHRS,5
215692,,,,,"Karen's Cakes, Cookies & Toppers",Other catering premises,7841,0,,518600,0,,,PI/000065604,882,environmental.health@bracknell-forest.gov.uk,Bracknell Forest,http://www.bracknell-forest.gov.uk,,,2014-09-04,fhrs_5_en-GB,5,,FHRS,0
215693,Crown Row,Bracknell,,,Kebab Kitchen,Mobile caterer,7846,5,,518044,5,,,PI/000050502,882,environmental.health@bracknell-forest.gov.uk,Bracknell Forest,http://www.bracknell-forest.gov.uk,,,2014-03-11,fhrs_5_en-GB,5,,FHRS,5
215694,Lovel Road,Winkfield,Windsor,,Kee's at the Winkfield,Restaurant/Cafe/Canteen,1,10,,565598,5,,51.43620200000000,PI/000065891,882,environmental.health@bracknell-forest.gov.uk,Bracknell Forest,http://www.bracknell-forest.gov.uk,-0.67722400000000,SL4 2ES,2014-03-28,fhrs_4_en-GB,4,,FHRS,0
215695,West End Lane,Warfield,Bracknell,,Keiths Farm Shop,Retailers - other,4613,10,,517719,5,,51.43401400000000,PI/000015780,882,environmental.health@bracknell-forest.gov.uk,Bracknell Forest,http://www.bracknell-forest.gov.uk,-0.75576400000000,RG42 5RJ,2007-04-19,fhrs_4_en-GB,4,,FHRS,5
215696,Bagshot Road,Bracknell,,,Kentucky Fried Chicken,Restaurant/Cafe/Canteen,1,5,,517591,5,,51.40479400000000,PI/000002356,882,environmental.health@bracknell-forest.gov.uk,Bracknell Forest,http://www.bracknell-forest.gov.uk,-0.74778700000000,RG12 9SE,2013-01-15,fhrs_5_en-GB,5,,FHRS,0
215697,Church Road,Bracknell,,,Kerith Community Church,Other catering premises,7841,5,,518265,0,,51.41504500000000,PI/000060474,882,environmental.health@bracknell-forest.gov.uk,Bracknell Forest,http://www.bracknell-forest.gov.uk,-0.74609700000000,RG12 1EH,2013-01-11,fhrs_5_en-GB,5,,FHRS,0
215698,59-61 Dukes Ride,Crowthorne,,,Kids inc Nursery,Hospitals/Childcare/Caring Premises,5,0,,518370,0,,51.37054300000000,PI/000063572,882,environmental.health@bracknell-forest.gov.uk,Bracknell Forest,http://www.bracknell-forest.gov.uk,-0.79753800000000,RG45 6NS,2014-10-09,fhrs_5_en-GB,5,,FHRS,0
215699,New Scotland Hill Primary School,Grampian Road,Sandhurst,,Kidz R Us,School/college/university,7845,10,,518451,15,,51.35653700000000,PI/000064534,882,environmental.health@bracknell-forest.gov.uk,Bracknell Forest,http://www.bracknell-forest.gov.uk,-0.80843100000000,GU47 8NQ,2014-09-03,fhrs_2_en-GB,2,,FHRS,0
215700,Joshua Jebb Way,Crowthorne,,,Kier Construction - Site Office,Restaurant/Cafe/Canteen,1,,,734021,,,,PI/000066737,882,environmental.health@bracknell-forest.gov.uk,Bracknell Forest,http://www.bracknell-forest.gov.uk,,RG45 7FA,,fhrs_awaitinginspection_en-GB,AwaitingInspection,,FHRS,
215701,Royal Military Academy,Yorktown Road,College Town,Sandhurst,King Hussains Pavillion Bar,Pub/bar/nightclub,7843,0,,518025,0,,,PI/000050217,882,environmental.health@bracknell-forest.gov.uk,Bracknell Forest,http://www.bracknell-forest.gov.uk,,GU47 0HL,2010-10-27,fhrs_5_en-GB,5,,FHRS,0
215702,372 Yorktown Road,College Town,Sandhurst,,Kings Kebabs,Takeaway/sandwich shop,7844,10,,518012,10,,51.34116500000000,PI/000049996,882,environmental.health@bracknell-forest.gov.uk,Bracknell Forest,http://www.bracknell-forest.gov.uk,-0.77833600000000,GU47 0PU,2014-03-26,fhrs_3_en-GB,3,,FHRS,10
215703,Humphries Yard,Bagshot Road,Bracknell,,Kings Kebabs,Mobile caterer,7846,20,,517598,10,,,PI/000002426,882,environmental.health@bracknell-forest.gov.uk,Bracknell Forest,http://www.bracknell-forest.gov.uk,,,2014-10-14,fhrs_1_en-GB,1,,FHRS,10
215704,,,,,Kirsty's Fabulous Cupcakes,Other catering premises,7841,0,,518496,0,,,PI/000064610,882,environmental.health@bracknell-forest.gov.uk,Bracknell Forest,http://www.bracknell-forest.gov.uk,,,2014-07-02,fhrs_5_en-GB,5,,FHRS,0
215705,3-5 Priestwood Square,Bracknell,,,Koh-I-Noor Restaurant,Restaurant/Cafe/Canteen,1,0,,517871,5,,51.42159600000000,PI/000035178,882,environmental.health@bracknell-forest.gov.uk,Bracknell Forest,http://www.bracknell-forest.gov.uk,-0.76434200000000,RG42 1UD,2014-01-22,fhrs_5_en-GB,5,,FHRS,5
215706,Crown Wood Primary School,Opladen Way,Bracknell,,KOOSA Kids Limited,School/college/university,7845,,,699123,,,51.39695100000000,PI/000066842,882,environmental.health@bracknell-forest.gov.uk,Bracknell Forest,http://www.bracknell-forest.gov.uk,-0.73589700000000,RG12 0PE,,fhrs_awaitinginspection_en-GB,AwaitingInspection,,FHRS,
215707,Birch Hill Primary School,Leppington,Bracknell,,Koosa Kids Ltd (After School Club),School/college/university,7845,5,,518332,5,,51.39084800000000,PI/000062747,882,environmental.health@bracknell-forest.gov.uk,Bracknell Forest,http://www.bracknell-forest.gov.uk,-0.75201900000000,RG12 7WW,2014-05-08,fhrs_5_en-GB,5,,FHRS,5
215708,Harmans Water Primary School,Wellington Drive,Bracknell,,Koosa Kids Ltd (After School Club),School/college/university,7845,5,,518371,5,,51.40298800000000,PI/000063574,882,environmental.health@bracknell-forest.gov.uk,Bracknell Forest,http://www.bracknell-forest.gov.uk,-0.73531400000000,RG12 9NE,2014-05-20,fhrs_5_en-GB,5,,FHRS,5
215709,Meadow Vale Primary School,Moordale Avenue,Bracknell,,Koosa Kids Ltd (After School Club),School/college/university,7845,0,,518372,0,,51.42259900000000,PI/000063575,882,environmental.health@bracknell-forest.gov.uk,Bracknell Forest,http://www.bracknell-forest.gov.uk,-0.76736400000000,RG42 1SY,2014-05-21,fhrs_5_en-GB,5,,FHRS,0
215710,Ringmead,Birch Hill,Bracknell,,Kose Kebabs,Mobile caterer,7846,10,,518046,10,,,PI/000050508,882,environmental.health@bracknell-forest.gov.uk,Bracknell Forest,http://www.bracknell-forest.gov.uk,,,2014-03-24,fhrs_3_en-GB,3,,FHRS,5
215711,Royal Berkshire Polo Club,North Street,Winkfield,Windsor,La Cantina,Other catering premises,7841,10,,517849,5,,51.44378500000000,PI/000031518,882,environmental.health@bracknell-forest.gov.uk,Bracknell Forest,http://www.bracknell-forest.gov.uk,-0.67663100000000,SL4 4TH,2013-02-06,fhrs_2_en-GB,2,,FHRS,15
215712,Laithwaites,John Nike Way,Binfield,Bracknell,Laithwaites Wine,Retailers - other,4613,,,518357,,,51.41544600000000,PI/000063485,882,environmental.health@bracknell-forest.gov.uk,Bracknell Forest,http://www.bracknell-forest.gov.uk,-0.78679700000000,RG12 8TN,,fhrs_exempt_en-GB,Exempt,,FHRS,
215713,Royal Berkshire Fishery,North Street,Winkfield,Windsor,Lakeview Cafe,Restaurant/Cafe/Canteen,1,10,,715877,5,,51.44378400000000,PI/000067045,882,environmental.health@bracknell-forest.gov.uk,Bracknell Forest,http://www.bracknell-forest.gov.uk,-0.67494700000000,SL4 4TE,2014-11-25,fhrs_4_en-GB,4,,FHRS,5
215714,School Building,Lambrook,Winkfield Row,Bracknell,Lambrook Haileybury School,School/college/university,7845,5,,517651,0,,51.43482400000000,PI/000007595,882,environmental.health@bracknell-forest.gov.uk,Bracknell Forest,http://www.bracknell-forest.gov.uk,-0.71419400000000,RG42 6LU,2014-12-02,fhrs_5_en-GB,5,,FHRS,5
