,addressline1,addressline2,addressline3,addressline4,businessname,businesstype,businesstypeid,confidenceinmanagement,extractdate,fhrsid,hygiene,itemcount,latitude,localauthoritybusinessid,localauthoritycode,localauthorityemailaddress,localauthorityname,localauthoritywebsite,longitude,postcode,ratingdate,ratingkey,ratingvalue,returncode,schemetype,structural
175451,Unit 30 Albert Square,Widnes,Cheshire,,99p Stores,Retailers - other,4613,20,,690218,15,,53.36852300000000,86262,889,environmental.protection@halton.gov.uk,Halton,http://www.halton.gov.uk,-2.72670700000000,WA8 6JW,2014-08-06,fhrs_1_en-GB,1,,FHRS,10
175452,83 Lower House Lane,Widnes,Cheshire,,A & D News,Retailers - other,4613,10,,96664,10,,53.36841500000000,29591,889,environmental.protection@halton.gov.uk,Halton,http://www.halton.gov.uk,-2.73991600000000,WA8 7DU,2014-02-24,fhrs_3_en-GB,3,,FHRS,5
175453,135 Albert Road,Widnes,Cheshire,,A&I News and Wine,Retailers - other,4613,5,,84020,5,,53.37099700000000,20754,889,environmental.protection@halton.gov.uk,Halton,http://www.halton.gov.uk,-2.72341300000000,WA8 6LB,2013-01-10,fhrs_5_en-GB,5,,FHRS,5
175454,Davy Road,Astmoor Industrial Estate,Runcorn,,AAK Staff Canteen,Restaurant/Cafe/Canteen,1,5,,122865,5,,53.32510600000000,51315,889,environmental.protection@halton.gov.uk,Halton,http://www.halton.gov.uk,-2.70916900000000,WA7 1SL,2013-11-07,fhrs_5_en-GB,5,,FHRS,5
175455,Daresbury Park,Daresbury,"Runcorn, Cheshire",,ABB - Staff Canteen,Restaurant/Cafe/Canteen,1,0,,122861,0,,53.33048000000000,51312,889,environmental.protection@halton.gov.uk,Halton,http://www.halton.gov.uk,-2.64587700000000,WA4 4BT,2015-01-12,fhrs_5_en-GB,5,,FHRS,5
175456,,,,,Abbey Kitchen (Mobile Food Unit),Mobile caterer,7846,5,,657997,5,,,82282,889,environmental.protection@halton.gov.uk,Halton,http://www.halton.gov.uk,,,2014-05-21,fhrs_5_en-GB,5,,FHRS,0
175457,59 Coroners Lane,Widnes,Cheshire,,Abbeyfield Society,Hospitals/Childcare/Caring Premises,5,5,,123066,5,,53.38725100000000,51520,889,environmental.protection@halton.gov.uk,Halton,http://www.halton.gov.uk,-2.73326600000000,WA8 9JB,2012-04-25,fhrs_5_en-GB,5,,FHRS,0
175458,Kingshead Close,Runcorn,Cheshire,,Acorn Day Nursery - Main Kitchen,Hospitals/Childcare/Caring Premises,5,0,,123315,0,,53.33938300000000,51782,889,environmental.protection@halton.gov.uk,Halton,http://www.halton.gov.uk,-2.69306500000000,WA7 2JE,2014-05-06,fhrs_5_en-GB,5,,FHRS,5
175459,Kingshead Close,Castlefields Road,Runcron,,Acorn Day Nursery - Snack Kitchen,Hospitals/Childcare/Caring Premises,5,10,,139045,10,,53.33938300000000,74415,889,environmental.protection@halton.gov.uk,Halton,http://www.halton.gov.uk,-2.69306500000000,WA7 2JE,2014-05-06,fhrs_3_en-GB,3,,FHRS,5
175460,Daresbury Park,Daresbury,"Runcorn, Cheshire",,Aegon House Deli,Restaurant/Cafe/Canteen,1,0,,137387,5,,53.32853700000000,72267,889,environmental.protection@halton.gov.uk,Halton,http://www.halton.gov.uk,-2.64436100000000,WA4 4HS,2014-12-08,fhrs_5_en-GB,5,,FHRS,5
175461,11 Regent Street,Runcorn,Cheshire,,Al Amin,Takeaway/sandwich shop,7844,,,122669,,,53.34217800000000,51118,889,environmental.protection@halton.gov.uk,Halton,http://www.halton.gov.uk,-2.73516600000000,WA7 1LJ,,fhrs_awaitinginspection_en-GB,AwaitingInspection,,FHRS,
175462,55-57 Victoria Road,Widnes,Cheshire,,Aladdin,Takeaway/sandwich shop,7844,5,,119718,5,,53.36010000000000,48845,889,environmental.protection@halton.gov.uk,Halton,http://www.halton.gov.uk,-2.73552000000000,WA8 7RP,2014-04-02,fhrs_5_en-GB,5,,FHRS,5
175463,16 Albert Square,Widnes,Cheshire,,Albert Grill,Restaurant/Cafe/Canteen,1,5,,83412,5,,53.36852300000000,20415,889,environmental.protection@halton.gov.uk,Halton,http://www.halton.gov.uk,-2.72670700000000,WA8 6JW,2013-10-30,fhrs_4_en-GB,4,,FHRS,10
175464,1 Liverpool Road,Widnes,Cheshire,,Albion Hotel,Pub/bar/nightclub,7843,5,,690207,5,,53.37036500000000,10333,889,environmental.protection@halton.gov.uk,Halton,http://www.halton.gov.uk,-2.74133300000000,WA8 7ER,2014-11-13,fhrs_5_en-GB,5,,FHRS,5
175465,Lugsdale Road,Widnes,Cheshire,,Aldi,Retailers - supermarkets/hypermarkets,7840,0,,118840,5,,53.36586000000000,48111,889,environmental.protection@halton.gov.uk,Halton,http://www.halton.gov.uk,-2.72257400000000,WA8 6UF,2013-10-25,fhrs_5_en-GB,5,,FHRS,0
175466,Unit 6 Trident Retail Park,Halton Lea,Runcorn,,Aldi,Retailers - supermarkets/hypermarkets,7840,0,,119621,5,,53.32619200000000,48771,889,environmental.protection@halton.gov.uk,Halton,http://www.halton.gov.uk,-2.69998300000000,WA7 2FQ,2013-12-05,fhrs_5_en-GB,5,,FHRS,0
175467,All Saints Church,Church Street,Runcorn,,All Saints Open door drop in,Other catering premises,7841,0,,138175,0,,53.33231100000000,73401,889,environmental.protection@halton.gov.uk,Halton,http://www.halton.gov.uk,-2.73911100000000,WA7 4PS,2012-01-24,fhrs_5_en-GB,5,,FHRS,5
175468,Hough Green Road Widnes Cheshi,,,,All Saints Upton Primary School,School/college/university,7845,0,,189707,0,,53.37920000000000,79378,889,environmental.protection@halton.gov.uk,Halton,http://www.halton.gov.uk,-2.77267900000000,WA8 4PG,2014-01-21,fhrs_5_en-GB,5,,FHRS,0
175469,87 Farnworth Street,Widnes,Cheshire,,Anderson's Newsagents,Retailers - other,4613,,,491918,,,53.38328800000000,20476,889,environmental.protection@halton.gov.uk,Halton,http://www.halton.gov.uk,-2.72724500000000,WA8 9LW,2014-02-04,fhrs_exempt_en-GB,Exempt,,FHRS,
175470,,,,,Andrea Gaspierikova,Other catering premises,7841,10,,199579,0,,,79464,889,environmental.protection@halton.gov.uk,Halton,http://www.halton.gov.uk,,,2012-02-08,fhrs_4_en-GB,4,,FHRS,5
175471,,,,,Angelo Esposito  J310 DJV,Mobile caterer,7846,10,,137590,5,,,72592,889,environmental.protection@halton.gov.uk,Halton,http://www.halton.gov.uk,,,2014-05-29,fhrs_4_en-GB,4,,FHRS,5
175472,,,,,Angelo Esposito Ice Cream R515 MPR,Mobile caterer,7846,10,,665601,5,,,79892,889,environmental.protection@halton.gov.uk,Halton,http://www.halton.gov.uk,,,2014-05-29,fhrs_4_en-GB,4,,FHRS,5
175473,Trading: Ashville Way,Runcorn,Cheshire,,Angies Munch Box,Mobile caterer,7846,5,,134722,0,,53.30868200000000,68214,889,environmental.protection@halton.gov.uk,Halton,http://www.halton.gov.uk,-2.70295300000000,WA7 3EZ,2014-07-02,fhrs_4_en-GB,4,,FHRS,10
175474,33 Appleton Village,Widnes,Cheshire,,Antro's Chippy,Takeaway/sandwich shop,7844,0,,132447,0,,53.37113900000000,64405,889,environmental.protection@halton.gov.uk,Halton,http://www.halton.gov.uk,-2.73096000000000,WA8 6EL,2014-07-25,fhrs_5_en-GB,5,,FHRS,5
175475,Appleton Village,Leigh Avenue,Widnes,,Appleton Under Fives Community Pre-School,Hospitals/Childcare/Caring Premises,5,5,,138139,5,,53.36734600000000,73343,889,environmental.protection@halton.gov.uk,Halton,http://www.halton.gov.uk,-2.72957300000000,WA8 6PG,2012-03-23,fhrs_5_en-GB,5,,FHRS,5
175476,1 Albert Square,Widnes,Cheshire,,Argos,Retailers - other,4613,,,690211,,,53.36852300000000,83236,889,environmental.protection@halton.gov.uk,Halton,http://www.halton.gov.uk,-2.72670700000000,WA8 6JW,2004-03-16,fhrs_exempt_en-GB,Exempt,,FHRS,
175477,Beechwood Avenue,Runcorn,Cheshire,,Arriva North Western - Staff Canteen,Restaurant/Cafe/Canteen,1,5,,122853,5,,53.32139400000000,51306,889,environmental.protection@halton.gov.uk,Halton,http://www.halton.gov.uk,-2.71478200000000,WA7 4SB,2013-05-23,fhrs_4_en-GB,4,,FHRS,10
175478,1 Ascot Avenue,Runcorn,Cheshire,,Ascot Stores,Retailers - other,4613,5,,40338,5,,53.32105700000000,10110,889,environmental.protection@halton.gov.uk,Halton,http://www.halton.gov.uk,-2.72294300000000,WA7 4YW,2012-01-30,fhrs_5_en-GB,5,,FHRS,5
175479,Widnes Road,Widnes,Cheshire,,Asda,Retailers - supermarkets/hypermarkets,7840,0,,130744,0,,53.36342400000000,62056,889,environmental.protection@halton.gov.uk,Halton,http://www.halton.gov.uk,-2.73136900000000,WA8 6AF,2013-12-12,fhrs_5_en-GB,5,,FHRS,5
175480,West Lane,Runcorn,Cheshire,,Asda Stores Ltd,Retailers - supermarkets/hypermarkets,7840,5,,93266,5,,53.32917800000000,26713,889,environmental.protection@halton.gov.uk,Halton,http://www.halton.gov.uk,-2.70124800000000,WA7 2PY,2014-09-11,fhrs_5_en-GB,5,,FHRS,5
175481,Cawfield Avenue,Widnes,Cheshire,,Ashley School,School/college/university,7845,5,,123024,0,,53.37057500000000,51491,889,environmental.protection@halton.gov.uk,Halton,http://www.halton.gov.uk,-2.75378100000000,WA8 7HG,2014-03-24,fhrs_5_en-GB,5,,FHRS,5
175482,Kingshead Close,Runcorn,Cheshire,,Astmoor  Primary School,School/college/university,7845,0,,151105,0,,53.33938300000000,9992,889,environmental.protection@halton.gov.uk,Halton,http://www.halton.gov.uk,-2.69306500000000,WA7 2JE,2014-03-19,fhrs_5_en-GB,5,,FHRS,5
175483,Evenwood Drive,Manor Park,Runcorn,,Atos Staff Canteen,Restaurant/Cafe/Canteen,1,5,,124463,10,,52.67851638793945,52991,889,environmental.protection@halton.gov.uk,Halton,http://www.halton.gov.uk,1.25958704948425,WA7 1FP,2013-10-24,fhrs_4_en-GB,4,,FHRS,5
175484,9 Sunningdale Avenue,Widnes,Cheshire,,Avondale Village Stores Ltd,Retailers - other,4613,5,,83427,10,,53.37120800000000,20423,889,environmental.protection@halton.gov.uk,Halton,http://www.halton.gov.uk,-2.76870200000000,WA8 7XJ,2013-10-16,fhrs_3_en-GB,3,,FHRS,10
175485,2-4 Albert Road,Widnes,Cheshire,,B & M,Retailers - supermarkets/hypermarkets,7840,0,,140268,0,,53.36838500000000,76421,889,environmental.protection@halton.gov.uk,Halton,http://www.halton.gov.uk,-2.72562300000000,WA8 6JE,2013-08-12,fhrs_5_en-GB,5,,FHRS,5
175486,Unit 42 Orchard Walk,Halton Lea,Runcorn,,B & M Retail Ltd,Retailers - other,4613,5,,136818,0,,53.32832800000000,71271,889,environmental.protection@halton.gov.uk,Halton,http://www.halton.gov.uk,-2.69754100000000,WA7 2 BS,2014-06-24,fhrs_5_en-GB,5,,FHRS,5
175487,Earl Road,Widnes,Cheshire,,B&M Homeware,Retailers - other,4613,5,,140908,0,,53.36383200000000,77030,889,environmental.protection@halton.gov.uk,Halton,http://www.halton.gov.uk,-2.72208900000000,WA8 0TA,2012-09-19,fhrs_5_en-GB,5,,FHRS,5
175488,173 Liverpool Road,Widnes,Cheshire,,Ball Hotel,Pub/bar/nightclub,7843,0,,692279,0,,53.37141300000000,23652,889,environmental.protection@halton.gov.uk,Halton,http://www.halton.gov.uk,-2.75205200000000,WA8 7EZ,2014-10-29,fhrs_5_en-GB,5,,FHRS,5
175489,2a Bankfield Road,Widnes,Cheshire,,Bankfield Residential Home,Hospitals/Childcare/Caring Premises,5,10,,441935,15,,53.37141300000000,21052,889,environmental.protection@halton.gov.uk,Halton,http://www.halton.gov.uk,-2.76472300000000,WA8 7UN,2014-08-18,fhrs_2_en-GB,2,,FHRS,0
175490,13 Grangeway,Runcorn,Cheshire,,Bargain Booze,Retailers - other,4613,,,141503,,,53.32866900000000,77991,889,environmental.protection@halton.gov.uk,Halton,http://www.halton.gov.uk,-2.71735100000000,WA7 5LY,2014-06-11,fhrs_exempt_en-GB,Exempt,,FHRS,
175491,3 Ditchfield Road,Widnes,Cheshire,,Bargain Booze,Retailers - other,4613,,,83610,,,53.36203500000000,20535,889,environmental.protection@halton.gov.uk,Halton,http://www.halton.gov.uk,-2.76512600000000,WA8 8QA,2014-07-14,fhrs_exempt_en-GB,Exempt,,FHRS,
175492,74 Albert Road,Widnes,Cheshire,,Bargain Booze,Retailers - other,4613,,,690216,,,53.36965900000000,85394,889,environmental.protection@halton.gov.uk,Halton,http://www.halton.gov.uk,-2.72466800000000,WA8 6JT,2013-08-16,fhrs_exempt_en-GB,Exempt,,FHRS,
175493,8 High Street,Runcorn,Cheshire,,Bargain Booze,Retailers - other,4613,5,,138269,5,,53.34205200000000,73556,889,environmental.protection@halton.gov.uk,Halton,http://www.halton.gov.uk,-2.73082300000000,WA7 1AU,2013-02-06,fhrs_5_en-GB,5,,FHRS,5
175494,56 Church Street,Runcorn,Cheshire,,Barley Mow,Pub/bar/nightclub,7843,5,,80460,5,,53.34276800000000,19478,889,environmental.protection@halton.gov.uk,Halton,http://www.halton.gov.uk,-2.73429000000000,WA7 1LD,2014-09-17,fhrs_5_en-GB,5,,FHRS,5
175495,38 Bechers,Widnes,Cheshire,,Bechers Post Office,Retailers - other,4613,10,,97009,5,,53.37795400000000,29976,889,environmental.protection@halton.gov.uk,Halton,http://www.halton.gov.uk,-2.77213000000000,WA8 4TE,2014-01-24,fhrs_3_en-GB,3,,FHRS,10
175496,Lapwing Grove,Runcorn,Cheshire,,Beechcroft Care Home - HC-One,Hospitals/Childcare/Caring Premises,5,0,,84038,0,,53.32123800000000,20763,889,environmental.protection@halton.gov.uk,Halton,http://www.halton.gov.uk,-2.68786200000000,WA7 2TP,2014-03-27,fhrs_5_en-GB,5,,FHRS,5
175497,Beechwood Avenue,Runcorn,Cheshire,,Beechwood Community Interest company,Other catering premises,7841,5,,100699,10,,53.31483900000000,32502,889,environmental.protection@halton.gov.uk,Halton,http://www.halton.gov.uk,-2.69997700000000,WA7 3HB,2014-12-09,fhrs_3_en-GB,3,,FHRS,10
175498,Grasmere Drive,Runcorn,,,Beechwood Deli,Takeaway/sandwich shop,7844,5,,324487,5,,53.31737800000000,79701,889,environmental.protection@halton.gov.uk,Halton,http://www.halton.gov.uk,-2.70693900000000,WA7 2TT,2013-12-04,fhrs_5_en-GB,5,,FHRS,5
175499,Grasmere Drive,Runcorn,Cheshire,,Beechwood Early Years Group,Hospitals/Childcare/Caring Premises,5,5,,129283,5,,53.31737800000000,59875,889,environmental.protection@halton.gov.uk,Halton,http://www.halton.gov.uk,-2.70693900000000,WA7 2TT,2014-03-27,fhrs_5_en-GB,5,,FHRS,5
175500,Grasmere Drive,Runcorn,Cheshire,,Beechwood link club,Hospitals/Childcare/Caring Premises,5,5,,137474,0,,53.31737800000000,72432,889,environmental.protection@halton.gov.uk,Halton,http://www.halton.gov.uk,-2.70693900000000,WA7 2TT,2014-10-01,fhrs_5_en-GB,5,,FHRS,0
175501,Grasmere Drive,Runcorn,Cheshire,,Beechwood Primary School,School/college/university,7845,0,,39728,0,,53.31737800000000,10018,889,environmental.protection@halton.gov.uk,Halton,http://www.halton.gov.uk,-2.70693900000000,WA7 2TT,2014-07-09,fhrs_5_en-GB,5,,FHRS,0
175502,Halebank Road,Widnes,Cheshire,,Beehive Inn,Pub/bar/nightclub,7843,10,,107736,10,,53.35226400000000,38147,889,environmental.protection@halton.gov.uk,Halton,http://www.halton.gov.uk,-2.78587800000000,WA8 8NQ,2013-12-11,fhrs_2_en-GB,2,,FHRS,15
175503,37 Queens Avenue,Widnes,Cheshire,,Beer Bellies,Retailers - other,4613,,,693196,,,53.36764400000000,85398,889,environmental.protection@halton.gov.uk,Halton,http://www.halton.gov.uk,-2.76943400000000,WA8 8HR,2014-10-21,fhrs_exempt_en-GB,Exempt,,FHRS,
175504,Johnsons Lane,Widnes,,,Bella's,Mobile caterer,7846,10,,136007,10,,53.36892400000000,70007,889,environmental.protection@halton.gov.uk,Halton,http://www.halton.gov.uk,-2.70170600000000,WA8 0SJ,2013-10-23,fhrs_3_en-GB,3,,FHRS,10
175505,24-26 Widnes Road,Widnes,Cheshire,,Bengal Spice,Restaurant/Cafe/Canteen,1,10,,120580,10,,53.36316700000000,49514,889,environmental.protection@halton.gov.uk,Halton,http://www.halton.gov.uk,-2.73080900000000,WA8 6AD,2014-03-20,fhrs_3_en-GB,3,,FHRS,10
175506,139 Lower House Lane,Widnes,Cheshire,,Best One,Retailers - other,4613,10,,96739,5,,53.36841500000000,29671,889,environmental.protection@halton.gov.uk,Halton,http://www.halton.gov.uk,-2.73991600000000,WA8 7DU,2012-12-18,fhrs_3_en-GB,3,,FHRS,10
175507,9-11 Alexander Drive,Widnes,Cheshire,,Best One,Retailers - other,4613,0,,134136,5,,53.36604400000000,67319,889,environmental.protection@halton.gov.uk,Halton,http://www.halton.gov.uk,-2.75816400000000,WA8 8DY,2014-09-29,fhrs_4_en-GB,4,,FHRS,10
175508,Halton Brow,Runcorn,Cheshire,,Best One,Retailers - other,4613,10,,624817,10,,53.33262300000000,81956,889,environmental.protection@halton.gov.uk,Halton,http://www.halton.gov.uk,-2.70695100000000,WA7 2DX,2014-06-23,fhrs_2_en-GB,2,,FHRS,15
175509,Lapwing Grove,Runcorn,Cheshire,,Bethesda Church,Other catering premises,7841,10,,84217,0,,53.32123800000000,20881,889,environmental.protection@halton.gov.uk,Halton,http://www.halton.gov.uk,-2.68786200000000,WA7 2TP,2014-06-25,fhrs_4_en-GB,4,,FHRS,0
175510,,,,,Betsy Likes Cake,Other catering premises,7841,0,,358887,0,,,79775,889,environmental.protection@halton.gov.uk,Halton,http://www.halton.gov.uk,,,2012-07-06,fhrs_5_en-GB,5,,FHRS,5
175511,94 Shaw Street,Runcorn,Cheshire,,Betta Snax,Takeaway/sandwich shop,7844,5,,119527,5,,53.33779400000000,48697,889,environmental.protection@halton.gov.uk,Halton,http://www.halton.gov.uk,-2.73627700000000,WA7 5TX,2014-02-17,fhrs_5_en-GB,5,,FHRS,5
175512,Halton Hospital,Hospital Way,Runcorn,,Big Bear Coffee - Cheshire and Merseyside Treatment Centre,Restaurant/Cafe/Canteen,1,10,,612570,10,,53.32326600000000,81798,889,environmental.protection@halton.gov.uk,Halton,http://www.halton.gov.uk,-2.69460600000000,WA7 2DA,2014-01-06,fhrs_4_en-GB,4,,FHRS,0
175513,3 Victoria Avenue,Widnes,Cheshire,,Birchfield Nursery School,Hospitals/Childcare/Caring Premises,5,5,,130950,0,,53.37763000000000,62302,889,environmental.protection@halton.gov.uk,Halton,http://www.halton.gov.uk,-2.73517500000000,WA8 7TH,2013-12-18,fhrs_5_en-GB,5,,FHRS,0
175514,Birchfield Road,Widnes,Cheshire,,Birchfield Park Sports& Social Club,Pub/bar/nightclub,7843,5,,80571,5,,53.38723400000000,19511,889,environmental.protection@halton.gov.uk,Halton,http://www.halton.gov.uk,-2.73753600000000,WA8 9ES,2012-08-22,fhrs_4_en-GB,4,,FHRS,10
175515,,,,,Bistro Buffets Home Catering,Other catering premises,7841,5,,139737,0,,,75530,889,environmental.protection@halton.gov.uk,Halton,http://www.halton.gov.uk,,,2013-07-30,fhrs_5_en-GB,5,,FHRS,5
175516,8 Cronton Lane,Widnes,Cheshire,,Black Horse Post Office,Retailers - other,4613,5,,78390,5,,53.38965400000000,18637,889,environmental.protection@halton.gov.uk,Halton,http://www.halton.gov.uk,-2.74011900000000,WA8 5AJ,2013-01-16,fhrs_4_en-GB,4,,FHRS,10
175517,1 South Parade,Runcorn,Cheshire,,BLT's,Takeaway/sandwich shop,7844,0,,131122,5,,53.32624200000000,62451,889,environmental.protection@halton.gov.uk,Halton,http://www.halton.gov.uk,-2.75661700000000,WA7 4HS,2014-07-29,fhrs_5_en-GB,5,,FHRS,5
175518,Hale Road,Widnes,Cheshire,,Blundell Arms,Pub/bar/nightclub,7843,20,,79411,5,,53.36619200000000,19081,889,environmental.protection@halton.gov.uk,Halton,http://www.halton.gov.uk,-2.76034600000000,WA8 8SX,2013-11-18,fhrs_1_en-GB,1,,FHRS,15
175519,35 Regent Street,Runcorn,Cheshire,,Bon Appetit,Takeaway/sandwich shop,7844,10,,96971,10,,53.34217800000000,29934,889,environmental.protection@halton.gov.uk,Halton,http://www.halton.gov.uk,-2.73516600000000,WA7 1LJ,2014-07-14,fhrs_3_en-GB,3,,FHRS,10
175520,,,,,Bondi BBQ,Mobile caterer,7846,5,,123395,5,,,51852,889,environmental.protection@halton.gov.uk,Halton,http://www.halton.gov.uk,,,2014-05-16,fhrs_5_en-GB,5,,FHRS,0
175521,Hale Road,Widnes,Cheshire,,Booths Of Ditton Limited,Retailers - other,4613,0,,109548,0,,53.36320000000000,39640,889,environmental.protection@halton.gov.uk,Halton,http://www.halton.gov.uk,-2.76298300000000,WA8 8SZ,2013-12-18,fhrs_5_en-GB,5,,FHRS,5
175522,21 High Street,Runcorn,Cheshire,,Boots,Retailers - other,4613,,,491914,,,53.34174800000000,19508,889,environmental.protection@halton.gov.uk,Halton,http://www.halton.gov.uk,-2.73068300000000,WA7 1AP,2002-03-25,fhrs_exempt_en-GB,Exempt,,FHRS,
175523,Widnes Shopping Park,Widnes,Cheshire,,Boots,Retailers - other,4613,0,,140313,0,,53.36656800000000,76489,889,environmental.protection@halton.gov.uk,Halton,http://www.halton.gov.uk,-2.72593800000000,WA8 7TN,2013-06-17,fhrs_5_en-GB,5,,FHRS,5
175524,90 Forest Walk,Halton Lea,Runcorn,,Boots Chemist Ltd,Retailers - other,4613,,,491908,,,53.32697200000000,19220,889,environmental.protection@halton.gov.uk,Halton,http://www.halton.gov.uk,-2.69881000000000,WA7 2BY,2004-01-08,fhrs_exempt_en-GB,Exempt,,FHRS,
175525,Hospital Way,Runcorn,Cheshire,,Boots The Chemist,Retailers - other,4613,,,491966,,,53.32554500000000,51732,889,environmental.protection@halton.gov.uk,Halton,http://www.halton.gov.uk,-2.69686500000000,WA7 2UT,2003-06-18,fhrs_exempt_en-GB,Exempt,,FHRS,
175526,32 Church Street,Runcorn,Cheshire,,Booze Busters,Retailers - other,4613,5,,78389,5,,53.34257300000000,18636,889,environmental.protection@halton.gov.uk,Halton,http://www.halton.gov.uk,-2.73246900000000,WA7 1LR,2013-10-09,fhrs_4_en-GB,4,,FHRS,10
175527,214 Liverpool Road,Widnes,Cheshire,,Booze N Food,Retailers - other,4613,30,,138586,15,,53.37143700000000,73891,889,environmental.protection@halton.gov.uk,Halton,http://www.halton.gov.uk,-2.75397600000000,WA8 7HY,2014-06-03,fhrs_0_en-GB,0,,FHRS,20
175528,Warrington Road,Widnes,Cheshire,,Bpi Widnes Films - Staff Canteen,Restaurant/Cafe/Canteen,1,0,,123620,5,,53.36855600000000,52011,889,environmental.protection@halton.gov.uk,Halton,http://www.halton.gov.uk,-2.71669900000000,WA8 0SY,2014-08-13,fhrs_5_en-GB,5,,FHRS,5
175529,Aston Fields Road,Runcorn,Cheshire,,Brakes (Canteen),Restaurant/Cafe/Canteen,1,5,,123657,5,,53.31253400000000,52048,889,environmental.protection@halton.gov.uk,Halton,http://www.halton.gov.uk,-2.66304700000000,WA7 3DL,2014-08-13,fhrs_5_en-GB,5,,FHRS,5
175530,Lapwing Grove,Palacefields,Runcorn,,Bredon Respite,Hospitals/Childcare/Caring Premises,5,10,,138585,10,,53.32075800000000,73890,889,environmental.protection@halton.gov.uk,Halton,http://www.halton.gov.uk,-2.68844000000000,WA7 2TJ,2013-08-14,fhrs_4_en-GB,4,,FHRS,0
175531,78 High Street,Runcorn,Cheshire,,Bridge View,Pub/bar/nightclub,7843,,,718869,,,53.34106300000000,86649,889,environmental.protection@halton.gov.uk,Halton,http://www.halton.gov.uk,-2.73669400000000,WA7 1JH,,fhrs_awaitinginspection_en-GB,AwaitingInspection,,FHRS,
175532,Victoria Dock Yard,Victoria Road,Runcorn,,Bridgewater Motor Boat Club,Pub/bar/nightclub,7843,10,,123573,10,,53.33990600000000,51994,889,environmental.protection@halton.gov.uk,Halton,http://www.halton.gov.uk,-2.72613100000000,WA7 5SS,2014-05-29,fhrs_3_en-GB,3,,FHRS,5
175533,Moor Lane,Widnes,Cheshire,,Bristol Street Motors,Retailers - other,4613,5,,108579,5,,53.36102900000000,38826,889,environmental.protection@halton.gov.uk,Halton,http://www.halton.gov.uk,-2.73945700000000,WA8 7AL,2013-01-16,fhrs_5_en-GB,5,,FHRS,0
175534,Widnes Shopping Park,Widnes,Cheshire,,British Home Stores Cafe,Restaurant/Cafe/Canteen,1,0,,140312,5,,53.36656800000000,76488,889,environmental.protection@halton.gov.uk,Halton,http://www.halton.gov.uk,-2.72593800000000,WA8 7TN,2014-01-15,fhrs_5_en-GB,5,,FHRS,0
175535,2 Weston Road,Runcorn,Cheshire,,Brookfield Garden Centre,Retailers - other,4613,0,,693193,0,,53.33378300000000,83995,889,environmental.protection@halton.gov.uk,Halton,http://www.halton.gov.uk,-2.73948200000000,WA7 4JT,2014-07-17,fhrs_4_en-GB,4,,FHRS,10
175536,Moorfield Road,Widnes,Cheshire,,Brookfields School,School/college/university,7845,0,,40888,0,,53.37602000000000,10182,889,environmental.protection@halton.gov.uk,Halton,http://www.halton.gov.uk,-2.70873700000000,WA8 3JA,2014-07-04,fhrs_5_en-GB,5,,FHRS,0
175537,Woodhatch Road,Runcorn,Cheshire,,Brookvale Childrens Centre,Other catering premises,7841,10,,129648,0,,53.31811600000000,60552,889,environmental.protection@halton.gov.uk,Halton,http://www.halton.gov.uk,-2.68207800000000,WA7 6BJ,2014-06-11,fhrs_4_en-GB,4,,FHRS,0
175538,Northwich Road,Runcorn,Cheshire,,Brookvale Primary School,School/college/university,7845,0,,109245,0,,53.31749700000000,39375,889,environmental.protection@halton.gov.uk,Halton,http://www.halton.gov.uk,-2.68025100000000,WA7 6BZ,2014-05-02,fhrs_5_en-GB,5,,FHRS,5
175539,Old Northwich Road,Runcorn,Cheshire,,Brookvale Primary School Nursery,Hospitals/Childcare/Caring Premises,5,5,,142090,5,,53.31749700000000,78653,889,environmental.protection@halton.gov.uk,Halton,http://www.halton.gov.uk,-2.68025100000000,WA7 6BZ,2012-07-10,fhrs_4_en-GB,4,,FHRS,10
175540,Water Street,Runcorn,,,Brunswick House Breakfast Club,Other catering premises,7841,10,,725208,10,,53.34325200000000,29754,889,environmental.protection@halton.gov.uk,Halton,http://www.halton.gov.uk,-2.73308200000000,WA7 1DG,2014-12-11,fhrs_4_en-GB,4,,FHRS,0
175541,62 Greenway Road,Runcorn,Cheshire,,Busy Bees Pre-School,Hospitals/Childcare/Caring Premises,5,0,,137839,5,,53.33848300000000,72911,889,environmental.protection@halton.gov.uk,Halton,http://www.halton.gov.uk,-2.73540300000000,WA7 5AF,2013-05-08,fhrs_5_en-GB,5,,FHRS,5
175542,453 Liverpool Road,Widnes,Cheshire,,Buttilicious,Takeaway/sandwich shop,7844,5,,119772,5,,53.37115200000000,48893,889,environmental.protection@halton.gov.uk,Halton,http://www.halton.gov.uk,-2.77318000000000,WA8 7XR,2015-01-06,fhrs_5_en-GB,5,,FHRS,5
175543,Moorfield Road,Widnes,Cheshire,,BYK Staff Canteen,Restaurant/Cafe/Canteen,1,5,,123377,5,,53.37242400000000,51837,889,environmental.protection@halton.gov.uk,Halton,http://www.halton.gov.uk,-2.74656600000000,WA8 0JU,2013-10-30,fhrs_4_en-GB,4,,FHRS,10
175544,Station Road,Runcorn,Cheshire,,Cafe Express Shop,Retailers - other,4613,5,,40632,5,,53.33860200000000,10149,889,environmental.protection@halton.gov.uk,Halton,http://www.halton.gov.uk,-2.73929500000000,WA7 5UB,2014-05-13,fhrs_5_en-GB,5,,FHRS,5
175545,Grangeway,Runcorn,Cheshire,,Cafe Funny Onion,Restaurant/Cafe/Canteen,1,5,,665602,10,,53.21412658691406,81865,889,environmental.protection@halton.gov.uk,Halton,http://www.halton.gov.uk,-2.55155992507935,WA7 5HA,2014-05-22,fhrs_4_en-GB,4,,FHRS,0
175546,48-54 Church Street,Runcorn,Cheshire,,Cafe Sabor/ Tapas/ Sabor,Other catering premises,7841,,,716472,,,53.34276800000000,86619,889,environmental.protection@halton.gov.uk,Halton,http://www.halton.gov.uk,-2.73429000000000,WA7 1LD,,fhrs_awaitinginspection_en-GB,AwaitingInspection,,FHRS,
175547,Desoto Road,Widnes,Cheshire,,Cafe Stobart,Restaurant/Cafe/Canteen,1,5,,139109,5,,53.35602000000000,74564,889,environmental.protection@halton.gov.uk,Halton,http://www.halton.gov.uk,-2.74401300000000,WA8 0PE,2014-03-26,fhrs_5_en-GB,5,,FHRS,5
175548,,,,,Cake Creations,Other catering premises,7841,0,,139015,0,,,74324,889,environmental.protection@halton.gov.uk,Halton,http://www.halton.gov.uk,,,2012-05-01,fhrs_5_en-GB,5,,FHRS,5
175549,,,,,Cake Designs by Helen,Other catering premises,7841,5,,141493,0,,,77972,889,environmental.protection@halton.gov.uk,Halton,http://www.halton.gov.uk,,,2013-02-26,fhrs_5_en-GB,5,,FHRS,0
175550,29 Riversdale Road,Runcorn,Cheshire,,Cake Escape Ltd.,Other catering premises,7841,0,,690217,0,,53.33267900000000,86088,889,environmental.protection@halton.gov.uk,Halton,http://www.halton.gov.uk,-2.70049500000000,WA7 2AP,2014-07-30,fhrs_5_en-GB,5,,FHRS,5
175551,,,,,Cake Pops by Jo,Other catering premises,7841,10,,429033,5,,,80069,889,environmental.protection@halton.gov.uk,Halton,http://www.halton.gov.uk,,,2014-07-11,fhrs_4_en-GB,4,,FHRS,0
175552,,,,,Cakeaway,Other catering premises,7841,0,,250418,0,,,79672,889,environmental.protection@halton.gov.uk,Halton,http://www.halton.gov.uk,,,2012-06-08,fhrs_5_en-GB,5,,FHRS,0
175553,,,,,Cakepod (Home Caterer),Other catering premises,7841,5,,633518,5,,,80855,889,environmental.protection@halton.gov.uk,Halton,http://www.halton.gov.uk,,,2014-05-07,fhrs_5_en-GB,5,,FHRS,0
175554,121 Albert Road,Widnes,Cheshire,,Cakes By Kerry,Other catering premises,7841,0,,141735,5,,53.37099700000000,78259,889,environmental.protection@halton.gov.uk,Halton,http://www.halton.gov.uk,-2.72341300000000,WA8 6LB,2013-01-22,fhrs_5_en-GB,5,,FHRS,5
175555,124 Moorfield Road,Widnes,Cheshire,,Cam Lee,Takeaway/sandwich shop,7844,5,,119817,10,,53.37765400000000,48920,889,environmental.protection@halton.gov.uk,Halton,http://www.halton.gov.uk,-2.70894500000000,WA8 3HX,2014-12-16,fhrs_4_en-GB,4,,FHRS,5
175556,Lowlands Road,Runcorn,Cheshire,,Campanile Hotel,Hotel/bed & breakfast/guest house,7842,0,,102672,10,,53.33931500000000,3416,889,environmental.protection@halton.gov.uk,Halton,http://www.halton.gov.uk,-2.73744500000000,WA7 5TP,2013-08-14,fhrs_4_en-GB,4,,FHRS,10
175557,Halton Road,Runcorn,Cheshire,,Canal Walk,Pub/bar/nightclub,7843,20,,40538,15,,53.33998600000000,10138,889,environmental.protection@halton.gov.uk,Halton,http://www.halton.gov.uk,-2.71585900000000,WA7 5QS,2013-05-25,fhrs_0_en-GB,0,,FHRS,20
175558,7 Kingsley Road,Runcorn,Cheshire,,Candy Floss,Retailers - other,4613,10,,134082,5,,53.33429100000000,67209,889,environmental.protection@halton.gov.uk,Halton,http://www.halton.gov.uk,-2.73153100000000,WA7 5PL,2013-02-06,fhrs_4_en-GB,4,,FHRS,5
175559,31 Forest Walk,Halton Lea,Runcorn,,Card Factory,Retailers - other,4613,,,491982,,,53.32771100000000,57219,889,environmental.protection@halton.gov.uk,Halton,http://www.halton.gov.uk,-2.69850700000000,WA7 2GX,2012-04-02,fhrs_exempt_en-GB,Exempt,,FHRS,
175560,6 Albert Road,Widnes,Cheshire,,Card Factory,Retailers - other,4613,,,492073,,,53.36838500000000,75882,889,environmental.protection@halton.gov.uk,Halton,http://www.halton.gov.uk,-2.72562300000000,WA8 6JE,2012-04-02,fhrs_exempt_en-GB,Exempt,,FHRS,
175561,,,,,Carl Mealor Ice Cream Vehicle Registration X629 DPN,Mobile caterer,7846,5,,656415,0,,,82251,889,environmental.protection@halton.gov.uk,Halton,http://www.halton.gov.uk,,,2014-04-14,fhrs_5_en-GB,5,,FHRS,0
175562,,,,,Carole Gilbert Ice Cream R967 JOJ,Mobile caterer,7846,5,,123533,0,,,51946,889,environmental.protection@halton.gov.uk,Halton,http://www.halton.gov.uk,,,2014-12-16,fhrs_5_en-GB,5,,FHRS,0
175563,61 Derby Road,Widnes,Cheshire,,Cartref,Hospitals/Childcare/Caring Premises,5,0,,84023,0,,53.38105200000000,20759,889,environmental.protection@halton.gov.uk,Halton,http://www.halton.gov.uk,-2.72692100000000,WA8 9LQ,2014-12-11,fhrs_5_en-GB,5,,FHRS,5
175564,6 Albert Square,Widnes,Cheshire,,Cassandra's,Restaurant/Cafe/Canteen,1,5,,80648,5,,53.36852300000000,19547,889,environmental.protection@halton.gov.uk,Halton,http://www.halton.gov.uk,-2.72670700000000,WA8 6JW,2014-03-12,fhrs_5_en-GB,5,,FHRS,5
175565,194 Warrington Road,Widnes,Cheshire,,Castle,Pub/bar/nightclub,7843,10,,79402,0,,53.37303800000000,19079,889,environmental.protection@halton.gov.uk,Halton,http://www.halton.gov.uk,-2.70980000000000,WA8 0AX,2012-12-20,fhrs_4_en-GB,4,,FHRS,10
175566,Castle Road,Runcorn,Cheshire,,Castle Hotel,Pub/bar/nightclub,7843,10,,151021,10,,53.33188400000000,9973,889,environmental.protection@halton.gov.uk,Halton,http://www.halton.gov.uk,-2.69512100000000,WA7 2BE,2013-07-30,fhrs_3_en-GB,3,,FHRS,10
175567,Meadway,Runcorn,Cheshire,,Castle View Nursery,Hospitals/Childcare/Caring Premises,5,5,,141615,5,,53.21412658691406,78134,889,environmental.protection@halton.gov.uk,Halton,http://www.halton.gov.uk,-2.55155992507935,WA7 2DZ,2012-10-10,fhrs_5_en-GB,5,,FHRS,5
175568,Meadway,Runcorn,Cheshire,,Castle View Primary School,School/college/university,7845,5,,123370,0,,53.21412658691406,51824,889,environmental.protection@halton.gov.uk,Halton,http://www.halton.gov.uk,-2.55155992507935,WA7 2DZ,2014-12-04,fhrs_5_en-GB,5,,FHRS,0
175569,Castlefields Village Square,Runcorn,Cheshire,,Castlefields Community Centre,Other catering premises,7841,5,,122838,10,,53.33838800000000,51299,889,environmental.protection@halton.gov.uk,Halton,http://www.halton.gov.uk,-2.69102200000000,WA7 2HS,2013-10-15,fhrs_4_en-GB,4,,FHRS,5
175570,Mersey Road,Widnes,Cheshire,,Catalyst  Museum Cafe,Restaurant/Cafe/Canteen,1,5,,79337,5,,53.35181500000000,19043,889,environmental.protection@halton.gov.uk,Halton,http://www.halton.gov.uk,-2.73370900000000,WA8 0DF,2014-06-06,fhrs_5_en-GB,5,,FHRS,5
175571,Mersey Road,Widnes,,,Catch Cafe,Restaurant/Cafe/Canteen,1,10,,718868,15,,53.35123600000000,82321,889,environmental.protection@halton.gov.uk,Halton,http://www.halton.gov.uk,-2.73416500000000,WA8 0DG,2014-11-21,fhrs_2_en-GB,2,,FHRS,5
175572,,,,,Catering 4 U,Other catering premises,7841,5,,536827,0,,,63840,889,environmental.protection@halton.gov.uk,Halton,http://www.halton.gov.uk,,,2014-11-19,fhrs_5_en-GB,5,,FHRS,0
175573,trading Tanhouse Lane,Widnes,,,Cathedral Catering,Mobile caterer,7846,5,,358886,10,,,79723,889,environmental.protection@halton.gov.uk,Halton,http://www.halton.gov.uk,,,2013-11-06,fhrs_4_en-GB,4,,FHRS,5
175574,,,,,Cavanaghs (Home Catering - Cakes),Other catering premises,7841,5,,619735,0,,,81734,889,environmental.protection@halton.gov.uk,Halton,http://www.halton.gov.uk,,,2013-12-17,fhrs_5_en-GB,5,,FHRS,0
175575,Lincoln Close,Runcorn,Cheshire,,Cavendish High School,School/college/university,7845,5,,110356,0,,53.31959100000000,40058,889,environmental.protection@halton.gov.uk,Halton,http://www.halton.gov.uk,-2.72021600000000,WA7 4YX,2013-11-06,fhrs_5_en-GB,5,,FHRS,0
175576,,,,,Celebration Cakes,Other catering premises,7841,5,,123566,0,,,51989,889,environmental.protection@halton.gov.uk,Halton,http://www.halton.gov.uk,,,2013-11-11,fhrs_5_en-GB,5,,FHRS,5
175577,77 High Street,Runcorn,Cheshire,,Chambers,Pub/bar/nightclub,7843,5,,83573,5,,53.34205200000000,20520,889,environmental.protection@halton.gov.uk,Halton,http://www.halton.gov.uk,-2.73082300000000,WA7 1AU,2015-01-19,fhrs_5_en-GB,5,,FHRS,5
175578,28 Widnes Road,Widnes,Cheshire,,Champions Pizza,Takeaway/sandwich shop,7844,5,,134156,5,,53.36316700000000,67374,889,environmental.protection@halton.gov.uk,Halton,http://www.halton.gov.uk,-2.73080900000000,WA8 6AD,2014-03-06,fhrs_5_en-GB,5,,FHRS,5
175579,,,,,Chandlers Cakes,Other catering premises,7841,0,,656411,5,,,81769,889,environmental.protection@halton.gov.uk,Halton,http://www.halton.gov.uk,,,2014-04-04,fhrs_5_en-GB,5,,FHRS,0
175580,2 Highlands Road,Runcorn,Cheshire,,Cheshire Bakehouse and Tea Rooms,Restaurant/Cafe/Canteen,1,20,,142034,15,,53.33313300000000,78543,889,environmental.protection@halton.gov.uk,Halton,http://www.halton.gov.uk,-2.74001100000000,WA7 4PR,2014-08-07,fhrs_1_en-GB,1,,FHRS,15
175581,222 Liverpool Road,Widnes,Cheshire,,Chestnut Lodge Off Licence,Retailers - other,4613,,,80562,,,53.37143700000000,19507,889,environmental.protection@halton.gov.uk,Halton,http://www.halton.gov.uk,-2.75397600000000,WA8 7HY,2013-02-13,fhrs_exempt_en-GB,Exempt,,FHRS,
175582,Green Lane,Widnes,Cheshire,,Chestnut Lodge School,School/college/university,7845,0,,110354,0,,53.37050400000000,40057,889,environmental.protection@halton.gov.uk,Halton,http://www.halton.gov.uk,-2.75218700000000,WA8 7HF,2015-02-04,fhrs_5_en-GB,5,,FHRS,5
175583,208-210 Liverpool Road,Widnes,Cheshire,,Chestnut Lodge Supper Bar,Takeaway/sandwich shop,7844,10,,84040,10,,53.37143700000000,20764,889,environmental.protection@halton.gov.uk,Halton,http://www.halton.gov.uk,-2.75397600000000,WA8 7HY,2014-07-03,fhrs_3_en-GB,3,,FHRS,10
175584,Hale Road,Widnes,Cheshire,,Chi Nar Garden,Restaurant/Cafe/Canteen,1,10,,120536,10,,53.34995500000000,49472,889,environmental.protection@halton.gov.uk,Halton,http://www.halton.gov.uk,-2.77479400000000,WA8 8XQ,2013-11-11,fhrs_2_en-GB,2,,FHRS,15
175585,56 Devonshire Place,Runcorn,Cheshire,,Chicago Pizza,Takeaway/sandwich shop,7844,10,,134907,10,,53.34140000000000,68406,889,environmental.protection@halton.gov.uk,Halton,http://www.halton.gov.uk,-2.73608400000000,WA7 1JG,2014-03-26,fhrs_2_en-GB,2,,FHRS,15
175586,6 Church End,Hale,"Widnes, Cheshire",,Childe Of Hale,Pub/bar/nightclub,7843,5,,78335,0,,53.33413400000000,18618,889,environmental.protection@halton.gov.uk,Halton,http://www.halton.gov.uk,-2.79796400000000,L24 4AX,2014-06-25,fhrs_5_en-GB,5,,FHRS,5
175587,60 Church Street,Runcorn,Cheshire,,China X'press,Takeaway/sandwich shop,7844,10,,121744,10,,53.34276800000000,50385,889,environmental.protection@halton.gov.uk,Halton,http://www.halton.gov.uk,-2.73429000000000,WA7 1LD,2013-11-19,fhrs_4_en-GB,4,,FHRS,0
175588,67 High Street,Runcorn,Cheshire,,Chinese Open Kitchen,Takeaway/sandwich shop,7844,5,,571577,10,,53.34117900000000,59687,889,environmental.protection@halton.gov.uk,Halton,http://www.halton.gov.uk,-2.73403700000000,WA7 1AH,2014-01-13,fhrs_3_en-GB,3,,FHRS,10
175589,,,,,Choc Chops,Other catering premises,7841,5,,558323,5,,,81190,889,environmental.protection@halton.gov.uk,Halton,http://www.halton.gov.uk,,,2013-06-11,fhrs_5_en-GB,5,,FHRS,5
175590,188 Widnes Road,Widnes,Cheshire,,Chris's Fast Food,Takeaway/sandwich shop,7844,5,,729956,5,,53.36740200000000,86733,889,environmental.protection@halton.gov.uk,Halton,http://www.halton.gov.uk,-2.72619200000000,WA8 6BL,2015-02-05,fhrs_5_en-GB,5,,FHRS,5
175591,Sandy Lane,Weston Point,"Runcorn, Cheshire",,Christ Church Hall Luncheon Club,Other catering premises,7841,5,,140945,5,,53.32675100000000,77117,889,environmental.protection@halton.gov.uk,Halton,http://www.halton.gov.uk,-2.75432900000000,WA7 4EU,2014-10-29,fhrs_5_en-GB,5,,FHRS,5
175592,82 Victoria Road,Widnes,Cheshire,,Chuckies,Takeaway/sandwich shop,7844,5,,710081,10,,53.36145100000000,86545,889,environmental.protection@halton.gov.uk,Halton,http://www.halton.gov.uk,-2.73361900000000,WA8 7RA,2014-11-26,fhrs_3_en-GB,3,,FHRS,10
175593,5 Church End,Hale,"Widnes, Cheshire",,Church End Farm Guest House,Hotel/bed & breakfast/guest house,7842,0,,125082,5,,53.33413400000000,53589,889,environmental.protection@halton.gov.uk,Halton,http://www.halton.gov.uk,-2.79796400000000,L24 4AX,2013-02-21,fhrs_5_en-GB,5,,FHRS,0
175594,38 Lunts Heath Road,Widnes,Cheshire,,Churchview,Pub/bar/nightclub,7843,5,,79429,5,,53.37242400000000,19089,889,environmental.protection@halton.gov.uk,Halton,http://www.halton.gov.uk,-2.74656600000000,WA8 9RY,2014-02-10,fhrs_4_en-GB,4,,FHRS,10
175595,Broseley House,Widnes,,,Chutney Blue,Restaurant/Cafe/Canteen,1,10,,141161,10,,53.36342400000000,77514,889,environmental.protection@halton.gov.uk,Halton,http://www.halton.gov.uk,-2.73136900000000,WA8 6AF,2014-01-09,fhrs_3_en-GB,3,,FHRS,10
175596,Southway,Runcorn,Cheshire,,Cineworld Multiplex Cinema,Retailers - other,4613,5,,123565,5,,53.32619200000000,51986,889,environmental.protection@halton.gov.uk,Halton,http://www.halton.gov.uk,-2.69998300000000,WA7 2FQ,2013-08-29,fhrs_5_en-GB,5,,FHRS,5
175597,12a Chorleys Lane,Widnes,Cheshire,,Cinnamon Coffee and Deli Bar,Other catering premises,7841,5,,187450,0,,53.37867600000000,79210,889,environmental.protection@halton.gov.uk,Halton,http://www.halton.gov.uk,-2.70792400000000,WA8 3HS,2013-10-16,fhrs_5_en-GB,5,,FHRS,5
175598,101 Church Street,Runcorn,Cheshire,,Clarendon Hotel,Pub/bar/nightclub,7843,0,,89030,0,,53.34256700000000,23632,889,environmental.protection@halton.gov.uk,Halton,http://www.halton.gov.uk,-2.73479700000000,WA7 1LG,2014-03-28,fhrs_5_en-GB,5,,FHRS,5
175599,The Wharf,Runcorn,Cheshire,,Claymoore Narrowboats Ltd,Retailers - other,4613,,,492114,,,53.32321600000000,9530,889,environmental.protection@halton.gov.uk,Halton,http://www.halton.gov.uk,-2.65096200000000,WA4 4BA,2005-03-07,fhrs_exempt_en-GB,Exempt,,FHRS,
175600,Halton Lea,Runcorn,Cheshire,,Club 2000 Bingo,Restaurant/Cafe/Canteen,1,5,,135329,5,,53.32619094848633,68948,889,environmental.protection@halton.gov.uk,Halton,http://www.halton.gov.uk,-2.69998311996460,WA7 2FQ,2014-01-29,fhrs_5_en-GB,5,,FHRS,0
175601,Trading Widnes Home & Garden Centre,Birchfield Road,Widnes,,Coffee 2 Go,Mobile caterer,7846,10,,140132,5,,53.37886200000000,76138,889,environmental.protection@halton.gov.uk,Halton,http://www.halton.gov.uk,-2.73370800000000,WA8 9TX,2013-01-08,fhrs_2_en-GB,2,,FHRS,15
175602,17 St Michaels Industrial Estate,Oldgate,Widnes,,Coffee 500,Restaurant/Cafe/Canteen,1,5,,643262,5,,53.35988800000000,81976,889,environmental.protection@halton.gov.uk,Halton,http://www.halton.gov.uk,-2.76358500000000,WA8 8TL,2014-05-02,fhrs_5_en-GB,5,,FHRS,5
175603,,,,,Coffee Camper (trading at Halton Lea Sunday Car Boot),Mobile caterer,7846,5,,481549,5,,,80236,889,environmental.protection@halton.gov.uk,Halton,http://www.halton.gov.uk,,,2014-06-01,fhrs_4_en-GB,4,,FHRS,10
175604,Halton Lea,Runcorn,Cheshire,,Coffee Van,Mobile caterer,7846,5,,137260,5,,54.08042144775391,72053,889,environmental.protection@halton.gov.uk,Halton,http://www.halton.gov.uk,-2.75412011146545,,2014-08-18,fhrs_4_en-GB,4,,FHRS,10
175605,222a Liverpool Road,Widnes,Cheshire,,Cohens Chemist,Retailers - other,4613,,,491911,,,53.37143700000000,19277,889,environmental.protection@halton.gov.uk,Halton,http://www.halton.gov.uk,-2.75397600000000,WA8 7HY,2004-03-08,fhrs_exempt_en-GB,Exempt,,FHRS,
175606,Widnes Road,Widnes,Cheshire,,Coles Sandwich Bar,Takeaway/sandwich shop,7844,5,,83489,10,,53.36437900000000,20471,889,environmental.protection@halton.gov.uk,Halton,http://www.halton.gov.uk,-2.73101000000000,WA8 6AN,2013-03-27,fhrs_4_en-GB,4,,FHRS,0
175607,Companys Close,Runcorn,Cheshire,,Community Integrated Care Ltd,Hospitals/Childcare/Caring Premises,5,0,,84758,0,,53.32007300000000,21050,889,environmental.protection@halton.gov.uk,Halton,http://www.halton.gov.uk,-2.73990500000000,WA7 4NA,2014-05-12,fhrs_5_en-GB,5,,FHRS,0
175608,76 Albert Road,Widnes,Cheshire,,Cook's Chemist,Retailers - other,4613,,,491925,,,53.36965900000000,32384,889,environmental.protection@halton.gov.uk,Halton,http://www.halton.gov.uk,-2.72466800000000,WA8 6JT,2005-03-30,fhrs_exempt_en-GB,Exempt,,FHRS,
175609,100 Derby Road,Widnes,Cheshire,,Co-op,Retailers - supermarkets/hypermarkets,7840,0,,119561,5,,53.38105200000000,48721,889,environmental.protection@halton.gov.uk,Halton,http://www.halton.gov.uk,-2.72692100000000,WA8 9LQ,2014-09-29,fhrs_5_en-GB,5,,FHRS,5
175610,231 Liverpool Road,Widnes,Cheshire,,Co-op,Retailers - supermarkets/hypermarkets,7840,0,,135158,10,,53.37035900000000,68696,889,environmental.protection@halton.gov.uk,Halton,http://www.halton.gov.uk,-2.75941300000000,WA8 7HL,2013-02-22,fhrs_4_en-GB,4,,FHRS,5
175611,442 Liverpool Road,Widnes,Cheshire,,Co-op,Retailers - supermarkets/hypermarkets,7840,5,,79368,10,,53.37141800000000,19056,889,environmental.protection@halton.gov.uk,Halton,http://www.halton.gov.uk,-2.77229800000000,WA8 7XP,2013-07-25,fhrs_3_en-GB,3,,FHRS,10
175612,51-53 Halton Road,Runcorn,Cheshire,,Co-op,Retailers - supermarkets/hypermarkets,7840,0,,83534,5,,53.33951300000000,20500,889,environmental.protection@halton.gov.uk,Halton,http://www.halton.gov.uk,-2.71224600000000,WA7 5QU,2013-05-10,fhrs_5_en-GB,5,,FHRS,5
175613,66-70 Balfour Street,Runcorn,Cheshire,,Co-op,Retailers - supermarkets/hypermarkets,7840,5,,79775,10,,53.33590800000000,19229,889,environmental.protection@halton.gov.uk,Halton,http://www.halton.gov.uk,-2.73752100000000,WA7 4PH,2014-08-29,fhrs_4_en-GB,4,,FHRS,5
175614,7 Grangeway,Runcorn,Cheshire,,Co-op,Retailers - supermarkets/hypermarkets,7840,0,,79771,0,,53.32866900000000,19228,889,environmental.protection@halton.gov.uk,Halton,http://www.halton.gov.uk,-2.71735100000000,WA7 5LY,2013-02-22,fhrs_5_en-GB,5,,FHRS,5
175615,Hale Road,Widnes,Cheshire,,Co-op,Retailers - supermarkets/hypermarkets,7840,0,,130899,0,,53.37242400000000,62233,889,environmental.protection@halton.gov.uk,Halton,http://www.halton.gov.uk,-2.74656600000000,WA8 8TX,2014-01-20,fhrs_5_en-GB,5,,FHRS,5
175616,The Ridgeway,Runcorn,Cheshire,,Co-op,Retailers - supermarkets/hypermarkets,7840,0,,83494,5,,53.32365100000000,20475,889,environmental.protection@halton.gov.uk,Halton,http://www.halton.gov.uk,-2.66493100000000,WA7 6ER,2013-02-22,fhrs_5_en-GB,5,,FHRS,5
175617,Windmill Hill Avenue West,Runcorn,Cheshire,,Co-op,Retailers - supermarkets/hypermarkets,7840,5,,83493,5,,53.33989200000000,20474,889,environmental.protection@halton.gov.uk,Halton,http://www.halton.gov.uk,-2.67009500000000,WA7 6QZ,2014-03-11,fhrs_2_en-GB,2,,FHRS,15
175618,11 Grangeway,Runcorn,Cheshire,,Co-op Pharmacy,Retailers - other,4613,,,491913,,,53.32866900000000,19503,889,environmental.protection@halton.gov.uk,Halton,http://www.halton.gov.uk,-2.71735100000000,WA7 5LY,,fhrs_exempt_en-GB,Exempt,,FHRS,
175619,Peel House Lane,Widnes,Cheshire,,Co-op Pharmacy,Retailers - other,4613,,,491998,,,53.37316500000000,71750,889,environmental.protection@halton.gov.uk,Halton,http://www.halton.gov.uk,-2.72301400000000,WA8 6TN,2011-02-14,fhrs_exempt_en-GB,Exempt,,FHRS,
175620,Granville Street,Runcorn,Cheshire,,Co-operative,Retailers - supermarkets/hypermarkets,7840,0,,129921,0,,53.34256700000000,60931,889,environmental.protection@halton.gov.uk,Halton,http://www.halton.gov.uk,-2.73479700000000,WA7 1LG,2014-08-29,fhrs_5_en-GB,5,,FHRS,5
175621,35 Albert Road,Widnes,Cheshire,,Coral Racing,Retailers - other,4613,,,491958,,,53.36847300000000,51405,889,environmental.protection@halton.gov.uk,Halton,http://www.halton.gov.uk,-2.72604500000000,WA8 6JA,2002-06-05,fhrs_exempt_en-GB,Exempt,,FHRS,
175622,Linkway,Runcorn,,,Coral Racing Ltd,Retailers - other,4613,,,491900,,,53.32877000000000,10124,889,environmental.protection@halton.gov.uk,Halton,http://www.halton.gov.uk,-2.71999500000000,WA7  5EJ,,fhrs_exempt_en-GB,Exempt,,FHRS,
175623,,,,,Corky's Cakes,Other catering premises,7841,0,,510009,0,,,80752,889,environmental.protection@halton.gov.uk,Halton,http://www.halton.gov.uk,,,2013-02-22,fhrs_5_en-GB,5,,FHRS,5
175624,1 Alforde Street,Widnes,Cheshire,,Corner House,Pub/bar/nightclub,7843,0,,139251,0,,53.36134200000000,74798,889,environmental.protection@halton.gov.uk,Halton,http://www.halton.gov.uk,-2.73085300000000,WA8 7TR,2012-03-08,fhrs_5_en-GB,5,,FHRS,5
175625,9 Cornwall Close,Runcorn,Cheshire,,Cost Cutter,Retailers - other,4613,10,,139663,10,,53.33643300000000,75444,889,environmental.protection@halton.gov.uk,Halton,http://www.halton.gov.uk,-2.69801800000000,WA7 2JS,2013-02-25,fhrs_3_en-GB,3,,FHRS,10
175626,Unit 14 Widnes Shopping Park,Widnes,Cheshire,,Costa Coffee,Restaurant/Cafe/Canteen,1,0,,141441,0,,53.36656800000000,77875,889,environmental.protection@halton.gov.uk,Halton,http://www.halton.gov.uk,-2.72593800000000,WA8 7TN,2013-12-12,fhrs_5_en-GB,5,,FHRS,5
175627,Trading: Red Admiral/Halton Sports Car Parks,Runcorn,,,Craigs Quality Meat Wagon  DK03 CXD,Mobile caterer,7846,30,,481554,25,,,80614,889,environmental.protection@halton.gov.uk,Halton,http://www.halton.gov.uk,,WA7,2014-10-24,fhrs_0_en-GB,0,,FHRS,10
175628,Trading:  Halton Sports/Red Admiral Car Park,Runcorn,,,Craigs Quality Meat Wagon  Y307 OCT,Mobile caterer,7846,10,,429034,10,,,80082,889,environmental.protection@halton.gov.uk,Halton,http://www.halton.gov.uk,,WA7,2012-07-10,fhrs_3_en-GB,3,,FHRS,5
175629,170 Milton Road,Widnes,Cheshire,,Cricketers Arms,Pub/bar/nightclub,7843,5,,693191,10,,53.36428000000000,82852,889,environmental.protection@halton.gov.uk,Halton,http://www.halton.gov.uk,-2.73843200000000,WA8 7JP,2012-08-22,fhrs_4_en-GB,4,,FHRS,5
175630,Whitchurch Way,Runcorn,Cheshire,,Croftwood,Hospitals/Childcare/Caring Premises,5,0,,123645,5,,53.32491100000000,52037,889,environmental.protection@halton.gov.uk,Halton,http://www.halton.gov.uk,-2.70834000000000,WA7 5YP,2014-02-27,fhrs_5_en-GB,5,,FHRS,5
175631,10 Cronton Lane,Widnes,Cheshire,,Cronton Fish Bar 2,Takeaway/sandwich shop,7844,5,,119713,10,,53.38965400000000,48841,889,environmental.protection@halton.gov.uk,Halton,http://www.halton.gov.uk,-2.74011900000000,WA8 5AJ,2014-04-15,fhrs_4_en-GB,4,,FHRS,5
175632,12 Cronton Lane,Widnes,Cheshire,,Cronton Lane Bakery,Retailers - other,4613,5,,250422,10,,53.38965400000000,79634,889,environmental.protection@halton.gov.uk,Halton,http://www.halton.gov.uk,-2.74011900000000,WA8 5AJ,2013-12-04,fhrs_4_en-GB,4,,FHRS,5
175633,106 Birchfield Road,Widnes,Cheshire,,Crown Inn,Pub/bar/nightclub,7843,5,,83962,10,,53.37544100000000,20718,889,environmental.protection@halton.gov.uk,Halton,http://www.halton.gov.uk,-2.73315400000000,WA8 7TE,2013-01-09,fhrs_4_en-GB,4,,FHRS,5
175634,Moorfield Road,Widnes,Cheshire,,Crows Nest,Pub/bar/nightclub,7843,5,,79341,5,,53.37859300000000,19045,889,environmental.protection@halton.gov.uk,Halton,http://www.halton.gov.uk,-2.70978700000000,WA8 3HU,2013-03-24,fhrs_4_en-GB,4,,FHRS,10
175635,55-61 Halton View Road,Widnes,Cheshire,,Curry King,Takeaway/sandwich shop,7844,5,,131604,5,,53.37285400000000,63128,889,environmental.protection@halton.gov.uk,Halton,http://www.halton.gov.uk,-2.71347900000000,WA8 0TT,2013-06-13,fhrs_5_en-GB,5,,FHRS,5
175636,Moore Primary School,Linfield Close,Moore,,Cygnets of Moore (Out of School Club),School/college/university,7845,10,,189709,10,,53.33376000000000,78619,889,environmental.protection@halton.gov.uk,Halton,http://www.halton.gov.uk,-2.67674100000000,WA7 6UG,2012-01-19,fhrs_4_en-GB,4,,FHRS,0
175637,Widnes Indoor Market,Bradley Way,Widnes,,D and S Fisheries,Retailers - other,4613,,,729959,,,,86752,889,environmental.protection@halton.gov.uk,Halton,http://www.halton.gov.uk,,,,fhrs_awaitinginspection_en-GB,AwaitingInspection,,FHRS,
175638,Appleton Village,Widnes,Cheshire,,Daisy Maisies Day Nursery,Hospitals/Childcare/Caring Premises,5,0,,456811,5,,53.37113900000000,80133,889,environmental.protection@halton.gov.uk,Halton,http://www.halton.gov.uk,-2.73096000000000,WA8 6EL,2014-02-13,fhrs_5_en-GB,5,,FHRS,0
175639,,,,,Daniel Esposito   V323 KOA,Mobile caterer,7846,0,,134000,0,,,67043,889,environmental.protection@halton.gov.uk,Halton,http://www.halton.gov.uk,,,2012-05-17,fhrs_4_en-GB,4,,FHRS,10
175640,,,,,Daniel Esposito E48 FTW,Mobile caterer,7846,5,,137580,0,,,72575,889,environmental.protection@halton.gov.uk,Halton,http://www.halton.gov.uk,,,2012-06-08,fhrs_4_en-GB,4,,FHRS,10
175641,,,,,Daniel Esposito Ice Cream R348 YKU,Mobile caterer,7846,0,,141824,0,,,78309,889,environmental.protection@halton.gov.uk,Halton,http://www.halton.gov.uk,,,2012-05-17,fhrs_4_en-GB,4,,FHRS,10
175642,,,,,Daniel Esposito Ice Cream W84 YOA,Mobile caterer,7846,0,,137578,5,,,72574,889,environmental.protection@halton.gov.uk,Halton,http://www.halton.gov.uk,,,2014-05-29,fhrs_5_en-GB,5,,FHRS,0
175643,,,,,Daniel Esposito S697 OCU,Mobile caterer,7846,0,,137582,0,,,72577,889,environmental.protection@halton.gov.uk,Halton,http://www.halton.gov.uk,,,2013-07-06,fhrs_4_en-GB,4,,FHRS,10
175644,,,,,Daniel Olivia Catering Ltd (Sweet & Savoury Crepes),Mobile caterer,7846,5,,542816,5,,,81022,889,environmental.protection@halton.gov.uk,Halton,http://www.halton.gov.uk,,,2014-10-28,fhrs_5_en-GB,5,,FHRS,5
175645,Newton Lane,Daresbury,"Runcorn, Cheshire",,Daresbury Dairy Ice Cream,Manufacturers/packers,7839,5,,133109,5,,53.32590600000000,65523,889,environmental.protection@halton.gov.uk,Halton,http://www.halton.gov.uk,-2.60965500000000,WA4 4HZ,2014-05-14,fhrs_5_en-GB,5,,FHRS,5
175646,Newton Lane,Daresbury,,,Daresbury Fruit Farm,Farmers/growers,7838,,,715431,,,53.33088800000000,24945,889,environmental.protection@halton.gov.uk,Halton,http://www.halton.gov.uk,-2.62481600000000,WA4 4BQ,,fhrs_awaitinginspection_en-GB,AwaitingInspection,,FHRS,
175647,Keckwick Lane,Daresbury,"Runcorn, Cheshire",,Daresbury Laboratory Restaurant and Waterside Cafe,Restaurant/Cafe/Canteen,1,0,,98918,0,,53.34341300000000,3121,889,environmental.protection@halton.gov.uk,Halton,http://www.halton.gov.uk,-2.64122100000000,WA4 4AD,2014-06-09,fhrs_5_en-GB,5,,FHRS,5
175648,Daresbury Park,Daresbury,"Runcorn, Cheshire",,Daresbury Park Hotel,Hotel/bed & breakfast/guest house,7842,10,,149171,10,,53.33087000000000,9531,889,environmental.protection@halton.gov.uk,Halton,http://www.halton.gov.uk,-2.64342100000000,WA4 4BB,2013-08-13,fhrs_3_en-GB,3,,FHRS,10
175649,Chester Road,Daresbury,"Runcorn, Cheshire",,Daresbury Primary School,School/college/university,7845,0,,123025,5,,53.33935300000000,51492,889,environmental.protection@halton.gov.uk,Halton,http://www.halton.gov.uk,-2.63390600000000,WA4 4AJ,2014-06-10,fhrs_5_en-GB,5,,FHRS,5
175650,146-148 Albert Road,Widnes,Cheshire,,Dave Pluck,Retailers - other,4613,,,491959,,,53.37123800000000,51406,889,environmental.protection@halton.gov.uk,Halton,http://www.halton.gov.uk,-2.72213900000000,WA8 6LG,2002-09-17,fhrs_exempt_en-GB,Exempt,,FHRS,
175651,3a Frederick Street,Widnes,Cheshire,,Dave Pluck Racing,Retailers - other,4613,,,491924,,,53.36712800000000,30990,889,environmental.protection@halton.gov.uk,Halton,http://www.halton.gov.uk,-2.72991500000000,WA8 6PF,2002-09-13,fhrs_exempt_en-GB,Exempt,,FHRS,
175652,7 Jensen Court,Runcorn,Cheshire,,David Stearne Delivery Pharmacy,Retailers - other,4613,,,492002,,,53.34192100000000,73905,889,environmental.protection@halton.gov.uk,Halton,http://www.halton.gov.uk,-2.71535100000000,WA7 1SQ,2011-01-28,fhrs_exempt_en-GB,Exempt,,FHRS,
175653,27 Hillcrest,Runcorn,Cheshire,,David Stearne Pharmacy,Retailers - other,4613,,,491944,,,53.33327900000000,48741,889,environmental.protection@halton.gov.uk,Halton,http://www.halton.gov.uk,-2.70849400000000,WA7 2DY,2008-12-17,fhrs_exempt_en-GB,Exempt,,FHRS,
175654,Windmill Hill Avenue West,Runcorn,Cheshire,,David Stearne Pharmacy,Retailers - other,4613,,,491962,,,53.33989200000000,51535,889,environmental.protection@halton.gov.uk,Halton,http://www.halton.gov.uk,-2.67009500000000,WA7 6QZ,2011-03-08,fhrs_exempt_en-GB,Exempt,,FHRS,
175655,55 Dickson Street,Widnes,Cheshire,,Dee Dee's,Takeaway/sandwich shop,7844,10,,624818,10,,53.36829700000000,81965,889,environmental.protection@halton.gov.uk,Halton,http://www.halton.gov.uk,-2.73128700000000,WA8 6NX,2014-02-26,fhrs_2_en-GB,2,,FHRS,15
175656,7-15 Alforde Street,Widnes,Cheshire,,Desii Indian Restaurant,Restaurant/Cafe/Canteen,1,10,,135130,10,,53.36134200000000,68658,889,environmental.protection@halton.gov.uk,Halton,http://www.halton.gov.uk,-2.73085300000000,WA8 7TR,2014-04-03,fhrs_3_en-GB,3,,FHRS,10
175657,43a Church Street,Runcorn,Cheshire,,Devonshire Bakery,Retailers - other,4613,5,,81019,10,,53.34223100000000,19710,889,environmental.protection@halton.gov.uk,Halton,http://www.halton.gov.uk,-2.73255300000000,WA7 1LX,2014-10-13,fhrs_4_en-GB,4,,FHRS,5
175658,Lister Road,Runcorn,Cheshire,,DHL for NHS supply chain (Canteen),Restaurant/Cafe/Canteen,1,5,,123328,10,,53.34189900000000,51794,889,environmental.protection@halton.gov.uk,Halton,http://www.halton.gov.uk,-2.71912000000000,WA7 1SW,2013-11-20,fhrs_4_en-GB,4,,FHRS,5
175659,Aston Lane North,Runcorn,Cheshire,,DHL Staff Canteen,Restaurant/Cafe/Canteen,1,5,,135277,5,,53.32510600000000,68859,889,environmental.protection@halton.gov.uk,Halton,http://www.halton.gov.uk,-2.70916900000000,WA7 3BN,2014-01-15,fhrs_5_en-GB,5,,FHRS,5
175660,Aston Lane North,Runcorn,Cheshire,,Diageo Packaging Restaurant,Restaurant/Cafe/Canteen,1,0,,123660,0,,53.31451400000000,52050,889,environmental.protection@halton.gov.uk,Halton,http://www.halton.gov.uk,-2.65596300000000,WA7 3GE,2014-12-02,fhrs_5_en-GB,5,,FHRS,5
175661,Trading Tudor Road,Runcorn,,,Dinner Jacket,Mobile caterer,7846,5,,429032,0,,,80057,889,environmental.protection@halton.gov.uk,Halton,http://www.halton.gov.uk,,WA7,2014-04-28,fhrs_5_en-GB,5,,FHRS,0
175662,Halton Lea,Runcorn,Cheshire,,Discount UK,Retailers - other,4613,0,,189712,0,,53.32619094848633,79297,889,environmental.protection@halton.gov.uk,Halton,http://www.halton.gov.uk,-2.69998311996460,WA7 2FQ,2013-08-20,fhrs_5_en-GB,5,,FHRS,0
175663,101a Hale Road,Widnes,Cheshire,,Ditton Deli,Takeaway/sandwich shop,7844,5,,125576,5,,53.36697300000000,54065,889,environmental.protection@halton.gov.uk,Halton,http://www.halton.gov.uk,-2.75768500000000,WA8 8DQ,2013-10-16,fhrs_5_en-GB,5,,FHRS,5
175664,Dundalk Road,Widnes,Cheshire,,Ditton Early Years Centre - Snack Kitchens,Hospitals/Childcare/Caring Premises,5,0,,137840,5,,53.36802900000000,72917,889,environmental.protection@halton.gov.uk,Halton,http://www.halton.gov.uk,-2.75415700000000,WA8 8DF,2014-07-25,fhrs_5_en-GB,5,,FHRS,5
175665,Dundalk Road,Widnes,Cheshire,,Ditton Nursery School -  Main Kitchen,Hospitals/Childcare/Caring Premises,5,0,,129109,0,,53.36802900000000,59533,889,environmental.protection@halton.gov.uk,Halton,http://www.halton.gov.uk,-2.75415700000000,WA8 8DF,2015-01-07,fhrs_5_en-GB,5,,FHRS,0
175666,203 Hale Road,Widnes,Cheshire,,Ditton Pharmacy,Retailers - other,4613,,,690214,,,53.36162100000000,84017,889,environmental.protection@halton.gov.uk,Halton,http://www.halton.gov.uk,-2.76523800000000,WA8 8QB,2004-02-11,fhrs_exempt_en-GB,Exempt,,FHRS,
175667,Liverpool Road,Widnes,Cheshire,,Ditton Primary School,School/college/university,7845,5,,41756,0,,53.36102900000000,10335,889,environmental.protection@halton.gov.uk,Halton,http://www.halton.gov.uk,-2.73945700000000,WA8 7AL,2013-09-11,fhrs_5_en-GB,5,,FHRS,5
175668,Unit 2 Cineworld Trident Retail Park,Runcorn,Chehsire,,Dizzy Dragons,Other catering premises,7841,5,,699199,0,,53.32619200000000,86407,889,environmental.protection@halton.gov.uk,Halton,http://www.halton.gov.uk,-2.69998300000000,WA72FQ,2014-09-08,fhrs_5_en-GB,5,,FHRS,0
175669,27 South Road,Runcorn,Cheshire,,Dockside Inn,Pub/bar/nightclub,7843,5,,83521,5,,53.32678800000000,20499,889,environmental.protection@halton.gov.uk,Halton,http://www.halton.gov.uk,-2.75691200000000,WA7 4EY,2014-09-24,fhrs_5_en-GB,5,,FHRS,5
175670,67 Victoria Road,Widnes,Cheshire,,Doctors,Pub/bar/nightclub,7843,0,,79439,0,,53.36127400000000,19092,889,environmental.protection@halton.gov.uk,Halton,http://www.halton.gov.uk,-2.73459300000000,WA8 7RS,2012-05-14,fhrs_5_en-GB,5,,FHRS,0
175671,55 Halton Road,Runcorn,Cheshire,,Dolphin Supper Bar,Takeaway/sandwich shop,7844,5,,91506,5,,53.33951300000000,25323,889,environmental.protection@halton.gov.uk,Halton,http://www.halton.gov.uk,-2.71224600000000,WA7 5QU,2013-06-06,fhrs_4_en-GB,4,,FHRS,10
175672,Trident Retail Park,Halton Lea,Runcorn,,Domino Pizza,Takeaway/sandwich shop,7844,0,,141419,5,,53.32619200000000,77852,889,environmental.protection@halton.gov.uk,Halton,http://www.halton.gov.uk,-2.69998300000000,WA7 2FQ,2013-12-06,fhrs_5_en-GB,5,,FHRS,5
175673,112 Widnes Road,Widnes,Cheshire,,Domino's Pizza,Takeaway/sandwich shop,7844,5,,133299,5,,53.36653500000000,65877,889,environmental.protection@halton.gov.uk,Halton,http://www.halton.gov.uk,-2.72841700000000,WA8 6AX,2013-08-07,fhrs_5_en-GB,5,,FHRS,5
175674,Chester Road,Daresbury,Runcorn,,Dormouse Tea Rooms,Restaurant/Cafe/Canteen,1,5,,719853,0,,53.33926500000000,86297,889,environmental.protection@halton.gov.uk,Halton,http://www.halton.gov.uk,-2.63360500000000,WA4 4AJ,2015-01-21,fhrs_5_en-GB,5,,FHRS,0
175675,Charlton Close,Runcorn,Cheshire,,Dorset Gardens - Country Garden Catering,Hospitals/Childcare/Caring Premises,5,0,,134999,5,,53.32325000000000,68525,889,environmental.protection@halton.gov.uk,Halton,http://www.halton.gov.uk,-2.68965100000000,WA7 2UY,2013-12-02,fhrs_5_en-GB,5,,FHRS,5
175676,,,,,Dotty Bakes (Home Catering),Other catering premises,7841,0,,590727,0,,,81715,889,environmental.protection@halton.gov.uk,Halton,http://www.halton.gov.uk,,,2013-10-15,fhrs_5_en-GB,5,,FHRS,0
175677,106 Bancroft Road,Widnes,Cheshire,,Double Dragon,Takeaway/sandwich shop,7844,10,,79366,15,,53.37798600000000,19055,889,environmental.protection@halton.gov.uk,Halton,http://www.halton.gov.uk,-2.71212200000000,WA8 3LL,2014-09-18,fhrs_2_en-GB,2,,FHRS,15
175678,52-56 Albert Road,Widnes,Cheshire,,Dragon Buffet,Restaurant/Cafe/Canteen,1,10,,125618,10,,53.36965900000000,54116,889,environmental.protection@halton.gov.uk,Halton,http://www.halton.gov.uk,-2.72466800000000,WA8 6JT,2014-10-07,fhrs_3_en-GB,3,,FHRS,10
175679,24 Green Oaks Path,Widnes,Cheshire,,Dunkys,Hospitals/Childcare/Caring Premises,5,0,,123244,5,,53.36862200000000,51707,889,environmental.protection@halton.gov.uk,Halton,http://www.halton.gov.uk,-2.71468600000000,WA8 0BU,2014-06-16,fhrs_5_en-GB,5,,FHRS,5
175680,2 Mather Avenue,Runcorn,Cheshire,,Dunkys Day Nursery,Hospitals/Childcare/Caring Premises,5,5,,84765,5,,53.32547800000000,21055,889,environmental.protection@halton.gov.uk,Halton,http://www.halton.gov.uk,-2.75229500000000,WA7 4JJ,2014-10-22,fhrs_5_en-GB,5,,FHRS,5
175681,Cross Street,Widnes,Cheshire,,DW Sports Fitness,Retailers - other,4613,,,491916,,,53.37118000000000,19963,889,environmental.protection@halton.gov.uk,Halton,http://www.halton.gov.uk,-2.72140200000000,WA8 6LS,2014-02-11,fhrs_exempt_en-GB,Exempt,,FHRS,
175682,20 Deacon Road,Widnes,Cheshire,,Early Learners Nursery,Hospitals/Childcare/Caring Premises,5,0,,83480,0,,53.36978200000000,20465,889,environmental.protection@halton.gov.uk,Halton,http://www.halton.gov.uk,-2.72651800000000,WA8 6ED,2014-05-29,fhrs_5_en-GB,5,,FHRS,0
175683,66 Church Street,Runcorn,Cheshire,,Eastern Chef,Takeaway/sandwich shop,7844,10,,91337,10,,53.34276800000000,25198,889,environmental.protection@halton.gov.uk,Halton,http://www.halton.gov.uk,-2.73429000000000,WA7 1LD,2013-09-25,fhrs_3_en-GB,3,,FHRS,10
175684,Trading:  Chadwick Road,Runcorn,,,Easy Eats Food Mobile,Mobile caterer,7846,0,,716471,5,,,86565,889,environmental.protection@halton.gov.uk,Halton,http://www.halton.gov.uk,,WA7,2014-11-17,fhrs_5_en-GB,5,,FHRS,5
175685,,,,,Edie Jayne Does Cake (Home Caterer),Retailers - other,4613,5,,656412,5,,,82092,889,environmental.protection@halton.gov.uk,Halton,http://www.halton.gov.uk,,,2014-04-24,fhrs_5_en-GB,5,,FHRS,0
175686,Weates Close,Widnes,Cheshire,,Eight Towers,Pub/bar/nightclub,7843,5,,41248,10,,53.37230400000000,10237,889,environmental.protection@halton.gov.uk,Halton,http://www.halton.gov.uk,-2.70618000000000,WA8 0RH,2013-12-03,fhrs_4_en-GB,4,,FHRS,5
175687,Desoto Road,West Bank,"Widnes, Cheshire",,Elior UK Staff Restaurant,Restaurant/Cafe/Canteen,1,20,,140511,15,,53.35248000000000,76626,889,environmental.protection@halton.gov.uk,Halton,http://www.halton.gov.uk,-2.74674600000000,WA8 0PB,2014-08-19,fhrs_1_en-GB,1,,FHRS,15
175688,,,,,Elite Icing,Other catering premises,7841,10,,690215,5,,,84400,889,environmental.protection@halton.gov.uk,Halton,http://www.halton.gov.uk,,,2013-11-29,fhrs_4_en-GB,4,,FHRS,5
175689,31 Netherfield,Widnes,Cheshire,,Empty Plates Catering Services Ltd,Other catering premises,7841,10,,571578,5,,53.36595100000000,74443,889,environmental.protection@halton.gov.uk,Halton,http://www.halton.gov.uk,-2.75291700000000,WA8 8BX,2013-07-22,fhrs_4_en-GB,4,,FHRS,5
175690,Hill Top Road,Preston Brook,Runcorn,,E-Scape Eco-Trail and Cafe,Restaurant/Cafe/Canteen,1,0,,656416,5,,53.32141100000000,82259,889,environmental.protection@halton.gov.uk,Halton,http://www.halton.gov.uk,-2.64890800000000,WA4 4AH,2015-01-24,fhrs_5_en-GB,5,,FHRS,0
175691,Evenwood Close,Runcorn,Cheshire,,Evenwood Farm,Pub/bar/nightclub,7843,5,,134029,5,,53.34922600000000,67100,889,environmental.protection@halton.gov.uk,Halton,http://www.halton.gov.uk,-2.65980100000000,WA7 1LZ,2013-10-02,fhrs_5_en-GB,5,,FHRS,5
175692,Derby Road,Widnes,Cheshire,,Everglades Park Hotel,Hotel/bed & breakfast/guest house,7842,20,,80674,10,,53.38540100000000,19553,889,environmental.protection@halton.gov.uk,Halton,http://www.halton.gov.uk,-2.71218600000000,WA8 3UJ,2014-09-05,fhrs_1_en-GB,1,,FHRS,15
175693,Halton Lea,Runcorn,Cheshire,,F J Restaurant,Restaurant/Cafe/Canteen,1,20,,119696,15,,53.32780075073242,48828,889,environmental.protection@halton.gov.uk,Halton,http://www.halton.gov.uk,-2.69712662696838,WA7 2GY,2014-02-26,fhrs_1_en-GB,1,,FHRS,5
175694,Fairfield Infant School,Peel House Lane,Widnes,,Fairfield Fun Factory,Hospitals/Childcare/Caring Premises,5,0,,141576,0,,53.37417600000000,78086,889,environmental.protection@halton.gov.uk,Halton,http://www.halton.gov.uk,-2.72385800000000,WA8 6TH,2013-02-20,fhrs_5_en-GB,5,,FHRS,0
175695,Peel House Lane,Widnes,Cheshire,,Fairfield Infant School,School/college/university,7845,0,,109249,5,,53.37417600000000,39379,889,environmental.protection@halton.gov.uk,Halton,http://www.halton.gov.uk,-2.72385800000000,WA8 6TH,2014-04-24,fhrs_5_en-GB,5,,FHRS,0
175696,Peel House Lane,Widnes,Cheshire,,Fairfield Junior School,School/college/university,7845,0,,109257,0,,53.37417600000000,39380,889,environmental.protection@halton.gov.uk,Halton,http://www.halton.gov.uk,-2.72385800000000,WA8 6TH,2014-11-20,fhrs_5_en-GB,5,,FHRS,0
175697,147 Wilmere Lane,Widnes,Cheshire,,Fairview Farm Shop,Retailers - other,4613,10,,97150,10,,53.39627100000000,30011,889,environmental.protection@halton.gov.uk,Halton,http://www.halton.gov.uk,-2.73700100000000,WA8 5UP,2014-07-09,fhrs_3_en-GB,3,,FHRS,10
175698,13 High Street,Runcorn,Cheshire,,Family Kebab House,Takeaway/sandwich shop,7844,20,,680170,15,,53.34174800000000,86090,889,environmental.protection@halton.gov.uk,Halton,http://www.halton.gov.uk,-2.73068300000000,WA7 1AP,2014-09-23,fhrs_1_en-GB,1,,FHRS,15
175699,147 Wilmere Lane,Widnes,Cheshire,,Farm Bakery,Manufacturers/packers,7839,10,,126574,10,,53.39627100000000,55647,889,environmental.protection@halton.gov.uk,Halton,http://www.halton.gov.uk,-2.73700100000000,WA8 5UP,2014-02-18,fhrs_3_en-GB,3,,FHRS,5
175700,38 Orchard Walk,Halton Lea,Runcorn,,Farm Foods,Retailers - supermarkets/hypermarkets,7840,0,,128694,0,,53.32697200000000,58891,889,environmental.protection@halton.gov.uk,Halton,http://www.halton.gov.uk,-2.69881000000000,WA7 2BY,2014-01-03,fhrs_4_en-GB,4,,FHRS,10
175701,Pit Lane,Widnes,Cheshire,,Farnworth CE Primary,School/college/university,7845,5,,104667,5,,53.38459600000000,3576,889,environmental.protection@halton.gov.uk,Halton,http://www.halton.gov.uk,-2.73092000000000,WA8 9HS,2013-11-26,fhrs_5_en-GB,5,,FHRS,0
175702,Wilmere Lane,Widnes,Cheshire,,Farnworth Hornets ARLFC,Pub/bar/nightclub,7843,10,,250423,5,,53.39627100000000,79321,889,environmental.protection@halton.gov.uk,Halton,http://www.halton.gov.uk,-2.73700100000000,WA8 5UP,2014-06-29,fhrs_3_en-GB,3,,FHRS,10
175703,180 Peel House Lane,Widnes,Cheshire,,Farnworth Sports/Social Club,Pub/bar/nightclub,7843,5,,123418,5,,53.38055100000000,51870,889,environmental.protection@halton.gov.uk,Halton,http://www.halton.gov.uk,-2.72498800000000,WA8 9UJ,2014-02-17,fhrs_5_en-GB,5,,FHRS,5
175704,Room 3 Victoria Buisness Centre,Croft Road,"Widnes, Cheshire",,Fast Food 2 U ltd.,Retailers - other,4613,5,,142492,5,,53.35904600000000,79295,889,environmental.protection@halton.gov.uk,Halton,http://www.halton.gov.uk,-2.73146000000000,WA8 0NQ.,2011-12-02,fhrs_5_en-GB,5,,FHRS,5
175705,St Michaels Road,Widnes,Cheshire,,Ferndale Court And Mews Care Home - HC-One,Hospitals/Childcare/Caring Premises,5,0,,123524,5,,53.36244400000000,51933,889,environmental.protection@halton.gov.uk,Halton,http://www.halton.gov.uk,-2.76311900000000,WA8 8TB,2014-04-09,fhrs_5_en-GB,5,,FHRS,5
175706,,,,,Ferraiolo Elaine MV06 VNE,Mobile caterer,7846,5,,123534,0,,,51948,889,environmental.protection@halton.gov.uk,Halton,http://www.halton.gov.uk,,,2011-06-09,fhrs_5_en-GB,5,,FHRS,0
175707,,,,,Ferraiolo Frank B11 CES,Mobile caterer,7846,5,,96827,5,,,29766,889,environmental.protection@halton.gov.uk,Halton,http://www.halton.gov.uk,,,2013-06-18,fhrs_5_en-GB,5,,FHRS,5
175708,,,,,Ferraiolo Frank Y587 OBF,Mobile caterer,7846,5,,130465,5,,,61675,889,environmental.protection@halton.gov.uk,Halton,http://www.halton.gov.uk,,,2013-06-18,fhrs_5_en-GB,5,,FHRS,5
175709,10 Church Street,Runcorn,Cheshire,,Ferry Boat,Pub/bar/nightclub,7843,0,,133125,5,,53.34257300000000,65561,889,environmental.protection@halton.gov.uk,Halton,http://www.halton.gov.uk,-2.73246900000000,WA7 1LR,2014-05-27,fhrs_5_en-GB,5,,FHRS,5
175710,14 Festival Way,Runcorn,Cheshire,,Festival Way Fish Bar,Takeaway/sandwich shop,7844,5,,96892,5,,53.33017500000000,29840,889,environmental.protection@halton.gov.uk,Halton,http://www.halton.gov.uk,-2.71802200000000,WA7 5JT,2013-12-11,fhrs_4_en-GB,4,,FHRS,10
175711,The Butts,Runcorn,Cheshire,,Fiddlers Three,Pub/bar/nightclub,7843,10,,151115,10,,53.33867645263672,9995,889,environmental.protection@halton.gov.uk,Halton,http://www.halton.gov.uk,-2.69709396362305,WA7 2LH,2014-06-16,fhrs_2_en-GB,2,,FHRS,15
175712,17 Queens Avenue,Widnes,Cheshire,,Figtree Healthcare Ltd,Retailers - other,4613,,,491923,,,53.36764400000000,29778,889,environmental.protection@halton.gov.uk,Halton,http://www.halton.gov.uk,-2.76943400000000,WA8 8HR,2003-02-19,fhrs_exempt_en-GB,Exempt,,FHRS,
175713,Trading: Brindley Road,Astmoor Industrial Estate,Runcorn,,Fillin Station,Mobile caterer,7846,5,,138712,10,,53.32510600000000,74048,889,environmental.protection@halton.gov.uk,Halton,http://www.halton.gov.uk,-2.70916900000000,WA7,2013-07-19,fhrs_4_en-GB,4,,FHRS,5
175714,Trading: Croft Street,Widnes,Cheshire,,Five Star Catering,Mobile caterer,7846,5,,123490,5,,53.35904600000000,51911,889,environmental.protection@halton.gov.uk,Halton,http://www.halton.gov.uk,-2.73146000000000,WA8 0NQ,2013-07-31,fhrs_4_en-GB,4,,FHRS,10
175715,Town Square,Halton Lea,Runcorn,,Five Star Coffee Bar,Restaurant/Cafe/Canteen,1,5,,670231,5,,,82456,889,environmental.protection@halton.gov.uk,Halton,http://www.halton.gov.uk,,,2014-08-08,fhrs_5_en-GB,5,,FHRS,0
175716,55 Church Street,Runcorn,Cheshire,,Flower and Plant Works,Retailers - other,4613,,,491906,,,53.34256700000000,19059,889,environmental.protection@halton.gov.uk,Halton,http://www.halton.gov.uk,-2.73479700000000,WA7 1LG,2003-05-01,fhrs_exempt_en-GB,Exempt,,FHRS,
175717,55 Widnes Road,Widnes,Cheshire,,FM Caffe,Restaurant/Cafe/Canteen,1,5,,139621,10,,53.36690600000000,75378,889,environmental.protection@halton.gov.uk,Halton,http://www.halton.gov.uk,-2.72795700000000,WA8 6AZ,2014-04-10,fhrs_4_en-GB,4,,FHRS,5
175718,218 Hale Road,Widnes,Cheshire,,Food 4 U,Restaurant/Cafe/Canteen,1,0,,132978,5,,53.36203500000000,65287,889,environmental.protection@halton.gov.uk,Halton,http://www.halton.gov.uk,-2.76512600000000,WA8 8QA,2014-06-26,fhrs_5_en-GB,5,,FHRS,5
175719,2 Bridgewater Grange,Runcorn,Cheshire,,Food To Go (At Spar),Takeaway/sandwich shop,7844,0,,139220,5,,53.31852200000000,74737,889,environmental.protection@halton.gov.uk,Halton,http://www.halton.gov.uk,-2.65129600000000,WA7 3AL,2014-08-07,fhrs_5_en-GB,5,,FHRS,0
175720,77 Cronton Lane,Widnes,Cheshire,,Ford Sports & Social Club,Pub/bar/nightclub,7843,5,,96991,0,,53.38965400000000,29955,889,environmental.protection@halton.gov.uk,Halton,http://www.halton.gov.uk,-2.74011900000000,WA8 5AJ,2013-10-31,fhrs_5_en-GB,5,,FHRS,5
175721,2 Hough Green Road,Widnes,Cheshire,,Four Topped Oak,Pub/bar/nightclub,7843,0,,78351,0,,53.37834200000000,18623,889,environmental.protection@halton.gov.uk,Halton,http://www.halton.gov.uk,-2.76071300000000,WA8 4PE,2014-05-09,fhrs_5_en-GB,5,,FHRS,5
175722,Earle Road,Widnes,Cheshire,,Frankie & Benny's,Restaurant/Cafe/Canteen,1,5,,136675,0,,53.36383200000000,71043,889,environmental.protection@halton.gov.uk,Halton,http://www.halton.gov.uk,-2.72208900000000,WA8 0TA,2014-02-26,fhrs_5_en-GB,5,,FHRS,5
175723,129 Sandy Lane,Runcorn,Cheshire,,Frankies,Takeaway/sandwich shop,7844,0,,79718,5,,53.32752600000000,19213,889,environmental.protection@halton.gov.uk,Halton,http://www.halton.gov.uk,-2.74835200000000,WA7 4EF,2014-03-06,fhrs_5_en-GB,5,,FHRS,5
175724,1b Ditton Road,Widnes,,,Frankies Sweetie Buffet,Retailers - other,4613,5,,551219,0,,53.35906200000000,81097,889,environmental.protection@halton.gov.uk,Halton,http://www.halton.gov.uk,-2.73912300000000,WA8 0WS,2013-05-15,fhrs_5_en-GB,5,,FHRS,5
175725,Eastgate Way,Runcorn,Cheshire,,Fresenius Kabi Ltd Staff Canteen,Restaurant/Cafe/Canteen,1,5,,139953,5,,53.35370700000000,75920,889,environmental.protection@halton.gov.uk,Halton,http://www.halton.gov.uk,-2.65733100000000,WA7 1NT,2014-10-23,fhrs_5_en-GB,5,,FHRS,5
175726,Manor Farm Road,Runcorn,Cheshire,,Fresh Catering Co at Sigmatex,Restaurant/Cafe/Canteen,1,5,,137430,5,,53.34839900000000,72347,889,environmental.protection@halton.gov.uk,Halton,http://www.halton.gov.uk,-2.66471500000000,WA7 1TE,2014-10-23,fhrs_5_en-GB,5,,FHRS,5
175727,74 Greenway Road,Runcorn,Cheshire,,Funky Little Fancies,Retailers - other,4613,0,,633520,0,,53.33848300000000,82085,889,environmental.protection@halton.gov.uk,Halton,http://www.halton.gov.uk,-2.73540300000000,WA7 5AF,2014-03-31,fhrs_5_en-GB,5,,FHRS,0
175728,116 Bancroft Road,Widnes,Cheshire,,Funky Monkeys,Other catering premises,7841,5,,139741,5,,53.37798600000000,75532,889,environmental.protection@halton.gov.uk,Halton,http://www.halton.gov.uk,-2.71212200000000,WA8 3LL,2014-09-24,fhrs_4_en-GB,4,,FHRS,10
175729,Trading Manor Park Avenue,Runcorn,,,Gails Baps,Mobile caterer,7846,5,,189705,5,,53.34875400000000,79363,889,environmental.protection@halton.gov.uk,Halton,http://www.halton.gov.uk,-2.67118400000000,,2013-07-19,fhrs_5_en-GB,5,,FHRS,0
175730,Widnes Shopping Centre,Widnes,Cheshire,,Gala Bingo,Restaurant/Cafe/Canteen,1,5,,120873,5,,53.36656800000000,49714,889,environmental.protection@halton.gov.uk,Halton,http://www.halton.gov.uk,-2.72593800000000,WA8 7TN,2014-08-18,fhrs_5_en-GB,5,,FHRS,5
175731,Moss Lane,Moore,Runcorn,,Gentlemen of Moore RUFC,Pub/bar/nightclub,7843,0,,79867,5,,53.35779800000000,19261,889,environmental.protection@halton.gov.uk,Halton,http://www.halton.gov.uk,-2.63724500000000,WA4 6UU,2013-03-08,fhrs_5_en-GB,5,,FHRS,0
175732,Golden Triangle,Harrison Street,Widnes,,Gino Ferraiolo Ice Cream EU06 GDK,Mobile caterer,7846,10,,687296,10,,53.37242400000000,86099,889,environmental.protection@halton.gov.uk,Halton,http://www.halton.gov.uk,-2.74656600000000,WA8,2014-06-25,fhrs_2_en-GB,2,,FHRS,15
175733,Golden Triangle,Harrison Street,Widnes,,Gino Ferraiolo Ice Cream J68 HDM,Mobile caterer,7846,5,,126685,5,,53.37242400000000,55799,889,environmental.protection@halton.gov.uk,Halton,http://www.halton.gov.uk,-2.74656600000000,WA8,2014-06-25,fhrs_4_en-GB,4,,FHRS,10
175734,Golden Triangle,Harrison Street,Widnes,,Gino Ferraiolo Ice Cream YY52 HKC,Mobile caterer,7846,5,,138099,10,,53.37242400000000,73295,889,environmental.protection@halton.gov.uk,Halton,http://www.halton.gov.uk,-2.74656600000000,WA8,2014-06-25,fhrs_2_en-GB,2,,FHRS,15
175735,Liverpool Road,Widnes,Cheshire,,Glenwood,Hospitals/Childcare/Caring Premises,5,10,,123346,5,,53.37100100000000,51800,889,environmental.protection@halton.gov.uk,Halton,http://www.halton.gov.uk,-2.75751600000000,WA8 7HX,2014-03-28,fhrs_4_en-GB,4,,FHRS,5
175736,90 Mersey Road,Widnes,Cheshire,,Golden Bridge,Takeaway/sandwich shop,7844,10,,605007,10,,53.34898300000000,81772,889,environmental.protection@halton.gov.uk,Halton,http://www.halton.gov.uk,-2.73513300000000,WA8 0DT,2014-01-08,fhrs_3_en-GB,3,,FHRS,10
175737,1 Page Lane,Widnes,Cheshire,,Golden Dragon,Takeaway/sandwich shop,7844,,,120954,,,53.36990000000000,49768,889,environmental.protection@halton.gov.uk,Halton,http://www.halton.gov.uk,-2.71891600000000,WA8 0AE,,fhrs_awaitinginspection_en-GB,AwaitingInspection,,FHRS,
175738,5-7 Alexander Drive,Widnes,Cheshire,,Golden Flower Takeaway,Takeaway/sandwich shop,7844,10,,97127,10,,53.36604400000000,30006,889,environmental.protection@halton.gov.uk,Halton,http://www.halton.gov.uk,-2.75816400000000,WA8 8DY,2014-06-18,fhrs_3_en-GB,3,,FHRS,10
175739,48 Langdale Road,Runcorn,Cheshire,,Golden River,Takeaway/sandwich shop,7844,5,,83502,10,,53.33417900000000,20480,889,environmental.protection@halton.gov.uk,Halton,http://www.halton.gov.uk,-2.72924700000000,WA7 5PU,2014-02-04,fhrs_4_en-GB,4,,FHRS,5
175740,Ditton Road,Widnes,Cheshire,,Goodfillers,Mobile caterer,7846,10,,137193,5,,53.35851500000000,71941,889,environmental.protection@halton.gov.uk,Halton,http://www.halton.gov.uk,-2.75192100000000,,2014-01-15,fhrs_4_en-GB,4,,FHRS,5
175741,132 Widnes Road,Widnes,Cheshire,,Goodys,Takeaway/sandwich shop,7844,10,,133435,10,,53.36653500000000,66107,889,environmental.protection@halton.gov.uk,Halton,http://www.halton.gov.uk,-2.72841700000000,WA8 6AX,2014-01-21,fhrs_4_en-GB,4,,FHRS,0
175742,Gorsewood Road,Runcorn,,,Gorsewood Pre-School,Hospitals/Childcare/Caring Premises,5,0,,138260,5,,53.32420200000000,73548,889,environmental.protection@halton.gov.uk,Halton,http://www.halton.gov.uk,-2.66280800000000,WA7 6ES,2012-03-20,fhrs_4_en-GB,4,,FHRS,10
175743,Gorsewood Road,Runcorn,Cheshire,,Gorsewood Primary School,School/college/university,7845,0,,40769,0,,53.32420200000000,10166,889,environmental.protection@halton.gov.uk,Halton,http://www.halton.gov.uk,-2.66280800000000,WA7 6ES,2014-10-15,fhrs_5_en-GB,5,,FHRS,0
175744,Bradley Way,Widnes,Cheshire,,Granbys Butcher,Retailers - other,4613,5,,119545,5,,53.36855400000000,48703,889,environmental.protection@halton.gov.uk,Halton,http://www.halton.gov.uk,-2.72449900000000,WA8 6UE,2013-11-04,fhrs_4_en-GB,4,,FHRS,10
175745,Latham Avenue,Runcorn,Cheshire,,Grange Link Club,Hospitals/Childcare/Caring Premises,5,,,735473,,,,86803,889,environmental.protection@halton.gov.uk,Halton,http://www.halton.gov.uk,,,,fhrs_awaitinginspection_en-GB,AwaitingInspection,,FHRS,
175746,96 Weston Road,Runcorn,Cheshire,,Grangeside Filling Station,Retailers - other,4613,,,491901,,,53.31947900000000,15945,889,environmental.protection@halton.gov.uk,Halton,http://www.halton.gov.uk,-2.73997000000000,WA7 4LL,2010-02-16,fhrs_exempt_en-GB,Exempt,,FHRS,
175747,38 Widnes Road,Widnes,Cheshire,,Grapes,Pub/bar/nightclub,7843,0,,693189,0,,53.36412300000000,82715,889,environmental.protection@halton.gov.uk,Halton,http://www.halton.gov.uk,-2.73037400000000,WA8 6AP,2014-03-28,fhrs_5_en-GB,5,,FHRS,0
175748,82 Halton Road,Runcorn,Cheshire,,Grapes Inn,Pub/bar/nightclub,7843,5,,429025,0,,53.34025200000000,23636,889,environmental.protection@halton.gov.uk,Halton,http://www.halton.gov.uk,-2.71943800000000,WA7 5SB,2014-10-08,fhrs_5_en-GB,5,,FHRS,5
175749,19 Albert Road,Widnes,Cheshire,,Greenhalghs Craft Bakery,Retailers - other,4613,5,,141542,5,,53.36847300000000,78014,889,environmental.protection@halton.gov.uk,Halton,http://www.halton.gov.uk,-2.72604500000000,WA8 6JA,2014-03-21,fhrs_5_en-GB,5,,FHRS,5
175750,101 Widnes Road,Widnes,Cheshire,,Greggs,Retailers - other,4613,0,,79699,0,,53.36753500000000,19209,889,environmental.protection@halton.gov.uk,Halton,http://www.halton.gov.uk,-2.72648000000000,WA8 6BJ,2014-03-27,fhrs_5_en-GB,5,,FHRS,0
175751,34 Church Street,Runcorn,Cheshire,,Greggs,Retailers - other,4613,0,,119339,0,,53.34257300000000,48534,889,environmental.protection@halton.gov.uk,Halton,http://www.halton.gov.uk,-2.73246900000000,WA7 1LR,2014-03-18,fhrs_5_en-GB,5,,FHRS,5
175752,34A Forest Walk,Halton Lea,Runcorn,,Greggs,Retailers - other,4613,0,,121660,0,,53.32771100000000,50320,889,environmental.protection@halton.gov.uk,Halton,http://www.halton.gov.uk,-2.69850700000000,WA7 2GZ,2014-03-19,fhrs_5_en-GB,5,,FHRS,5
175753,Hesketh Road,Hale,"Widnes, Cheshire",,Hale Ce Controlled Primary School,School/college/university,7845,0,,133539,5,,53.33714100000000,6634,889,environmental.protection@halton.gov.uk,Halton,http://www.halton.gov.uk,-2.79597700000000,L24 4AN,2013-12-09,fhrs_5_en-GB,5,,FHRS,0
175754,Town Lane,Hale,"Widnes, Cheshire",,Hale News,Retailers - other,4613,0,,79947,0,,53.33624200000000,19292,889,environmental.protection@halton.gov.uk,Halton,http://www.halton.gov.uk,-2.79867900000000,L24 4AG,2013-02-06,fhrs_5_en-GB,5,,FHRS,0
175755,61 High Street,Hale,"Widnes, Cheshire",,Hale P O & Store,Retailers - other,4613,0,,123294,0,,53.33545700000000,51765,889,environmental.protection@halton.gov.uk,Halton,http://www.halton.gov.uk,-2.80043600000000,L24 4AE,2013-11-18,fhrs_5_en-GB,5,,FHRS,0
175756,Heath View Road,Widnes,Cheshire,,Halebank CE Primary School,School/college/university,7845,0,,109260,5,,53.35188400000000,39382,889,environmental.protection@halton.gov.uk,Halton,http://www.halton.gov.uk,-2.77251500000000,WA8 8UT,2014-05-06,fhrs_5_en-GB,5,,FHRS,5
175757,Heath View Road,Widnes,Cheshire,,Halebank Pre-School,Hospitals/Childcare/Caring Premises,5,10,,129726,10,,53.35051100000000,60655,889,environmental.protection@halton.gov.uk,Halton,http://www.halton.gov.uk,-2.77764300000000,WA8 8UZ,2014-12-18,fhrs_4_en-GB,4,,FHRS,0
175758,Halton Road,Runcorn,Cheshire,,Halfway House Inn,Pub/bar/nightclub,7843,10,,40485,10,,53.33940000000000,10130,889,environmental.protection@halton.gov.uk,Halton,http://www.halton.gov.uk,-2.71156900000000,WA7 5NR,2014-06-16,fhrs_2_en-GB,2,,FHRS,15
175759,13 Albert Road,Widnes,Cheshire,,Hallmark,Retailers - other,4613,,,491963,,,53.36847300000000,51569,889,environmental.protection@halton.gov.uk,Halton,http://www.halton.gov.uk,-2.72604500000000,WA8 6JA,2002-09-25,fhrs_exempt_en-GB,Exempt,,FHRS,
175760,28B Church Street,Runcorn,,,Hallmark,Retailers - other,4613,,,492085,,,53.34257300000000,76924,889,environmental.protection@halton.gov.uk,Halton,http://www.halton.gov.uk,-2.73246900000000,WA7 1LR,2011-01-24,fhrs_exempt_en-GB,Exempt,,FHRS,
175761,Hallwood Park Avenue,Runcorn,Cheshire,,Hallwood Park School,School/college/university,7845,0,,109262,0,,53.32164600000000,39383,889,environmental.protection@halton.gov.uk,Halton,http://www.halton.gov.uk,-2.70118500000000,WA7 2FL,2013-11-29,fhrs_5_en-GB,5,,FHRS,0
175762,Murdishaw Avenue,Runcorn,Cheshire,,Halton Arms,Pub/bar/nightclub,7843,5,,79727,5,,53.31714100000000,19219,889,environmental.protection@halton.gov.uk,Halton,http://www.halton.gov.uk,-2.67175000000000,WA7 6HP,2014-02-08,fhrs_5_en-GB,5,,FHRS,5
175763,Dundalk Road,Widnes,Cheshire,,Halton BC Recreation Club,Pub/bar/nightclub,7843,0,,79670,5,,53.36802900000000,19200,889,environmental.protection@halton.gov.uk,Halton,http://www.halton.gov.uk,-2.75415700000000,WA8 8DF,2013-04-11,fhrs_5_en-GB,5,,FHRS,5
175764,Fernhurst,Halton Brook,Runcorn,,Halton Brook Children's Centre,Hospitals/Childcare/Caring Premises,5,5,,579797,0,,53.33258300000000,80845,889,environmental.protection@halton.gov.uk,Halton,http://www.halton.gov.uk,-2.71065900000000,WA7 2NJ,2013-08-13,fhrs_5_en-GB,5,,FHRS,0
175765,Hillcrest,Runcorn,Cheshire,,Halton Brook Community Centre,Other catering premises,7841,5,,137317,5,,53.33327900000000,72169,889,environmental.protection@halton.gov.uk,Halton,http://www.halton.gov.uk,-2.70849400000000,WA7 2DY,2015-01-23,fhrs_5_en-GB,5,,FHRS,5
175766,Barnfield Avenue,Runcorn,Cheshire,,Halton Haven,Hospitals/Childcare/Caring Premises,5,0,,84741,0,,53.32025600000000,21045,889,environmental.protection@halton.gov.uk,Halton,http://www.halton.gov.uk,-2.67083800000000,WA7 6EP,2013-09-10,fhrs_5_en-GB,5,,FHRS,5
175767,Hospital Way,Runcorn,Cheshire,,Halton Hospital - Catering Department.,Restaurant/Cafe/Canteen,1,5,,101674,0,,53.32326600000000,3335,889,environmental.protection@halton.gov.uk,Halton,http://www.halton.gov.uk,-2.69460600000000,WA7 2DA,2014-09-17,fhrs_5_en-GB,5,,FHRS,5
175768,Whitchurch Way,Halton Lodge,Runcorn,,Halton Lodge and Grange Pre-School,Hospitals/Childcare/Caring Premises,5,5,,137703,0,,53.32491100000000,72723,889,environmental.protection@halton.gov.uk,Halton,http://www.halton.gov.uk,-2.70834000000000,WA7 5YP,2014-06-11,fhrs_5_en-GB,5,,FHRS,0
175769,Grangeway,Runcorn,Cheshire,,Halton Lodge Chidren's Centre - Creche,Other catering premises,7841,5,,530925,0,,53.21412658691406,80846,889,environmental.protection@halton.gov.uk,Halton,http://www.halton.gov.uk,-2.55155992507935,WA7 5HA,2013-03-15,fhrs_5_en-GB,5,,FHRS,0
175770,Grangeway,Runcorn,Cheshire,,Halton Lodge Childrens Centre,Other catering premises,7841,0,,131598,0,,53.21412658691406,63115,889,environmental.protection@halton.gov.uk,Halton,http://www.halton.gov.uk,-2.55155992507935,WA7 5HA,2014-10-08,fhrs_5_en-GB,5,,FHRS,5
175771,Grangeway,Runcorn,Cheshire,,Halton Lodge Primary School,School/college/university,7845,0,,40465,5,,53.21412658691406,10128,889,environmental.protection@halton.gov.uk,Halton,http://www.halton.gov.uk,-2.55155992507935,WA7 5LU,2014-10-22,fhrs_5_en-GB,5,,FHRS,5
175772,Whitchurch Way,Runcorn,Cheshire,,Halton Lodge Supper Bar,Takeaway/sandwich shop,7844,20,,83561,20,,53.32491100000000,20514,889,environmental.protection@halton.gov.uk,Halton,http://www.halton.gov.uk,-2.70834000000000,WA7 5YP,2014-10-28,fhrs_0_en-GB,0,,FHRS,15
175773,59 Milton Road,Widnes,Cheshire,,Halton Newsagents,Retailers - other,4613,5,,122868,5,,53.36402000000000,51319,889,environmental.protection@halton.gov.uk,Halton,http://www.halton.gov.uk,-2.73835200000000,WA8 7JR,2014-12-02,fhrs_4_en-GB,4,,FHRS,10
175774,1 Sadler Street,Widnes,Cheshire,,Halton View Care Home,Hospitals/Childcare/Caring Premises,5,0,,123834,5,,53.37112600000000,52247,889,environmental.protection@halton.gov.uk,Halton,http://www.halton.gov.uk,-2.71992800000000,WA8 6LN,2014-08-18,fhrs_5_en-GB,5,,FHRS,5
175775,Hospital Way,Runcorn,Cheshire,,Halty's Den Day Nursery,Hospitals/Childcare/Caring Premises,5,0,,137332,5,,53.31792900000000,72186,889,environmental.protection@halton.gov.uk,Halton,http://www.halton.gov.uk,-2.68803400000000,WA7 2PG,2013-09-17,fhrs_5_en-GB,5,,FHRS,5
175776,Liverpool Road,Widnes,Cheshire,,Hammer And Pincers,Pub/bar/nightclub,7843,10,,41970,15,,53.37246000000000,10376,889,environmental.protection@halton.gov.uk,Halton,http://www.halton.gov.uk,-2.77515700000000,WA8 7XU,2014-10-07,fhrs_2_en-GB,2,,FHRS,15
175777,Bradley Way,Widnes,Cheshire,,Hankins Old Fashioned Sweets,Retailers - other,4613,5,,123572,5,,53.36855400000000,51992,889,environmental.protection@halton.gov.uk,Halton,http://www.halton.gov.uk,-2.72449900000000,WA8 6UE,2014-02-12,fhrs_5_en-GB,5,,FHRS,0
175778,off Picow Farm Road,Runcorn,Cheshire,,Hard Hat Catering,Restaurant/Cafe/Canteen,1,10,,140963,5,,53.32499300000000,77153,889,environmental.protection@halton.gov.uk,Halton,http://www.halton.gov.uk,-2.75506400000000,WA7 4HZ,2014-10-09,fhrs_2_en-GB,2,,FHRS,15
175779,Warrington Road,Sutton And Bold,"St. Helens, Merseyside",,Harefield Cottage Water Garden,Retailers - other,4613,,,693194,,,53.40172400000000,84082,889,environmental.protection@halton.gov.uk,Halton,http://www.halton.gov.uk,-2.74181800000000,L35 6PG,,fhrs_exempt_en-GB,Exempt,,FHRS,
175780,9 Queens Avenue,Widnes,Cheshire,,Harrys Fish Bar,Takeaway/sandwich shop,7844,5,,141327,10,,53.36756300000000,77775,889,environmental.protection@halton.gov.uk,Halton,http://www.halton.gov.uk,-2.76935800000000,WA8 8HR,2014-08-28,fhrs_4_en-GB,4,,FHRS,5
175781,488 Hale Road,Widnes,Cheshire,,Harry's Fish Bar,Takeaway/sandwich shop,7844,5,,456813,15,,53.34995500000000,80403,889,environmental.protection@halton.gov.uk,Halton,http://www.halton.gov.uk,-2.77479400000000,WA8 8XQ,2014-09-12,fhrs_2_en-GB,2,,FHRS,10
175782,Vista Road,Runcorn,Cheshire,,Heath Methodist Church,Other catering premises,7841,5,,128145,5,,53.33073500000000,57947,889,environmental.protection@halton.gov.uk,Halton,http://www.halton.gov.uk,-2.73088500000000,WA7 4PA,2014-03-25,fhrs_5_en-GB,5,,FHRS,5
175783,Heath Road South,Runcorn,Cheshire,,Heathside Nursery,Hospitals/Childcare/Caring Premises,5,0,,40131,0,,53.32438200000000,10082,889,environmental.protection@halton.gov.uk,Halton,http://www.halton.gov.uk,-2.73921400000000,WA7 4QR,2014-02-25,fhrs_5_en-GB,5,,FHRS,0
175784,94 Albert Road,Widnes,Cheshire,,Henrys Takeaway,Takeaway/sandwich shop,7844,5,,92564,5,,53.37123800000000,26110,889,environmental.protection@halton.gov.uk,Halton,http://www.halton.gov.uk,-2.72213900000000,WA8 6LG,2014-09-02,fhrs_5_en-GB,5,,FHRS,0
175785,Unit 1,Cherry Tree House,Linkway,,Heron Foods Ltd.,Retailers - supermarkets/hypermarkets,7840,0,,707227,0,,53.32877000000000,86513,889,environmental.protection@halton.gov.uk,Halton,http://www.halton.gov.uk,-2.71999500000000,WA7 5EJ,2014-10-10,fhrs_5_en-GB,5,,FHRS,0
175786,Highfield Road,Widnes,Cheshire,,Highfield Nursery,Hospitals/Childcare/Caring Premises,5,5,,104034,5,,53.37118100000000,3526,889,environmental.protection@halton.gov.uk,Halton,http://www.halton.gov.uk,-2.74029500000000,WA8 7DJ,2014-12-04,fhrs_5_en-GB,5,,FHRS,5
175787,Beechwood Avenue,Runcorn,Cheshire,,Hill View Primary School,School/college/university,7845,0,,109265,5,,53.31483900000000,39385,889,environmental.protection@halton.gov.uk,Halton,http://www.halton.gov.uk,-2.69997700000000,WA7 3HB,2013-12-06,fhrs_5_en-GB,5,,FHRS,5
175788,75 Cronton Lane,Widnes,Cheshire,,Hillcrest Hotel,Hotel/bed & breakfast/guest house,7842,10,,81464,10,,53.39005200000000,19883,889,environmental.protection@halton.gov.uk,Halton,http://www.halton.gov.uk,-2.74119400000000,WA8 9AR,2014-03-31,fhrs_2_en-GB,2,,FHRS,15
175789,20 Hillcrest,Runcorn,Cheshire,,Hillcrest Supper Bar,Takeaway/sandwich shop,7844,30,,96833,20,,53.33327900000000,29776,889,environmental.protection@halton.gov.uk,Halton,http://www.halton.gov.uk,-2.70849400000000,WA7 2DY,2014-08-26,fhrs_0_en-GB,0,,FHRS,15
175790,Beechwood Avenue,Runcorn,Cheshire,,Hillview Link Club,Other catering premises,7841,5,,127247,5,,53.31483900000000,56401,889,environmental.protection@halton.gov.uk,Halton,http://www.halton.gov.uk,-2.69997700000000,WA7 3HB,2013-05-28,fhrs_5_en-GB,5,,FHRS,5
175791,Hillview Primary School,Beechwood Avenue,Runcorn,,Hillview Under 5's,Hospitals/Childcare/Caring Premises,5,0,,138203,5,,53.31483900000000,73467,889,environmental.protection@halton.gov.uk,Halton,http://www.halton.gov.uk,-2.69997700000000,WA7 3HB,2013-09-24,fhrs_5_en-GB,5,,FHRS,0
175792,Wood Lane,Beechwood,"Runcorn, Cheshire",,Holiday Inn,Hotel/bed & breakfast/guest house,7842,10,,102144,5,,53.31163800000000,3375,889,environmental.protection@halton.gov.uk,Halton,http://www.halton.gov.uk,-2.69410200000000,WA7 3HA,2014-11-06,fhrs_3_en-GB,3,,FHRS,10
175793,14 Albert Road,Widnes,Cheshire,,Holland & Barrett,Retailers - other,4613,5,,504946,5,,53.36838500000000,80744,889,environmental.protection@halton.gov.uk,Halton,http://www.halton.gov.uk,-2.72562300000000,WA8 6JE,2013-01-30,fhrs_5_en-GB,5,,FHRS,5
175794,Halton Lea,Runcorn,Cheshire,,Holland & Barrett,Retailers - other,4613,0,,119705,0,,53.32719421386719,48837,889,environmental.protection@halton.gov.uk,Halton,http://www.halton.gov.uk,-2.69791269302368,WA7 2EU,2014-01-03,fhrs_5_en-GB,5,,FHRS,0
175795,,,,,Holly's Little Bakery,Other catering premises,7841,5,,429030,5,,,80005,889,environmental.protection@halton.gov.uk,Halton,http://www.halton.gov.uk,,,2012-10-02,fhrs_5_en-GB,5,,FHRS,5
175796,117 Albert Road,Widnes,Cheshire,,Hollywood Pizza,Takeaway/sandwich shop,7844,10,,136874,10,,53.37099700000000,71392,889,environmental.protection@halton.gov.uk,Halton,http://www.halton.gov.uk,-2.72341300000000,WA8 6LB,2014-09-11,fhrs_3_en-GB,3,,FHRS,10
175797,Cotterill,Runcorn,Cheshire,,Holy Spirit Pre-School,Hospitals/Childcare/Caring Premises,5,0,,129103,5,,53.21412658691406,59517,889,environmental.protection@halton.gov.uk,Halton,http://www.halton.gov.uk,-2.55155992507935,WA7 2NL,2014-12-08,fhrs_5_en-GB,5,,FHRS,0
175798,Cotterill,Runcorn,Cheshire,,Holy Spirit RC Primary School,School/college/university,7845,0,,151125,0,,53.21412658691406,9997,889,environmental.protection@halton.gov.uk,Halton,http://www.halton.gov.uk,-2.55155992507935,WA7 2NL,2014-12-08,fhrs_5_en-GB,5,,FHRS,0
175799,Trinity Street,Runcorn,Cheshire,,Holy Trinity Drop In Centre,Other catering premises,7841,0,,138162,0,,53.32510600000000,73396,889,environmental.protection@halton.gov.uk,Halton,http://www.halton.gov.uk,-2.70916900000000,WA7 1BJ,2012-01-24,fhrs_5_en-GB,5,,FHRS,0
175800,Halton Lea,Runcorn,Cheshire,,Home Bargains,Retailers - supermarkets/hypermarkets,7840,0,,119440,0,,53.32770919799805,48619,889,environmental.protection@halton.gov.uk,Halton,http://www.halton.gov.uk,-2.69850659370422,WA7 2GX,2014-01-09,fhrs_5_en-GB,5,,FHRS,0
175801,Halton Lea,Runcorn,Cheshire,,Home Bargains,Retailers - other,4613,0,,138143,0,,53.32619094848633,73349,889,environmental.protection@halton.gov.uk,Halton,http://www.halton.gov.uk,-2.69998311996460,WA7 2FQ,2014-10-23,fhrs_5_en-GB,5,,FHRS,5
175802,42 Regent Street,Runcorn,Cheshire,,Home Brew 42,Retailers - other,4613,5,,579804,5,,53.34225800000000,81552,889,environmental.protection@halton.gov.uk,Halton,http://www.halton.gov.uk,-2.73543800000000,WA7 1LJ,2013-09-24,fhrs_4_en-GB,4,,FHRS,10
175803,Royal Avenue,Widnes,Cheshire,,Home Retail Group - Staff Canteen,Restaurant/Cafe/Canteen,1,10,,85834,10,,53.36756300000000,21747,889,environmental.protection@halton.gov.uk,Halton,http://www.halton.gov.uk,-2.76935800000000,WA8 8HR,2015-01-16,fhrs_3_en-GB,3,,FHRS,10
175804,Thomas Jones Way,Runcorn,Cheshire,,Homebase Limited,Retailers - other,4613,,,491997,,,53.33925100000000,71320,889,environmental.protection@halton.gov.uk,Halton,http://www.halton.gov.uk,-2.73175100000000,WA7 5AQ,2009-04-22,fhrs_exempt_en-GB,Exempt,,FHRS,
175805,70 Clifton Road,Higher Runcorn,Runcorn,,Hope Corner,Restaurant/Cafe/Canteen,1,10,,542812,5,,53.32125500000000,79665,889,environmental.protection@halton.gov.uk,Halton,http://www.halton.gov.uk,-2.72141500000000,WA7 4TD,2013-04-05,fhrs_4_en-GB,4,,FHRS,0
175806,18 Birchfield Road,Widnes,Cheshire,,Horse and Jockey Inn,Pub/bar/nightclub,7843,0,,80523,0,,53.37294500000000,19497,889,environmental.protection@halton.gov.uk,Halton,http://www.halton.gov.uk,-2.73260000000000,WA8 7SU,2012-06-12,fhrs_5_en-GB,5,,FHRS,0
175807,Trading: Astonfields Lane  Run,,,,Hot Stuff Devilish Snacks,Mobile caterer,7846,5,,141546,10,,,78021,889,environmental.protection@halton.gov.uk,Halton,http://www.halton.gov.uk,,,2014-02-18,fhrs_4_en-GB,4,,FHRS,5
175808,7 Peel House Lane,Widnes,Cheshire,,Hot Stuff Sandwich Bar,Takeaway/sandwich shop,7844,5,,133993,5,,53.37316500000000,67026,889,environmental.protection@halton.gov.uk,Halton,http://www.halton.gov.uk,-2.72301400000000,WA8 6TN,2013-09-23,fhrs_4_en-GB,4,,FHRS,10
175809,285 Ditchfield Road,Widnes,Cheshire,,Hough Green Post Office,Retailers - other,4613,10,,83988,10,,53.36860100000000,20738,889,environmental.protection@halton.gov.uk,Halton,http://www.halton.gov.uk,-2.77699600000000,WA8 8JX,2014-03-18,fhrs_3_en-GB,3,,FHRS,10
175810,299 Ditchfield Road,Widnes,Cheshire,,Hough Green Recreation Club,Pub/bar/nightclub,7843,5,,128469,5,,53.36860100000000,58445,889,environmental.protection@halton.gov.uk,Halton,http://www.halton.gov.uk,-2.77699600000000,WA8 8JX,2012-05-04,fhrs_4_en-GB,4,,FHRS,10
175811,Ditchfield Road,Widnes,Cheshire,,Hough Green Social Club,Pub/bar/nightclub,7843,10,,80661,5,,53.37091500000000,19550,889,environmental.protection@halton.gov.uk,Halton,http://www.halton.gov.uk,-2.77511400000000,WA8 8XR,2013-01-08,fhrs_3_en-GB,3,,FHRS,10
175812,Astmoor Industrial Estate,Runcorn,Cheshire,,Howdens Kitchens staff canteen,Restaurant/Cafe/Canteen,1,5,,122852,5,,53.34598100000000,51305,889,environmental.protection@halton.gov.uk,Halton,http://www.halton.gov.uk,-2.69770900000000,WA7 1PQ,2013-08-09,fhrs_5_en-GB,5,,FHRS,5
175813,Daresbury Park,Daresbury,"Runcorn, Cheshire",,hp Staff Cafe.,Restaurant/Cafe/Canteen,1,5,,122860,5,,53.33087000000000,51311,889,environmental.protection@halton.gov.uk,Halton,http://www.halton.gov.uk,-2.64342100000000,WA4 4BB,2013-10-10,fhrs_4_en-GB,4,,FHRS,10
175814,,,,,Ian Gilbert Ice Cream T84 SVL,Mobile caterer,7846,5,,124139,0,,,52621,889,environmental.protection@halton.gov.uk,Halton,http://www.halton.gov.uk,,,2014-12-16,fhrs_5_en-GB,5,,FHRS,0
175815,62 Town Square,Halton Lea,Runcorn,,Iceland Frozen Foods,Retailers - supermarkets/hypermarkets,7840,0,,80620,0,,53.32719300000000,19534,889,environmental.protection@halton.gov.uk,Halton,http://www.halton.gov.uk,-2.69791300000000,WA7 2BX,2014-01-09,fhrs_5_en-GB,5,,FHRS,5
175816,Granville Street,Runcorn,Cheshire,,Iceland Frozen Foods,Retailers - other,4613,0,,132864,5,,53.34229800000000,65058,889,environmental.protection@halton.gov.uk,Halton,http://www.halton.gov.uk,-2.73332100000000,WA7 1NE,2012-12-12,fhrs_5_en-GB,5,,FHRS,0
175817,35 Albert Square,Widnes,Cheshire,,Iceland Frozen Foods Plc,Retailers - supermarkets/hypermarkets,7840,5,,83539,10,,53.36852300000000,20502,889,environmental.protection@halton.gov.uk,Halton,http://www.halton.gov.uk,-2.72670700000000,WA8 6JW,2014-02-26,fhrs_4_en-GB,4,,FHRS,0
175818,51 Albert Road,Widnes,Cheshire,,Il Cappucio,Restaurant/Cafe/Canteen,1,0,,135393,10,,53.36980900000000,69043,889,environmental.protection@halton.gov.uk,Halton,http://www.halton.gov.uk,-2.72503100000000,WA8 6JS,2013-10-30,fhrs_4_en-GB,4,,FHRS,10
175819,The Butts,Runcorn,Cheshire,,Inglefield,Hospitals/Childcare/Caring Premises,5,0,,123539,0,,53.33867645263672,51950,889,environmental.protection@halton.gov.uk,Halton,http://www.halton.gov.uk,-2.69709396362305,WA7 2LH,2014-02-26,fhrs_5_en-GB,5,,FHRS,0
175820,Ditton Road,Widnes,,,Its a Kinda Magic Cafe,Restaurant/Cafe/Canteen,1,0,,456815,5,,53.35914000000000,80434,889,environmental.protection@halton.gov.uk,Halton,http://www.halton.gov.uk,-2.74820000000000,WA8 0NZ,2014-07-22,fhrs_5_en-GB,5,,FHRS,5
175821,3 Sandy Lane,Runcorn,Cheshire,,J J Robinson,Retailers - other,4613,5,,84051,10,,53.32712800000000,20773,889,environmental.protection@halton.gov.uk,Halton,http://www.halton.gov.uk,-2.75441100000000,WA7 4EX,2013-08-21,fhrs_4_en-GB,4,,FHRS,5
175822,87 Frederick Street,Widnes,Cheshire,,J J's General Store,Retailers - other,4613,10,,133949,5,,53.36712800000000,66995,889,environmental.protection@halton.gov.uk,Halton,http://www.halton.gov.uk,-2.72991500000000,WA8 6PF,2012-12-07,fhrs_3_en-GB,3,,FHRS,10
175823,2 Cawdor Street,Runcorn,Cheshire,,Jacky Chen,Takeaway/sandwich shop,7844,20,,96887,15,,53.34301400000000,29837,889,environmental.protection@halton.gov.uk,Halton,http://www.halton.gov.uk,-2.74102300000000,WA7 1EN,2014-05-28,fhrs_1_en-GB,1,,FHRS,15
175824,93-99 Albert Road,Widnes,Cheshire,,JD Wetherspoons,Pub/bar/nightclub,7843,0,,122327,5,,53.37123800000000,50872,889,environmental.protection@halton.gov.uk,Halton,http://www.halton.gov.uk,-2.72213900000000,WA8 6LG,2013-08-29,fhrs_5_en-GB,5,,FHRS,5
175825,Dennis Road,Widnes,Cheshire,,Jelly Beans Play Centre Ltd,Other catering premises,7841,5,,140094,5,,53.36410500000000,76081,889,environmental.protection@halton.gov.uk,Halton,http://www.halton.gov.uk,-2.71842700000000,WA8 0GU,2014-02-02,fhrs_5_en-GB,5,,FHRS,5
175826,,,,,Jenny Wren Confections,Hospitals/Childcare/Caring Premises,5,5,,729958,5,,,86749,889,environmental.protection@halton.gov.uk,Halton,http://www.halton.gov.uk,,,2015-01-13,fhrs_5_en-GB,5,,FHRS,5
175827,Padstow Square,Runcorn,Cheshire,,Jesani Stores,Retailers - other,4613,10,,119526,5,,53.31952300000000,48696,889,environmental.protection@halton.gov.uk,Halton,http://www.halton.gov.uk,-2.68438200000000,WA7 6AF,2014-07-07,fhrs_4_en-GB,4,,FHRS,5
175828,Moss Road,Runcorn,Cheshire,,Jiggy Childcare,Hospitals/Childcare/Caring Premises,5,0,,693197,0,,53.35779800000000,86061,889,environmental.protection@halton.gov.uk,Halton,http://www.halton.gov.uk,-2.63724500000000,WA4 6UU,2014-08-15,fhrs_5_en-GB,5,,FHRS,0
175829,St Mary's Community Centre,Alice Court,Widnes,,Jigsaw Link Club Childcare & Pre-school,Hospitals/Childcare/Caring Premises,5,0,,670230,0,,53.34892700000000,82454,889,environmental.protection@halton.gov.uk,Halton,http://www.halton.gov.uk,-2.73259300000000,WA8 0DN,2014-06-10,fhrs_4_en-GB,4,,FHRS,10
175830,Unit D Trident Retail Park,Halton Lea,Runcorn,,JJB Sports,Retailers - other,4613,,,491953,,,53.32619200000000,50407,889,environmental.protection@halton.gov.uk,Halton,http://www.halton.gov.uk,-2.69998300000000,WA7 2FQ,2010-08-20,fhrs_exempt_en-GB,Exempt,,FHRS,
175831,Trading: Lunts Heath Road,Widnes,Cheshire,,Jo's Hot Food,Mobile caterer,7846,5,,131330,5,,53.38618400000000,62765,889,environmental.protection@halton.gov.uk,Halton,http://www.halton.gov.uk,-2.71958100000000,WA8 5SQ,2014-03-06,fhrs_4_en-GB,4,,FHRS,10
175832,,,,,Judiths Catering & Sweet Candy Cart,Other catering premises,7841,0,,123456,0,,,51897,889,environmental.protection@halton.gov.uk,Halton,http://www.halton.gov.uk,,,2014-07-23,fhrs_5_en-GB,5,,FHRS,5
175833,,,,,Julie Hickey Cake Emporium,Other catering premises,7841,5,,687295,0,,,86094,889,environmental.protection@halton.gov.uk,Halton,http://www.halton.gov.uk,,,2014-07-04,fhrs_5_en-GB,5,,FHRS,0
175834,,,,,Julies Kitchen,Other catering premises,7841,5,,715433,10,,,86610,889,environmental.protection@halton.gov.uk,Halton,http://www.halton.gov.uk,,,2014-11-06,fhrs_4_en-GB,4,,FHRS,0
175835,,,,,Just Jaynes Cakes,Other catering premises,7841,10,,141838,5,,,78322,889,environmental.protection@halton.gov.uk,Halton,http://www.halton.gov.uk,,,2011-05-05,fhrs_4_en-GB,4,,FHRS,5
175836,42 Church Street,Runcorn,Cheshire,,K Lee Supper Bar,Takeaway/sandwich shop,7844,10,,91355,10,,53.34257300000000,25200,889,environmental.protection@halton.gov.uk,Halton,http://www.halton.gov.uk,-2.73246900000000,WA7 1LR,2014-10-27,fhrs_3_en-GB,3,,FHRS,10
175837,,,,,Karens Creations,Retailers - other,4613,5,,138816,0,,,74127,889,environmental.protection@halton.gov.uk,Halton,http://www.halton.gov.uk,,,2014-01-28,fhrs_5_en-GB,5,,FHRS,0
175838,Astmoor Road,Runcorn,Cheshire,,Kawneer (UK) Canteen,Restaurant/Cafe/Canteen,1,5,,124083,10,,53.34598100000000,52573,889,environmental.protection@halton.gov.uk,Halton,http://www.halton.gov.uk,-2.69770900000000,WA7 1PQ,2014-10-28,fhrs_4_en-GB,4,,FHRS,0
175839,45 St Ambrose Road,Widnes,Cheshire,,Kay's Cakes,Other catering premises,7841,0,,511430,5,,53.37120000000000,80346,889,environmental.protection@halton.gov.uk,Halton,http://www.halton.gov.uk,-2.71645800000000,WA8 0AJ,2013-02-27,fhrs_4_en-GB,4,,FHRS,10
175840,,,,,KC Party Designs,Other catering premises,7841,5,,492026,0,,,74611,889,environmental.protection@halton.gov.uk,Halton,http://www.halton.gov.uk,,,2013-10-30,fhrs_5_en-GB,5,,FHRS,0
175841,65 Victoria Road,Widnes,Cheshire,,Kellys Bar,Pub/bar/nightclub,7843,0,,89068,10,,53.36010000000000,23669,889,environmental.protection@halton.gov.uk,Halton,http://www.halton.gov.uk,-2.73552000000000,WA8 7RP,2013-12-18,fhrs_4_en-GB,4,,FHRS,10
175842,Hospital Way,Hallwood Road,"Runcorn, Cheshire",,Kentucky Fried Chicken,Restaurant/Cafe/Canteen,1,10,,129115,5,,53.32142400000000,59554,889,environmental.protection@halton.gov.uk,Halton,http://www.halton.gov.uk,-2.69762300000000,WA7 2HQ,2013-09-11,fhrs_2_en-GB,2,,FHRS,15
175843,Lugsdale Road,Widnes,Cheshire,,Kentucky Fried Chicken,Restaurant/Cafe/Canteen,1,0,,123352,5,,53.36268400000000,51807,889,environmental.protection@halton.gov.uk,Halton,http://www.halton.gov.uk,-2.72745000000000,WA8 6DD,2013-12-17,fhrs_5_en-GB,5,,FHRS,5
