,businessname,ratingvalue,structural,hygiene,confidenceinmanagement,ratingdate,latitude,longitude
175451,99p Stores,1,10,15,20,2014-08-06,53.368523,-2.726707
175452,A & D News,3,5,10,10,2014-02-24,53.368415,-2.739916
175453,A&I News and Wine,5,5,5,5,2013-01-10,53.370997,-2.723413
175454,AAK Staff Canteen,5,5,5,5,2013-11-07,53.325106,-2.709169
175455,ABB - Staff Canteen,5,5,0,0,2015-01-12,53.33048,-2.645877
175456,Abbey Kitchen (Mobile Food Unit),5,0,5,5,2014-05-21,,
175457,Abbeyfield Society,5,0,5,5,2012-04-25,53.387251,-2.733266
175458,Acorn Day Nursery - Main Kitchen,5,5,0,0,2014-05-06,53.339383,-2.693065
175459,Acorn Day Nursery - Snack Kitchen,3,5,10,10,2014-05-06,53.339383,-2.693065
175460,Aegon House Deli,5,5,5,0,2014-12-08,53.328537,-2.644361
175461,Al Amin,AwaitingInspection,nan,nan,nan,,53.342178,-2.735166
175462,Aladdin,5,5,5,5,2014-04-02,53.3601,-2.73552
175463,Albert Grill,4,10,5,5,2013-10-30,53.368523,-2.726707
175464,Albion Hotel,5,5,5,5,2014-11-13,53.370365,-2.741333
175465,Aldi,5,0,5,0,2013-10-25,53.36586,-2.722574
175466,Aldi,5,0,5,0,2013-12-05,53.326192,-2.699983
175467,All Saints Open door drop in,5,5,0,0,2012-01-24,53.332311,-2.739111
175468,All Saints Upton Primary School,5,0,0,0,2014-01-21,53.3792,-2.772679
175469,Anderson's Newsagents,Exempt,nan,nan,nan,2014-02-04,53.383288,-2.727245
175470,Andrea Gaspierikova,4,5,0,10,2012-02-08,,
175471,Angelo Esposito  J310 DJV,4,5,5,10,2014-05-29,,
175472,Angelo Esposito Ice Cream R515 MPR,4,5,5,10,2014-05-29,,
175473,Angies Munch Box,4,10,0,5,2014-07-02,53.308682,-2.702953
175474,Antro's Chippy,5,5,0,0,2014-07-25,53.371139,-2.73096
175475,Appleton Under Fives Community Pre-School,5,5,5,5,2012-03-23,53.367346,-2.729573
175476,Argos,Exempt,nan,nan,nan,2004-03-16,53.368523,-2.726707
175477,Arriva North Western - Staff Canteen,4,10,5,5,2013-05-23,53.321394,-2.714782
175478,Ascot Stores,5,5,5,5,2012-01-30,53.321057,-2.722943
175479,Asda,5,5,0,0,2013-12-12,53.363424,-2.731369
175480,Asda Stores Ltd,5,5,5,5,2014-09-11,53.329178,-2.701248
175481,Ashley School,5,5,0,5,2014-03-24,53.370575,-2.753781
175482,Astmoor  Primary School,5,5,0,0,2014-03-19,53.339383,-2.693065
175483,Atos Staff Canteen,4,5,10,5,2013-10-24,52.6785163879,1.25958704948
175484,Avondale Village Stores Ltd,3,10,10,5,2013-10-16,53.371208,-2.768702
175485,B & M,5,5,0,0,2013-08-12,53.368385,-2.725623
175486,B & M Retail Ltd,5,5,0,5,2014-06-24,53.328328,-2.697541
175487,B&M Homeware,5,5,0,5,2012-09-19,53.363832,-2.722089
175488,Ball Hotel,5,5,0,0,2014-10-29,53.371413,-2.752052
175489,Bankfield Residential Home,2,0,15,10,2014-08-18,53.371413,-2.764723
175490,Bargain Booze,Exempt,nan,nan,nan,2014-06-11,53.328669,-2.717351
175491,Bargain Booze,Exempt,nan,nan,nan,2014-07-14,53.362035,-2.765126
175492,Bargain Booze,Exempt,nan,nan,nan,2013-08-16,53.369659,-2.724668
175493,Bargain Booze,5,5,5,5,2013-02-06,53.342052,-2.730823
175494,Barley Mow,5,5,5,5,2014-09-17,53.342768,-2.73429
175495,Bechers Post Office,3,10,5,10,2014-01-24,53.377954,-2.77213
175496,Beechcroft Care Home - HC-One,5,5,0,0,2014-03-27,53.321238,-2.687862
175497,Beechwood Community Interest company,3,10,10,5,2014-12-09,53.314839,-2.699977
175498,Beechwood Deli,5,5,5,5,2013-12-04,53.317378,-2.706939
175499,Beechwood Early Years Group,5,5,5,5,2014-03-27,53.317378,-2.706939
175500,Beechwood link club,5,0,0,5,2014-10-01,53.317378,-2.706939
175501,Beechwood Primary School,5,0,0,0,2014-07-09,53.317378,-2.706939
175502,Beehive Inn,2,15,10,10,2013-12-11,53.352264,-2.785878
175503,Beer Bellies,Exempt,nan,nan,nan,2014-10-21,53.367644,-2.769434
175504,Bella's,3,10,10,10,2013-10-23,53.368924,-2.701706
175505,Bengal Spice,3,10,10,10,2014-03-20,53.363167,-2.730809
175506,Best One,3,10,5,10,2012-12-18,53.368415,-2.739916
175507,Best One,4,10,5,0,2014-09-29,53.366044,-2.758164
175508,Best One,2,15,10,10,2014-06-23,53.332623,-2.706951
175509,Bethesda Church,4,0,0,10,2014-06-25,53.321238,-2.687862
175510,Betsy Likes Cake,5,5,0,0,2012-07-06,,
175511,Betta Snax,5,5,5,5,2014-02-17,53.337794,-2.736277
175512,Big Bear Coffee - Cheshire and Merseyside Treatment Centre,4,0,10,10,2014-01-06,53.323266,-2.694606
175513,Birchfield Nursery School,5,0,0,5,2013-12-18,53.37763,-2.735175
175514,Birchfield Park Sports& Social Club,4,10,5,5,2012-08-22,53.387234,-2.737536
175515,Bistro Buffets Home Catering,5,5,0,5,2013-07-30,,
175516,Black Horse Post Office,4,10,5,5,2013-01-16,53.389654,-2.740119
175517,BLT's,5,5,5,0,2014-07-29,53.326242,-2.756617
175518,Blundell Arms,1,15,5,20,2013-11-18,53.366192,-2.760346
175519,Bon Appetit,3,10,10,10,2014-07-14,53.342178,-2.735166
175520,Bondi BBQ,5,0,5,5,2014-05-16,,
175521,Booths Of Ditton Limited,5,5,0,0,2013-12-18,53.3632,-2.762983
175522,Boots,Exempt,nan,nan,nan,2002-03-25,53.341748,-2.730683
175523,Boots,5,5,0,0,2013-06-17,53.366568,-2.725938
175524,Boots Chemist Ltd,Exempt,nan,nan,nan,2004-01-08,53.326972,-2.69881
175525,Boots The Chemist,Exempt,nan,nan,nan,2003-06-18,53.325545,-2.696865
175526,Booze Busters,4,10,5,5,2013-10-09,53.342573,-2.732469
175527,Booze N Food,0,20,15,30,2014-06-03,53.371437,-2.753976
175528,Bpi Widnes Films - Staff Canteen,5,5,5,0,2014-08-13,53.368556,-2.716699
175529,Brakes (Canteen),5,5,5,5,2014-08-13,53.312534,-2.663047
175530,Bredon Respite,4,0,10,10,2013-08-14,53.320758,-2.68844
175531,Bridge View,AwaitingInspection,nan,nan,nan,,53.341063,-2.736694
175532,Bridgewater Motor Boat Club,3,5,10,10,2014-05-29,53.339906,-2.726131
175533,Bristol Street Motors,5,0,5,5,2013-01-16,53.361029,-2.739457
175534,British Home Stores Cafe,5,0,5,0,2014-01-15,53.366568,-2.725938
175535,Brookfield Garden Centre,4,10,0,0,2014-07-17,53.333783,-2.739482
175536,Brookfields School,5,0,0,0,2014-07-04,53.37602,-2.708737
175537,Brookvale Childrens Centre,4,0,0,10,2014-06-11,53.318116,-2.682078
175538,Brookvale Primary School,5,5,0,0,2014-05-02,53.317497,-2.680251
175539,Brookvale Primary School Nursery,4,10,5,5,2012-07-10,53.317497,-2.680251
175540,Brunswick House Breakfast Club,4,0,10,10,2014-12-11,53.343252,-2.733082
175541,Busy Bees Pre-School,5,5,5,0,2013-05-08,53.338483,-2.735403
175542,Buttilicious,5,5,5,5,2015-01-06,53.371152,-2.77318
175543,BYK Staff Canteen,4,10,5,5,2013-10-30,53.372424,-2.746566
175544,Cafe Express Shop,5,5,5,5,2014-05-13,53.338602,-2.739295
175545,Cafe Funny Onion,4,0,10,5,2014-05-22,53.2141265869,-2.55155992508
175546,Cafe Sabor/ Tapas/ Sabor,AwaitingInspection,nan,nan,nan,,53.342768,-2.73429
175547,Cafe Stobart,5,5,5,5,2014-03-26,53.35602,-2.744013
175548,Cake Creations,5,5,0,0,2012-05-01,,
175549,Cake Designs by Helen,5,0,0,5,2013-02-26,,
175550,Cake Escape Ltd.,5,5,0,0,2014-07-30,53.332679,-2.700495
175551,Cake Pops by Jo,4,0,5,10,2014-07-11,,
175552,Cakeaway,5,0,0,0,2012-06-08,,
175553,Cakepod (Home Caterer),5,0,5,5,2014-05-07,,
175554,Cakes By Kerry,5,5,5,0,2013-01-22,53.370997,-2.723413
175555,Cam Lee,4,5,10,5,2014-12-16,53.377654,-2.708945
175556,Campanile Hotel,4,10,10,0,2013-08-14,53.339315,-2.737445
175557,Canal Walk,0,20,15,20,2013-05-25,53.339986,-2.715859
175558,Candy Floss,4,5,5,10,2013-02-06,53.334291,-2.731531
175559,Card Factory,Exempt,nan,nan,nan,2012-04-02,53.327711,-2.698507
175560,Card Factory,Exempt,nan,nan,nan,2012-04-02,53.368385,-2.725623
175561,Carl Mealor Ice Cream Vehicle Registration X629 DPN,5,0,0,5,2014-04-14,,
175562,Carole Gilbert Ice Cream R967 JOJ,5,0,0,5,2014-12-16,,
175563,Cartref,5,5,0,0,2014-12-11,53.381052,-2.726921
175564,Cassandra's,5,5,5,5,2014-03-12,53.368523,-2.726707
175565,Castle,4,10,0,10,2012-12-20,53.373038,-2.7098
175566,Castle Hotel,3,10,10,10,2013-07-30,53.331884,-2.695121
175567,Castle View Nursery,5,5,5,5,2012-10-10,53.2141265869,-2.55155992508
175568,Castle View Primary School,5,0,0,5,2014-12-04,53.2141265869,-2.55155992508
175569,Castlefields Community Centre,4,5,10,5,2013-10-15,53.338388,-2.691022
175570,Catalyst  Museum Cafe,5,5,5,5,2014-06-06,53.351815,-2.733709
175571,Catch Cafe,2,5,15,10,2014-11-21,53.351236,-2.734165
175572,Catering 4 U,5,0,0,5,2014-11-19,,
175573,Cathedral Catering,4,5,10,5,2013-11-06,,
175574,Cavanaghs (Home Catering - Cakes),5,0,0,5,2013-12-17,,
175575,Cavendish High School,5,0,0,5,2013-11-06,53.319591,-2.720216
175576,Celebration Cakes,5,5,0,5,2013-11-11,,
175577,Chambers,5,5,5,5,2015-01-19,53.342052,-2.730823
175578,Champions Pizza,5,5,5,5,2014-03-06,53.363167,-2.730809
175579,Chandlers Cakes,5,0,5,0,2014-04-04,,
175580,Cheshire Bakehouse and Tea Rooms,1,15,15,20,2014-08-07,53.333133,-2.740011
175581,Chestnut Lodge Off Licence,Exempt,nan,nan,nan,2013-02-13,53.371437,-2.753976
175582,Chestnut Lodge School,5,5,0,0,2015-02-04,53.370504,-2.752187
175583,Chestnut Lodge Supper Bar,3,10,10,10,2014-07-03,53.371437,-2.753976
175584,Chi Nar Garden,2,15,10,10,2013-11-11,53.349955,-2.774794
175585,Chicago Pizza,2,15,10,10,2014-03-26,53.3414,-2.736084
175586,Childe Of Hale,5,5,0,5,2014-06-25,53.334134,-2.797964
175587,China X'press,4,0,10,10,2013-11-19,53.342768,-2.73429
175588,Chinese Open Kitchen,3,10,10,5,2014-01-13,53.341179,-2.734037
175589,Choc Chops,5,5,5,5,2013-06-11,,
175590,Chris's Fast Food,5,5,5,5,2015-02-05,53.367402,-2.726192
175591,Christ Church Hall Luncheon Club,5,5,5,5,2014-10-29,53.326751,-2.754329
175592,Chuckies,3,10,10,5,2014-11-26,53.361451,-2.733619
175593,Church End Farm Guest House,5,0,5,0,2013-02-21,53.334134,-2.797964
175594,Churchview,4,10,5,5,2014-02-10,53.372424,-2.746566
175595,Chutney Blue,3,10,10,10,2014-01-09,53.363424,-2.731369
175596,Cineworld Multiplex Cinema,5,5,5,5,2013-08-29,53.326192,-2.699983
175597,Cinnamon Coffee and Deli Bar,5,5,0,5,2013-10-16,53.378676,-2.707924
175598,Clarendon Hotel,5,5,0,0,2014-03-28,53.342567,-2.734797
175599,Claymoore Narrowboats Ltd,Exempt,nan,nan,nan,2005-03-07,53.323216,-2.650962
175600,Club 2000 Bingo,5,0,5,5,2014-01-29,53.3261909485,-2.69998311996
175601,Coffee 2 Go,2,15,5,10,2013-01-08,53.378862,-2.733708
175602,Coffee 500,5,5,5,5,2014-05-02,53.359888,-2.763585
175603,Coffee Camper (trading at Halton Lea Sunday Car Boot),4,10,5,5,2014-06-01,,
175604,Coffee Van,4,10,5,5,2014-08-18,54.0804214478,-2.75412011147
175605,Cohens Chemist,Exempt,nan,nan,nan,2004-03-08,53.371437,-2.753976
175606,Coles Sandwich Bar,4,0,10,5,2013-03-27,53.364379,-2.73101
175607,Community Integrated Care Ltd,5,0,0,0,2014-05-12,53.320073,-2.739905
175608,Cook's Chemist,Exempt,nan,nan,nan,2005-03-30,53.369659,-2.724668
175609,Co-op,5,5,5,0,2014-09-29,53.381052,-2.726921
175610,Co-op,4,5,10,0,2013-02-22,53.370359,-2.759413
175611,Co-op,3,10,10,5,2013-07-25,53.371418,-2.772298
175612,Co-op,5,5,5,0,2013-05-10,53.339513,-2.712246
175613,Co-op,4,5,10,5,2014-08-29,53.335908,-2.737521
175614,Co-op,5,5,0,0,2013-02-22,53.328669,-2.717351
175615,Co-op,5,5,0,0,2014-01-20,53.372424,-2.746566
175616,Co-op,5,5,5,0,2013-02-22,53.323651,-2.664931
175617,Co-op,2,15,5,5,2014-03-11,53.339892,-2.670095
175618,Co-op Pharmacy,Exempt,nan,nan,nan,,53.328669,-2.717351
175619,Co-op Pharmacy,Exempt,nan,nan,nan,2011-02-14,53.373165,-2.723014
175620,Co-operative,5,5,0,0,2014-08-29,53.342567,-2.734797
175621,Coral Racing,Exempt,nan,nan,nan,2002-06-05,53.368473,-2.726045
175622,Coral Racing Ltd,Exempt,nan,nan,nan,,53.32877,-2.719995
175623,Corky's Cakes,5,5,0,0,2013-02-22,,
175624,Corner House,5,5,0,0,2012-03-08,53.361342,-2.730853
175625,Cost Cutter,3,10,10,10,2013-02-25,53.336433,-2.698018
175626,Costa Coffee,5,5,0,0,2013-12-12,53.366568,-2.725938
175627,Craigs Quality Meat Wagon  DK03 CXD,0,10,25,30,2014-10-24,,
175628,Craigs Quality Meat Wagon  Y307 OCT,3,5,10,10,2012-07-10,,
175629,Cricketers Arms,4,5,10,5,2012-08-22,53.36428,-2.738432
175630,Croftwood,5,5,5,0,2014-02-27,53.324911,-2.70834
175631,Cronton Fish Bar 2,4,5,10,5,2014-04-15,53.389654,-2.740119
175632,Cronton Lane Bakery,4,5,10,5,2013-12-04,53.389654,-2.740119
175633,Crown Inn,4,5,10,5,2013-01-09,53.375441,-2.733154
175634,Crows Nest,4,10,5,5,2013-03-24,53.378593,-2.709787
175635,Curry King,5,5,5,5,2013-06-13,53.372854,-2.713479
175636,Cygnets of Moore (Out of School Club),4,0,10,10,2012-01-19,53.33376,-2.676741
175637,D and S Fisheries,AwaitingInspection,nan,nan,nan,,,
175638,Daisy Maisies Day Nursery,5,0,5,0,2014-02-13,53.371139,-2.73096
175639,Daniel Esposito   V323 KOA,4,10,0,0,2012-05-17,,
175640,Daniel Esposito E48 FTW,4,10,0,5,2012-06-08,,
175641,Daniel Esposito Ice Cream R348 YKU,4,10,0,0,2012-05-17,,
175642,Daniel Esposito Ice Cream W84 YOA,5,0,5,0,2014-05-29,,
175643,Daniel Esposito S697 OCU,4,10,0,0,2013-07-06,,
175644,Daniel Olivia Catering Ltd (Sweet & Savoury Crepes),5,5,5,5,2014-10-28,,
175645,Daresbury Dairy Ice Cream,5,5,5,5,2014-05-14,53.325906,-2.609655
175646,Daresbury Fruit Farm,AwaitingInspection,nan,nan,nan,,53.330888,-2.624816
175647,Daresbury Laboratory Restaurant and Waterside Cafe,5,5,0,0,2014-06-09,53.343413,-2.641221
175648,Daresbury Park Hotel,3,10,10,10,2013-08-13,53.33087,-2.643421
175649,Daresbury Primary School,5,5,5,0,2014-06-10,53.339353,-2.633906
175650,Dave Pluck,Exempt,nan,nan,nan,2002-09-17,53.371238,-2.722139
175651,Dave Pluck Racing,Exempt,nan,nan,nan,2002-09-13,53.367128,-2.729915
175652,David Stearne Delivery Pharmacy,Exempt,nan,nan,nan,2011-01-28,53.341921,-2.715351
175653,David Stearne Pharmacy,Exempt,nan,nan,nan,2008-12-17,53.333279,-2.708494
175654,David Stearne Pharmacy,Exempt,nan,nan,nan,2011-03-08,53.339892,-2.670095
175655,Dee Dee's,2,15,10,10,2014-02-26,53.368297,-2.731287
175656,Desii Indian Restaurant,3,10,10,10,2014-04-03,53.361342,-2.730853
175657,Devonshire Bakery,4,5,10,5,2014-10-13,53.342231,-2.732553
175658,DHL for NHS supply chain (Canteen),4,5,10,5,2013-11-20,53.341899,-2.71912
175659,DHL Staff Canteen,5,5,5,5,2014-01-15,53.325106,-2.709169
175660,Diageo Packaging Restaurant,5,5,0,0,2014-12-02,53.314514,-2.655963
175661,Dinner Jacket,5,0,0,5,2014-04-28,,
175662,Discount UK,5,0,0,0,2013-08-20,53.3261909485,-2.69998311996
175663,Ditton Deli,5,5,5,5,2013-10-16,53.366973,-2.757685
175664,Ditton Early Years Centre - Snack Kitchens,5,5,5,0,2014-07-25,53.368029,-2.754157
175665,Ditton Nursery School -  Main Kitchen,5,0,0,0,2015-01-07,53.368029,-2.754157
175666,Ditton Pharmacy,Exempt,nan,nan,nan,2004-02-11,53.361621,-2.765238
175667,Ditton Primary School,5,5,0,5,2013-09-11,53.361029,-2.739457
175668,Dizzy Dragons,5,0,0,5,2014-09-08,53.326192,-2.699983
175669,Dockside Inn,5,5,5,5,2014-09-24,53.326788,-2.756912
175670,Doctors,5,0,0,0,2012-05-14,53.361274,-2.734593
175671,Dolphin Supper Bar,4,10,5,5,2013-06-06,53.339513,-2.712246
175672,Domino Pizza,5,5,5,0,2013-12-06,53.326192,-2.699983
175673,Domino's Pizza,5,5,5,5,2013-08-07,53.366535,-2.728417
175674,Dormouse Tea Rooms,5,0,0,5,2015-01-21,53.339265,-2.633605
175675,Dorset Gardens - Country Garden Catering,5,5,5,0,2013-12-02,53.32325,-2.689651
175676,Dotty Bakes (Home Catering),5,0,0,0,2013-10-15,,
175677,Double Dragon,2,15,15,10,2014-09-18,53.377986,-2.712122
175678,Dragon Buffet,3,10,10,10,2014-10-07,53.369659,-2.724668
175679,Dunkys,5,5,5,0,2014-06-16,53.368622,-2.714686
175680,Dunkys Day Nursery,5,5,5,5,2014-10-22,53.325478,-2.752295
175681,DW Sports Fitness,Exempt,nan,nan,nan,2014-02-11,53.37118,-2.721402
175682,Early Learners Nursery,5,0,0,0,2014-05-29,53.369782,-2.726518
175683,Eastern Chef,3,10,10,10,2013-09-25,53.342768,-2.73429
175684,Easy Eats Food Mobile,5,5,5,0,2014-11-17,,
175685,Edie Jayne Does Cake (Home Caterer),5,0,5,5,2014-04-24,,
175686,Eight Towers,4,5,10,5,2013-12-03,53.372304,-2.70618
175687,Elior UK Staff Restaurant,1,15,15,20,2014-08-19,53.35248,-2.746746
175688,Elite Icing,4,5,5,10,2013-11-29,,
175689,Empty Plates Catering Services Ltd,4,5,5,10,2013-07-22,53.365951,-2.752917
175690,E-Scape Eco-Trail and Cafe,5,0,5,0,2015-01-24,53.321411,-2.648908
175691,Evenwood Farm,5,5,5,5,2013-10-02,53.349226,-2.659801
175692,Everglades Park Hotel,1,15,10,20,2014-09-05,53.385401,-2.712186
175693,F J Restaurant,1,5,15,20,2014-02-26,53.3278007507,-2.69712662697
175694,Fairfield Fun Factory,5,0,0,0,2013-02-20,53.374176,-2.723858
175695,Fairfield Infant School,5,0,5,0,2014-04-24,53.374176,-2.723858
175696,Fairfield Junior School,5,0,0,0,2014-11-20,53.374176,-2.723858
175697,Fairview Farm Shop,3,10,10,10,2014-07-09,53.396271,-2.737001
175698,Family Kebab House,1,15,15,20,2014-09-23,53.341748,-2.730683
175699,Farm Bakery,3,5,10,10,2014-02-18,53.396271,-2.737001
175700,Farm Foods,4,10,0,0,2014-01-03,53.326972,-2.69881
175701,Farnworth CE Primary,5,0,5,5,2013-11-26,53.384596,-2.73092
175702,Farnworth Hornets ARLFC,3,10,5,10,2014-06-29,53.396271,-2.737001
175703,Farnworth Sports/Social Club,5,5,5,5,2014-02-17,53.380551,-2.724988
175704,Fast Food 2 U ltd.,5,5,5,5,2011-12-02,53.359046,-2.73146
175705,Ferndale Court And Mews Care Home - HC-One,5,5,5,0,2014-04-09,53.362444,-2.763119
175706,Ferraiolo Elaine MV06 VNE,5,0,0,5,2011-06-09,,
175707,Ferraiolo Frank B11 CES,5,5,5,5,2013-06-18,,
175708,Ferraiolo Frank Y587 OBF,5,5,5,5,2013-06-18,,
175709,Ferry Boat,5,5,5,0,2014-05-27,53.342573,-2.732469
175710,Festival Way Fish Bar,4,10,5,5,2013-12-11,53.330175,-2.718022
175711,Fiddlers Three,2,15,10,10,2014-06-16,53.3386764526,-2.69709396362
175712,Figtree Healthcare Ltd,Exempt,nan,nan,nan,2003-02-19,53.367644,-2.769434
175713,Fillin Station,4,5,10,5,2013-07-19,53.325106,-2.709169
175714,Five Star Catering,4,10,5,5,2013-07-31,53.359046,-2.73146
175715,Five Star Coffee Bar,5,0,5,5,2014-08-08,,
175716,Flower and Plant Works,Exempt,nan,nan,nan,2003-05-01,53.342567,-2.734797
175717,FM Caffe,4,5,10,5,2014-04-10,53.366906,-2.727957
175718,Food 4 U,5,5,5,0,2014-06-26,53.362035,-2.765126
175719,Food To Go (At Spar),5,0,5,0,2014-08-07,53.318522,-2.651296
175720,Ford Sports & Social Club,5,5,0,5,2013-10-31,53.389654,-2.740119
175721,Four Topped Oak,5,5,0,0,2014-05-09,53.378342,-2.760713
175722,Frankie & Benny's,5,5,0,5,2014-02-26,53.363832,-2.722089
175723,Frankies,5,5,5,0,2014-03-06,53.327526,-2.748352
175724,Frankies Sweetie Buffet,5,5,0,5,2013-05-15,53.359062,-2.739123
175725,Fresenius Kabi Ltd Staff Canteen,5,5,5,5,2014-10-23,53.353707,-2.657331
175726,Fresh Catering Co at Sigmatex,5,5,5,5,2014-10-23,53.348399,-2.664715
175727,Funky Little Fancies,5,0,0,0,2014-03-31,53.338483,-2.735403
175728,Funky Monkeys,4,10,5,5,2014-09-24,53.377986,-2.712122
175729,Gails Baps,5,0,5,5,2013-07-19,53.348754,-2.671184
175730,Gala Bingo,5,5,5,5,2014-08-18,53.366568,-2.725938
175731,Gentlemen of Moore RUFC,5,0,5,0,2013-03-08,53.357798,-2.637245
175732,Gino Ferraiolo Ice Cream EU06 GDK,2,15,10,10,2014-06-25,53.372424,-2.746566
175733,Gino Ferraiolo Ice Cream J68 HDM,4,10,5,5,2014-06-25,53.372424,-2.746566
175734,Gino Ferraiolo Ice Cream YY52 HKC,2,15,10,5,2014-06-25,53.372424,-2.746566
175735,Glenwood,4,5,5,10,2014-03-28,53.371001,-2.757516
175736,Golden Bridge,3,10,10,10,2014-01-08,53.348983,-2.735133
175737,Golden Dragon,AwaitingInspection,nan,nan,nan,,53.3699,-2.718916
175738,Golden Flower Takeaway,3,10,10,10,2014-06-18,53.366044,-2.758164
175739,Golden River,4,5,10,5,2014-02-04,53.334179,-2.729247
175740,Goodfillers,4,5,5,10,2014-01-15,53.358515,-2.751921
175741,Goodys,4,0,10,10,2014-01-21,53.366535,-2.728417
175742,Gorsewood Pre-School,4,10,5,0,2012-03-20,53.324202,-2.662808
175743,Gorsewood Primary School,5,0,0,0,2014-10-15,53.324202,-2.662808
175744,Granbys Butcher,4,10,5,5,2013-11-04,53.368554,-2.724499
175745,Grange Link Club,AwaitingInspection,nan,nan,nan,,,
175746,Grangeside Filling Station,Exempt,nan,nan,nan,2010-02-16,53.319479,-2.73997
175747,Grapes,5,0,0,0,2014-03-28,53.364123,-2.730374
175748,Grapes Inn,5,5,0,5,2014-10-08,53.340252,-2.719438
175749,Greenhalghs Craft Bakery,5,5,5,5,2014-03-21,53.368473,-2.726045
175750,Greggs,5,0,0,0,2014-03-27,53.367535,-2.72648
175751,Greggs,5,5,0,0,2014-03-18,53.342573,-2.732469
175752,Greggs,5,5,0,0,2014-03-19,53.327711,-2.698507
175753,Hale Ce Controlled Primary School,5,0,5,0,2013-12-09,53.337141,-2.795977
175754,Hale News,5,0,0,0,2013-02-06,53.336242,-2.798679
175755,Hale P O & Store,5,0,0,0,2013-11-18,53.335457,-2.800436
175756,Halebank CE Primary School,5,5,5,0,2014-05-06,53.351884,-2.772515
175757,Halebank Pre-School,4,0,10,10,2014-12-18,53.350511,-2.777643
175758,Halfway House Inn,2,15,10,10,2014-06-16,53.3394,-2.711569
175759,Hallmark,Exempt,nan,nan,nan,2002-09-25,53.368473,-2.726045
175760,Hallmark,Exempt,nan,nan,nan,2011-01-24,53.342573,-2.732469
175761,Hallwood Park School,5,0,0,0,2013-11-29,53.321646,-2.701185
175762,Halton Arms,5,5,5,5,2014-02-08,53.317141,-2.67175
175763,Halton BC Recreation Club,5,5,5,0,2013-04-11,53.368029,-2.754157
175764,Halton Brook Children's Centre,5,0,0,5,2013-08-13,53.332583,-2.710659
175765,Halton Brook Community Centre,5,5,5,5,2015-01-23,53.333279,-2.708494
175766,Halton Haven,5,5,0,0,2013-09-10,53.320256,-2.670838
175767,Halton Hospital - Catering Department.,5,5,0,5,2014-09-17,53.323266,-2.694606
175768,Halton Lodge and Grange Pre-School,5,0,0,5,2014-06-11,53.324911,-2.70834
175769,Halton Lodge Chidren's Centre - Creche,5,0,0,5,2013-03-15,53.2141265869,-2.55155992508
175770,Halton Lodge Childrens Centre,5,5,0,0,2014-10-08,53.2141265869,-2.55155992508
175771,Halton Lodge Primary School,5,5,5,0,2014-10-22,53.2141265869,-2.55155992508
175772,Halton Lodge Supper Bar,0,15,20,20,2014-10-28,53.324911,-2.70834
175773,Halton Newsagents,4,10,5,5,2014-12-02,53.36402,-2.738352
175774,Halton View Care Home,5,5,5,0,2014-08-18,53.371126,-2.719928
175775,Halty's Den Day Nursery,5,5,5,0,2013-09-17,53.317929,-2.688034
175776,Hammer And Pincers,2,15,15,10,2014-10-07,53.37246,-2.775157
175777,Hankins Old Fashioned Sweets,5,0,5,5,2014-02-12,53.368554,-2.724499
175778,Hard Hat Catering,2,15,5,10,2014-10-09,53.324993,-2.755064
175779,Harefield Cottage Water Garden,Exempt,nan,nan,nan,,53.401724,-2.741818
175780,Harrys Fish Bar,4,5,10,5,2014-08-28,53.367563,-2.769358
175781,Harry's Fish Bar,2,10,15,5,2014-09-12,53.349955,-2.774794
175782,Heath Methodist Church,5,5,5,5,2014-03-25,53.330735,-2.730885
175783,Heathside Nursery,5,0,0,0,2014-02-25,53.324382,-2.739214
175784,Henrys Takeaway,5,0,5,5,2014-09-02,53.371238,-2.722139
175785,Heron Foods Ltd.,5,0,0,0,2014-10-10,53.32877,-2.719995
175786,Highfield Nursery,5,5,5,5,2014-12-04,53.371181,-2.740295
175787,Hill View Primary School,5,5,5,0,2013-12-06,53.314839,-2.699977
175788,Hillcrest Hotel,2,15,10,10,2014-03-31,53.390052,-2.741194
175789,Hillcrest Supper Bar,0,15,20,30,2014-08-26,53.333279,-2.708494
175790,Hillview Link Club,5,5,5,5,2013-05-28,53.314839,-2.699977
175791,Hillview Under 5's,5,0,5,0,2013-09-24,53.314839,-2.699977
175792,Holiday Inn,3,10,5,10,2014-11-06,53.311638,-2.694102
175793,Holland & Barrett,5,5,5,5,2013-01-30,53.368385,-2.725623
175794,Holland & Barrett,5,0,0,0,2014-01-03,53.3271942139,-2.69791269302
175795,Holly's Little Bakery,5,5,5,5,2012-10-02,,
175796,Hollywood Pizza,3,10,10,10,2014-09-11,53.370997,-2.723413
175797,Holy Spirit Pre-School,5,0,5,0,2014-12-08,53.2141265869,-2.55155992508
175798,Holy Spirit RC Primary School,5,0,0,0,2014-12-08,53.2141265869,-2.55155992508
175799,Holy Trinity Drop In Centre,5,0,0,0,2012-01-24,53.325106,-2.709169
175800,Home Bargains,5,0,0,0,2014-01-09,53.327709198,-2.6985065937
175801,Home Bargains,5,5,0,0,2014-10-23,53.3261909485,-2.69998311996
175802,Home Brew 42,4,10,5,5,2013-09-24,53.342258,-2.735438
175803,Home Retail Group - Staff Canteen,3,10,10,10,2015-01-16,53.367563,-2.769358
175804,Homebase Limited,Exempt,nan,nan,nan,2009-04-22,53.339251,-2.731751
175805,Hope Corner,4,0,5,10,2013-04-05,53.321255,-2.721415
175806,Horse and Jockey Inn,5,0,0,0,2012-06-12,53.372945,-2.7326
175807,Hot Stuff Devilish Snacks,4,5,10,5,2014-02-18,,
175808,Hot Stuff Sandwich Bar,4,10,5,5,2013-09-23,53.373165,-2.723014
175809,Hough Green Post Office,3,10,10,10,2014-03-18,53.368601,-2.776996
175810,Hough Green Recreation Club,4,10,5,5,2012-05-04,53.368601,-2.776996
175811,Hough Green Social Club,3,10,5,10,2013-01-08,53.370915,-2.775114
175812,Howdens Kitchens staff canteen,5,5,5,5,2013-08-09,53.345981,-2.697709
175813,hp Staff Cafe.,4,10,5,5,2013-10-10,53.33087,-2.643421
175814,Ian Gilbert Ice Cream T84 SVL,5,0,0,5,2014-12-16,,
175815,Iceland Frozen Foods,5,5,0,0,2014-01-09,53.327193,-2.697913
175816,Iceland Frozen Foods,5,0,5,0,2012-12-12,53.342298,-2.733321
175817,Iceland Frozen Foods Plc,4,0,10,5,2014-02-26,53.368523,-2.726707
175818,Il Cappucio,4,10,10,0,2013-10-30,53.369809,-2.725031
175819,Inglefield,5,0,0,0,2014-02-26,53.3386764526,-2.69709396362
175820,Its a Kinda Magic Cafe,5,5,5,0,2014-07-22,53.35914,-2.7482
175821,J J Robinson,4,5,10,5,2013-08-21,53.327128,-2.754411
175822,J J's General Store,3,10,5,10,2012-12-07,53.367128,-2.729915
175823,Jacky Chen,1,15,15,20,2014-05-28,53.343014,-2.741023
175824,JD Wetherspoons,5,5,5,0,2013-08-29,53.371238,-2.722139
175825,Jelly Beans Play Centre Ltd,5,5,5,5,2014-02-02,53.364105,-2.718427
175826,Jenny Wren Confections,5,5,5,5,2015-01-13,,
175827,Jesani Stores,4,5,5,10,2014-07-07,53.319523,-2.684382
175828,Jiggy Childcare,5,0,0,0,2014-08-15,53.357798,-2.637245
175829,Jigsaw Link Club Childcare & Pre-school,4,10,0,0,2014-06-10,53.348927,-2.732593
175830,JJB Sports,Exempt,nan,nan,nan,2010-08-20,53.326192,-2.699983
175831,Jo's Hot Food,4,10,5,5,2014-03-06,53.386184,-2.719581
175832,Judiths Catering & Sweet Candy Cart,5,5,0,0,2014-07-23,,
175833,Julie Hickey Cake Emporium,5,0,0,5,2014-07-04,,
175834,Julies Kitchen,4,0,10,5,2014-11-06,,
175835,Just Jaynes Cakes,4,5,5,10,2011-05-05,,
175836,K Lee Supper Bar,3,10,10,10,2014-10-27,53.342573,-2.732469
175837,Karens Creations,5,0,0,5,2014-01-28,,
175838,Kawneer (UK) Canteen,4,0,10,5,2014-10-28,53.345981,-2.697709
175839,Kay's Cakes,4,10,5,0,2013-02-27,53.3712,-2.716458
175840,KC Party Designs,5,0,0,5,2013-10-30,,
175841,Kellys Bar,4,10,10,0,2013-12-18,53.3601,-2.73552
175842,Kentucky Fried Chicken,2,15,5,10,2013-09-11,53.321424,-2.697623
175843,Kentucky Fried Chicken,5,5,5,0,2013-12-17,53.362684,-2.72745
175844,Kerry's Kitchen (Mobile Food Unit),5,5,5,5,2014-01-24,,
175845,KI Nutrition,4,5,5,10,2013-10-23,53.338483,-2.735403
175846,Kids Planet Day Nursery,5,0,0,0,2014-03-12,53.362181,-2.733347
175847,Kings,5,5,5,5,2014-02-21,53.381113,-2.728726
175848,Kingsway Hotel,5,0,0,0,2013-10-30,53.361451,-2.733619
175849,Kingsway House Staff Canteen,5,5,5,5,2014-12-03,53.362291,-2.734415
175850,Kingsway Leisure Centre,Exempt,nan,nan,nan,2007-01-23,53.364291,-2.732286
175851,Kinnen Confectionery,5,5,5,5,2014-08-29,53.368554,-2.724499
175852,Kirkhams Farm Shop,5,5,5,5,2014-02-24,53.324856,-2.679318
175853,Kirsty's Sandwich Bar,4,10,5,5,2014-10-16,53.372631,-2.714678
175854,Kirwin Bread & Cakes Stall,4,5,5,10,2014-02-14,,
175855,KK Food and Wine,3,10,10,10,2013-11-15,53.332217,-2.748434
175856,KPT Food and Wine,3,5,10,10,2013-05-29,53.334179,-2.729247
175857,L Rowland & Co (Retail) Ltd,Exempt,nan,nan,nan,2002-04-10,53.382081,-2.726232
175858,Ladbrokes,Exempt,nan,nan,nan,,53.367644,-2.769434
175859,Ladybirds Nursery,5,5,5,5,2014-05-22,53.328857,-2.714441
175860,Langdale News,3,5,10,10,2013-04-18,53.334179,-2.729247
175861,Leahurst Residential Home,4,5,10,5,2014-10-22,53.365679,-2.773005
175862,Legends Cafe Bar,5,0,5,0,2015-01-08,53.365286,-2.738494
175863,Lenox Farm Bed and Breakfast,5,0,0,0,2012-02-07,53.34031,-2.807256
175864,Les's Fish Bar,5,5,5,5,2015-01-19,53.367402,-2.726192
175865,Lewis's Home Retail,Exempt,nan,nan,nan,2010-02-22,53.368065,-2.725077
175866,Library Coffee Bar,5,0,5,0,2014-06-24,53.3290023804,-2.69764184952
175867,Lidl,5,0,5,0,2014-02-11,,
175868,Lifestyle Express,0,10,15,30,2013-10-22,53.343385,-2.73771
175869,Lifestyle Express (Stenhills News),5,5,5,5,2013-02-25,53.336993,-2.723228
175870,Lillie Jane Cupcakes,5,0,5,0,2014-05-19,,
175871,Lils Cafe,5,5,5,5,2015-01-22,53.34205,-2.731244
175872,Lilycross care centre,4,5,10,0,2014-11-07,53.40012,-2.733788
175873,Lindsey's Created with Love (Home Caterer),5,0,0,5,2014-02-27,,
175874,Lin's Kitchen,5,5,5,0,2013-03-21,53.373524,-2.718751
175875,Little Manor Day Nursery,5,5,0,0,2013-12-02,53.348399,-2.664715
175876,Lloyds Pharmacy,Exempt,nan,nan,nan,2003-02-10,53.368473,-2.726045
175877,Lloyds Pharmacy,Exempt,nan,nan,nan,2003-02-17,53.378483,-2.770998
175878,Lloyds Pharmacy,Exempt,nan,nan,nan,2015-02-10,,
175879,Lloyds Pharmacy,Exempt,nan,nan,nan,,53.342323,-2.733516
175880,Loaf,5,5,5,5,2012-04-18,,
175881,Londis,4,10,5,5,2015-01-14,53.377954,-2.77213
175882,Long Loaf Community Lunch - St Paul's Church,AwaitingInspection,nan,nan,nan,,53.362829,-2.73175
175883,Love Coffee,4,10,5,5,2015-01-13,53.327428,-2.697781
175884,L's Kitchen (Mobile Food Unit),5,5,5,0,2014-10-10,,
175885,Lunts Heath  Primary,5,5,5,5,2013-09-24,53.386234,-2.727611
175886,Lynnes Cakes,5,5,5,5,2015-01-22,,
175887,M & M Food Supplies,3,5,10,10,2014-03-11,,
175888,M & T Fruit & Veg Van Sales L56 CPC,3,10,5,10,2013-11-26,53.316918,-2.671386
175889,M and S late shop,4,5,10,5,2013-03-15,53.381052,-2.726921
175890,Mac's Griddle,5,0,5,0,2013-08-27,,
175891,Madeline McKenna Court,5,0,5,0,2014-01-29,53.380205,-2.767406
175892,Maeres House  Voyage Ltd,5,0,5,0,2014-03-28,53.367218,-2.760169
175893,Main Top Hotel,1,15,15,20,2014-06-16,53.351236,-2.734165
175894,Majors Arms,5,0,0,0,2013-01-16,53.373674,-2.722136
175895,Mama Mia,2,10,15,10,2014-08-19,53.373038,-2.7098
175896,Mama Mia,0,20,20,20,2014-11-25,53.342178,-2.735166
175897,Mama's Little Cakery (Home Caterer),5,0,0,5,2013-05-10,,
175898,Mandeep News,2,15,0,10,2013-12-18,53.367563,-2.769358
175899,Margaret Henry Catering,5,0,5,0,2015-02-05,,
175900,Maries Chippy,5,5,5,5,2014-12-01,53.37407,-2.720489
175901,Mark Parise Ice Cream V210 MOE,3,10,10,10,2011-05-11,,
175902,Market Cafe,5,5,5,5,2015-01-15,53.368554,-2.724499
175903,Marks & Spencer,5,5,5,5,2014-12-03,53.366568,-2.725938
175904,Martin The Newsagent,Exempt,nan,nan,nan,2014-05-16,53.378676,-2.707924
175905,Martin The Newsagent,5,5,5,5,2014-08-21,53.377954,-2.77213
175906,Martins,Exempt,nan,nan,nan,2013-01-08,53.328669,-2.717351
175907,Martins,Exempt,nan,nan,nan,2013-01-08,53.329465,-2.696824
175908,Mayflower,3,5,10,10,2013-11-06,53.371238,-2.722139
175909,McColl's,5,5,0,5,2012-04-02,53.338806,-2.691885
175910,McDonalds,5,5,5,5,2014-03-28,53.361654,-2.737154
175911,McDonalds,5,5,5,0,2014-01-14,53.329178,-2.701248
175912,McDonalds,5,5,0,0,2014-12-11,53.363424,-2.731369
175913,McDougalls Pharmacy,Exempt,nan,nan,nan,2011-05-26,53.362193,-2.735796
175914,Melenio,5,5,5,5,2014-08-29,53.3414,-2.736084
175915,Melonies Bar,5,5,5,5,2013-12-04,53.369809,-2.725031
175916,Men Lee,2,10,15,10,2014-12-18,53.353228,-2.770497
175917,Mersey Hotel,5,5,5,5,2014-03-12,53.348983,-2.735133
175918,Mersey View Inn,4,10,5,5,2012-03-02,53.348718,-2.772789
175919,Miami Pizza,1,15,15,20,2013-12-17,53.341444,-2.734793
175920,Miami Pizza,2,15,15,10,2014-07-29,53.361274,-2.734593
175921,Michael Foran Ice Cream FB02 GWA,5,0,0,5,2013-04-25,,
175922,Middlehursts,4,5,10,5,2014-09-04,53.368554,-2.724499
175923,Midland Chandler,Exempt,nan,nan,nan,,53.323216,-2.650962
175924,Mill Brow Care Home,4,5,10,5,2014-05-14,53.373939,-2.718473
175925,Mill Brow Snooker/Social Club,4,10,5,5,2013-03-21,53.373524,-2.718751
175926,Millenium Balti,4,10,5,5,2013-12-19,53.342567,-2.734797
175927,Millenium Indian Takeaway,5,5,5,5,2014-11-25,53.362035,-2.765126
175928,Millhouse Garage,5,5,5,5,2013-12-18,53.356954,-2.76834
175929,Monks Delicatessen,5,5,5,5,2014-03-14,53.342323,-2.733516
175930,Moore Farm Shop,4,10,5,5,2014-07-03,53.358189,-2.622707
175931,Moore Pre-school,4,10,0,5,2013-11-15,53.34573,-2.659612
175932,Moore Primary School,5,0,0,0,2013-10-10,53.354795,-2.639154
175933,Moore village pre-school,5,5,5,0,2014-12-03,53.356088,-2.630924
175934,Moore Village Store Limited,5,5,5,5,2014-07-23,53.356088,-2.630924
175935,Moorfield Primary School,5,5,0,0,2014-04-24,53.372424,-2.746566
175936,Moorfield Sports And Social Club,5,5,5,5,2013-08-18,53.381444,-2.711082
175937,Morbaine Ltd Cafe,5,0,5,5,2012-06-26,53.357979,-2.766901
175938,Morrisons Petrol Station,Exempt,nan,nan,nan,2010-11-11,53.366257,-2.722356
175939,Mrs Squires Cakes and Preserves,5,0,0,0,2012-08-08,,
175940,Mudguard Tricycles & Ice Cream Tricycles,5,5,5,5,2014-07-17,53.337313,-2.747097
175941,Munchbox,1,15,15,20,2014-11-06,53.321481,-2.694036
175942,Municipal Buildings Cafe Bar,5,5,5,5,2015-01-05,53.363245,-2.734296
175943,Murco,5,5,0,0,2014-10-29,53.372964,-2.711572
175944,Murdishaw  Pharmacy,Exempt,nan,nan,nan,2004-04-13,53.324202,-2.662808
175945,Murdishaw Church,5,5,0,5,2013-06-14,53.323651,-2.664931
175946,Murdishaw Community Centre Cafe - Country Garden Catering,4,5,10,0,2014-08-05,53.324514,-2.666521
175947,Murdishaw Supper Bar,0,20,20,20,2014-12-03,53.323651,-2.664931
175948,Murdishaw West Community Primary School,5,0,0,0,2014-12-08,53.320256,-2.670838
175949,Murdishaw West Pre-School C/o Murdishaw Primary School,5,0,0,0,2014-11-17,53.320256,-2.670838
175950,N C & B Lunt,Exempt,nan,nan,nan,2004-03-19,53.342567,-2.734797
175951,Nando's Chickenland,5,5,0,0,2014-07-22,53.363832,-2.722089
175952,Naughtonfields Cafe Bar,AwaitingInspection,nan,nan,nan,,53.370359,-2.759413
175953,Navigation Inn,4,10,0,5,2013-02-18,53.341538,-2.72377
175954,Neptune,5,5,5,5,2014-09-24,53.321057,-2.722943
175955,Neptune Fish Bar,5,5,5,5,2014-03-19,53.342768,-2.73429
175956,New Brookvale,3,10,10,10,2014-02-12,53.317497,-2.680251
175957,New Inn,2,15,10,10,2013-01-30,53.361006,-2.767241
175958,New Look,Exempt,nan,nan,nan,2010-12-13,53.366568,-2.725938
175959,New Vatikka Indian Restaurant,3,5,10,10,2014-12-02,53.366906,-2.727957
175960,Newspoint,3,10,10,10,2012-11-01,53.368473,-2.726045
175961,Newsrack,5,0,5,0,2012-11-01,53.368385,-2.725623
175962,Newtown Off Licence,4,10,5,5,2014-08-13,53.3619,-2.729285
175963,Next,Exempt,nan,nan,nan,2010-05-18,53.366568,-2.725938
175964,Nice N Iced (Home Caterer - Cakes),5,0,0,0,2013-10-09,,
175965,Nicolas Sandwich Bar,5,0,0,5,2012-12-03,53.359888,-2.763585
175966,Nikki Capobianco,4,5,5,10,2012-11-05,,
175967,Nila Convenience Store,3,10,5,10,2013-11-28,53.366535,-2.728417
175968,Noble House,3,10,10,5,2014-12-16,53.362035,-2.765126
175969,Norton Arms Hotel,4,5,5,10,2014-10-29,53.334632,-2.695511
175970,Norton Lodge Residential Home,3,10,10,10,2014-05-13,53.2141265869,-2.55155992508
175971,Norton Priory Museum Tea Rooms,5,5,5,0,2013-09-18,53.342261,-2.6803
175972,Nosh and Natter,5,5,0,0,2014-12-10,53.343419,-2.7337
175973,Nutrition Asylum,2,15,0,5,2012-02-02,53.371624,-2.751289
175974,O2 Staff Canteen,1,15,5,20,2014-09-10,53.317047,-2.656377
175975,Oak 'N' Grill,5,5,5,5,2014-12-03,53.373038,-2.7098
175976,Oakfield Community Nursery School and Supported Classroom,5,0,5,0,2014-02-26,53.367521,-2.774437
175977,Oakfield Community Primary School,5,0,0,5,2014-02-26,53.367521,-2.774437
175978,Oakmeadow,5,0,5,5,2014-11-05,53.372586,-2.722252
175979,Oddies Social Club,5,5,0,0,2013-03-27,53.349955,-2.774794
175980,Ordy's Homemade Chutneys and Preserves,5,0,0,0,2013-02-14,,
175981,Ormiston Bolingbroke Academy,5,5,0,0,2014-02-11,53.320256,-2.670838
175982,Ormiston Chadwick Academy,5,0,5,5,2015-02-05,53.372121,-2.75943
175983,Our Lady Of Perpetual Succour,4,10,10,0,2013-10-31,53.365748,-2.78028
175984,Our Lady Of Perpetual Succour Parish Centre,5,5,0,5,2013-02-20,53.370515,-2.767367
175985,Our Ladys First Steps Nursery,5,5,5,0,2014-08-19,53.365748,-2.78028
175986,Our Ladys Mother Of The Saviour Primary School,5,5,0,5,2014-10-15,53.321238,-2.687862
175987,Our Ladys Pre-School,5,0,0,0,2014-10-01,53.321238,-2.687862
175988,Palacefields Community Centre Cafe and Lunch Club,5,0,5,0,2014-01-09,53.325851,-2.690684
175989,Palacefields Pre-School and Nursery,5,0,0,0,2013-09-18,53.323603,-2.686084
175990,Palacefields Primary Academy,5,5,0,5,2015-01-12,53.323603,-2.686084
175991,Palacefields Take Away,1,10,15,20,2014-12-10,53.322737,-2.689868
175992,Panda Panda,3,10,10,10,2014-02-05,53.366535,-2.728417
175993,Pandis Newsagent,5,5,0,0,2014-02-12,53.372426,-2.726383
175994,Pandis Newsagents,5,5,5,5,2015-01-28,53.371968,-2.732177
175995,Papas Pizzeria,4,10,5,5,2014-02-26,53.370997,-2.723413
175996,Past Time Treats,5,5,5,0,2013-05-01,,
175997,Pat Jones - Home Baking,5,0,0,0,2014-04-22,,
175998,Pauls Farnworth Fish Bar,4,0,10,5,2014-08-28,53.381052,-2.726921
175999,Paul's Widnes Fish Bar,5,5,5,5,2013-11-20,53.368415,-2.739916
176000,Pavilions,4,0,10,5,2014-08-30,53.327128,-2.754411
176001,Peel House Fish Bar,3,10,10,10,2014-07-22,53.380565,-2.72574
176002,Peelhouse General Stores,3,10,10,5,2013-11-28,53.376081,-2.723905
176003,Pesto,5,5,0,0,2013-12-11,53.389528,-2.738643
176004,Pewithall Primary School,4,10,10,0,2013-10-28,53.328439,-2.728533
176005,Piggin Tasty Classy Catering (Mobile Food Unit),3,10,5,10,2014-04-19,,
176006,Pile W E,4,10,5,5,2014-03-19,53.366906,-2.727957
176007,Pizza Hut UK Ltd,4,10,10,0,2013-12-06,53.326192,-2.699983
176008,Pizza Pantry,5,5,5,5,2013-12-19,53.359753,-2.765055
176009,Play Hub After School Club,5,0,0,5,2012-05-22,53.328857,-2.714441
176010,Play Hub Care Club,5,0,0,5,2012-05-17,53.337141,-2.795977
176011,Playaway Day Nursery,5,5,5,5,2014-10-22,53.317378,-2.706939
176012,Playaway Day Nursery,5,0,0,0,2014-09-09,53.335371,-2.728246
176013,Playmates 2,5,5,0,0,2014-10-24,53.3792,-2.772679
176014,Playmates Nursery,5,5,5,0,2013-10-01,53.372424,-2.746566
176015,Poplar Farm,5,5,5,5,2014-12-03,53.341608,-2.649154
176016,Pound Bakery,5,5,0,5,2013-07-17,53.368385,-2.725623
176017,Pound Bakery,3,10,10,10,2013-05-16,53.342573,-2.732469
176018,Poundland,4,10,5,5,2013-06-14,53.326972,-2.69881
176019,Poundland,5,5,5,5,2013-05-16,53.366568,-2.725938
176020,Poundstretcher,4,10,0,5,2013-01-21,53.333701,-2.685495
176021,Poundworld,5,5,5,5,2013-04-10,53.327193,-2.697913
176022,Poundworld,4,10,5,5,2014-10-29,53.368523,-2.726707
176023,Premier Stores,4,0,5,10,2013-04-29,53.336267,-2.73604
176024,Premier Stores,5,5,5,5,2012-12-11,53.324911,-2.70834
176025,Preston Brook,4,10,5,5,2013-09-19,53.314541,-2.664189
176026,Preston Brook Pre-School,5,5,5,5,2012-09-21,53.320003,-2.655011
176027,Pretty Princess Cupcakes,5,0,0,5,2013-12-17,,
176028,Pretty Tasty Cake,5,5,5,5,2013-06-11,,
176029,Prospect Inn,5,5,5,5,2013-09-06,53.324158,-2.744885
176030,Pyramid Sensation,5,0,5,0,2014-06-12,,
176031,Quality Save,5,0,5,5,2012-10-24,53.367402,-2.726192
176032,Quarry Court Community Kitchen,4,0,10,10,2012-02-28,53.371336,-2.766886
176033,Queens Avenue Convenience Store,3,10,10,10,2013-11-01,53.367563,-2.769358
176034,Quigleys,4,10,5,5,2013-08-28,53.328669,-2.717351
176035,R.A.O.B Club,5,5,0,0,2013-03-08,53.37064,-2.727375
176036,Raj Tandoori,1,10,20,20,2015-01-15,53.373038,-2.7098
176037,Recovery f1rst,5,5,5,0,2014-10-22,53.3762,-2.699541
176038,Red Admiral,3,5,10,10,2013-06-11,53.331391,-2.723538
176039,Red Lion,5,5,5,5,2014-11-26,53.353244,-2.636636
176040,Reel Cinema,5,0,5,5,2014-10-23,53.372424,-2.746566
176041,Reel Time Amusements,Exempt,nan,nan,nan,2010-02-22,53.366906,-2.727957
176042,Ree's Cake Craft of Cheshire,4,10,0,0,2014-11-05,,
176043,Regency Catering,5,5,0,5,2013-07-26,,
176044,Reidy's Cafe,3,10,10,10,2014-06-10,53.3699,-2.718916
176045,Reynolds Dairyman Ltd,5,5,5,5,2014-12-15,53.336339,-2.727361
176046,Ricky Hodson Deliveries,3,10,10,10,2013-08-06,,
176047,Rigney's Fruit and Veg,5,5,5,5,2015-01-23,53.368554,-2.724498
176048,Ring O Bells,5,5,5,5,2014-03-26,53.384354,-2.729338
176049,Ring O Bells Hotel,5,5,5,5,2014-04-15,53.339353,-2.633906
176050,Rivendell Garden Centre (Including Shop and Restaurant),5,5,5,0,2014-09-03,53.389161,-2.714789
176051,River Queen,1,15,15,20,2014-10-22,53.372426,-2.726383
176052,Riverside College - Cronton Campus,2,15,15,10,2014-12-12,53.389109,-2.746831
176053,Riverside College Student Refectory,5,0,0,0,2013-06-04,53.364332,-2.73442
176054,Riverside College Training Restaurant,4,5,5,10,2014-09-30,53.364332,-2.73442
176055,RLC Catering,5,5,5,5,2014-05-14,53.364231,-2.771732
176056,Rock Mount Service Station Ltd,5,0,0,5,2014-02-10,53.340655,-2.725558
176057,Rockwell's Diner,5,5,5,5,2013-05-08,53.342052,-2.730823
176058,Ronnie Foran Ice Cream WR02 FVC,5,5,5,5,2013-04-17,,
176059,Rose Farm,4,10,5,5,2014-03-25,53.382803,-2.75759
176060,Rose's Kitchen,5,5,0,5,2014-10-01,53.331884,-2.695121
176061,Rosies Sandwich Bar,AwaitingInspection,nan,nan,nan,,53.352252,-2.771155
176062,Roundhouse,5,5,5,5,2013-10-09,53.321038,-2.739261
176063,Rowles Widnes Ltd,5,5,5,5,2012-02-27,53.372854,-2.713479
176064,Royal,5,5,5,5,2013-12-11,53.342052,-2.730823
176065,Royal British Legion,5,5,5,5,2014-11-17,53.331884,-2.695121
176066,Royal Oak,3,10,10,5,2014-04-02,53.321038,-2.739261
176067,Runcorn All Saints CE Primary School,5,0,0,0,2014-10-10,53.342768,-2.73429
176068,Runcorn All Saints Early Years Group,5,0,0,5,2014-04-28,53.342768,-2.73429
176069,Runcorn Conservative Club,5,5,0,5,2014-02-20,53.335908,-2.737521
176070,Runcorn Golf Club,4,5,10,5,2014-03-18,53.32611,-2.731647
176071,Runcorn Jubilee Bed and Breakfast,5,0,0,0,2013-06-18,53.334204,-2.738318
176072,Runcorn Linnets Football Club,5,5,5,5,2014-03-08,53.317141,-2.67175
176073,Runcorn Masonic Hall,5,5,5,5,2014-04-02,53.337983,-2.730333
176074,Runcorn Rowing Club,3,10,10,5,2014-12-09,53.311043,-2.712553
176075,Runcorn Sports Club,4,10,5,5,2014-02-20,53.333414,-2.738109
176076,Runcorn Town Hall - Tea Rooms,5,5,5,0,2014-06-25,53.333792,-2.723309
176077,Runcorn War Memorial Club Ltd,5,0,5,0,2013-10-25,53.337983,-2.730333
176078,Ruth Neville,5,0,0,5,2013-04-10,,
176079,Ryan Care Ltd,5,0,5,5,2013-02-27,53.335901,-2.738542
176080,S. A. Convenience Store Ltd.,1,5,15,20,2014-03-28,53.333279,-2.708494
176081,Saffron Indian Restaurant,4,10,5,0,2013-09-12,53.381052,-2.726921
176082,Saint-Gobain Isover Canteen,5,5,0,5,2013-09-30,53.31173,-2.649061
176083,Saints Peter & Paul Catholic College,4,5,10,5,2014-07-04,53.373595,-2.740818
176084,Sammys,3,10,10,10,2014-03-25,53.342567,-2.734797
176085,Sam's Bargain Stores,3,10,10,10,2014-05-16,53.341748,-2.730683
176086,Sandwich Bar,4,5,10,5,2013-09-19,53.381113,-2.728726
176087,Sandymoor School,5,0,0,0,2015-01-06,,
176088,Santo Cammizzaro Ice Cream V813 FKY,4,5,5,10,2014-04-15,,
176089,Savers Health and Beauty,Exempt,nan,nan,nan,,53.327711,-2.698507
176090,Sayers The Bakers,5,5,0,0,2014-07-29,53.367563,-2.769358
176091,Sayers The Bakers,5,5,0,0,2013-07-16,53.3269729614,-2.69880986214
176092,Scope,4,5,10,5,2014-12-03,53.365828,-2.772227
176093,Scope,5,0,5,5,2014-04-30,53.371021,-2.713358
176094,Scope,5,5,5,5,2014-01-28,53.372494,-2.710557
176095,Scope,4,5,10,5,2013-03-21,53.331808,-2.712539
176096,Scope,4,5,10,5,2014-11-26,53.323946,-2.666842
176097,Scope,5,5,5,0,2012-03-02,53.372424,-2.746566
176098,Select Sandwiches,5,5,5,5,2014-03-31,53.3601,-2.73552
176099,Select Security Stadium - Catering and Bars,5,5,5,0,2014-04-24,53.365286,-2.738494
176100,Sephtons,4,5,10,5,2013-02-08,53.368554,-2.724499
176101,SG Stores (2013) Ltd,5,0,5,5,2013-10-01,53.328669,-2.717351
176102,Shazna Indian Takeaway,4,5,10,5,2014-07-21,53.369659,-2.724668
176103,Shell,5,5,5,5,2013-02-15,53.321424,-2.697623
176104,Shell Farnworth Ltd,5,5,5,5,2012-02-20,53.389968,-2.737283
176105,Shelley's Cafe,4,5,10,5,2014-09-05,53.355025,-2.767719
176106,Sherwin Butchers,2,15,0,10,2014-03-28,53.342231,-2.732553
176107,Shortcakes (Home Caterer),5,0,0,5,2013-07-04,,
176108,Showboat Amusements,Exempt,nan,nan,nan,2002-03-25,53.327709198,-2.6985065937
176109,Shuker Mobile Ice Cream N641 AHE,5,0,0,5,2011-05-18,,
176110,Silver Blades Ice Rink,5,5,5,5,2013-06-22,53.363832,-2.722089
176111,Silver Crown,2,15,10,10,2014-08-19,53.342567,-2.734797
176112,Simms Cross,4,10,5,5,2012-03-22,53.366535,-2.728417
176113,Simms Cross  Primary School,5,5,0,5,2013-11-05,53.366077,-2.732737
176114,Simms Cross Institute,4,5,10,5,2013-05-17,53.36705,-2.72796
176115,Simonsfield Residential Home,4,10,5,0,2014-08-04,53.333714,-2.715408
176116,Simply Food and Drink,4,10,5,5,2012-08-23,53.377654,-2.708945
176117,Sizzlers,5,0,5,5,2015-01-15,53.358291,-2.78109
176118,Sizzlers I - Donut Unit,4,5,5,10,2014-10-28,53.3724250793,-2.74656605721
176119,Sizzlers II,4,10,5,5,2014-01-24,53.369672,-2.721934
176120,Sizzles,3,5,10,10,2014-11-11,53.337631,-2.74521
176121,Smithy Forge Residential Home,4,5,10,0,2012-03-23,53.331972,-2.668739
176122,Snack Shack,5,5,5,5,2014-09-10,53.343606,-2.705721
176123,Snicky Snacky Snoo Mobile - HUSCO Carpark,5,5,5,0,2014-12-18,53.31011,-2.649468
176124,SOG Resources Catering - Heath Restaurant,4,5,10,5,2014-11-10,53.372424,-2.746566
176125,Spar,5,5,5,5,2012-08-09,53.364231,-2.771732
176126,Spar,3,10,10,5,2013-05-08,53.322737,-2.689868
176127,Spar Convenience Stores,4,10,5,5,2013-02-08,53.372854,-2.713479
176128,Spar Shop,5,5,0,0,2015-01-28,53.318522,-2.651296
176129,Spar Shop Runcorn Service station,1,15,15,20,2014-03-12,53.339251,-2.731751
176130,Sparks Will Fry Cafe,3,10,5,10,2014-08-12,53.358555,-2.735433
176131,Speedy Catering,2,15,15,10,2014-01-16,,
176132,Spinney Avenue CE Voluntary Controlled Primary School,4,5,10,5,2014-06-24,53.37069,-2.780551
176133,Spinney Pre-School,5,5,0,0,2014-05-15,53.37069,-2.780551
176134,Sporting Ford,4,10,5,5,2012-06-15,53.3792,-2.772679
176135,Spudlers,4,5,10,5,2014-12-18,53.364079,-2.730672
176136,St Annes Local,5,5,5,5,2012-03-01,53.373038,-2.7098
176137,St Augustines RC Primary School,5,0,0,0,2014-01-16,53.339589,-2.69014
176138,St Augustines Under Fives,5,5,0,0,2014-01-16,53.339589,-2.69014
176139,St Basil's Rc Aided Primary School,5,5,0,5,2013-10-10,53.377648,-2.776349
176140,St Basil's Social Club,4,5,10,5,2014-11-14,53.377648,-2.776349
176141,St Bedes Catholic Mens Club,4,10,0,5,2012-11-01,53.370034,-2.731002
176142,St Bede's Catholic Primary School,5,5,5,0,2014-06-06,53.371139,-2.73096
176143,St Bertelines Primary School,5,0,0,0,2014-11-20,53.33208,-2.671849
176144,St Chads RC and Cof E High School and Specialist Language College,5,0,0,0,2014-10-08,53.2141265869,-2.55155992508
176145,St Clements Rc Aided Primary School,5,5,0,0,2014-09-05,53.332844,-2.732903
176146,St Edward's Rc Aided Primary School,5,0,0,0,2014-03-21,53.341631,-2.723231
176147,St Gerards Nursery,3,10,10,10,2014-06-10,53.362684,-2.72745
176148,St Gerard's Rc Aided Primary School,5,0,0,0,2014-03-12,53.362684,-2.72745
176149,St John Fisher Extra Club,4,5,5,10,2012-08-16,53.372494,-2.710557
176150,St John Fisher Primary School,5,5,0,0,2014-09-16,53.372494,-2.710557
176151,St Johns Church,4,10,5,5,2014-07-22,53.372987,-2.727174
176152,St Lukes Nursing Home,5,5,0,5,2014-12-08,53.321481,-2.694036
176153,St Martins Breakfast Club,5,0,0,0,2012-03-27,53.324332,-2.662089
176154,St Martins R C Primary School,5,0,0,0,2014-12-04,53.324332,-2.662089
176155,St Mary's C Of E School,5,0,0,0,2014-05-02,53.336243,-2.696784
176156,St Mary's Nursery,4,0,0,10,2013-12-05,53.336243,-2.696784
176157,St Michaels News,3,5,10,10,2013-10-22,53.363286,-2.762188
176158,St Michaels Parish Club,5,5,0,0,2014-09-02,,
176159,St Patricks Nursing Home,3,5,10,10,2014-03-12,53.376087,-2.711008
176160,St Pauls Pharmacy,Exempt,nan,nan,nan,2004-03-24,53.341179,-2.734037
176161,St. Michaels Catholic Primary,4,0,10,5,2013-07-11,53.361166,-2.764719
176162,St.Michaels Extended School,5,0,5,0,2013-07-02,53.361166,-2.764719
176163,Stantons of Cheshire Retail Shop,5,0,5,5,2013-01-11,53.359888,-2.763585
176164,Star Moon Takeaway,1,15,15,20,2014-12-18,53.369809,-2.725031
176165,Starbucks,5,5,5,0,2014-04-08,53.339251,-2.731751
176166,Steph's Kitchen (Celebration Cakes & Cup Cakes),5,0,0,0,2013-06-26,,
176167,Store Twenty One,Exempt,nan,nan,nan,,53.327428,-2.697781
176168,Subway,5,5,0,5,2014-05-15,53.367402,-2.726192
176169,Subway,4,10,5,5,2014-01-09,53.339251,-2.731751
176170,Subway,5,5,0,0,2013-05-08,53.327711,-2.698507
176171,Sugar Cake Emporium,5,0,5,5,2014-07-01,,
176172,Sunshine Under 5's Nursery,5,5,5,0,2014-05-20,53.338428,-2.674712
176173,Superdrug Stores Plc,Exempt,nan,nan,nan,,53.368523,-2.726707
176174,Superdrug Stores Plc,Exempt,nan,nan,nan,2003-09-02,53.327193,-2.697913
176175,Superior Sandwiches,5,5,5,5,2014-05-28,53.372424,-2.746566
176176,Surrey Street Wines & Spirits,Exempt,nan,nan,nan,2013-03-01,53.338119,-2.736027
176177,Susan Mockett - Childminder,Exempt,nan,nan,nan,2015-01-16,,
176178,Sushi Craft,5,5,5,5,2013-08-21,53.3601,-2.73552
176179,Suzanne Edwards t/a Cakestreat,5,5,5,5,2012-02-22,53.32186,-2.725404
176180,Swans Cafe,2,15,15,10,2014-03-24,53.328327179,-2.69754076004
176181,Sweet Thing Cakes,5,5,0,5,2013-08-15,,
176182,Sweet Things,5,5,5,5,2014-04-09,53.368554,-2.724499
176183,Tamarind Indian Cuisine,5,5,0,5,2014-11-26,53.36402,-2.738352
176184,Tandoori Night,1,10,15,20,2014-11-18,53.341748,-2.730683
176185,Tastee,4,10,10,0,2014-07-03,53.371001,-2.757516
176186,Tasty Bites,5,5,5,5,2013-11-12,,
176187,Tasty Tuckers,3,10,10,10,2013-07-05,53.368473,-2.726045
176188,Tavern,4,10,5,5,2013-12-04,53.384478,-2.742796
176189,Tea,5,5,5,5,2014-04-30,53.336242,-2.798679
176190,Tea for Two,3,10,10,10,2014-06-18,53.366535,-2.728417
176191,Teacupcakes (Home Cake Maker),3,10,10,10,2014-06-19,,
176192,Temptations Catering Service,5,0,0,5,2012-12-13,53.314401,-2.690349
176193,Tesco Cafe/Staff Restaurant,4,5,10,5,2013-11-28,53.372424,-2.746566
176194,Tesco Metro & Staff Canteen,5,5,5,0,2013-02-20,53.327193,-2.697913
176195,Tesco Superstore,5,0,0,0,2013-11-27,53.372424,-2.746566
176196,TEVA Staff Canteen,4,5,10,0,2013-08-15,53.325106,-2.709169
176197,The Auction Centre,Exempt,nan,nan,nan,2013-06-19,53.350024,-2.668301
176198,The Ball Post Office,5,5,5,5,2012-02-06,53.371001,-2.757516
176199,The Barn B&B,4,5,5,10,2013-02-21,53.34031,-2.807256
176200,The Beat,5,5,5,5,2013-12-12,53.361451,-2.733619
176201,The Beechwood Hotel,3,10,5,10,2013-07-03,53.314839,-2.699977
176202,The Bikers Food Emporium (Food Mobile),2,10,15,10,2015-01-15,,
176203,The Bradley Hotel,4,10,5,5,2012-03-21,53.369659,-2.724668
176204,The Bridge School,5,0,0,0,2014-04-23,53.342103,-2.698291
176205,The Brindley Arts Centre,5,0,0,0,2014-10-08,53.340637,-2.731415
176206,The Brooker Centre - Catering Kitchen,5,5,0,0,2014-08-13,53.323266,-2.694606
176207,The Brow Pre-School,4,0,10,10,2013-07-02,53.334836,-2.697587
176208,The Brow Primary School,5,5,5,5,2014-04-28,53.334836,-2.697587
176209,The Burrow Cafe,5,5,5,5,2015-02-11,,
176210,The Busy Bee Bakery,4,10,0,5,2013-10-10,,
176211,The Cake Department,5,0,5,5,2014-12-09,,
176212,The Corner Shop,3,10,10,10,2015-01-20,53.348983,-2.735133
176213,The Cottage B & B,3,10,10,5,2014-08-08,53.336242,-2.798679
176214,The CRmz Kitchen,1,15,15,20,2014-08-13,,
176215,The Departure Lounge,5,0,5,5,2013-09-27,53.368473,-2.726045
176216,The Derby,5,5,5,5,2014-05-13,53.366923,-2.72665
176217,The Devonshire,4,10,5,5,2014-09-19,53.341941,-2.740193
176218,"The Education Centre, Halton Hospital",5,0,0,0,2014-04-30,53.323266,-2.694606
176219,The Establishment,5,0,0,0,2012-10-09,53.361884,-2.731959
176220,The Foundry,Exempt,nan,nan,nan,2013-10-01,53.362684,-2.72745
176221,The Friends of Halton Hospital Tea Bar,5,5,5,5,2014-12-16,53.325545,-2.696865
176222,The Goldmine Bar,3,10,10,10,2014-02-10,53.352252,-2.771155
176223,The Grange School,5,5,5,0,2014-11-25,53.334695,-2.71529
176224,The Griffin,5,5,5,5,2012-04-19,53.382081,-2.726232
176225,The Health Shop,5,5,0,5,2014-08-20,53.367402,-2.726192
176226,The Healthy Option,5,0,0,0,2013-01-14,53.368554,-2.724499
176227,The Heath Technology College,5,5,5,5,2014-01-14,53.32557,-2.725947
176228,The Imperial,5,5,5,5,2014-02-26,53.369809,-2.725031
176229,The Ivy Link Club,4,5,5,10,2014-10-02,53.335371,-2.728246
176230,The Lewis Carroll Centre,5,0,5,5,2014-05-09,53.340227,-2.631877
176231,The Lion Hotel,5,5,5,5,2012-07-24,53.337799,-2.735421
176232,The Lodge,5,5,0,5,2013-07-18,53.371437,-2.753976
176233,The Marmaris,AwaitingInspection,nan,nan,nan,,53.363167,-2.730809
176234,The Meat Wagon,5,5,5,5,2014-02-07,53.368554,-2.724499
176235,The Meating Place,AwaitingInspection,nan,nan,nan,,53.327427,-2.697781
176236,The Mersey Gateway (buffet place),4,5,10,5,2014-01-23,53.363832,-2.722089
176237,The Mobile Chef,5,5,0,0,2014-02-18,53.34498,-2.701222
176238,The Observatory,5,5,5,5,2015-01-21,53.380082,-2.751498
176239,The Old Town Carvery,2,10,15,10,2015-01-20,53.342052,-2.730823
176240,The Orchard,3,5,10,10,2013-02-01,53.368554,-2.724499
176241,The Park Day Nursery,5,5,0,0,2014-07-31,53.329526,-2.733071
176242,The Park Nursery and Reception,5,5,5,0,2012-06-15,53.336206,-2.686106
176243,The Park Primary School,5,0,0,0,2014-01-17,53.336206,-2.686106
176244,The Protein Works,4,10,0,10,2013-04-10,53.34579,-2.671449
176245,The Quayside,3,10,10,10,2014-07-11,53.341393,-2.722491
176246,The Rise,Exempt,nan,nan,nan,2014-06-18,53.336745,-2.709107
176247,The Sweet Jar,5,5,5,0,2013-01-24,53.367535,-2.72648
176248,The Vicarage Luncheon Club,5,0,0,0,2012-01-19,53.332311,-2.739111
176249,The Village Shop,3,10,10,10,2014-02-04,53.383288,-2.727245
176250,The Village Social Club,4,10,0,10,2014-06-13,53.2141265869,-2.55155992508
176251,Thermo Fisher - Staff Cafe,5,0,0,0,2013-06-03,53.325106,-2.709169
176252,Thompson & Capper Canteen,4,5,10,5,2014-11-27,53.342986,-2.710217
176253,Thoroughgoods,4,5,10,5,2013-06-20,53.363907,-2.740619
176254,Thursday Lunch Club,5,5,5,5,2012-03-01,53.372424,-2.746566
176255,Tiddly Links Out of School Club,5,0,5,0,2015-01-21,53.339264,-2.633604
176256,Tinkerbells Catering,3,10,10,10,2014-03-28,53.387234,-2.737536
176257,Tiny Steps Pre-School,5,0,5,0,2012-03-20,53.324332,-2.662089
176258,Tk Maxx,Exempt,nan,nan,nan,2013-02-25,53.326192,-2.699983
176259,Toby Carvery,4,10,5,5,2013-06-04,53.363832,-2.722089
176260,Tony's Chippy,2,15,10,10,2014-02-21,53.3619,-2.729285
176261,Travelodge,2,15,5,0,2013-08-15,53.364977,-2.721447
176262,Treats for All (Mobile Food Unit),4,5,10,5,2014-07-18,,
176263,Trewan House,3,10,10,10,2015-01-13,53.370915,-2.775114
176264,Tricorn Hotel,4,10,5,5,2014-01-09,53.32231,-2.692098
176265,Trinity Methodist Church,3,10,5,10,2014-01-07,53.374176,-2.723858
176266,Tropicana Creperie,5,5,0,5,2013-07-30,53.326972,-2.69881
176267,Trugym,Exempt,nan,nan,nan,2014-03-10,53.326192,-2.699983
176268,Truly Scrumptious,4,5,5,10,2011-11-22,,
176269,TTP Communities Ltd.,4,10,5,5,2014-07-04,53.341822,-2.72732
176270,Tunnel Top,5,5,5,5,2014-06-10,53.309115,-2.642253
176271,Union Tavern,2,15,0,10,2014-01-16,53.338145,-2.724419
176272,United Service Social Club,5,5,5,5,2014-02-14,53.373122,-2.756111
176273,Upton Community Centre,1,5,10,20,2014-11-03,53.378698,-2.768386
176274,Upton Day Nursery,1,10,5,20,2014-09-16,53.375056,-2.775505
176275,Upton Fish Bar,5,5,5,5,2014-09-09,53.377954,-2.77213
176276,Upton Pre-School and Children's Centre,5,0,0,0,2014-06-11,53.3792,-2.772679
176277,Upton Rocks Pharmacy,Exempt,nan,nan,nan,2011-06-06,53.389654,-2.740119
176278,Urban Trikes Coffee,5,0,5,5,2015-01-06,,
176279,Urban Trikes Potato,1,10,15,20,2014-12-12,,
176280,Vals Celebration Cakes,5,0,0,0,2013-02-20,,
176281,Vicarage Lodge Pre-school,5,0,5,0,2013-11-29,53.332311,-2.739111
176282,Vickie Wilks t/a Cakestreat,5,5,5,5,2012-02-17,,
176283,Victoria Court,5,0,5,5,2014-01-15,53.365384,-2.734288
176284,Victoria Park Pavillions Cafe,4,5,5,10,2014-07-18,53.360812,-2.733774
176285,Victoria Road Link Club,5,0,5,0,2014-09-17,53.337445,-2.733177
176286,Victoria Road Primary,4,10,0,0,2013-11-07,53.337445,-2.733177
176287,Village Care Club Ltd,5,0,0,0,2014-09-24,53.371139,-2.73096
176288,Village Stores,1,15,15,20,2014-09-16,53.330458,-2.692936
176289,Village Stores,1,10,15,20,2014-02-28,53.319234,-2.738945
176290,Vinci Staff Cafe,5,0,5,5,2014-08-14,53.372424,-2.746566
176291,W H Smith,Exempt,nan,nan,nan,2010-02-19,53.368523,-2.726707
176292,Wade Deacon  High School,5,5,0,0,2013-06-28,53.375195,-2.735073
176293,Warrington Road Bambini Centre - Nursery Kitchen,5,5,5,5,2013-09-02,53.369823,-2.713819
176294,Warrington Road Bambini Centre - School Meals Kitchen,5,5,0,0,2014-05-14,53.369823,-2.713819
176295,Waterfields (Leigh) Ltd,3,10,10,10,2013-12-18,53.381052,-2.726921
176296,Waterfields Ltd,4,10,5,5,2014-01-07,53.368473,-2.726045
176297,Webbs Tea Rooms,3,10,10,5,2014-08-06,53.339986,-2.715859
176298,Wellbeing Enterprises Community Food Club,5,0,0,5,2013-12-11,53.365261,-2.739651
176299,Wellington,2,10,15,10,2014-08-27,53.371943,-2.75639
176300,Wellington Hotel,5,5,5,0,2012-06-12,53.342341,-2.736506
176301,Wellington Hotel (Marston),4,10,5,5,2013-12-09,53.336242,-2.798679
176302,West Bank Amateur Rugby League Football Club,4,5,10,5,2014-03-07,53.357115,-2.735694
176303,West Bank Primary School,5,0,0,0,2014-03-03,53.349623,-2.736316
176304,Westbank Pharmacy,Exempt,nan,nan,nan,2002-03-26,53.351236,-2.734165
176305,Westbank Village Stores,4,10,0,10,2013-01-08,53.350246,-2.734358
176306,Westfield Community Playgroup,5,5,5,5,2014-12-03,53.336384,-2.743296
176307,Westfield Primary School,5,5,0,0,2014-04-23,53.336384,-2.743296
176308,Weston Kids Club,4,10,0,5,2012-10-19,53.320606,-2.73505
176309,Weston Point Pre-school,5,0,0,0,2014-05-15,53.326239,-2.747158
176310,Weston Point Primary School,5,0,0,0,2014-06-11,53.326239,-2.747158
176311,Weston Pre School,5,0,0,0,2013-11-04,53.320606,-2.73505
176312,Weston Primary School,5,5,0,0,2014-09-19,53.320606,-2.73505
176313,Wicksten Drive Christian Centr,5,0,0,0,2013-06-11,53.338876,-2.721097
176314,Wide Cove,4,10,5,5,2014-01-06,53.341677,-2.736299
176315,Widnes Bowling Club,5,5,5,5,2014-01-13,53.36428,-2.738432
176316,Widnes Conservative Club,5,5,5,0,2012-08-22,53.361274,-2.734593
176317,Widnes Cricket Club,5,0,5,0,2014-02-13,53.381833,-2.730061
176318,Widnes Golf Club,5,5,0,5,2014-07-23,53.37173,-2.738726
176319,Widnes Hall and Lodge,4,5,10,5,2014-02-11,53.367035,-2.766192
176320,Widnes Kebab House,3,5,10,10,2014-11-11,53.361274,-2.734593
176321,Widnes Library Coffee Bar and Buffet Service,5,0,0,0,2013-06-05,53.364332,-2.73442
176322,Widnes Masonic Hall,5,5,0,5,2013-12-19,53.364332,-2.73442
176323,Widnes Post Office,5,5,0,5,2013-06-21,53.366906,-2.727957
176324,Widnes Rugby Union Club,4,10,0,0,2014-03-05,53.373376,-2.754387
176325,Widnes Station Shop,3,10,5,10,2013-06-04,53.377906,-2.734128
176326,Widnes Superbowl,5,0,5,5,2015-01-13,53.363832,-2.722089
176327,Widnes Tennis Academy,3,10,10,10,2012-11-09,53.373595,-2.740818
176328,Wigg Island Visitors Centre,5,5,0,0,2014-05-28,53.342772,-2.717408
176329,Wilkinson Hardware Stores Limited,5,0,0,0,2012-02-14,53.327711,-2.698507
176330,Wilkinson Hardware Stores Ltd,5,5,0,0,2013-06-17,53.366568,-2.725938
176331,Wilkinsons Farms,5,5,5,5,2014-05-19,53.368554,-2.724499
176332,Willowdene,5,5,5,5,2014-06-10,53.376835,-2.728533
176333,Wilsons Hotel,4,10,5,5,2014-03-19,53.341824,-2.728491
176334,Win Kitchen,4,5,10,5,2014-10-15,53.342178,-2.735166
176335,Windmill,4,10,0,5,2014-12-18,53.339892,-2.670095
176336,Windmill Hill Childrens Centre,5,5,5,5,2013-05-21,53.337512,-2.669802
176337,Windmill Hill Nursery and Pre-School,5,0,5,0,2013-11-19,53.337512,-2.669802
176338,Windmill Hill Primary School,5,5,5,0,2013-11-19,53.337512,-2.669802
176339,Windmill Hill Supper Bar,3,10,5,10,2013-11-15,53.339892,-2.670095
176340,Wine Bar,4,10,5,5,2013-12-13,53.34205,-2.731244
176341,Wizz Kids Out of School Club,5,0,0,5,2014-12-16,53.384596,-2.73092
176342,Wm Morrison Supermarket PLC,5,0,5,0,2014-11-26,53.381765,-2.748206
176343,Wm Morrisons Customer Cafe,5,5,5,0,2014-03-27,53.36765,-2.723927
176344,Wm Morrisons Staff Canteen,5,0,0,0,2014-03-27,53.36765,-2.723927
176345,Wm Morrisons Supermarket PLC,5,0,5,5,2014-03-05,53.36765,-2.723927
176346,Woodcrofts,5,5,5,5,2014-09-25,53.37226,-2.712162
176347,Woodside Primary School,5,0,5,0,2015-01-06,53.324911,-2.70834
176348,Yates Greer Limited,5,5,0,0,2014-01-15,53.368473,-2.726045
176349,Yummtums (Cakes),5,0,0,0,2014-08-20,,
176350,Yummy Hut Fish and Chips,2,15,10,10,2013-07-03,53.361274,-2.734593
