,addressline1,addressline2,addressline3,addressline4,businessname,businesstype,businesstypeid,confidenceinmanagement,extractdate,fhrsid,hygiene,itemcount,latitude,localauthoritybusinessid,localauthoritycode,localauthorityemailaddress,localauthorityname,localauthoritywebsite,longitude,postcode,ratingdate,ratingkey,ratingvalue,returncode,schemetype,structural
333829,,,,,2468 Foods,Mobile caterer,7846,,,724416,,,,207589,895,info@herefordshire.gov.uk,Herefordshire,http://www.herefordshire.gov.uk/,,,,fhrs_awaitinginspection_en-GB,AwaitingInspection,,FHRS,
333830,,19a Union Street,,Hereford,2J Takeaway,Takeaway/sandwich shop,7844,20,,487923,15,,52.05705100000000,201663,895,info@herefordshire.gov.uk,Herefordshire,http://www.herefordshire.gov.uk/,-2.71269400000000,HR1 2BT,2015-01-12,fhrs_1_en-GB,1,,FHRS,15
333831,,22 High Street,,Leintwardine,A H Griffiths (Butcher),Retailers - other,4613,10,,488298,5,,52.36138500000000,77079,895,info@herefordshire.gov.uk,Herefordshire,http://www.herefordshire.gov.uk/,-2.87648900000000,SY7 0LB,2014-05-15,fhrs_4_en-GB,4,,FHRS,5
333832,,42 High Street,,Kington,A M Dawson (Chemist),Retailers - other,4613,,,488954,,,52.20337700000000,79403,895,info@herefordshire.gov.uk,Herefordshire,http://www.herefordshire.gov.uk/,-3.02999300000000,HR5 3BJ,2000-07-04,fhrs_exempt_en-GB,Exempt,,FHRS,
333833,,55 Broad Street,,Hereford,A M News,Retailers - other,4613,,,489151,,,52.05613900000000,80097,895,info@herefordshire.gov.uk,Herefordshire,http://www.herefordshire.gov.uk/,-2.71778400000000,HR4 9AB,2005-11-15,fhrs_exempt_en-GB,Exempt,,FHRS,
333834,Beauchamp House,Church House Lane,,Acton Beauchamp,A R G Fowler And Co,Retailers - other,4613,0,,488538,5,,52.14867000000000,77960,895,info@herefordshire.gov.uk,Herefordshire,http://www.herefordshire.gov.uk/,-2.47462100000000,WR6 5AQ,2010-11-25,fhrs_5_en-GB,5,,FHRS,5
333835,,,,,A Rule of Tum,Other catering premises,7841,5,,626210,5,,,204863,895,info@herefordshire.gov.uk,Herefordshire,http://www.herefordshire.gov.uk/,,,2014-02-20,fhrs_4_en-GB,4,,FHRS,10
333836,,32 Aubrey Street,,Hereford,A Rule of Tum Burger Shop,Restaurant/Cafe/Canteen,1,10,,703709,0,,52.05560400000000,206892,895,info@herefordshire.gov.uk,Herefordshire,http://www.herefordshire.gov.uk/,-2.71860700000000,HR4 0BU,2014-11-20,fhrs_4_en-GB,4,,FHRS,0
333837,Rookrow Farm,,,Mathon,A S Green Limited,Manufacturers/packers,7839,,,666782,,,52.10598800000000,205832,895,info@herefordshire.gov.uk,Herefordshire,http://www.herefordshire.gov.uk/,-2.40053600000000,WR13 5PR,2014-08-14,fhrs_exempt_en-GB,Exempt,,FHRS,
333838,"Unit 5, Mortimer Trading Centr",Mortimer Road,,Hereford,A2ZEST,Other catering premises,7841,5,,487400,5,,52.06697500000000,140596,895,info@herefordshire.gov.uk,Herefordshire,http://www.herefordshire.gov.uk/,-2.71902300000000,HR4 9SP,2014-08-12,fhrs_5_en-GB,5,,FHRS,5
333839,Manor Farm,Brampton Bryan,,Bucknell,Aardvark Cafe,Restaurant/Cafe/Canteen,1,5,,489495,10,,52.34606600000000,81373,895,info@herefordshire.gov.uk,Herefordshire,http://www.herefordshire.gov.uk/,-2.92703800000000,SY7 0DH,2009-12-04,fhrs_4_en-GB,4,,FHRS,5
333840,,Upper Parsonage,,Ashfield Park Road,Abacus 2000 Nursery School,Hospitals/Childcare/Caring Premises,5,5,,488808,5,,51.91108500000000,78912,895,info@herefordshire.gov.uk,Herefordshire,http://www.herefordshire.gov.uk/,-2.58732000000000,HR9 5AS,2014-11-13,fhrs_5_en-GB,5,,FHRS,5
333841,Units 1 And 2,,,Leominster,Abbey Botanicals,Manufacturers/packers,7839,0,,507674,0,,52.23417100000000,202382,895,info@herefordshire.gov.uk,Herefordshire,http://www.herefordshire.gov.uk/,-2.74411200000000,HR6 8EA,2014-05-08,fhrs_5_en-GB,5,,FHRS,0
333842,,47 Venns Lane,,Hereford,Abbey Grange Rest Home,Hospitals/Childcare/Caring Premises,5,5,,488705,5,,52.06677800000000,78583,895,info@herefordshire.gov.uk,Herefordshire,http://www.herefordshire.gov.uk/,-2.70393600000000,HR1 1DT,2014-09-09,fhrs_5_en-GB,5,,FHRS,0
333843,,School Lane,,Wigmore,Abbots Lodge Bed & Breakfast,Hotel/bed & breakfast/guest house,7842,0,,487457,0,,52.31641800000000,141754,895,info@herefordshire.gov.uk,Herefordshire,http://www.herefordshire.gov.uk/,-2.86392300000000,HR6 9UD,2010-05-11,fhrs_5_en-GB,5,,FHRS,0
333844,,26 Eign Road,,Hereford,ABC Childcare Centre,Hospitals/Childcare/Caring Premises,5,5,,488308,0,,52.05236700000000,77121,895,info@herefordshire.gov.uk,Herefordshire,http://www.herefordshire.gov.uk/,-2.70519700000000,HR1 2RY,2015-01-28,fhrs_5_en-GB,5,,FHRS,5
333845,Glenthorpe,Stallards Lane,,Little Birch,Abundance Produce,Retailers - other,4613,,,489630,,,51.98364400000000,81882,895,info@herefordshire.gov.uk,Herefordshire,http://www.herefordshire.gov.uk/,-2.71375600000000,HR2 8BD,2001-06-14,fhrs_exempt_en-GB,Exempt,,FHRS,
333846,Credenhill St Marys Church Of,Station Road,,Credenhill,Active-8 club,Hospitals/Childcare/Caring Premises,5,10,,489058,5,,52.08675800000000,79733,895,info@herefordshire.gov.uk,Herefordshire,http://www.herefordshire.gov.uk/,-2.80333300000000,HR4 7DW,2008-09-30,fhrs_4_en-GB,4,,FHRS,5
333847,Kington Golf Club,Bardnor Hill,,Bradnor,Agee's Catering,Other catering premises,7841,5,,487745,0,,52.21282800000000,196389,895,info@herefordshire.gov.uk,Herefordshire,http://www.herefordshire.gov.uk/,-3.03592000000000,HR5 3RE,2013-03-15,fhrs_5_en-GB,5,,FHRS,0
333848,,,,,AJ and CI Snell (Mobile),Mobile caterer,7846,5,,487716,0,,,154919,895,info@herefordshire.gov.uk,Herefordshire,http://www.herefordshire.gov.uk/,,,2012-07-11,fhrs_5_en-GB,5,,FHRS,0
333849,,,,,AJ Catering,Mobile caterer,7846,5,,684074,5,,,206305,895,info@herefordshire.gov.uk,Herefordshire,http://www.herefordshire.gov.uk/,,,2014-09-02,fhrs_5_en-GB,5,,FHRS,0
333850,,Marstow Services,,Pencraig,Al & Glow Place,Restaurant/Cafe/Canteen,1,5,,487436,0,,51.88310600000000,141239,895,info@herefordshire.gov.uk,Herefordshire,http://www.herefordshire.gov.uk/,-2.63376600000000,HR9 6HR,2014-02-14,fhrs_5_en-GB,5,,FHRS,5
333851,,71 Bridge Street,,Leominster,Aladdins,Retailers - other,4613,5,,488190,10,,52.23224500000000,76700,895,info@herefordshire.gov.uk,Herefordshire,http://www.herefordshire.gov.uk/,-2.74153200000000,HR6 8DZ,2008-02-06,fhrs_4_en-GB,4,,FHRS,0
333852,,166-168 Eign Street,,Hereford,Aldi,Retailers - supermarkets/hypermarkets,7840,5,,488028,0,,52.05709100000000,76096,895,info@herefordshire.gov.uk,Herefordshire,http://www.herefordshire.gov.uk/,-2.72240800000000,HR4 0AP,2008-01-16,fhrs_5_en-GB,5,,FHRS,5
333853,Aldi Superstore,Brookend Street,,Ross-On-Wye,Aldi,Retailers - supermarkets/hypermarkets,7840,,,728123,,,51.91644500000000,207755,895,info@herefordshire.gov.uk,Herefordshire,http://www.herefordshire.gov.uk/,-2.58160300000000,HR9 7EE,,fhrs_awaitinginspection_en-GB,AwaitingInspection,,FHRS,
333854,,Westbury Street,,Leominster,Aldi Stores Ltd,Retailers - supermarkets/hypermarkets,7840,5,,489120,5,,52.22588000000000,79966,895,info@herefordshire.gov.uk,Herefordshire,http://www.herefordshire.gov.uk/,-2.74144000000000,HR6 8NY,2009-07-30,fhrs_5_en-GB,5,,FHRS,0
333855,,61 Whitecross Road,,Hereford,Alexander Guest House,Hotel/bed & breakfast/guest house,7842,5,,488895,0,,52.05849900000000,79197,895,info@herefordshire.gov.uk,Herefordshire,http://www.herefordshire.gov.uk/,-2.72884900000000,HR4 0DQ,2011-03-03,fhrs_5_en-GB,5,,FHRS,5
333856,,26-28 Aubrey Street,,Hereford,All In One,Retailers - other,4613,,,691163,,,52.05560400000000,206476,895,info@herefordshire.gov.uk,Herefordshire,http://www.herefordshire.gov.uk/,-2.71860700000000,HR4 0BU,2014-08-06,fhrs_exempt_en-GB,Exempt,,FHRS,
333857,,Whitestone Business Park,,Whitestone,Allpay.Net Ltd,Restaurant/Cafe/Canteen,1,5,,487965,0,,52.07819000000000,75850,895,info@herefordshire.gov.uk,Herefordshire,http://www.herefordshire.gov.uk/,-2.63549000000000,HR1 3SE,2012-05-03,fhrs_5_en-GB,5,,FHRS,0
333858,43 Rural Enterprise Centre,Vincent Carey Road,,Hereford,Ally's Pantry Too,Restaurant/Cafe/Canteen,1,5,,487653,5,,52.03849900000000,152840,895,info@herefordshire.gov.uk,Herefordshire,http://www.herefordshire.gov.uk/,-2.68623000000000,HR2 6FE,2014-12-09,fhrs_4_en-GB,4,,FHRS,10
333859,,Linton,,Ross-On-Wye,Alma Inn,Pub/bar/nightclub,7843,10,,488836,5,,51.92614700000000,78993,895,info@herefordshire.gov.uk,Herefordshire,http://www.herefordshire.gov.uk/,-2.49706300000000,HR9 7RY,2008-07-23,fhrs_4_en-GB,4,,FHRS,5
333860,Merrivale Farm Care Home,,,Eastwood,Alphagrange Ltd,Hospitals/Childcare/Caring Premises,5,0,,488885,0,,52.05511400000000,79168,895,info@herefordshire.gov.uk,Herefordshire,http://www.herefordshire.gov.uk/,-2.52535800000000,HR8 2RN,2012-03-26,fhrs_5_en-GB,5,,FHRS,5
333861,,Woolhope,,Hereford,Alumhurst,Retailers - other,4613,5,,487306,0,,52.00815900000000,113892,895,info@herefordshire.gov.uk,Herefordshire,http://www.herefordshire.gov.uk/,-2.57464800000000,HR1 4QL,2010-11-02,fhrs_5_en-GB,5,,FHRS,5
333862,Pool Hullock Farm,,,Llandinabo,Ambalama Spices,Manufacturers/packers,7839,5,,488282,5,,51.95161200000000,77020,895,info@herefordshire.gov.uk,Herefordshire,http://www.herefordshire.gov.uk/,-2.71022000000000,HR2 8JB,2011-05-10,fhrs_5_en-GB,5,,FHRS,5
333863,,21 Eign Gate,,Hereford,Amber Coast,Restaurant/Cafe/Canteen,1,5,,487750,10,,52.05635700000000,196462,895,info@herefordshire.gov.uk,Herefordshire,http://www.herefordshire.gov.uk/,-2.71896900000000,HR4 0AB,2014-09-18,fhrs_4_en-GB,4,,FHRS,5
333864,,2 Cruxwell Street,,Bromyard,Anchor Cafe,Restaurant/Cafe/Canteen,1,5,,488621,0,,52.18997800000000,78280,895,info@herefordshire.gov.uk,Herefordshire,http://www.herefordshire.gov.uk/,-2.50771100000000,HR7 4EB,2013-10-03,fhrs_5_en-GB,5,,FHRS,5
333865,,12 King Street,,Hereford,Andy's Kitchen,Restaurant/Cafe/Canteen,1,0,,488025,0,,52.05430400000000,76085,895,info@herefordshire.gov.uk,Herefordshire,http://www.herefordshire.gov.uk/,-2.71801700000000,HR4 9BW,2011-11-17,fhrs_5_en-GB,5,,FHRS,5
333866,,5-6 Bridge Street,,Kington,Angel Fish Bar,Takeaway/sandwich shop,7844,10,,488247,5,,52.20318300000000,76903,895,info@herefordshire.gov.uk,Herefordshire,http://www.herefordshire.gov.uk/,-3.02855400000000,HR5 3DL,2014-04-17,fhrs_4_en-GB,4,,FHRS,5
333867,,Longford,,Kingsland,Angel Inn,Pub/bar/nightclub,7843,10,,488946,10,,52.24701600000000,79377,895,info@herefordshire.gov.uk,Herefordshire,http://www.herefordshire.gov.uk/,-2.80732400000000,HR6 9QS,2013-05-22,fhrs_2_en-GB,2,,FHRS,15
333868,,,,,Ann Fullwood Mobile,Mobile caterer,7846,5,,489375,0,,,80915,895,info@herefordshire.gov.uk,Herefordshire,http://www.herefordshire.gov.uk/,,,2013-05-09,fhrs_5_en-GB,5,,FHRS,0
333869,,19 High Town,,Hereford,Ann Summers Ltd,Retailers - other,4613,,,489638,,,52.05628600000000,98788,895,info@herefordshire.gov.uk,Herefordshire,http://www.herefordshire.gov.uk/,-2.71583200000000,HR1 2AB,2010-05-05,fhrs_exempt_en-GB,Exempt,,FHRS,
333870,,,,,Annette's Sandwiches,Other catering premises,7841,5,,488879,0,,,79149,895,info@herefordshire.gov.uk,Herefordshire,http://www.herefordshire.gov.uk/,,,2012-03-22,fhrs_5_en-GB,5,,FHRS,0
333871,Alexander Park Resort,Court-Y-Park,,Pixley,AP Resort,Other catering premises,7841,5,,487607,5,,52.05167200000000,150909,895,info@herefordshire.gov.uk,Herefordshire,http://www.herefordshire.gov.uk/,-2.52103000000000,HR8 2RW,2013-03-22,fhrs_5_en-GB,5,,FHRS,5
333872,,Holmer Road,,Hereford,Aramark Ltd - Special Metals,Restaurant/Cafe/Canteen,1,0,,488024,0,,52.07296800000000,76082,895,info@herefordshire.gov.uk,Herefordshire,http://www.herefordshire.gov.uk/,-2.71806900000000,HR4 9SL,2014-09-30,fhrs_5_en-GB,5,,FHRS,0
333873,8 The Maltings,Broad Street,,Ross On Wye,Argos Call And Collect Store,Retailers - other,4613,,,488820,,,51.91541800000000,78944,895,info@herefordshire.gov.uk,Herefordshire,http://www.herefordshire.gov.uk/,-2.58195300000000,HR9 7YB,2010-07-28,fhrs_exempt_en-GB,Exempt,,FHRS,
333874,,25-27 Maylord Street,,Hereford,Argos Distribution,Retailers - other,4613,,,489186,,,52.05757200000000,80232,895,info@herefordshire.gov.uk,Herefordshire,http://www.herefordshire.gov.uk/,-2.71570700000000,HR1 2DS,2010-07-28,fhrs_exempt_en-GB,Exempt,,FHRS,
333875,Arkstone Mill,,,Kingstone,Arkstone Mill Produce,Retailers - other,4613,,,487301,,,52.01852200000000,113553,895,info@herefordshire.gov.uk,Herefordshire,http://www.herefordshire.gov.uk/,-2.83374700000000,HR2 9HU,2005-03-15,fhrs_exempt_en-GB,Exempt,,FHRS,
333876,Longworth Hall,Lugwardine,,Herefordshire,ArmorGroup Services Ltd,Hotel/bed & breakfast/guest house,7842,0,,489289,0,,52.05342500000000,80581,895,info@herefordshire.gov.uk,Herefordshire,http://www.herefordshire.gov.uk/,-2.63957200000000,HR1 4DF,2011-12-02,fhrs_5_en-GB,5,,FHRS,5
333877,,22 Headbrook,,Kington,Arrow Masonic Hall,Restaurant/Cafe/Canteen,1,5,,488950,5,,52.20128200000000,79392,895,info@herefordshire.gov.uk,Herefordshire,http://www.herefordshire.gov.uk/,-3.02378400000000,HR5 3DY,2007-04-17,fhrs_5_en-GB,5,,FHRS,5
333878,,Bridge Street,,Kington,Arrowbank Lodge,Hotel/bed & breakfast/guest house,7842,5,,488707,5,,52.20230200000000,78590,895,info@herefordshire.gov.uk,Herefordshire,http://www.herefordshire.gov.uk/,-3.02639800000000,HR5 3DX,2011-04-07,fhrs_5_en-GB,5,,FHRS,5
333879,,,,,As You Like It,Mobile caterer,7846,0,,487379,5,,,140280,895,info@herefordshire.gov.uk,Herefordshire,http://www.herefordshire.gov.uk/,,,2015-02-12,fhrs_5_en-GB,5,,FHRS,5
333880,,Belmont Road,,Hereford,Asda Stores Ltd,Retailers - supermarkets/hypermarkets,7840,5,,489633,5,,52.04940400000000,96464,895,info@herefordshire.gov.uk,Herefordshire,http://www.herefordshire.gov.uk/,-2.72235700000000,HR2 7JE,2014-10-01,fhrs_5_en-GB,5,,FHRS,5
333881,,Barons Cross Road,,Leominster,Ashfield House,Hospitals/Childcare/Caring Premises,5,5,,488967,5,,52.22627700000000,79446,895,info@herefordshire.gov.uk,Herefordshire,http://www.herefordshire.gov.uk/,-2.75255900000000,HR6 8QX,2014-10-10,fhrs_5_en-GB,5,,FHRS,5
333882,Ashley Farm,Grafton,,Herefordshire,Ashley Farm,Retailers - other,4613,10,,487351,0,,52.03007400000000,115136,895,info@herefordshire.gov.uk,Herefordshire,http://www.herefordshire.gov.uk/,-2.73404200000000,HR2 8BL,2010-03-04,fhrs_4_en-GB,4,,FHRS,0
333883,,Ashperton,,Ledbury,Ashperton Primary School,School/college/university,7845,5,,488571,0,,52.06727700000000,78074,895,info@herefordshire.gov.uk,Herefordshire,http://www.herefordshire.gov.uk/,-2.51540600000000,HR8 2SE,2012-02-01,fhrs_5_en-GB,5,,FHRS,0
333884,,18 South Street,,Leominster,Asia Village,Takeaway/sandwich shop,7844,5,,487791,5,,52.22614600000000,197572,895,info@herefordshire.gov.uk,Herefordshire,http://www.herefordshire.gov.uk/,-2.73916100000000,HR6 8JB,2013-11-07,fhrs_5_en-GB,5,,FHRS,5
333885,,38-39 Broad Street,,Hereford,Ask,Restaurant/Cafe/Canteen,1,0,,487224,0,,52.05528600000000,106149,895,info@herefordshire.gov.uk,Herefordshire,http://www.herefordshire.gov.uk/,-2.71761000000000,HR4 9AR,2012-01-25,fhrs_5_en-GB,5,,FHRS,0
333886,,Hoarwithy,,Herefordshire,Aspen House,Hotel/bed & breakfast/guest house,7842,5,,488251,0,,51.96044600000000,76917,895,info@herefordshire.gov.uk,Herefordshire,http://www.herefordshire.gov.uk/,-2.66639400000000,HR2 6QP,2010-08-04,fhrs_5_en-GB,5,,FHRS,0
333887,Markyes Close Care Home,Edde Cross Street,,Ross On Wye,Aspire Living,Hospitals/Childcare/Caring Premises,5,5,,489341,5,,51.91580500000000,80793,895,info@herefordshire.gov.uk,Herefordshire,http://www.herefordshire.gov.uk/,-2.58549100000000,HR9 7BZ,2009-03-11,fhrs_5_en-GB,5,,FHRS,5
333888,Stonham Housing Association Ca,21a King Street,,Hereford,Aspire Living Ltd,Hospitals/Childcare/Caring Premises,5,5,,488724,5,,52.05455300000000,78635,895,info@herefordshire.gov.uk,Herefordshire,http://www.herefordshire.gov.uk/,-2.71847300000000,HR4 9BX,2011-03-29,fhrs_5_en-GB,5,,FHRS,5
333889,,45 Hampton Park Road,,Hereford,Aston House,Hospitals/Childcare/Caring Premises,5,5,,488493,0,,52.04967600000000,77785,895,info@herefordshire.gov.uk,Herefordshire,http://www.herefordshire.gov.uk/,-2.68736400000000,HR1 1TJ,2012-01-06,fhrs_5_en-GB,5,,FHRS,5
333890,,42 Holme Lacy Road,,Hereford,Atlantic Fish & Kebab Bar,Takeaway/sandwich shop,7844,5,,488375,5,,52.04263800000000,77364,895,info@herefordshire.gov.uk,Herefordshire,http://www.herefordshire.gov.uk/,-2.71580400000000,HR2 6BZ,2014-03-11,fhrs_5_en-GB,5,,FHRS,5
333891,,2-4 Tudor Rise,,Ross On Wye,Audrey's Fish Bar,Takeaway/sandwich shop,7844,0,,489137,0,,51.90263700000000,80049,895,info@herefordshire.gov.uk,Herefordshire,http://www.herefordshire.gov.uk/,-2.58659900000000,HR9 5QB,2012-02-16,fhrs_5_en-GB,5,,FHRS,5
333892,,2 Aylestone Hill,,Hereford,Aylestone Court Hotel,Hotel/bed & breakfast/guest house,7842,10,,488388,10,,52.06076100000000,77428,895,info@herefordshire.gov.uk,Herefordshire,http://www.herefordshire.gov.uk/,-2.70277600000000,HR1 1HS,2013-09-09,fhrs_2_en-GB,2,,FHRS,15
333893,,Broadlands Lane,,Hereford,Aylestone School Business And Enterprise College,School/college/university,7845,5,,489035,5,,52.06418100000000,79636,895,info@herefordshire.gov.uk,Herefordshire,http://www.herefordshire.gov.uk/,-2.69612000000000,HR1 1HY,2015-01-14,fhrs_4_en-GB,4,,FHRS,10
333894,,32 Holmer Road,,Hereford,B & M Home Store,Retailers - other,4613,0,,487704,0,,52.06664400000000,154415,895,info@herefordshire.gov.uk,Herefordshire,http://www.herefordshire.gov.uk/,-2.72161400000000,HR4 9SA,2012-05-22,fhrs_5_en-GB,5,,FHRS,5
333895,The Moor,Bodenham,,Herefordshire,Baches Bargains,Retailers - other,4613,,,488680,,,52.15364500000000,78507,895,info@herefordshire.gov.uk,Herefordshire,http://www.herefordshire.gov.uk/,-2.66690800000000,HR1 3HT,2007-04-05,fhrs_exempt_en-GB,Exempt,,FHRS,
333896,,Netherton Road,,Overross Industrial Estate,Baileys DIY Ltd,Retailers - other,4613,0,,735492,0,,51.92769900000000,0,895,info@herefordshire.gov.uk,Herefordshire,http://www.herefordshire.gov.uk/,-2.57833100000000,HR9 7QQ,2013-09-24,fhrs_5_en-GB,5,,FHRS,0
333897,White Cross Farm,Bridstow,,Herefordshire,Baileys Home & Garden Ltd,Restaurant/Cafe/Canteen,1,5,,489024,5,,51.91709800000000,79597,895,info@herefordshire.gov.uk,Herefordshire,http://www.herefordshire.gov.uk/,-2.61921100000000,HR9 6JU,2014-01-17,fhrs_5_en-GB,5,,FHRS,5
333898,,Upper Sapey,,Herefordshire,Baiting House,Pub/bar/nightclub,7843,10,,488211,5,,52.26451000000000,76762,895,info@herefordshire.gov.uk,Herefordshire,http://www.herefordshire.gov.uk/,-2.46384200000000,WR6 6XT,2014-11-20,fhrs_3_en-GB,3,,FHRS,10
333899,,,,,Bake and Create,Other catering premises,7841,5,,643377,0,,,205283,895,info@herefordshire.gov.uk,Herefordshire,http://www.herefordshire.gov.uk/,,,2014-10-21,fhrs_5_en-GB,5,,FHRS,5
333900,,6 Church Street,,Kington,Bamboo Garden,Takeaway/sandwich shop,7844,5,,612420,5,,52.20382700000000,204516,895,info@herefordshire.gov.uk,Herefordshire,http://www.herefordshire.gov.uk/,-3.03194900000000,HR5 3AZ,2013-11-13,fhrs_4_en-GB,4,,FHRS,10
333901,,27 West Street,,Leominster,Bangla Lounge,Restaurant/Cafe/Canteen,1,10,,489366,5,,52.22677500000000,80893,895,info@herefordshire.gov.uk,Herefordshire,http://www.herefordshire.gov.uk/,-2.74062100000000,HR6 8EP,2013-10-08,fhrs_4_en-GB,4,,FHRS,5
333902,,5a The Homend,,Ledbury,Baptist Church,Restaurant/Cafe/Canteen,1,,,489094,,,52.03758100000000,79858,895,info@herefordshire.gov.uk,Herefordshire,http://www.herefordshire.gov.uk/,-2.42297200000000,HR8 1BN,2002-12-06,fhrs_exempt_en-GB,Exempt,,FHRS,
333903,,2 Market Square,,Bromyard,Barbara Miller Antique Tea Rooms,Restaurant/Cafe/Canteen,1,10,,488362,5,,52.18905600000000,77309,895,info@herefordshire.gov.uk,Herefordshire,http://www.herefordshire.gov.uk/,-2.50467300000000,HR7 4BP,2008-04-30,fhrs_4_en-GB,4,,FHRS,0
333904,Jubilee Building,Victoria Street,,Leominster,Barber & Manuel,Retailers - other,4613,5,,487440,5,,52.22722000000000,141345,895,info@herefordshire.gov.uk,Herefordshire,http://www.herefordshire.gov.uk/,-2.73850500000000,HR6 8LP,2013-10-21,fhrs_5_en-GB,5,,FHRS,5
333905,,3 Yazor Road,,Hereford,Bargain Booze,Retailers - other,4613,,,489237,,,52.06263900000000,80406,895,info@herefordshire.gov.uk,Herefordshire,http://www.herefordshire.gov.uk/,-2.73966600000000,HR4 0LZ,2006-01-26,fhrs_exempt_en-GB,Exempt,,FHRS,
333906,,44 Holme Lacy Road,,Hereford,Bargain Booze Plus,Retailers - other,4613,5,,488685,5,,52.04263800000000,78522,895,info@herefordshire.gov.uk,Herefordshire,http://www.herefordshire.gov.uk/,-2.71580400000000,HR2 6BZ,2010-05-06,fhrs_5_en-GB,5,,FHRS,0
333907,The Childrens Centre,Bargates,,Leominster,Bargates Childrens Centre,Hospitals/Childcare/Caring Premises,5,0,,488658,0,,52.22774000000000,78438,895,info@herefordshire.gov.uk,Herefordshire,http://www.herefordshire.gov.uk/,-2.74595100000000,HR6 8QR,2015-01-12,fhrs_5_en-GB,5,,FHRS,5
333908,,Wacton Lane,,Bredenbury,Barneby Inn,Pub/bar/nightclub,7843,10,,489162,5,,52.20562500000000,80148,895,info@herefordshire.gov.uk,Herefordshire,http://www.herefordshire.gov.uk/,-2.57363700000000,HR7 4TF,2014-11-27,fhrs_3_en-GB,3,,FHRS,10
333909,Community Day Centre,Portna Way,,Leominster,Barons Cross Community Room,Restaurant/Cafe/Canteen,1,,,488339,,,52.22213400000000,77229,895,info@herefordshire.gov.uk,Herefordshire,http://www.herefordshire.gov.uk/,-2.76775700000000,HR6 9AD,2005-11-07,fhrs_exempt_en-GB,Exempt,,FHRS,
333910,,Barons Cross Road,,Leominster,Barons Cross Inn,Pub/bar/nightclub,7843,10,,489047,10,,52.22253500000000,79701,895,info@herefordshire.gov.uk,Herefordshire,http://www.herefordshire.gov.uk/,-2.76139600000000,HR6 8RS,2013-11-20,fhrs_3_en-GB,3,,FHRS,10
333911,The Barrell Bar,2 Brookend Street,,Ross On Wye,Barrell Inn,Pub/bar/nightclub,7843,5,,488949,5,,51.91681100000000,79384,895,info@herefordshire.gov.uk,Herefordshire,http://www.herefordshire.gov.uk/,-2.58197100000000,HR9 7EG,2008-01-16,fhrs_5_en-GB,5,,FHRS,0
333912,Bartestree Sports Pavilion,Bartestree,,Hereford,Bartestree & Lugwardine Playing Fields Social Club,Restaurant/Cafe/Canteen,1,10,,489113,5,,52.06587600000000,79940,895,info@herefordshire.gov.uk,Herefordshire,http://www.herefordshire.gov.uk/,-2.64638700000000,HR1 4BY,2011-02-09,fhrs_4_en-GB,4,,FHRS,0
333913,,Bartestree,,Hereford,Bartestree Stores,Retailers - other,4613,5,,489392,5,,52.06750300000000,80981,895,info@herefordshire.gov.uk,Herefordshire,http://www.herefordshire.gov.uk/,-2.64159700000000,HR1 4BX,2008-03-04,fhrs_5_en-GB,5,,FHRS,5
333914,,16 Barton Road,,Hereford,Barton Hall,Other catering premises,7841,,,488381,,,52.05363500000000,77392,895,info@herefordshire.gov.uk,Herefordshire,http://www.herefordshire.gov.uk/,-2.72295000000000,HR4 0AY,2010-05-06,fhrs_exempt_en-GB,Exempt,,FHRS,
333915,,57 Green Street,,Hereford,Bartonsham Stores,Retailers - other,4613,5,,488005,0,,52.05014700000000,76030,895,info@herefordshire.gov.uk,Herefordshire,http://www.herefordshire.gov.uk/,-2.70806400000000,HR1 2QW,2010-06-15,fhrs_5_en-GB,5,,FHRS,5
333916,,152 Eign Street,,Hereford,Batterlicious,Takeaway/sandwich shop,7844,5,,488382,0,,52.05709100000000,77393,895,info@herefordshire.gov.uk,Herefordshire,http://www.herefordshire.gov.uk/,-2.72240800000000,HR4 0AP,2014-03-27,fhrs_5_en-GB,5,,FHRS,0
333917,,19-21 High Street,,Bromyard,Bay Horse,Pub/bar/nightclub,7843,10,,658900,5,,52.18901900000000,205643,895,info@herefordshire.gov.uk,Herefordshire,http://www.herefordshire.gov.uk/,-2.50695400000000,HR7 4AA,2014-12-09,fhrs_3_en-GB,3,,FHRS,10
333918,,57 Commercial Road,,Hereford,BBQ's & Brews,Pub/bar/nightclub,7843,10,,703710,5,,52.05793200000000,206900,895,info@herefordshire.gov.uk,Herefordshire,http://www.herefordshire.gov.uk/,-2.71125000000000,HR1 2BP,2014-11-17,fhrs_4_en-GB,4,,FHRS,5
333919,,1-2 The Atrium,,Hereford,BB's Coffee & Muffins,Restaurant/Cafe/Canteen,1,10,,488630,5,,52.05763400000000,78323,895,info@herefordshire.gov.uk,Herefordshire,http://www.herefordshire.gov.uk/,-2.71449700000000,HR1 2DT,2014-06-12,fhrs_4_en-GB,4,,FHRS,5
333920,,1 Hampton Park Road,,Hereford,Beech House Nursery School,Hospitals/Childcare/Caring Premises,5,5,,615883,0,,52.04895500000000,204576,895,info@herefordshire.gov.uk,Herefordshire,http://www.herefordshire.gov.uk/,-2.69531400000000,HR1 1TQ,2014-02-21,fhrs_5_en-GB,5,,FHRS,0
333921,,136 Eign Street,,Hereford,Beer in Hand,Pub/bar/nightclub,7843,0,,565439,5,,52.05709100000000,203523,895,info@herefordshire.gov.uk,Herefordshire,http://www.herefordshire.gov.uk/,-2.72240800000000,HR4 0AP,2013-12-17,fhrs_5_en-GB,5,,FHRS,0
333922,,,,,Behind Bars,Mobile caterer,7846,0,,700075,0,,,202689,895,info@herefordshire.gov.uk,Herefordshire,http://www.herefordshire.gov.uk/,,,2014-09-13,fhrs_5_en-GB,5,,FHRS,0
333923,,Burghill,,Herefordshire,Bell Inn,Pub/bar/nightclub,7843,5,,488940,5,,52.10293100000000,79354,895,info@herefordshire.gov.uk,Herefordshire,http://www.herefordshire.gov.uk/,-2.78077500000000,HR4 8LE,2014-06-12,fhrs_5_en-GB,5,,FHRS,5
333924,,2 Bridge Street,,Hereford,Bella Torta,Other catering premises,7841,5,,487703,5,,52.05383300000000,154375,895,info@herefordshire.gov.uk,Herefordshire,http://www.herefordshire.gov.uk/,-2.71859300000000,HR4 9DF,2011-06-06,fhrs_5_en-GB,5,,FHRS,5
333925,,Almeley,,Hereford,Bells Inn,Pub/bar/nightclub,7843,10,,489042,5,,52.15968600000000,79655,895,info@herefordshire.gov.uk,Herefordshire,http://www.herefordshire.gov.uk/,-2.97553800000000,HR3 6LF,2013-09-27,fhrs_3_en-GB,3,,FHRS,10
333926,Belmont Lodge And Golf Course,Ruckhall Lane,,Belmont,Belmont Lodge Golf Course,Restaurant/Cafe/Canteen,1,5,,511327,5,,52.04500300000000,202476,895,info@herefordshire.gov.uk,Herefordshire,http://www.herefordshire.gov.uk/,-2.76853700000000,HR2 9SA,2013-02-21,fhrs_5_en-GB,5,,FHRS,5
333927,,12-14 Bargates,,Leominster,Bengry Motors,Retailers - other,4613,0,,488674,0,,52.22695400000000,78496,895,info@herefordshire.gov.uk,Herefordshire,http://www.herefordshire.gov.uk/,-2.74364000000000,HR6 8EY,2011-09-01,fhrs_5_en-GB,5,,FHRS,0
333928,Bengrys Building,Southern Avenue,,Leominster,Bengry Motors/car Wash Centre,Retailers - other,4613,,,488059,,,52.21935700000000,76218,895,info@herefordshire.gov.uk,Herefordshire,http://www.herefordshire.gov.uk/,-2.73224100000000,HR6 0QF,2002-12-09,fhrs_exempt_en-GB,Exempt,,FHRS,
333929,,Benhall Lane,,Wilton,Benhall Farm,Hotel/bed & breakfast/guest house,7842,0,,488520,0,,51.91868900000000,77873,895,info@herefordshire.gov.uk,Herefordshire,http://www.herefordshire.gov.uk/,-2.59833900000000,HR9 6AG,2010-03-04,fhrs_5_en-GB,5,,FHRS,0
333930,Wilton Garage,Wilton,,Ross - On - Wye,Bennetts Of Ross Ltd,Retailers - other,4613,5,,489244,5,,51.91471200000000,80431,895,info@herefordshire.gov.uk,Herefordshire,http://www.herefordshire.gov.uk/,-2.60256000000000,HR9 6BG,2014-05-01,fhrs_4_en-GB,4,,FHRS,10
333931,,Bernard Hackett Court,,Ross On Wye,Bernard Hackett Court,Hospitals/Childcare/Caring Premises,5,,,488687,,,51.90775800000000,78529,895,info@herefordshire.gov.uk,Herefordshire,http://www.herefordshire.gov.uk/,-2.58910800000000,HR9 5YU,2011-03-30,fhrs_exempt_en-GB,Exempt,,FHRS,
333932,Oakchurch Farm,Staunton On Wye,,Hereford,Berries Restaurant And Coffee Shop,Restaurant/Cafe/Canteen,1,0,,489332,5,,52.09330200000000,80746,895,info@herefordshire.gov.uk,Herefordshire,http://www.herefordshire.gov.uk/,-2.90517600000000,HR4 7NH,2014-05-13,fhrs_5_en-GB,5,,FHRS,5
333933,,Berrington,,Leominster,Berrington Hall and Restaurant,Restaurant/Cafe/Canteen,1,0,,489300,0,,52.26889400000000,80623,895,info@herefordshire.gov.uk,Herefordshire,http://www.herefordshire.gov.uk/,-2.72060100000000,HR6 0DW,2013-04-29,fhrs_5_en-GB,5,,FHRS,5
333934,Biblins Lodge,,,The Doward Whitchurch,Biblins Tea Garden,Restaurant/Cafe/Canteen,1,0,,643385,0,,51.82844600000000,205333,895,info@herefordshire.gov.uk,Herefordshire,http://www.herefordshire.gov.uk/,-2.65580900000000,HR9 6DX,2014-03-28,fhrs_5_en-GB,5,,FHRS,5
333935,Biddlestone,Garrenhill Road,,Llangarron,Biddlestone Orchards,Retailers - other,4613,,,489456,,,51.90324400000000,81256,895,info@herefordshire.gov.uk,Herefordshire,http://www.herefordshire.gov.uk/,-2.66355500000000,HR9 6NT,2003-12-12,fhrs_exempt_en-GB,Exempt,,FHRS,
333936,,,,,Big BBQ Shack,Mobile caterer,7846,10,,576044,5,,,203758,895,info@herefordshire.gov.uk,Herefordshire,http://www.herefordshire.gov.uk/,,,2014-08-01,fhrs_3_en-GB,3,,FHRS,10
333937,,,,,Big Trevs Snack Bar (A49 Layby),Mobile caterer,7846,10,,487576,10,,,145376,895,info@herefordshire.gov.uk,Herefordshire,http://www.herefordshire.gov.uk/,,,2015-01-20,fhrs_2_en-GB,2,,FHRS,15
333938,,Clenchers Mill Lane,,Eastnor,Birchams Grange Residential Home,Hospitals/Childcare/Caring Premises,5,5,,487427,5,,52.02826500000000,141022,895,info@herefordshire.gov.uk,Herefordshire,http://www.herefordshire.gov.uk/,-2.39207200000000,HR8 1RW,2014-01-14,fhrs_5_en-GB,5,,FHRS,0
333939,,Hampton Dene Road,,Hereford,Bishop Of Hereford's Bluecoat School,School/college/university,7845,5,,488020,0,,52.05736900000000,76062,895,info@herefordshire.gov.uk,Herefordshire,http://www.herefordshire.gov.uk/,-2.68334000000000,HR1 1UU,2013-10-16,fhrs_5_en-GB,5,,FHRS,5
333940,,Bishops Frome,,Worcester,Bishops Frome Community Stores,Retailers - other,4613,10,,488471,5,,52.13241400000000,77702,895,info@herefordshire.gov.uk,Herefordshire,http://www.herefordshire.gov.uk/,-2.49455000000000,WR6 5AP,2015-01-06,fhrs_4_en-GB,4,,FHRS,5
333941,,1 Bromyard By Pass,,Bromyard,Bishops Of Bromyard,Retailers - other,4613,,,488714,,,52.18789600000000,78615,895,info@herefordshire.gov.uk,Herefordshire,http://www.herefordshire.gov.uk/,-2.50467400000000,HR7 4DJ,2005-05-31,fhrs_exempt_en-GB,Exempt,,FHRS,
333942,Bishopswood Village Hall,B4234 Ross On Wye To Glouceste,,Walford,Bishopswood Village Hall,Other catering premises,7841,,,489624,,,51.86894300000000,81869,895,info@herefordshire.gov.uk,Herefordshire,http://www.herefordshire.gov.uk/,-2.59991500000000,HR9 5QU,2008-02-05,fhrs_exempt_en-GB,Exempt,,FHRS,
333943,"Petrol Filling Station Shop And Post Office, Wyeside Caravan Park",,,Bishopswood,Bishopwood Stores,Restaurant/Cafe/Canteen,1,,,724418,,,51.86424200000000,207623,895,info@herefordshire.gov.uk,Herefordshire,http://www.herefordshire.gov.uk/,-2.59436200000000,HR9 5QX,,fhrs_awaitinginspection_en-GB,AwaitingInspection,,FHRS,
333944,,10 High Street,,Ross-On-Wye,Bistro Mondo,Restaurant/Cafe/Canteen,1,5,,590423,10,,51.91447700000000,204134,895,info@herefordshire.gov.uk,Herefordshire,http://www.herefordshire.gov.uk/,-2.58503800000000,HR9 5HL,2013-11-12,fhrs_4_en-GB,4,,FHRS,5
333945,The Holme,Almeley Road,,Eardisley,Bizzie Lizzie,Hospitals/Childcare/Caring Premises,5,0,,488327,5,,52.13955700000000,77205,895,info@herefordshire.gov.uk,Herefordshire,http://www.herefordshire.gov.uk/,-3.00750700000000,HR3 6NJ,2013-05-22,fhrs_5_en-GB,5,,FHRS,0
333946,,,,,Black Country Chips,Mobile caterer,7846,5,,488889,5,,,79183,895,info@herefordshire.gov.uk,Herefordshire,http://www.herefordshire.gov.uk/,,,2013-12-04,fhrs_5_en-GB,5,,FHRS,5
333947,,31 Bridge Street,,Hereford,Black Lion,Pub/bar/nightclub,7843,10,,487431,5,,52.05351500000000,141066,895,info@herefordshire.gov.uk,Herefordshire,http://www.herefordshire.gov.uk/,-2.71904000000000,HR4 9DG,2014-01-21,fhrs_3_en-GB,3,,FHRS,10
333948,Lower Hunthouse,,,Longtown,Black Mountains Barns,Restaurant/Cafe/Canteen,1,5,,487758,5,,51.93803500000000,196724,895,info@herefordshire.gov.uk,Herefordshire,http://www.herefordshire.gov.uk/,-2.97958000000000,HR2 0PD,2011-10-07,fhrs_5_en-GB,5,,FHRS,0
333949,,Much Dewchurch,,Herefordshire,Black Swan,Pub/bar/nightclub,7843,10,,488539,10,,51.97707500000000,77962,895,info@herefordshire.gov.uk,Herefordshire,http://www.herefordshire.gov.uk/,-2.75494000000000,HR2 8DJ,2014-12-10,fhrs_3_en-GB,3,,FHRS,10
333950,,West Street,,Leominster,Black Swan Hotel,Hotel/bed & breakfast/guest house,7842,5,,488398,0,,52.22677500000000,77450,895,info@herefordshire.gov.uk,Herefordshire,http://www.herefordshire.gov.uk/,-2.74062100000000,HR6 8EP,2008-09-18,fhrs_5_en-GB,5,,FHRS,5
333951,Blackmarston School,Honddu Close,,Hereford,Blackmarston School - Alliance in Partnership,School/college/university,7845,5,,489442,5,,52.04137200000000,81184,895,info@herefordshire.gov.uk,Herefordshire,http://www.herefordshire.gov.uk/,-2.72580000000000,HR2 7NX,2014-06-30,fhrs_5_en-GB,5,,FHRS,0
333952,,210 White Cross Road Service Road,,Hereford,Blackwells Ltd,Hospitals/Childcare/Caring Premises,5,0,,489316,0,,52.06077000000000,80687,895,info@herefordshire.gov.uk,Herefordshire,http://www.herefordshire.gov.uk/,-2.73657200000000,HR4 0DJ,2011-04-08,fhrs_5_en-GB,5,,FHRS,0
333953,,Leominster Road,,Holmer,Blanchworth Care - Holmer Care Centre,Hospitals/Childcare/Caring Premises,5,0,,488334,5,,52.07810900000000,77219,895,info@herefordshire.gov.uk,Herefordshire,http://www.herefordshire.gov.uk/,-2.72283500000000,HR4 9RG,2014-06-12,fhrs_5_en-GB,5,,FHRS,5
333954,,,,,Blue Duck Country Kitchen,Other catering premises,7841,10,,585611,5,,,204054,895,info@herefordshire.gov.uk,Herefordshire,http://www.herefordshire.gov.uk/,,,2013-10-03,fhrs_4_en-GB,4,,FHRS,5
333955,"Holiday Let, Massington Lodge",Massington,,Herefordshire,Bluebell Lodge,Hotel/bed & breakfast/guest house,7842,0,,487487,0,,52.04692000000000,142373,895,info@herefordshire.gov.uk,Herefordshire,http://www.herefordshire.gov.uk/,-2.40048800000000,HR8 1EG,2010-06-02,fhrs_5_en-GB,5,,FHRS,0
333956,Home End Farm,Stiffords Bridge,,Cradley,Blue-Ginger,Restaurant/Cafe/Canteen,1,5,,488853,10,,52.12728100000000,79077,895,info@herefordshire.gov.uk,Herefordshire,http://www.herefordshire.gov.uk/,-2.39694400000000,WR13 5NW,2008-01-22,fhrs_4_en-GB,4,,FHRS,0
333957,,,,,Bonitas Coffee,Mobile caterer,7846,,,669039,,,,206051,895,info@herefordshire.gov.uk,Herefordshire,http://www.herefordshire.gov.uk/,,,,fhrs_awaitinginspection_en-GB,AwaitingInspection,,FHRS,
333958,,Booth Hall Passage,,Hereford,Booth Hall,Pub/bar/nightclub,7843,10,,487799,10,,52.05600000000000,197726,895,info@herefordshire.gov.uk,Herefordshire,http://www.herefordshire.gov.uk/,-2.71553600000000,HR1 2LW,2014-01-16,fhrs_3_en-GB,3,,FHRS,10
333959,Manchester House,9 High Street,,Ledbury,Boots Co Plc,Retailers - other,4613,,,489618,,,52.03636900000000,81853,895,info@herefordshire.gov.uk,Herefordshire,http://www.herefordshire.gov.uk/,-2.42231900000000,HR8 1DS,2009-11-19,fhrs_exempt_en-GB,Exempt,,FHRS,
333960,,18 Corn Square,,Leominster,Boots The Chemist,Retailers - other,4613,,,488406,,,52.22722500000000,77491,895,info@herefordshire.gov.uk,Herefordshire,http://www.herefordshire.gov.uk/,-2.73775900000000,HR6 8LR,2000-09-18,fhrs_exempt_en-GB,Exempt,,FHRS,
333961,,4-5 Market Place,,Ross On Wye,Boots The Chemist,Retailers - other,4613,,,488085,,,51.91450800000000,76305,895,info@herefordshire.gov.uk,Herefordshire,http://www.herefordshire.gov.uk/,-2.58405000000000,HR9 5NX,2004-06-16,fhrs_exempt_en-GB,Exempt,,FHRS,
333962,,12-13 High Street,,Hereford,Boots The Chemist Ltd,Retailers - other,4613,,,488144,,,52.05630500000000,76516,895,info@herefordshire.gov.uk,Herefordshire,http://www.herefordshire.gov.uk/,-2.71713100000000,HR4 9AA,2009-03-18,fhrs_exempt_en-GB,Exempt,,FHRS,
333963,,22-24 High Street,,Kington,Border Bean Ltd,Restaurant/Cafe/Canteen,1,5,,585604,0,,52.20357300000000,203941,895,info@herefordshire.gov.uk,Herefordshire,http://www.herefordshire.gov.uk/,-3.03015800000000,HR5 3AX,2013-11-06,fhrs_5_en-GB,5,,FHRS,5
333964,,,,,Border County Cook,Other catering premises,7841,5,,488933,0,,,79335,895,info@herefordshire.gov.uk,Herefordshire,http://www.herefordshire.gov.uk/,,,2013-06-14,fhrs_5_en-GB,5,,FHRS,0
333965,The Village,Bosbury,,Herefordshire,Bosbury Cricket Pavilion,Restaurant/Cafe/Canteen,1,,,488876,,,52.08790600000000,79139,895,info@herefordshire.gov.uk,Herefordshire,http://www.herefordshire.gov.uk/,-2.44611400000000,HR8 1PX,2001-06-05,fhrs_exempt_en-GB,Exempt,,FHRS,
333966,,Peterchurch,,Hereford,Boughton Arms Hotel,Pub/bar/nightclub,7843,5,,489199,5,,52.04267300000000,80310,895,info@herefordshire.gov.uk,Herefordshire,http://www.herefordshire.gov.uk/,-2.95541800000000,HR2 0RT,2013-11-22,fhrs_4_en-GB,4,,FHRS,10
333967,Bowley,Clehonger,,Hereford,Bowley,Hotel/bed & breakfast/guest house,7842,5,,487244,5,,52.03198800000000,111495,895,info@herefordshire.gov.uk,Herefordshire,http://www.herefordshire.gov.uk/,-2.81095100000000,HR2 9TH,2012-07-31,fhrs_5_en-GB,5,,FHRS,0
333968,,,,Bosbury,Bowley Court,Hospitals/Childcare/Caring Premises,5,5,,516347,0,,52.08572600000000,202576,895,info@herefordshire.gov.uk,Herefordshire,http://www.herefordshire.gov.uk/,-2.46115300000000,HR8 1HB,2014-09-19,fhrs_5_en-GB,5,,FHRS,5
333969,Little Brampton Farm,Little Brampton Farm,,Brampton Road,Brampton Golf & Leisure,Restaurant/Cafe/Canteen,1,0,,488055,0,,52.03594100000000,76205,895,info@herefordshire.gov.uk,Herefordshire,http://www.herefordshire.gov.uk/,-2.85827000000000,HR2 9LX,2011-04-14,fhrs_5_en-GB,5,,FHRS,5
333970,,47 Brampton Road,,Hereford,Brampton Road Post Office & Stores,Retailers - other,4613,0,,488516,0,,52.03869300000000,77862,895,info@herefordshire.gov.uk,Herefordshire,http://www.herefordshire.gov.uk/,-2.73306000000000,HR2 7DF,2012-02-01,fhrs_4_en-GB,4,,FHRS,10
333971,Shop,25 Springfield Road,,Ross-On-Wye,Brampton Stores (Premier),Retailers - other,4613,5,,487880,5,,51.92248700000000,200821,895,info@herefordshire.gov.uk,Herefordshire,http://www.herefordshire.gov.uk/,-2.57968900000000,HR9 7EX,2012-06-28,fhrs_5_en-GB,5,,FHRS,5
333972,,Grafton,,Hereford,Brandon Lodge,Hotel/bed & breakfast/guest house,7842,5,,488441,5,,52.03390800000000,77593,895,info@herefordshire.gov.uk,Herefordshire,http://www.herefordshire.gov.uk/,-2.72309900000000,HR2 8BH,2010-05-20,fhrs_5_en-GB,5,,FHRS,5
333973,The Hub,Symonds Street,,Hereford,Brandon Trust,Hospitals/Childcare/Caring Premises,5,,,735502,,,52.05624000000000,208024,895,info@herefordshire.gov.uk,Herefordshire,http://www.herefordshire.gov.uk/,-2.70840700000000,HR1 2HA,,fhrs_awaitinginspection_en-GB,AwaitingInspection,,FHRS,
333974,,97 Eign Road,,Hereford,Brewers Arms,Pub/bar/nightclub,7843,10,,488199,10,,52.05175200000000,76724,895,info@herefordshire.gov.uk,Herefordshire,http://www.herefordshire.gov.uk/,-2.70289700000000,HR1 2RU,2012-11-27,fhrs_3_en-GB,3,,FHRS,10
333975,,Kentchurch,,Hereford,Bridge Inn,Pub/bar/nightclub,7843,5,,488048,10,,51.92766400000000,76175,895,info@herefordshire.gov.uk,Herefordshire,http://www.herefordshire.gov.uk/,-2.85806400000000,HR2 0BY,2013-09-20,fhrs_4_en-GB,4,,FHRS,5
333976,,Wormbridge,,Hereford,Bridges Child Care,Hospitals/Childcare/Caring Premises,5,5,,489245,5,,51.97479200000000,80434,895,info@herefordshire.gov.uk,Herefordshire,http://www.herefordshire.gov.uk/,-2.83222100000000,HR2 9DH,2015-01-20,fhrs_5_en-GB,5,,FHRS,0
333977,,Mill Lane,,Colwall,Bright Sparks Pre-School,Hospitals/Childcare/Caring Premises,5,,,489527,,,52.07574700000000,81487,895,info@herefordshire.gov.uk,Herefordshire,http://www.herefordshire.gov.uk/,-2.36635600000000,WR13 6EQ,2009-11-12,fhrs_exempt_en-GB,Exempt,,FHRS,
333978,Brightwells,Ludlow Road,,Leominster,Brightwells Coffee Shop,Restaurant/Cafe/Canteen,1,5,,488987,5,,52.23171800000000,79493,895,info@herefordshire.gov.uk,Herefordshire,http://www.herefordshire.gov.uk/,-2.73082000000000,HR6 0DE,2014-07-24,fhrs_5_en-GB,5,,FHRS,5
333979,Brightwells,Ludlow Road,,Leominster,Brightwells Country Vehicle Auctions,Retailers - other,4613,,,489553,,,52.23171800000000,81577,895,info@herefordshire.gov.uk,Herefordshire,http://www.herefordshire.gov.uk/,-2.73082000000000,HR6 0DE,2000-08-15,fhrs_exempt_en-GB,Exempt,,FHRS,
333980,Aynall House,Haynall Lane,,Little Hereford,Brimfield & Little Hereford Sports,Restaurant/Cafe/Canteen,1,0,,489259,10,,52.30557100000000,80479,895,info@herefordshire.gov.uk,Herefordshire,http://www.herefordshire.gov.uk/,-2.67562800000000,SY8 4BG,2014-02-22,fhrs_4_en-GB,4,,FHRS,5
333981,,Bringsty Common,,Bringsty,Bringsty Cafe,Restaurant/Cafe/Canteen,1,10,,487904,5,,52.19507900000000,201250,895,info@herefordshire.gov.uk,Herefordshire,http://www.herefordshire.gov.uk/,-2.42985000000000,WR6 5UJ,2014-02-21,fhrs_4_en-GB,4,,FHRS,5
333982,Britannia Inn,7 Cotterell Street,,Hereford,Britannia Inn,Pub/bar/nightclub,7843,5,,487527,0,,52.05862600000000,143790,895,info@herefordshire.gov.uk,Herefordshire,http://www.herefordshire.gov.uk/,-2.73290500000000,HR4 0HH,2010-07-08,fhrs_5_en-GB,5,,FHRS,0
333983,Broad Oak Garage,Broad Oak,,Hereford,Broad Oak Garage,Retailers - other,4613,5,,489412,0,,51.88811600000000,81056,895,info@herefordshire.gov.uk,Herefordshire,http://www.herefordshire.gov.uk/,-2.75671800000000,HR2 8QU,2013-05-02,fhrs_5_en-GB,5,,FHRS,0
333984,Broadfield Court,Bowley Lane,,Risbury,Broadfield Court Gardens & Vineyard,Restaurant/Cafe/Canteen,1,5,,488891,0,,52.17755700000000,79190,895,info@herefordshire.gov.uk,Herefordshire,http://www.herefordshire.gov.uk/,-2.67225300000000,HR1 3LG,2013-10-29,fhrs_5_en-GB,5,,FHRS,5
333985,,Over Ross Street,,Ross On Wye,Broadlands Bed & Breakfast,Hotel/bed & breakfast/guest house,7842,5,,489403,5,,51.92002900000000,81021,895,info@herefordshire.gov.uk,Herefordshire,http://www.herefordshire.gov.uk/,-2.57858100000000,HR9 7AU,2011-02-22,fhrs_5_en-GB,5,,FHRS,5
333986,Broadlands Primary School,Broadlands Lane,,Hereford,Broadlands Bright Sparks Playgroup,Hospitals/Childcare/Caring Premises,5,,,487228,,,52.06298700000000,107516,895,info@herefordshire.gov.uk,Herefordshire,http://www.herefordshire.gov.uk/,-2.69274600000000,HR1 1NZ,2011-05-11,fhrs_exempt_en-GB,Exempt,,FHRS,
333987,Broadlands Primary School,Broadlands Lane,,Hereford,Broadlands Childrens Centre,Hospitals/Childcare/Caring Premises,5,,,487709,,,52.06298700000000,154535,895,info@herefordshire.gov.uk,Herefordshire,http://www.herefordshire.gov.uk/,-2.69274600000000,HR1 1NZ,2011-05-11,fhrs_exempt_en-GB,Exempt,,FHRS,
333988,Broadlands Primary School,Broadlands Lane,,Hereford,Broadlands Extended Schools Club,School/college/university,7845,5,,489547,0,,52.06298700000000,81561,895,info@herefordshire.gov.uk,Herefordshire,http://www.herefordshire.gov.uk/,-2.69274600000000,HR1 1NZ,2011-05-11,fhrs_5_en-GB,5,,FHRS,0
333989,Broadward Hall,Leominster,,Herefordshire,Broadward Hall,Retailers - other,4613,,,487327,,,52.21064600000000,114507,895,info@herefordshire.gov.uk,Herefordshire,http://www.herefordshire.gov.uk/,-2.73782000000000,HR6 8QG,1998-10-02,fhrs_exempt_en-GB,Exempt,,FHRS,
333990,,Brockhampton Village Road,,Brockhampton,Brockhampton Court Nursing Home,Hospitals/Childcare/Caring Premises,5,5,,489621,10,,51.98271200000000,81862,895,info@herefordshire.gov.uk,Herefordshire,http://www.herefordshire.gov.uk/,-2.58436900000000,HR1 4TQ,2014-11-24,fhrs_4_en-GB,4,,FHRS,5
333991,,Brockhampton,,Hereford,Brockhampton Cricket Club,Pub/bar/nightclub,7843,5,,489489,5,,51.98271200000000,81351,895,info@herefordshire.gov.uk,Herefordshire,http://www.herefordshire.gov.uk/,-2.58436900000000,HR1 4TQ,2010-09-29,fhrs_5_en-GB,5,,FHRS,5
333992,,Brockhampton Park,,Bringsty,Brockhampton House,Retailers - other,4613,,,489145,,,52.19231100000000,80075,895,info@herefordshire.gov.uk,Herefordshire,http://www.herefordshire.gov.uk/,-2.46295800000000,WR6 5TB,2003-09-25,fhrs_exempt_en-GB,Exempt,,FHRS,
333993,Brockington Golf Club,Bodenham,,Hereford,Brockington Tea Rooms,Restaurant/Cafe/Canteen,1,10,,488402,5,,52.15761500000000,77473,895,info@herefordshire.gov.uk,Herefordshire,http://www.herefordshire.gov.uk/,-2.66613400000000,HR1 3HX,2014-10-21,fhrs_3_en-GB,3,,FHRS,10
333994,Bromley Court,Hoarwithy,,Herefordshire,Bromley Court,Other catering premises,7841,5,,487295,5,,51.96716100000000,113278,895,info@herefordshire.gov.uk,Herefordshire,http://www.herefordshire.gov.uk/,-2.67915700000000,HR2 6QN,2006-03-06,fhrs_5_en-GB,5,,FHRS,5
333995,"Cricket Club At Sports Ground,",Panniers Lane,,Bromyard,Bromyard Cricket Club,Restaurant/Cafe/Canteen,1,,,488809,,,52.18568200000000,78922,895,info@herefordshire.gov.uk,Herefordshire,http://www.herefordshire.gov.uk/,-2.51981700000000,HR7 4QR,2004-07-06,fhrs_exempt_en-GB,Exempt,,FHRS,
333996,,Cruxwell Street,,Bromyard,Bromyard Leisure Centre,Restaurant/Cafe/Canteen,1,,,489542,,,52.18997800000000,81528,895,info@herefordshire.gov.uk,Herefordshire,http://www.herefordshire.gov.uk/,-2.50771100000000,HR7 4EB,2004-07-16,fhrs_exempt_en-GB,Exempt,,FHRS,
333997,,25-27 Broad Street,,Bromyard,Bromyard Masonic Club,Restaurant/Cafe/Canteen,1,5,,488076,5,,52.18874600000000,76285,895,info@herefordshire.gov.uk,Herefordshire,http://www.herefordshire.gov.uk/,-2.50572200000000,HR7 4BT,2008-02-12,fhrs_5_en-GB,5,,FHRS,0
333998,,Instone House,,Tenbury Road,Bromyard Rugby Club,Restaurant/Cafe/Canteen,1,,,489457,,,52.19160000000000,81262,895,info@herefordshire.gov.uk,Herefordshire,http://www.herefordshire.gov.uk/,-2.50904600000000,HR7 4LW,2005-11-18,fhrs_exempt_en-GB,Exempt,,FHRS,
333999,"Bromyard Town Football Club, Delahay Meadow Sports Ground",,,Bromyard,Bromyard Town FC,Other catering premises,7841,10,,612425,10,,52.19236700000000,204550,895,info@herefordshire.gov.uk,Herefordshire,http://www.herefordshire.gov.uk/,-2.49765900000000,HR7 4NT,2014-02-21,fhrs_3_en-GB,3,,FHRS,10
334000,Brook House Barn,Leys Lane,,Bircher,Brook House Barn,Hotel/bed & breakfast/guest house,7842,5,,537926,0,,52.28777800000000,171035,895,info@herefordshire.gov.uk,Herefordshire,http://www.herefordshire.gov.uk/,-2.76987400000000,HR6 0AY,2013-05-16,fhrs_5_en-GB,5,,FHRS,0
334001,Brook House Farm,Brook Lane,,Yarpole,Brook House Farm,Other catering premises,7841,,,487317,,,52.27869300000000,114115,895,info@herefordshire.gov.uk,Herefordshire,http://www.herefordshire.gov.uk/,-2.77865800000000,HR6 0BB,2005-01-31,fhrs_exempt_en-GB,Exempt,,FHRS,
334002,,Over Ross Street,,Ross-On-Wye,Brookfield House,Hotel/bed & breakfast/guest house,7842,5,,488489,5,,51.91922000000000,77759,895,info@herefordshire.gov.uk,Herefordshire,http://www.herefordshire.gov.uk/,-2.57860000000000,HR9 7AT,2009-03-18,fhrs_5_en-GB,5,,FHRS,5
334003,,Grandstand Road,,Hereford,Brookfield School,School/college/university,7845,0,,488931,0,,52.06747600000000,79325,895,info@herefordshire.gov.uk,Herefordshire,http://www.herefordshire.gov.uk/,-2.73103700000000,HR4 9NG,2013-06-05,fhrs_5_en-GB,5,,FHRS,5
334004,Broome Farm,Wellsbrook Lane,,Peterstow,Broome Farm,Retailers - other,4613,10,,487282,10,,51.92151600000000,112657,895,info@herefordshire.gov.uk,Herefordshire,http://www.herefordshire.gov.uk/,-2.63202400000000,HR9 6QG,2008-01-24,fhrs_4_en-GB,4,,FHRS,0
334005,,43 Breinton Road,,Hereford,Broomy Hill Nursing Home,Hospitals/Childcare/Caring Premises,5,0,,489224,0,,52.05390500000000,80378,895,info@herefordshire.gov.uk,Herefordshire,http://www.herefordshire.gov.uk/,-2.73304700000000,HR4 0JY,2014-03-25,fhrs_5_en-GB,5,,FHRS,0
334006,,Bulmer Avenue,,Hereford,Bryngwyn Court,Hospitals/Childcare/Caring Premises,5,,,488305,,,52.06303800000000,77105,895,info@herefordshire.gov.uk,Herefordshire,http://www.herefordshire.gov.uk/,-2.70835500000000,HR1 1ER,2005-05-10,fhrs_exempt_en-GB,Exempt,,FHRS,
334007,,The Old Laundry,,Clenchers Mill Lane,Bubbles Nursery,Hospitals/Childcare/Caring Premises,5,10,,488627,0,,52.03144700000000,78304,895,info@herefordshire.gov.uk,Herefordshire,http://www.herefordshire.gov.uk/,-2.39504400000000,HR8 1RD,2015-01-15,fhrs_4_en-GB,4,,FHRS,10
334008,,Craswall,,Herefordshire,Bulls Head,Pub/bar/nightclub,7843,0,,487312,5,,52.01416300000000,114035,895,info@herefordshire.gov.uk,Herefordshire,http://www.herefordshire.gov.uk/,-3.04437900000000,HR2 0PN,2011-10-07,fhrs_5_en-GB,5,,FHRS,0
334009,,4 High Street,,Leominster,Bumbles,Retailers - other,4613,,,488463,,,52.22743300000000,77662,895,info@herefordshire.gov.uk,Herefordshire,http://www.herefordshire.gov.uk/,-2.73891900000000,HR6 8LZ,2008-02-06,fhrs_exempt_en-GB,Exempt,,FHRS,
334010,,Hampton Bishop,,Hereford,Bunch Of Carrots,Pub/bar/nightclub,7843,5,,488026,5,,52.03985500000000,76090,895,info@herefordshire.gov.uk,Herefordshire,http://www.herefordshire.gov.uk/,-2.65652300000000,HR1 4JR,2013-11-08,fhrs_5_en-GB,5,,FHRS,0
334011,,34a Gloucester Road,,Ross On Wye,Burger Star Restaurant,Takeaway/sandwich shop,7844,10,,488732,10,,51.91382200000000,78662,895,info@herefordshire.gov.uk,Herefordshire,http://www.herefordshire.gov.uk/,-2.58289200000000,HR9 5BS,2014-07-29,fhrs_3_en-GB,3,,FHRS,10
334012,,Burghill,,Hereford,Burghill Valley Golf Club,Restaurant/Cafe/Canteen,1,5,,488883,5,,52.09792500000000,79165,895,info@herefordshire.gov.uk,Herefordshire,http://www.herefordshire.gov.uk/,-2.76817700000000,HR4 7RW,2014-01-31,fhrs_4_en-GB,4,,FHRS,10
334013,,Burley Gate,,Hereford,Burley Gate C E Primary School,School/college/university,7845,5,,488979,0,,52.12201200000000,79472,895,info@herefordshire.gov.uk,Herefordshire,http://www.herefordshire.gov.uk/,-2.59201800000000,HR1 3QR,2015-01-13,fhrs_5_en-GB,5,,FHRS,5
334014,,Burley Gate,,Hereford,Burley Gate Post Office/stores,Retailers - other,4613,10,,489386,0,,52.12267200000000,80948,895,info@herefordshire.gov.uk,Herefordshire,http://www.herefordshire.gov.uk/,-2.58402200000000,HR1 3QS,2010-03-29,fhrs_4_en-GB,4,,FHRS,0
334015,,Burley Gate Church Of England Primary School,,Burley Gate,Burley Gate Pre School,Hospitals/Childcare/Caring Premises,5,,,489106,,,52.12201200000000,79909,895,info@herefordshire.gov.uk,Herefordshire,http://www.herefordshire.gov.uk/,-2.59201800000000,HR1 3QR,2006-05-16,fhrs_exempt_en-GB,Exempt,,FHRS,
334016,,Burton Court Lane,,Eardisland,Burton Court,Other catering premises,7841,,,488232,,,52.21466100000000,76816,895,info@herefordshire.gov.uk,Herefordshire,http://www.herefordshire.gov.uk/,-2.84679800000000,HR6 9DN,2009-11-11,fhrs_exempt_en-GB,Exempt,,FHRS,
334017,,Mill Street,,Kington,Burton Hotel,Pub/bar/nightclub,7843,5,,488986,5,,52.20315000000000,79486,895,info@herefordshire.gov.uk,Herefordshire,http://www.herefordshire.gov.uk/,-3.03126100000000,HR5 3BQ,2013-10-16,fhrs_5_en-GB,5,,FHRS,5
334018,,Commercial Road,,Hereford,Bus Station Cafe,Restaurant/Cafe/Canteen,1,0,,488956,0,,52.05804400000000,79416,895,info@herefordshire.gov.uk,Herefordshire,http://www.herefordshire.gov.uk/,-2.70910700000000,HR1 2BL,2012-01-12,fhrs_5_en-GB,5,,FHRS,0
334019,,65-69 Mortimer Road,,Hereford,Busy Bees,Hospitals/Childcare/Caring Premises,5,,,488548,,,52.06697500000000,77992,895,info@herefordshire.gov.uk,Herefordshire,http://www.herefordshire.gov.uk/,-2.71902300000000,HR4 9SP,2012-10-05,fhrs_exempt_en-GB,Exempt,,FHRS,
334020,The Green Farm,Hardwicke Hay-On-Wye,,Hereford,Busy Bees Nursery & Pre-School,Hospitals/Childcare/Caring Premises,5,10,,487983,10,,52.09580200000000,75923,895,info@herefordshire.gov.uk,Herefordshire,http://www.herefordshire.gov.uk/,-3.06136500000000,HR3 5HA,2014-11-06,fhrs_4_en-GB,4,,FHRS,0
334021,"Nursery Unit, Ledbury Primary School",Orchard Lane,,Ledbury,Busy Bees Pre-School,Hospitals/Childcare/Caring Premises,5,,,488093,,,52.03842500000000,76333,895,info@herefordshire.gov.uk,Herefordshire,http://www.herefordshire.gov.uk/,-2.42825800000000,HR8 2AU,2008-02-05,fhrs_exempt_en-GB,Exempt,,FHRS,
334022,Wellington Primary School,Wellington Primary School,,Wellington,Busy Bees Pre-School,Hospitals/Childcare/Caring Premises,5,,,489615,,,52.12993000000000,81837,895,info@herefordshire.gov.uk,Herefordshire,http://www.herefordshire.gov.uk/,-2.73753800000000,HR4 8AZ,2012-03-07,fhrs_exempt_en-GB,Exempt,,FHRS,
334023,Old Malt House,Ewyas Harold,,Herefordshire,Butchers Shop,Retailers - other,4613,10,,487308,5,,51.95324500000000,113947,895,info@herefordshire.gov.uk,Herefordshire,http://www.herefordshire.gov.uk/,-2.89301000000000,HR2 0EX,2014-01-28,fhrs_4_en-GB,4,,FHRS,5
334024,Gorsley Goffs Endowed Primary,Gorsley Goffs Primary School,,Gorsley,Butterfingers,Hospitals/Childcare/Caring Premises,5,,,489549,,,51.93165500000000,81566,895,info@herefordshire.gov.uk,Herefordshire,http://www.herefordshire.gov.uk/,-2.47827500000000,HR9 7SE,2008-09-16,fhrs_exempt_en-GB,Exempt,,FHRS,
334025,"Tea Room, The Buttley",,,Winforton,Buttley Tea Room,Restaurant/Cafe/Canteen,1,5,,489077,5,,52.11677700000000,79821,895,info@herefordshire.gov.uk,Herefordshire,http://www.herefordshire.gov.uk/,-3.02900300000000,HR3 6EA,2013-08-14,fhrs_4_en-GB,4,,FHRS,10
334026,,Dilwyn,,Hereford,Buzzard House,Hotel/bed & breakfast/guest house,7842,,,717954,,,52.19250500000000,161919,895,info@herefordshire.gov.uk,Herefordshire,http://www.herefordshire.gov.uk/,-2.86334600000000,HR4 8HP,,fhrs_awaitinginspection_en-GB,AwaitingInspection,,FHRS,
334027,,,,,Bye Cross Farm Campsite,Restaurant/Cafe/Canteen,1,5,,666773,5,,,199956,895,info@herefordshire.gov.uk,Herefordshire,http://www.herefordshire.gov.uk/,,,2014-07-28,fhrs_4_en-GB,4,,FHRS,10
334028,,52 High Street,,Bromyard,C & C Laming & Sons,Retailers - other,4613,5,,489594,5,,52.18965500000000,81763,895,info@herefordshire.gov.uk,Herefordshire,http://www.herefordshire.gov.uk/,-2.50766400000000,HR7 4AE,2014-04-09,fhrs_5_en-GB,5,,FHRS,5
334029,Unit 1,Hatton Gardens Industrial Esta,,Kington,C & P Brookes,Retailers - other,4613,,,488734,,,52.20676100000000,78673,895,info@herefordshire.gov.uk,Herefordshire,http://www.herefordshire.gov.uk/,-3.02031000000000,HR5 3RB,2003-05-15,fhrs_exempt_en-GB,Exempt,,FHRS,
334030,,,,,C G Catering,Mobile caterer,7846,,,488597,,,,78164,895,info@herefordshire.gov.uk,Herefordshire,http://www.herefordshire.gov.uk/,,,2005-11-18,fhrs_exempt_en-GB,Exempt,,FHRS,
334031,Bromyard Public Hall,Rowberry Street,,Bromyard,C J Raven (Myrtles Kitchen),Manufacturers/packers,7839,,,730993,,,52.18979200000000,207800,895,info@herefordshire.gov.uk,Herefordshire,http://www.herefordshire.gov.uk/,-2.50696300000000,HR7 4DU,2015-01-23,fhrs_exempt_en-GB,Exempt,,FHRS,
334032,,79 St Owen Street,,Hereford,C Ogleby,Retailers - other,4613,5,,489557,5,,52.05439400000000,81617,895,info@herefordshire.gov.uk,Herefordshire,http://www.herefordshire.gov.uk/,-2.71049300000000,HR1 2JQ,2013-07-04,fhrs_5_en-GB,5,,FHRS,5
334033,,20 Commercial Road,,Hereford,C R News,Retailers - other,4613,5,,590424,0,,52.05855300000000,204135,895,info@herefordshire.gov.uk,Herefordshire,http://www.herefordshire.gov.uk/,-2.71109900000000,HR1 2BD,2013-10-15,fhrs_5_en-GB,5,,FHRS,5
334034,,Much Birch,,Herefordshire,Cabin Childcare,Hospitals/Childcare/Caring Premises,5,5,,488183,0,,51.97559200000000,76676,895,info@herefordshire.gov.uk,Herefordshire,http://www.herefordshire.gov.uk/,-2.72779300000000,HR2 8HL,2014-04-11,fhrs_5_en-GB,5,,FHRS,0
334035,Cadbury Schweppes Factory,Hereford Road,,Leominster,Cadbury staff canteen,Restaurant/Cafe/Canteen,1,0,,488292,0,,52.18732600000000,77061,895,info@herefordshire.gov.uk,Herefordshire,http://www.herefordshire.gov.uk/,-2.72446000000000,HR6 0PE,2013-02-25,fhrs_5_en-GB,5,,FHRS,5
334036,All Saints Church,High Street,,Hereford,Cafe @ All Saints,Restaurant/Cafe/Canteen,1,0,,488691,0,,52.05630500000000,78539,895,info@herefordshire.gov.uk,Herefordshire,http://www.herefordshire.gov.uk/,-2.71713100000000,HR4 9AA,2012-02-08,fhrs_5_en-GB,5,,FHRS,5
334037,,16 High Street,,Ledbury,Cafe @ Nice Things,Restaurant/Cafe/Canteen,1,10,,622845,5,,52.03636900000000,204672,895,info@herefordshire.gov.uk,Herefordshire,http://www.herefordshire.gov.uk/,-2.42231900000000,HR8 1DS,2014-01-20,fhrs_3_en-GB,3,,FHRS,10
334038,Ryefield Centre,Grammar School Close,,Ross On Wye,Cafe 13,Restaurant/Cafe/Canteen,1,5,,487628,0,,51.91502500000000,152102,895,info@herefordshire.gov.uk,Herefordshire,http://www.herefordshire.gov.uk/,-2.57601600000000,HR9 7QD,2014-01-14,fhrs_5_en-GB,5,,FHRS,0
334039,,11-14 West Street,,Hereford,Cafe Ascari,Restaurant/Cafe/Canteen,1,5,,489080,5,,52.05605400000000,79824,895,info@herefordshire.gov.uk,Herefordshire,http://www.herefordshire.gov.uk/,-2.71843900000000,HR4 0BX,2015-02-10,fhrs_5_en-GB,5,,FHRS,5
334040,Unit 7,Croft Court,,Ross-On-Wye,Cafe eazz,Restaurant/Cafe/Canteen,1,5,,487943,5,,51.91464300000000,202049,895,info@herefordshire.gov.uk,Herefordshire,http://www.herefordshire.gov.uk/,-2.58220500000000,HR9 7AB,2013-01-03,fhrs_5_en-GB,5,,FHRS,0
334041,The Hereford Bazarr,10a St Peters Street,,Hereford,Cafe Fran,Retailers - other,4613,10,,487778,5,,52.05624000000000,197371,895,info@herefordshire.gov.uk,Herefordshire,http://www.herefordshire.gov.uk/,-2.71447500000000,HR1 2LE,2012-01-10,fhrs_4_en-GB,4,,FHRS,0
334042,Wyche Innovation Centre,Walwyn Road,,Upper Colwall,Cafe H20,Other catering premises,7841,5,,507673,5,,52.08802200000000,202343,895,info@herefordshire.gov.uk,Herefordshire,http://www.herefordshire.gov.uk/,-2.34152900000000,WR13 6PL,2013-03-21,fhrs_5_en-GB,5,,FHRS,0
334043,,43 St Owen Street,,Hereford,Cafe Miro,Restaurant/Cafe/Canteen,1,5,,606692,5,,52.05531100000000,204422,895,info@herefordshire.gov.uk,Herefordshire,http://www.herefordshire.gov.uk/,-2.71206800000000,HR1 2JB,2014-02-04,fhrs_5_en-GB,5,,FHRS,5
334044,,18 Market Square,,Bromyard,Cafe on the Corner,Restaurant/Cafe/Canteen,1,5,,700088,0,,52.18905600000000,206805,895,info@herefordshire.gov.uk,Herefordshire,http://www.herefordshire.gov.uk/,-2.50467300000000,HR7 4BP,2014-09-02,fhrs_5_en-GB,5,,FHRS,5
334045,,20 Broad Street,,Leominster,Cafe Savery's Ltd,Restaurant/Cafe/Canteen,1,5,,542669,0,,52.22866600000000,203007,895,info@herefordshire.gov.uk,Herefordshire,http://www.herefordshire.gov.uk/,-2.73883700000000,HR6 8BS,2014-10-31,fhrs_4_en-GB,4,,FHRS,10
334046,Amcor Flexibles,Lower Road Trading Estate,,Ledbury,Cafe Spa Refreshment Services,Restaurant/Cafe/Canteen,1,5,,489010,0,,52.03618900000000,79559,895,info@herefordshire.gov.uk,Herefordshire,http://www.herefordshire.gov.uk/,-2.43470900000000,HR8 2DJ,2012-08-16,fhrs_5_en-GB,5,,FHRS,0
334047,Community Centre At School House,High Street,,Leintwardine,Cafe Tuesday,Restaurant/Cafe/Canteen,1,10,,494144,5,,52.36138500000000,202191,895,info@herefordshire.gov.uk,Herefordshire,http://www.herefordshire.gov.uk/,-2.87648900000000,SY7 0LB,2013-04-23,fhrs_4_en-GB,4,,FHRS,5
334048,,23 High Street,,Ross On Wye,Cafe Zam Zam,Takeaway/sandwich shop,7844,5,,488193,5,,51.91363700000000,76710,895,info@herefordshire.gov.uk,Herefordshire,http://www.herefordshire.gov.uk/,-2.58382000000000,HR9 5BZ,2013-02-26,fhrs_5_en-GB,5,,FHRS,5
334049,Estate Canteen,Netherwood Road,,Hereford,Cafe/Diner,Restaurant/Cafe/Canteen,1,10,,487528,5,,52.03776100000000,143843,895,info@herefordshire.gov.uk,Herefordshire,http://www.herefordshire.gov.uk/,-2.68942600000000,HR2 6JU,2014-03-13,fhrs_4_en-GB,4,,FHRS,5
334050,,,,,Caffe Alfresco,Mobile caterer,7846,5,,488825,0,,,78957,895,info@herefordshire.gov.uk,Herefordshire,http://www.herefordshire.gov.uk/,,,2013-05-16,fhrs_5_en-GB,5,,FHRS,0
334051,,2 Broad Street,,Ross On Wye,Caffe Eleganza,Restaurant/Cafe/Canteen,1,0,,489357,0,,51.91473400000000,80854,895,info@herefordshire.gov.uk,Herefordshire,http://www.herefordshire.gov.uk/,-2.58392200000000,HR9 7DZ,2012-02-01,fhrs_5_en-GB,5,,FHRS,0
334052,,8 Eign Gate,,Hereford,Caffe Nero,Restaurant/Cafe/Canteen,1,0,,489211,0,,52.05635700000000,80354,895,info@herefordshire.gov.uk,Herefordshire,http://www.herefordshire.gov.uk/,-2.71896900000000,HR4 0AB,2012-01-24,fhrs_5_en-GB,5,,FHRS,5
334053,High View,,,Longtown,Cakes & Catering,Manufacturers/packers,7839,5,,487725,5,,51.96534200000000,161943,895,info@herefordshire.gov.uk,Herefordshire,http://www.herefordshire.gov.uk/,-2.97295600000000,HR2 0LU,2015-01-20,fhrs_5_en-GB,5,,FHRS,5
334054,,44a Eign Gate,,Hereford,Cakes and Catering,Retailers - other,4613,5,,558935,5,,52.05635700000000,203366,895,info@herefordshire.gov.uk,Herefordshire,http://www.herefordshire.gov.uk/,-2.71896900000000,HR4 0AB,2013-09-04,fhrs_5_en-GB,5,,FHRS,5
334055,,,,,Callow Child Care,Hospitals/Childcare/Caring Premises,5,,,700083,,,,206669,895,info@herefordshire.gov.uk,Herefordshire,http://www.herefordshire.gov.uk/,,,2015-01-30,fhrs_exempt_en-GB,Exempt,,FHRS,
334056,,Ledbury,,Herefordshire,Callow Hills Farm - Priory Queenswood School,Hospitals/Childcare/Caring Premises,5,0,,488576,0,,52.05337400000000,78097,895,info@herefordshire.gov.uk,Herefordshire,http://www.herefordshire.gov.uk/,-2.48447400000000,HR8 2PZ,2013-03-06,fhrs_5_en-GB,5,,FHRS,5
334057,,15 The Homend,,Ledbury,Cameron & Swan,Restaurant/Cafe/Canteen,1,5,,509748,0,,52.03758100000000,202468,895,info@herefordshire.gov.uk,Herefordshire,http://www.herefordshire.gov.uk/,-2.42297200000000,HR8 1BN,2014-09-12,fhrs_5_en-GB,5,,FHRS,5
334058,,Canal Road,,Hereford,Canal Road Day Centre,Restaurant/Cafe/Canteen,1,0,,488892,5,,52.05959600000000,79191,895,info@herefordshire.gov.uk,Herefordshire,http://www.herefordshire.gov.uk/,-2.71118900000000,HR1 2EA,2011-10-18,fhrs_5_en-GB,5,,FHRS,0
334059,,4 St Martins Avenue,,Hereford,Candy Castle,Retailers - other,4613,5,,489304,5,,52.05078100000000,80631,895,info@herefordshire.gov.uk,Herefordshire,http://www.herefordshire.gov.uk/,-2.71772700000000,HR2 7RQ,2009-06-26,fhrs_5_en-GB,5,,FHRS,5
334060,Canon Pyon Church Of England P,Canon Pyon Primary School,,Canon Pyon,Canon Pyon Breakfast Club,Hospitals/Childcare/Caring Premises,5,,,488882,,,52.14389100000000,79160,895,info@herefordshire.gov.uk,Herefordshire,http://www.herefordshire.gov.uk/,-2.79322600000000,HR4 8PF,2008-02-08,fhrs_exempt_en-GB,Exempt,,FHRS,
334061,,Canon Pyon,,Hereford,Canon Pyon Post Office & Stores,Retailers - other,4613,,,488840,,,52.13406800000000,79011,895,info@herefordshire.gov.uk,Herefordshire,http://www.herefordshire.gov.uk/,-2.78595100000000,HR4 8NU,2005-11-08,fhrs_exempt_en-GB,Exempt,,FHRS,
334062,Herefordshire College Of Agric,B4399 Holme Lacy,,Holme Lacy,Canteen - Holme Lacy College Of Agriculture,Restaurant/Cafe/Canteen,1,0,,488062,0,,52.01702900000000,76221,895,info@herefordshire.gov.uk,Herefordshire,http://www.herefordshire.gov.uk/,-2.65448400000000,HR2 6LL,2014-02-24,fhrs_5_en-GB,5,,FHRS,5
334063,,Fownhope,,Hereford,Caplor Farm,Retailers - other,4613,,,489038,,,52.00080000000000,79644,895,info@herefordshire.gov.uk,Herefordshire,http://www.herefordshire.gov.uk/,-2.58814400000000,HR1 4PT,2001-07-16,fhrs_exempt_en-GB,Exempt,,FHRS,
334064,,,,,Caprice,Retailers - other,4613,,,487763,,,,197201,895,info@herefordshire.gov.uk,Herefordshire,http://www.herefordshire.gov.uk/,,,2011-08-25,fhrs_exempt_en-GB,Exempt,,FHRS,
334065,,,,,Captain Falafel,Other catering premises,7841,10,,487737,0,,,180036,895,info@herefordshire.gov.uk,Herefordshire,http://www.herefordshire.gov.uk/,,,2012-10-31,fhrs_4_en-GB,4,,FHRS,5
334066,,Sellack,,Ross-On-Wye,Caradoc Court,Hotel/bed & breakfast/guest house,7842,5,,487494,0,,51.94312600000000,142533,895,info@herefordshire.gov.uk,Herefordshire,http://www.herefordshire.gov.uk/,-2.64438800000000,HR9 6LS,2010-04-30,fhrs_5_en-GB,5,,FHRS,5
334067,,6 Gomond Street,,Hereford,Card Factory,Retailers - other,4613,,,487846,,,52.05713600000000,200008,895,info@herefordshire.gov.uk,Herefordshire,http://www.herefordshire.gov.uk/,-2.71494200000000,HR1 2DP,,fhrs_exempt_en-GB,Exempt,,FHRS,
334068,,5 Broad Street,,Ross-On-Wye,Card Factory,Retailers - other,4613,,,487847,,,51.91473400000000,200009,895,info@herefordshire.gov.uk,Herefordshire,http://www.herefordshire.gov.uk/,-2.58392200000000,HR9 7DZ,,fhrs_exempt_en-GB,Exempt,,FHRS,
334069,,23 Maylord Street,,Hereford,Card Factory,Retailers - other,4613,,,724414,,,52.05757200000000,207568,895,info@herefordshire.gov.uk,Herefordshire,http://www.herefordshire.gov.uk/,-2.71570700000000,HR1 2DS,,fhrs_awaitinginspection_en-GB,AwaitingInspection,,FHRS,
334070,Sun Valley Factory,Yazor Road,,Hereford,Cargill Retail Shop,Retailers - other,4613,5,,488498,10,,52.06428000000000,77798,895,info@herefordshire.gov.uk,Herefordshire,http://www.herefordshire.gov.uk/,-2.73467600000000,HR4 9XG,2014-02-26,fhrs_4_en-GB,4,,FHRS,5
334071,,Walterstone,,Herefordshire,Carpenters Arms,Pub/bar/nightclub,7843,0,,488553,5,,51.91953700000000,78007,895,info@herefordshire.gov.uk,Herefordshire,http://www.herefordshire.gov.uk/,-2.96043400000000,HR2 0DX,2012-03-09,fhrs_5_en-GB,5,,FHRS,0
334072,,12 Gateway Lane,,Leominster,Cash Stores,Retailers - other,4613,5,,489314,5,,52.22353100000000,80675,895,info@herefordshire.gov.uk,Herefordshire,http://www.herefordshire.gov.uk/,-2.74047900000000,HR6 8LF,2009-02-11,fhrs_5_en-GB,5,,FHRS,5
334073,,Madley,,Hereford,Castle Farm Pork,Retailers - other,4613,5,,489385,5,,52.04083200000000,80947,895,info@herefordshire.gov.uk,Herefordshire,http://www.herefordshire.gov.uk/,-2.86690800000000,HR2 9NU,2011-11-23,fhrs_5_en-GB,5,,FHRS,5
334074,,Quay Street,,Hereford,Castle Green Bowling Club,Restaurant/Cafe/Canteen,1,,,488191,,,52.05369600000000,76702,895,info@herefordshire.gov.uk,Herefordshire,http://www.herefordshire.gov.uk/,-2.71299100000000,HR1 2NW,2003-03-19,fhrs_exempt_en-GB,Exempt,,FHRS,
334075,,Castle Street,,Hereford,Castle House Hotel,Hotel/bed & breakfast/guest house,7842,0,,488118,5,,52.05409700000000,76412,895,info@herefordshire.gov.uk,Herefordshire,http://www.herefordshire.gov.uk/,-2.71209300000000,HR1 2NR,2012-01-05,fhrs_5_en-GB,5,,FHRS,0
334076,,Castle Road,,Richards Castle,Castle Inn,Pub/bar/nightclub,7843,,,488405,,,52.32405200000000,77488,895,info@herefordshire.gov.uk,Herefordshire,http://www.herefordshire.gov.uk/,-2.74495900000000,SY8 4EW,2004-03-17,fhrs_exempt_en-GB,Exempt,,FHRS,
334077,,Benhall Lane,,Wilton,Castle Lodge Hotel,Hotel/bed & breakfast/guest house,7842,5,,488293,10,,51.91593400000000,77064,895,info@herefordshire.gov.uk,Herefordshire,http://www.herefordshire.gov.uk/,-2.59917400000000,HR9 6AD,2014-11-13,fhrs_4_en-GB,4,,FHRS,5
334078,,1-3 Castle Fields,,Leominster,Castlefields Stores,Retailers - other,4613,5,,488764,5,,52.22219800000000,78757,895,info@herefordshire.gov.uk,Herefordshire,http://www.herefordshire.gov.uk/,-2.73512800000000,HR6 8BG,2009-02-10,fhrs_5_en-GB,5,,FHRS,5
334079,,Oaktree Cottage,,Leys Hill,CATS,Other catering premises,7841,10,,558939,5,,51.86894300000000,77060,895,info@herefordshire.gov.uk,Herefordshire,http://www.herefordshire.gov.uk/,-2.59991500000000,HR9 5QU,2013-06-19,fhrs_4_en-GB,4,,FHRS,5
334080,,Evendine Lane,,Colwall,Caves Folly Nurseries,Retailers - other,4613,,,489234,,,52.06935100000000,80399,895,info@herefordshire.gov.uk,Herefordshire,http://www.herefordshire.gov.uk/,-2.36452400000000,WR13 6DX,2008-08-28,fhrs_exempt_en-GB,Exempt,,FHRS,
334081,,21 High Street,,Ledbury,Ceci Paolo Delicatessen & Caffe Bar,Retailers - other,4613,0,,488988,5,,52.03636900000000,79497,895,info@herefordshire.gov.uk,Herefordshire,http://www.herefordshire.gov.uk/,-2.42231900000000,HR8 1DS,2014-03-04,fhrs_5_en-GB,5,,FHRS,0
334082,,123 Whitecross Road,,Hereford,Cedar Guest House,Hotel/bed & breakfast/guest house,7842,5,,489064,5,,52.05925800000000,79764,895,info@herefordshire.gov.uk,Herefordshire,http://www.herefordshire.gov.uk/,-2.73252200000000,HR4 0LS,2011-04-07,fhrs_5_en-GB,5,,FHRS,5
334083,,1 High Street,,Ledbury,Celebration,Retailers - other,4613,5,,489494,5,,52.03636900000000,81372,895,info@herefordshire.gov.uk,Herefordshire,http://www.herefordshire.gov.uk/,-2.42231900000000,HR8 1DS,2008-01-15,fhrs_5_en-GB,5,,FHRS,0
334084,,6 West Street,,Leominster,Central Bakery,Manufacturers/packers,7839,5,,489273,5,,52.22686900000000,80515,895,info@herefordshire.gov.uk,Herefordshire,http://www.herefordshire.gov.uk/,-2.74009500000000,HR6 8ES,2015-01-20,fhrs_4_en-GB,4,,FHRS,10
334085,,18a West Street,,Hereford,Central Dojo,Retailers - other,4613,,,489424,,,52.05605400000000,81095,895,info@herefordshire.gov.uk,Herefordshire,http://www.herefordshire.gov.uk/,-2.71843900000000,HR4 0BX,2004-03-03,fhrs_exempt_en-GB,Exempt,,FHRS,
334086,,Church Road,,Eardisley,Central Stores,Retailers - other,4613,0,,488819,0,,52.13955700000000,78943,895,info@herefordshire.gov.uk,Herefordshire,http://www.herefordshire.gov.uk/,-3.00750700000000,HR3 6NJ,2013-05-22,fhrs_5_en-GB,5,,FHRS,0
334087,St Owen Daycare Centre,18 Symonds Street,,Hereford,Centre 18,Other catering premises,7841,10,,487582,10,,52.05624100000000,146854,895,info@herefordshire.gov.uk,Herefordshire,http://www.herefordshire.gov.uk/,-2.70840800000000,HR1 2HA,2012-03-14,fhrs_3_en-GB,3,,FHRS,5
334088,,46 St Owen Street,,Hereford,Chandos Pharmacy,Retailers - other,4613,,,489443,,,52.05464800000000,81188,895,info@herefordshire.gov.uk,Herefordshire,http://www.herefordshire.gov.uk/,-2.71162000000000,HR1 2PR,2000-05-04,fhrs_exempt_en-GB,Exempt,,FHRS,
334089,The Old Chapel,East Street,,Pembridge,Chapel Gallery,Restaurant/Cafe/Canteen,1,0,,489355,0,,52.21850200000000,80848,895,info@herefordshire.gov.uk,Herefordshire,http://www.herefordshire.gov.uk/,-2.89043300000000,HR6 9HB,2007-01-23,fhrs_5_en-GB,5,,FHRS,5
334090,,34 Southbank Road,,Hereford,Charades,Hotel/bed & breakfast/guest house,7842,5,,489066,5,,52.06013900000000,79767,895,info@herefordshire.gov.uk,Herefordshire,http://www.herefordshire.gov.uk/,-2.70310200000000,HR1 2TJ,2011-03-11,fhrs_5_en-GB,5,,FHRS,5
334091,,Much Dewchurch,,Hereford,Charnwood Country Residence,Hospitals/Childcare/Caring Premises,5,5,,487451,0,,51.97645400000000,141592,895,info@herefordshire.gov.uk,Herefordshire,http://www.herefordshire.gov.uk/,-2.75653100000000,HR2 8DL,2014-06-11,fhrs_5_en-GB,5,,FHRS,5
334092,,Gloucester Road,,Ross On Wye,Chase Hotel,Hotel/bed & breakfast/guest house,7842,10,,488161,5,,51.91242600000000,76577,895,info@herefordshire.gov.uk,Herefordshire,http://www.herefordshire.gov.uk/,-2.57971900000000,HR9 5LH,2014-04-07,fhrs_3_en-GB,3,,FHRS,10
334093,,6-7 Broad Street,,Hereford,Chave & Jackson Ltd,Retailers - other,4613,,,488417,,,52.05584600000000,77518,895,info@herefordshire.gov.uk,Herefordshire,http://www.herefordshire.gov.uk/,-2.71718200000000,HR4 9AE,1998-07-23,fhrs_exempt_en-GB,Exempt,,FHRS,
334094,,Old Maids Walk,,Ross On Wye,Chepstow House Ltd,Hospitals/Childcare/Caring Premises,5,5,,488562,5,,51.91277600000000,78031,895,info@herefordshire.gov.uk,Herefordshire,http://www.herefordshire.gov.uk/,-2.58523400000000,HR9 5HB,2012-09-13,fhrs_5_en-GB,5,,FHRS,5
334095,The Malthouse,Church Lane,,Ledbury,Chez Pascal,Restaurant/Cafe/Canteen,1,10,,555480,10,,52.03713500000000,203344,895,info@herefordshire.gov.uk,Herefordshire,http://www.herefordshire.gov.uk/,-2.42175800000000,HR8 1DW,2013-08-13,fhrs_3_en-GB,3,,FHRS,5
334096,,,,,Chilli Fudge,Other catering premises,7841,0,,504205,0,,,198402,895,info@herefordshire.gov.uk,Herefordshire,http://www.herefordshire.gov.uk/,,,2013-03-12,fhrs_5_en-GB,5,,FHRS,0
334097,,,,,Chilli Zoo,Manufacturers/packers,7839,5,,590422,0,,,204128,895,info@herefordshire.gov.uk,Herefordshire,http://www.herefordshire.gov.uk/,,,2013-10-08,fhrs_5_en-GB,5,,FHRS,0
334098,,Old Market,,Hereford,Chimichanga,Restaurant/Cafe/Canteen,1,5,,636536,10,,,205174,895,info@herefordshire.gov.uk,Herefordshire,http://www.herefordshire.gov.uk/,,HR4 9HU,2014-09-11,fhrs_4_en-GB,4,,FHRS,5
334099,,27 Gloucester Road,,Ross On Wye,China Boy 'Jo',Takeaway/sandwich shop,7844,5,,488260,0,,51.91370300000000,76940,895,info@herefordshire.gov.uk,Herefordshire,http://www.herefordshire.gov.uk/,-2.58139300000000,HR9 5LE,2011-11-23,fhrs_5_en-GB,5,,FHRS,0
334100,,,,,Chocolate Falls & Candy Calls,Other catering premises,7841,5,,595157,0,,,204291,895,info@herefordshire.gov.uk,Herefordshire,http://www.herefordshire.gov.uk/,,,2013-11-07,fhrs_5_en-GB,5,,FHRS,5
334101,,,,,Chocolate Fantasy Fountain,Other catering premises,7841,,,488759,,,,78739,895,info@herefordshire.gov.uk,Herefordshire,http://www.herefordshire.gov.uk/,,,2005-11-29,fhrs_exempt_en-GB,Exempt,,FHRS,
334102,,17 Etnam Street,,Leominster,Chopsticks Chinese Take-away,Takeaway/sandwich shop,7844,10,,488121,15,,52.22642000000000,76445,895,info@herefordshire.gov.uk,Herefordshire,http://www.herefordshire.gov.uk/,-2.73571000000000,HR6 8AE,2014-09-30,fhrs_2_en-GB,2,,FHRS,10
334103,,,,,Chrissie's Kitchen,Other catering premises,7841,10,,487993,5,,,75973,895,info@herefordshire.gov.uk,Herefordshire,http://www.herefordshire.gov.uk/,,,2009-11-11,fhrs_4_en-GB,4,,FHRS,5
334104,,133 Edgar Street,,Hereford,Christian Life Centre,Restaurant/Cafe/Canteen,1,5,,488579,5,,52.06244900000000,78112,895,info@herefordshire.gov.uk,Herefordshire,http://www.herefordshire.gov.uk/,-2.71801700000000,HR4 9JR,2010-12-09,fhrs_5_en-GB,5,,FHRS,0
334105,"Unit 6 & 7, Beech Business Park",Tillington Road,,Hereford,Christine's Catering,Retailers - other,4613,5,,488032,0,,52.07588500000000,76116,895,info@herefordshire.gov.uk,Herefordshire,http://www.herefordshire.gov.uk/,-2.74786700000000,HR4 9QJ,2012-02-01,fhrs_5_en-GB,5,,FHRS,0
334106,,Whitney-On-Wye,,Hereford,Church Barn Farm Shop & The Pantry,Retailers - other,4613,5,,487839,5,,52.11888600000000,199890,895,info@herefordshire.gov.uk,Herefordshire,http://www.herefordshire.gov.uk/,-3.06882200000000,HR3 6EH,2013-08-07,fhrs_4_en-GB,4,,FHRS,10
334107,,Coddington,,Ledbury,Church Farm,Other catering premises,7841,5,,487340,5,,52.08121700000000,114847,895,info@herefordshire.gov.uk,Herefordshire,http://www.herefordshire.gov.uk/,-2.41156500000000,HR8 1JJ,2006-02-13,fhrs_5_en-GB,5,,FHRS,5
334108,,Vinesend Lane,,Cradley,Church Stile Farm,Retailers - other,4613,5,,487338,5,,52.12208800000000,114824,895,info@herefordshire.gov.uk,Herefordshire,http://www.herefordshire.gov.uk/,-2.38229100000000,WR13 5LG,2010-05-13,fhrs_5_en-GB,5,,FHRS,0
334109,,,,,Churros Con Chocolate,Mobile caterer,7846,,,629545,,,,204947,895,info@herefordshire.gov.uk,Herefordshire,http://www.herefordshire.gov.uk/,,,,fhrs_awaitinginspection_en-GB,AwaitingInspection,,FHRS,
334110,,21 Ryelands Street,,Hereford,Cider Museum,Restaurant/Cafe/Canteen,1,0,,487593,5,,52.05630800000000,149794,895,info@herefordshire.gov.uk,Herefordshire,http://www.herefordshire.gov.uk/,-2.72690200000000,HR4 0LW,2012-10-04,fhrs_5_en-GB,5,,FHRS,5
334111,Herefordshire College Of Technology,Folly Lane,,Hereford,Cider Orchard Restaurant,Restaurant/Cafe/Canteen,1,0,,489467,0,,52.06189200000000,81301,895,info@herefordshire.gov.uk,Herefordshire,http://www.herefordshire.gov.uk/,-2.69857900000000,HR1 1LS,2009-12-09,fhrs_5_en-GB,5,,FHRS,0
334112,,17 Chilton Square,,Hereford,City Gates Take-Away,Takeaway/sandwich shop,7844,5,,488560,5,,52.06183800000000,78019,895,info@herefordshire.gov.uk,Herefordshire,http://www.herefordshire.gov.uk/,-2.68787100000000,HR1 1PS,2014-07-23,fhrs_5_en-GB,5,,FHRS,5
334113,,45 Commercial Road,,Hereford,City Self Service,Retailers - other,4613,,,489275,,,52.05913900000000,80519,895,info@herefordshire.gov.uk,Herefordshire,http://www.herefordshire.gov.uk/,-2.70941600000000,HR1 2BG,2001-10-18,fhrs_exempt_en-GB,Exempt,,FHRS,
334114,"Unit 3, Leighton Court",,,Lower Eggleton,CJ's Farm Shop,Restaurant/Cafe/Canteen,1,10,,530187,15,,52.11271300000000,202748,895,info@herefordshire.gov.uk,Herefordshire,http://www.herefordshire.gov.uk/,-2.52223800000000,HR8 2UN,2014-09-24,fhrs_2_en-GB,2,,FHRS,15
334115,,5 Gomond Street,,Hereford,Claires Accessories Uk Ltd,Retailers - other,4613,,,489011,,,52.05713600000000,79571,895,info@herefordshire.gov.uk,Herefordshire,http://www.herefordshire.gov.uk/,-2.71494200000000,HR1 2DP,2005-11-18,fhrs_exempt_en-GB,Exempt,,FHRS,
334116,Clehonger Village Hall,Birch Hill Road,,Clehonger,Clehonger Pre School,Hospitals/Childcare/Caring Premises,5,,,488053,,,52.03462500000000,76199,895,info@herefordshire.gov.uk,Herefordshire,http://www.herefordshire.gov.uk/,-2.80133400000000,HR2 9RD,2011-10-05,fhrs_exempt_en-GB,Exempt,,FHRS,
334117,,,,,Clifford Farm,Retailers - other,4613,,,487343,,,,114890,895,info@herefordshire.gov.uk,Herefordshire,http://www.herefordshire.gov.uk/,,,,fhrs_exempt_en-GB,Exempt,,FHRS,
334118,,2-3 High Town,,Hereford,Clinton Cards,Retailers - other,4613,,,489599,,,52.05677300000000,81786,895,info@herefordshire.gov.uk,Herefordshire,http://www.herefordshire.gov.uk/,-2.71563600000000,HR1 2AA,2001-04-26,fhrs_exempt_en-GB,Exempt,,FHRS,
334119,Hereford Cathedral,Cathedral Close,,Hereford,Cloisters Cafe,Restaurant/Cafe/Canteen,1,5,,488774,0,,52.05362100000000,78780,895,info@herefordshire.gov.uk,Herefordshire,http://www.herefordshire.gov.uk/,-2.71495800000000,HR1 2NG,2012-01-03,fhrs_5_en-GB,5,,FHRS,0
334120,"3 Close House, St Peters Close",Commercial Street,,Hereford,Close House Projects Ltd,Restaurant/Cafe/Canteen,1,5,,488176,5,,52.05667400000000,76649,895,info@herefordshire.gov.uk,Herefordshire,http://www.herefordshire.gov.uk/,-2.71419000000000,HR1 2DL,2012-10-04,fhrs_5_en-GB,5,,FHRS,5
334121,"Stall 7/8, Butter Market",High Town,,Hereford,CN Sport,Retailers - other,4613,,,691156,,,52.05677300000000,203997,895,info@herefordshire.gov.uk,Herefordshire,http://www.herefordshire.gov.uk/,-2.71563600000000,HR1 2AA,2014-08-06,fhrs_exempt_en-GB,Exempt,,FHRS,
334122,,Hampton Dene Road,,Hereford,Cock Of Tupsley,Pub/bar/nightclub,7843,5,,488448,5,,52.05636000000000,77615,895,info@herefordshire.gov.uk,Herefordshire,http://www.herefordshire.gov.uk/,-2.68205500000000,HR1 1UX,2014-05-06,fhrs_5_en-GB,5,,FHRS,5
334123,,Corn Square,,Leominster,Coffee 1,Restaurant/Cafe/Canteen,1,5,,585601,5,,52.22722500000000,203938,895,info@herefordshire.gov.uk,Herefordshire,http://www.herefordshire.gov.uk/,-2.73775900000000,HR6 8LR,2013-08-28,fhrs_5_en-GB,5,,FHRS,0
334124,5 St Owen Mews,St Owen Street,,Hereford,Coffee Bean,Restaurant/Cafe/Canteen,1,10,,489432,5,,52.05531100000000,81138,895,info@herefordshire.gov.uk,Herefordshire,http://www.herefordshire.gov.uk/,-2.71206800000000,HR1 2JB,2014-09-24,fhrs_3_en-GB,3,,FHRS,10
334125,,,,,Coffee Cart Co Ltd,Mobile caterer,7846,0,,488307,0,,,77120,895,info@herefordshire.gov.uk,Herefordshire,http://www.herefordshire.gov.uk/,,,2014-09-25,fhrs_5_en-GB,5,,FHRS,0
334126,,,,,Coffee Cart Company Ltd  - Cappuccino Bar,Mobile caterer,7846,0,,488475,0,,,77709,895,info@herefordshire.gov.uk,Herefordshire,http://www.herefordshire.gov.uk/,,,2012-03-01,fhrs_5_en-GB,5,,FHRS,5
334127,,Coldwells Road,,Holmer,Coldwells House,Hospitals/Childcare/Caring Premises,5,5,,488351,5,,52.07928100000000,77276,895,info@herefordshire.gov.uk,Herefordshire,http://www.herefordshire.gov.uk/,-2.71792200000000,HR1 1LH,2014-07-14,fhrs_5_en-GB,5,,FHRS,0
334128,,29 College Green,,Hereford,College Fish & Chips,Takeaway/sandwich shop,7844,5,,487976,5,,52.06805200000000,75900,895,info@herefordshire.gov.uk,Herefordshire,http://www.herefordshire.gov.uk/,-2.71183300000000,HR1 1HW,2014-10-02,fhrs_5_en-GB,5,,FHRS,5
334129,,33-35 College Green,,Hereford,College Green Spar Post Office & Store,Retailers - other,4613,5,,487964,5,,52.06805200000000,75841,895,info@herefordshire.gov.uk,Herefordshire,http://www.herefordshire.gov.uk/,-2.71183300000000,HR1 1HW,2012-02-10,fhrs_5_en-GB,5,,FHRS,5
334130,East Dean,14 Hildersley Avenue,,Ross On Wye,Collins Dairy,Retailers - other,4613,,,488275,,,51.91555300000000,76993,895,info@herefordshire.gov.uk,Herefordshire,http://www.herefordshire.gov.uk/,-2.56907400000000,HR9 7NQ,2004-01-26,fhrs_exempt_en-GB,Exempt,,FHRS,
334131,,8 Crescent Road,,Colwall,Colwall & District British Legion Club,Pub/bar/nightclub,7843,,,489093,,,52.07980900000000,79857,895,info@herefordshire.gov.uk,Herefordshire,http://www.herefordshire.gov.uk/,-2.36103400000000,WR13 6QW,2005-12-15,fhrs_exempt_en-GB,Exempt,,FHRS,
334132,,The Stores,,Walwyn Road,Colwall Coffee Lounge,Restaurant/Cafe/Canteen,1,10,,487473,10,,52.07915400000000,142125,895,info@herefordshire.gov.uk,Herefordshire,http://www.herefordshire.gov.uk/,-2.36056200000000,WR13 6QT,2013-05-21,fhrs_3_en-GB,3,,FHRS,10
334133,,Stowe Lane,,Colwall,Colwall Cricket Club,Restaurant/Cafe/Canteen,1,,,489419,,,52.07432600000000,81080,895,info@herefordshire.gov.uk,Herefordshire,http://www.herefordshire.gov.uk/,-2.36647600000000,WR13 6EH,1998-05-18,fhrs_exempt_en-GB,Exempt,,FHRS,
334134,Lobden,Walwyn Road,,Upper Colwall,Colwall Organics,Retailers - other,4613,,,590440,,,52.08945000000000,204230,895,info@herefordshire.gov.uk,Herefordshire,http://www.herefordshire.gov.uk/,-2.34517400000000,WR13 6PY,2013-11-14,fhrs_exempt_en-GB,Exempt,,FHRS,
334135,,Walwyn Road,,Colwall,Colwall Park Hotel Ltd,Hotel/bed & breakfast/guest house,7842,5,,488459,5,,52.08125000000000,77653,895,info@herefordshire.gov.uk,Herefordshire,http://www.herefordshire.gov.uk/,-2.35739700000000,WR13 6QG,2014-11-06,fhrs_4_en-GB,4,,FHRS,10
334136,Fletton House,Walwyn Road,,Colwall,Colwall Post Office,Retailers - other,4613,,,488812,,,52.08125000000000,78931,895,info@herefordshire.gov.uk,Herefordshire,http://www.herefordshire.gov.uk/,-2.35739700000000,WR13 6QG,2002-09-23,fhrs_exempt_en-GB,Exempt,,FHRS,
334137,Asda Supermarket,Belmont Road,,Belmont,Compass Group UK & Ireland,Restaurant/Cafe/Canteen,1,0,,521046,0,,52.04940400000000,202621,895,info@herefordshire.gov.uk,Herefordshire,http://www.herefordshire.gov.uk/,-2.72235700000000,HR2 7JE,2014-09-11,fhrs_5_en-GB,5,,FHRS,5
334138,,27 Eign Road,,Hereford,Confectionery Supplies,Retailers - other,4613,,,489525,,,52.05175200000000,81485,895,info@herefordshire.gov.uk,Herefordshire,http://www.herefordshire.gov.uk/,-2.70289700000000,HR1 2RU,2012-11-22,fhrs_exempt_en-GB,Exempt,,FHRS,
334139,Family Centre,Coningsby Road,,Leominster,Coningsby Children's Centre,Takeaway/sandwich shop,7844,10,,489608,10,,52.22404700000000,81806,895,info@herefordshire.gov.uk,Herefordshire,http://www.herefordshire.gov.uk/,-2.73848200000000,HR6 8LL,2006-04-10,fhrs_4_en-GB,4,,FHRS,0
334140,,330 Ledbury Road,,Hereford,Connoisseur Coffee Systems Ltd,Retailers - other,4613,,,488036,,,52.05881500000000,76127,895,info@herefordshire.gov.uk,Herefordshire,http://www.herefordshire.gov.uk/,-2.68521400000000,HR1 1QN,2004-05-27,fhrs_exempt_en-GB,Exempt,,FHRS,
334141,,7 Gloucester Road,,Ross On Wye,Connolly's,Pub/bar/nightclub,7843,5,,488977,5,,51.91402300000000,79465,895,info@herefordshire.gov.uk,Herefordshire,http://www.herefordshire.gov.uk/,-2.58222600000000,HR9 5BU,2006-08-23,fhrs_5_en-GB,5,,FHRS,5
334142,,Tenbury Road,,Bromyard,Conquest Theatre,Restaurant/Cafe/Canteen,1,,,488397,,,52.19190300000000,77449,895,info@herefordshire.gov.uk,Herefordshire,http://www.herefordshire.gov.uk/,-2.50967900000000,HR7 4LL,2001-11-26,fhrs_exempt_en-GB,Exempt,,FHRS,
334143,,,,,Continuum Conceits,Manufacturers/packers,7839,0,,724412,0,,,207532,895,info@herefordshire.gov.uk,Herefordshire,http://www.herefordshire.gov.uk/,,,2015-01-28,fhrs_5_en-GB,5,,FHRS,5
334144,,Bewell Square,,Hereford,Cookies Cafe,Restaurant/Cafe/Canteen,1,0,,488331,0,,52.05687200000000,77214,895,info@herefordshire.gov.uk,Herefordshire,http://www.herefordshire.gov.uk/,-2.71703800000000,HR4 0BB,2012-01-11,fhrs_5_en-GB,5,,FHRS,5
334145,,New Street,,Ledbury,Co-operative,Retailers - supermarkets/hypermarkets,7840,0,,489068,5,,52.03501100000000,79775,895,info@herefordshire.gov.uk,Herefordshire,http://www.herefordshire.gov.uk/,-2.42493000000000,HR8 2EZ,2013-03-27,fhrs_5_en-GB,5,,FHRS,5
334146,,Newport Street,,Hay-On-Wye,Co-operative,Retailers - supermarkets/hypermarkets,7840,0,,488253,5,,52.07824900000000,76920,895,info@herefordshire.gov.uk,Herefordshire,http://www.herefordshire.gov.uk/,-3.12465800000000,HR3 5BZ,2014-11-06,fhrs_5_en-GB,5,,FHRS,5
334147,,Tenbury Road,,Bromyard,Co-operative,Retailers - supermarkets/hypermarkets,7840,0,,489394,0,,52.19160000000000,80998,895,info@herefordshire.gov.uk,Herefordshire,http://www.herefordshire.gov.uk/,-2.50904600000000,HR7 4LW,2014-11-27,fhrs_5_en-GB,5,,FHRS,0
334148,,Crabtree Road,,Kington,Co-operative,Retailers - supermarkets/hypermarkets,7840,5,,489150,10,,52.20219100000000,80095,895,info@herefordshire.gov.uk,Herefordshire,http://www.herefordshire.gov.uk/,-3.02990700000000,HR5 3UD,2014-11-26,fhrs_3_en-GB,3,,FHRS,10
334149,,250 Ledbury Road,,Hereford,Co-operative,Retailers - supermarkets/hypermarkets,7840,,,489190,,,52.05878500000000,80268,895,info@herefordshire.gov.uk,Herefordshire,http://www.herefordshire.gov.uk/,-2.69031800000000,HR1 1QD,2005-08-11,fhrs_exempt_en-GB,Exempt,,FHRS,
334150,,Kempton Avenue,,Hereford,Co-operative,Retailers - supermarkets/hypermarkets,7840,5,,488130,5,,52.07448900000000,76481,895,info@herefordshire.gov.uk,Herefordshire,http://www.herefordshire.gov.uk/,-2.74247400000000,HR4 9LT,2013-12-11,fhrs_5_en-GB,5,,FHRS,5
334151,,234 Whitecross Road,,Hereford,Co-operative,Retailers - supermarkets/hypermarkets,7840,5,,488620,5,,52.06179400000000,78277,895,info@herefordshire.gov.uk,Herefordshire,http://www.herefordshire.gov.uk/,-2.73960900000000,HR4 0DL,2014-02-04,fhrs_5_en-GB,5,,FHRS,5
334152,,77-79 Holme Lacy Road,,Hereford,Co-operative,Retailers - supermarkets/hypermarkets,7840,5,,489090,5,,52.04230500000000,79853,895,info@herefordshire.gov.uk,Herefordshire,http://www.herefordshire.gov.uk/,-2.71292600000000,HR2 6DF,2012-09-07,fhrs_4_en-GB,4,,FHRS,10
334153,,Dishley Street,,Leominster,Co-operative,Retailers - supermarkets/hypermarkets,7840,5,,487632,5,,52.22641400000000,152317,895,info@herefordshire.gov.uk,Herefordshire,http://www.herefordshire.gov.uk/,-2.74096600000000,HR6 8PX,2014-03-18,fhrs_5_en-GB,5,,FHRS,5
334154,,24-26 High Street,,Bromyard,Co-operative,Retailers - supermarkets/hypermarkets,7840,5,,488690,5,,52.18901900000000,78536,895,info@herefordshire.gov.uk,Herefordshire,http://www.herefordshire.gov.uk/,-2.50695400000000,HR7 4AA,2014-06-12,fhrs_5_en-GB,5,,FHRS,5
334155,College Stores,College Road,,Hereford,Co-operative,Retailers - supermarkets/hypermarkets,7840,,,488788,,,52.06588600000000,78824,895,info@herefordshire.gov.uk,Herefordshire,http://www.herefordshire.gov.uk/,-2.71031100000000,HR1 1EE,2005-08-09,fhrs_exempt_en-GB,Exempt,,FHRS,
334156,,134 South Street,,Leominster,Copper Hall,Hotel/bed & breakfast/guest house,7842,5,,488794,5,,52.22206800000000,78860,895,info@herefordshire.gov.uk,Herefordshire,http://www.herefordshire.gov.uk/,-2.74000100000000,HR6 8JN,2011-02-22,fhrs_5_en-GB,5,,FHRS,5
334157,,177 Aylestone Hill,,Hereford,Copper Kettle,Retailers - other,4613,5,,489397,5,,52.06944800000000,81009,895,info@herefordshire.gov.uk,Herefordshire,http://www.herefordshire.gov.uk/,-2.69640600000000,HR1 1JJ,2014-04-07,fhrs_5_en-GB,5,,FHRS,5
334158,,Wilton Lane,,Wilton,Copperfield House,Hotel/bed & breakfast/guest house,7842,10,,489240,5,,51.91413800000000,80421,895,info@herefordshire.gov.uk,Herefordshire,http://www.herefordshire.gov.uk/,-2.60218900000000,HR9 6AH,2011-03-30,fhrs_4_en-GB,4,,FHRS,5
334159,,,,,Coppice Farm,Other catering premises,7841,10,,487276,5,,,112570,895,info@herefordshire.gov.uk,Herefordshire,http://www.herefordshire.gov.uk/,,,2014-02-18,fhrs_4_en-GB,4,,FHRS,5
334160,,55 Widemarsh Street,,Hereford,Coral Racing Ltd,Retailers - other,4613,,,488502,,,52.05773900000000,77817,895,info@herefordshire.gov.uk,Herefordshire,http://www.herefordshire.gov.uk/,-2.71639500000000,HR4 9EA,2000-02-17,fhrs_exempt_en-GB,Exempt,,FHRS,
334161,Corner House,Rock Road,,St Margarets,Corner House,Retailers - other,4613,,,487334,,,51.99171500000000,114744,895,info@herefordshire.gov.uk,Herefordshire,http://www.herefordshire.gov.uk/,-2.94735600000000,HR2 0QP,2003-02-27,fhrs_exempt_en-GB,Exempt,,FHRS,
334162,,Kingsland,,Leominster,Corners Inn,Pub/bar/nightclub,7843,0,,489354,5,,52.24916500000000,80847,895,info@herefordshire.gov.uk,Herefordshire,http://www.herefordshire.gov.uk/,-2.81511200000000,HR6 9RY,2014-10-02,fhrs_5_en-GB,5,,FHRS,5
334163,,Clodock,,Longtown,Cornewall Arms,Pub/bar/nightclub,7843,5,,488220,5,,51.93803500000000,76789,895,info@herefordshire.gov.uk,Herefordshire,http://www.herefordshire.gov.uk/,-2.97958000000000,HR2 0PD,2011-02-14,fhrs_5_en-GB,5,,FHRS,5
334164,,45 Broad Street,,Ross On Wye,Cornwall's Family Butchers,Retailers - other,4613,5,,488846,5,,51.91510900000000,79042,895,info@herefordshire.gov.uk,Herefordshire,http://www.herefordshire.gov.uk/,-2.58264700000000,HR9 7DY,2014-05-20,fhrs_5_en-GB,5,,FHRS,5
334165,,13 Market Place,,Ross On Wye,Costa,Restaurant/Cafe/Canteen,1,5,,488906,5,,51.91422400000000,79235,895,info@herefordshire.gov.uk,Herefordshire,http://www.herefordshire.gov.uk/,-2.58333400000000,HR9 5NU,2013-03-21,fhrs_5_en-GB,5,,FHRS,5
334166,,14 -15 High Town,,Hereford,Costa,Restaurant/Cafe/Canteen,1,,,730994,,,52.05679800000000,207804,895,info@herefordshire.gov.uk,Herefordshire,http://www.herefordshire.gov.uk/,-2.71575200000000,HR1 2AA,,fhrs_awaitinginspection_en-GB,AwaitingInspection,,FHRS,
334167,,Old Market,,Hereford,Costa,Restaurant/Cafe/Canteen,1,5,,643380,5,,,205305,895,info@herefordshire.gov.uk,Herefordshire,http://www.herefordshire.gov.uk/,,HR4 9HU,2014-05-21,fhrs_5_en-GB,5,,FHRS,5
334168,Maylord Orchards,Gomond Street,,Hereford,Costa,Takeaway/sandwich shop,7844,5,,488115,10,,52.05728900000000,76399,895,info@herefordshire.gov.uk,Herefordshire,http://www.herefordshire.gov.uk/,-2.71491500000000,HR1 2DA,2014-07-03,fhrs_4_en-GB,4,,FHRS,5
334169,Cottage Farm,Middlewood,,Dorstone,Cottage Farm B & B,Hotel/bed & breakfast/guest house,7842,5,,488617,5,,52.09574200000000,78252,895,info@herefordshire.gov.uk,Herefordshire,http://www.herefordshire.gov.uk/,-3.03993400000000,HR3 5SX,2009-02-27,fhrs_5_en-GB,5,,FHRS,5
334170,,Carey,,Hereford,Cottage Of Content,Pub/bar/nightclub,7843,5,,488568,5,,51.97607500000000,78052,895,info@herefordshire.gov.uk,Herefordshire,http://www.herefordshire.gov.uk/,-2.63832400000000,HR2 6NG,2014-11-21,fhrs_5_en-GB,5,,FHRS,5
334171,,87 Cotterell Street,,Hereford,Cotterell Street Stores,Retailers - other,4613,5,,489604,0,,52.05909100000000,81797,895,info@herefordshire.gov.uk,Herefordshire,http://www.herefordshire.gov.uk/,-2.73480900000000,HR4 0HJ,2010-03-09,fhrs_5_en-GB,5,,FHRS,5
334172,Unit 6,Lower Road Trading Estate,,Ledbury,Cotteswold Dairy,Retailers - other,4613,,,488631,,,52.03618900000000,78324,895,info@herefordshire.gov.uk,Herefordshire,http://www.herefordshire.gov.uk/,-2.43470900000000,HR8 2DJ,2006-02-10,fhrs_exempt_en-GB,Exempt,,FHRS,
334173,,,,,Country Cooks,Mobile caterer,7846,5,,488663,10,,,78451,895,info@herefordshire.gov.uk,Herefordshire,http://www.herefordshire.gov.uk/,,,2014-09-13,fhrs_4_en-GB,4,,FHRS,5
334174,,,,,Country Fare,Retailers - other,4613,10,,488730,0,,,78649,895,info@herefordshire.gov.uk,Herefordshire,http://www.herefordshire.gov.uk/,,,2013-05-12,fhrs_4_en-GB,4,,FHRS,0
334175,,Ford Lane,,Wellington,Country Homes & Gardens,Restaurant/Cafe/Canteen,1,5,,489636,5,,52.13166300000000,97423,895,info@herefordshire.gov.uk,Herefordshire,http://www.herefordshire.gov.uk/,-2.73498000000000,HR4 8BB,2014-03-11,fhrs_4_en-GB,4,,FHRS,10
334176,,,,,Country Kitchen,Other catering premises,7841,,,595155,,,,204277,895,info@herefordshire.gov.uk,Herefordshire,http://www.herefordshire.gov.uk/,,,2014-08-12,fhrs_exempt_en-GB,Exempt,,FHRS,
334177,,Mortimer Road,,Hereford,Countrywide Farmers,Retailers - other,4613,,,488101,,,52.06613200000000,76351,895,info@herefordshire.gov.uk,Herefordshire,http://www.herefordshire.gov.uk/,-2.71861500000000,HR4 9SR,2010-03-30,fhrs_exempt_en-GB,Exempt,,FHRS,
334178,,4 Tenbury Road,,Bromyard,Countrywide Stores,Retailers - other,4613,,,488027,,,52.19190300000000,76095,895,info@herefordshire.gov.uk,Herefordshire,http://www.herefordshire.gov.uk/,-2.50967900000000,HR7 4LL,2005-11-08,fhrs_exempt_en-GB,Exempt,,FHRS,
334179,Countrywide Stores,,,Ledbury,Countrywide Stores,Retailers - other,4613,,,488371,,,52.02814100000000,77351,895,info@herefordshire.gov.uk,Herefordshire,http://www.herefordshire.gov.uk/,-2.43514100000000,HR8 2JQ,2006-04-10,fhrs_exempt_en-GB,Exempt,,FHRS,
334180,Station Yard South,Worcester Road,,Leominster,Countrywide Stores,Retailers - other,4613,,,489465,,,52.22418200000000,81288,895,info@herefordshire.gov.uk,Herefordshire,http://www.herefordshire.gov.uk/,-2.72973000000000,HR6 8TN,2010-05-06,fhrs_exempt_en-GB,Exempt,,FHRS,
334181,,Cradley,,Malvern,Cradley Royal British Legion Club,Pub/bar/nightclub,7843,5,,488069,5,,52.11811000000000,76241,895,info@herefordshire.gov.uk,Herefordshire,http://www.herefordshire.gov.uk/,-2.40225100000000,WR13 5LT,2006-02-24,fhrs_5_en-GB,5,,FHRS,5
334182,,77-83 Whitecross Road,,Hereford,Cranfields Cafe,Restaurant/Cafe/Canteen,1,5,,487986,5,,52.05849900000000,75937,895,info@herefordshire.gov.uk,Herefordshire,http://www.herefordshire.gov.uk/,-2.72884900000000,HR4 0DQ,2014-09-04,fhrs_4_en-GB,4,,FHRS,10
334183,,,,,Crazy Creperie,Mobile caterer,7846,0,,691166,0,,,206503,895,info@herefordshire.gov.uk,Herefordshire,http://www.herefordshire.gov.uk/,,,2015-01-15,fhrs_5_en-GB,5,,FHRS,0
334184,Credenhill Community Hall,Station Road C1099,,Credenhill,Credenhill Community Centre,Other catering premises,7841,,,488893,,,52.08365500000000,79192,895,info@herefordshire.gov.uk,Herefordshire,http://www.herefordshire.gov.uk/,-2.80876500000000,HR4 7EY,2010-04-21,fhrs_exempt_en-GB,Exempt,,FHRS,
334185,,Credenhill,,Herefordshire,Credenhill Court Rest Home,Hospitals/Childcare/Caring Premises,5,5,,488400,0,,52.09011700000000,77459,895,info@herefordshire.gov.uk,Herefordshire,http://www.herefordshire.gov.uk/,-2.80378800000000,HR4 7DL,2015-01-22,fhrs_5_en-GB,5,,FHRS,0
334186,,17 Meadow Drive,,Credenhill,Credenhill Fish Bar,Takeaway/sandwich shop,7844,5,,487505,5,,52.08424300000000,143170,895,info@herefordshire.gov.uk,Herefordshire,http://www.herefordshire.gov.uk/,-2.80693600000000,HR4 7EF,2014-07-17,fhrs_5_en-GB,5,,FHRS,0
334187,,Station Road,,Credenhill,Credenhill Social Club,Pub/bar/nightclub,7843,10,,488599,5,,52.08365500000000,78177,895,info@herefordshire.gov.uk,Herefordshire,http://www.herefordshire.gov.uk/,-2.80876500000000,HR4 7EY,2011-06-07,fhrs_4_en-GB,4,,FHRS,5
334188,,,,,Crepes Galore,Mobile caterer,7846,5,,488608,0,,,78198,895,info@herefordshire.gov.uk,Herefordshire,http://www.herefordshire.gov.uk/,,,2011-09-10,fhrs_5_en-GB,5,,FHRS,0
334189,,,,,Crews Farm,Farmers/growers,7838,,,487708,,,,154524,895,info@herefordshire.gov.uk,Herefordshire,http://www.herefordshire.gov.uk/,,,2012-10-30,fhrs_exempt_en-GB,Exempt,,FHRS,
334190,,16 Union Street,,Hereford,Crispy Cod,Takeaway/sandwich shop,7844,5,,487465,0,,52.05705100000000,142004,895,info@herefordshire.gov.uk,Herefordshire,http://www.herefordshire.gov.uk/,-2.71269400000000,HR1 2BT,2013-03-23,fhrs_5_en-GB,5,,FHRS,0
334191,,Croft,,Leominster,Croft Castle,Restaurant/Cafe/Canteen,1,0,,489288,0,,52.28551800000000,80574,895,info@herefordshire.gov.uk,Herefordshire,http://www.herefordshire.gov.uk/,-2.80802400000000,HR6 9PW,2013-04-25,fhrs_5_en-GB,5,,FHRS,5
334192,,Church Road,,Eardisland,Cross Inn,Pub/bar/nightclub,7843,5,,489101,5,,52.22280700000000,79875,895,info@herefordshire.gov.uk,Herefordshire,http://www.herefordshire.gov.uk/,-2.85046600000000,HR6 9BW,2013-11-07,fhrs_5_en-GB,5,,FHRS,5
334193,,Goodrich,,Ross-On-Wye,Cross Keys,Pub/bar/nightclub,7843,5,,488123,0,,51.86723800000000,76463,895,info@herefordshire.gov.uk,Herefordshire,http://www.herefordshire.gov.uk/,-2.63020200000000,HR9 6JB,2011-10-13,fhrs_5_en-GB,5,,FHRS,0
334194,,Cross Keys,,Hereford,Cross Keys Inn,Pub/bar/nightclub,7843,0,,488452,0,,52.09470300000000,77621,895,info@herefordshire.gov.uk,Herefordshire,http://www.herefordshire.gov.uk/,-2.65403000000000,HR1 3NN,2008-02-11,fhrs_5_en-GB,5,,FHRS,0
334195,Crowe Farm,Willersley,,Eardisley,Crowe Farm,Retailers - other,4613,,,487262,,,52.12114400000000,112080,895,info@herefordshire.gov.uk,Herefordshire,http://www.herefordshire.gov.uk/,-3.00330900000000,HR3 6EE,2000-07-13,fhrs_exempt_en-GB,Exempt,,FHRS,
334196,,Cotts Lane,,Lugwardine,Crown & Anchor,Pub/bar/nightclub,7843,0,,487951,0,,52.06612100000000,75804,895,info@herefordshire.gov.uk,Herefordshire,http://www.herefordshire.gov.uk/,-2.66213100000000,HR1 4AB,2012-05-15,fhrs_5_en-GB,5,,FHRS,5
334197,MFA Bowling,55 Station Approach,,Hereford,Crown Catering,Other catering premises,7841,5,,717966,0,,52.06159700000000,207414,895,info@herefordshire.gov.uk,Herefordshire,http://www.herefordshire.gov.uk/,-2.71036000000000,HR1 1BB,2014-12-05,fhrs_5_en-GB,5,,FHRS,5
334198,,Lea,,Ross-On-Wye,Crown Inn,Pub/bar/nightclub,7843,10,,489345,10,,51.89395700000000,80810,895,info@herefordshire.gov.uk,Herefordshire,http://www.herefordshire.gov.uk/,-2.49333600000000,HR9 7JZ,2014-11-13,fhrs_3_en-GB,3,,FHRS,10
334199,,Woolhope,,Hereford,Crown Inn,Pub/bar/nightclub,7843,5,,488639,0,,52.01828800000000,78344,895,info@herefordshire.gov.uk,Herefordshire,http://www.herefordshire.gov.uk/,-2.56788500000000,HR1 4QP,2014-03-18,fhrs_5_en-GB,5,,FHRS,5
334200,Crown Inn Public House,,,Longtown,Crown Inn,Pub/bar/nightclub,7843,5,,488246,5,,51.95007500000000,76901,895,info@herefordshire.gov.uk,Herefordshire,http://www.herefordshire.gov.uk/,-2.98161700000000,HR2 0LT,2011-09-22,fhrs_5_en-GB,5,,FHRS,5
334201,Crumpton Hill Cottage,Crumpton Hill,,Storridge,Crumpton Hill Farm Shop,Retailers - other,4613,,,707260,,,52.13792700000000,206995,895,info@herefordshire.gov.uk,Herefordshire,http://www.herefordshire.gov.uk/,-2.35416900000000,WR13 5HE,,fhrs_awaitinginspection_en-GB,AwaitingInspection,,FHRS,
334202,White Cross Farm,Curious Studio,,Bridstow,Curious Chocolate,Retailers - other,4613,5,,487553,0,,51.91709800000000,144718,895,info@herefordshire.gov.uk,Herefordshire,http://www.herefordshire.gov.uk/,-2.61921100000000,HR9 6JU,2010-08-02,fhrs_5_en-GB,5,,FHRS,0
334203,Putson Baptist Church,Web Tree Avenue,,Hereford,Cut and Paste Childcare,Hospitals/Childcare/Caring Premises,5,,,488290,,,52.04197300000000,77052,895,info@herefordshire.gov.uk,Herefordshire,http://www.herefordshire.gov.uk/,-2.71878200000000,HR2 6HG,2008-06-13,fhrs_exempt_en-GB,Exempt,,FHRS,
334204,,Cwm Road,,Abbeydore,Cwm Farm,Retailers - other,4613,0,,487347,0,,51.96927100000000,114965,895,info@herefordshire.gov.uk,Herefordshire,http://www.herefordshire.gov.uk/,-2.90187400000000,HR2 0AB,2010-03-06,fhrs_5_en-GB,5,,FHRS,0
334205,,,,,Cwm Steps,Mobile caterer,7846,10,,487249,5,,,111668,895,info@herefordshire.gov.uk,Herefordshire,http://www.herefordshire.gov.uk/,,,2010-06-03,fhrs_4_en-GB,4,,FHRS,0
334206,The Cwmmau,Cwmma Road,,Brilley,Cwmmau Farm,Hotel/bed & breakfast/guest house,7842,,,487229,,,52.15420800000000,111124,895,info@herefordshire.gov.uk,Herefordshire,http://www.herefordshire.gov.uk/,-3.06621800000000,HR3 6JP,1999-05-24,fhrs_exempt_en-GB,Exempt,,FHRS,
334207,"Stall 20, Butter Market",High Town,,Hereford,D J Benjamin & Son,Retailers - other,4613,5,,489020,10,,52.05677300000000,79591,895,info@herefordshire.gov.uk,Herefordshire,http://www.herefordshire.gov.uk/,-2.71563600000000,HR1 2AA,2011-09-15,fhrs_3_en-GB,3,,FHRS,10
334208,,,,,D J Cleland,Mobile caterer,7846,5,,487765,5,,,197244,895,info@herefordshire.gov.uk,Herefordshire,http://www.herefordshire.gov.uk/,,,2011-10-11,fhrs_5_en-GB,5,,FHRS,5
334209,,71 The Homend,,Ledbury,D T Waller Butcher,Retailers - other,4613,5,,488363,5,,52.03918500000000,77311,895,info@herefordshire.gov.uk,Herefordshire,http://www.herefordshire.gov.uk/,-2.42427000000000,HR8 1BP,2014-03-18,fhrs_5_en-GB,5,,FHRS,5
334210,The Butchers Shop,Walwyn Road,,Colwall,D T Waller Ltd,Retailers - other,4613,5,,487751,0,,52.07915400000000,196529,895,info@herefordshire.gov.uk,Herefordshire,http://www.herefordshire.gov.uk/,-2.36056200000000,WR13 6QT,2015-01-29,fhrs_5_en-GB,5,,FHRS,5
334211,"Unit 3, Bankside Industrial Es",Little Marcle Road,,Ledbury,D T Wallers,Retailers - other,4613,5,,487513,5,,52.03221800000000,143323,895,info@herefordshire.gov.uk,Herefordshire,http://www.herefordshire.gov.uk/,-2.43395600000000,HR8 2DR,2010-09-22,fhrs_5_en-GB,5,,FHRS,5
334212,Quick Break Services Daf-Y-Nan,Whitchurch,,Herefordshire,Daf-Y-Nan Quick Break (Spar),Retailers - other,4613,0,,488514,5,,51.84900600000000,77853,895,info@herefordshire.gov.uk,Herefordshire,http://www.herefordshire.gov.uk/,-2.66735900000000,HR9 6DW,2014-02-07,fhrs_5_en-GB,5,,FHRS,0
334213,Leominster Community Centre,Portna Way,,Leominster,Daisy Chain Pre-School,Hospitals/Childcare/Caring Premises,5,,,488332,,,52.22213400000000,77216,895,info@herefordshire.gov.uk,Herefordshire,http://www.herefordshire.gov.uk/,-2.76775700000000,HR6 9AD,2005-11-07,fhrs_exempt_en-GB,Exempt,,FHRS,
334214,,,,,DaPa Catering,Mobile caterer,7846,5,,537936,0,,,202915,895,info@herefordshire.gov.uk,Herefordshire,http://www.herefordshire.gov.uk/,,,2013-06-05,fhrs_5_en-GB,5,,FHRS,5
334215,,,,,DaPa Catering 2,Mobile caterer,7846,5,,590427,0,,,204161,895,info@herefordshire.gov.uk,Herefordshire,http://www.herefordshire.gov.uk/,,,2014-03-18,fhrs_5_en-GB,5,,FHRS,5
334216,,38 High Street,,Leominster,D'arcy's,Restaurant/Cafe/Canteen,1,10,,643382,0,,52.22743300000000,205309,895,info@herefordshire.gov.uk,Herefordshire,http://www.herefordshire.gov.uk/,-2.73891900000000,HR6 8LZ,2014-04-10,fhrs_4_en-GB,4,,FHRS,5
334217,,Lea,,Ross-On-Wye,Dave Campbell Garages Ltd,Retailers - other,4613,10,,488297,5,,51.89395700000000,77078,895,info@herefordshire.gov.uk,Herefordshire,http://www.herefordshire.gov.uk/,-2.49333600000000,HR9 7JZ,2013-07-02,fhrs_4_en-GB,4,,FHRS,5
334218,,1 Vaga Crescent,,Ross On Wye,Dawnings,Hospitals/Childcare/Caring Premises,5,5,,489209,5,,51.92112800000000,80345,895,info@herefordshire.gov.uk,Herefordshire,http://www.herefordshire.gov.uk/,-2.58531300000000,HR9 7RQ,2011-04-14,fhrs_5_en-GB,5,,FHRS,5
