,businessname,ratingvalue,structural,hygiene,confidenceinmanagement,ratingdate,latitude,longitude
333829,2468 Foods,AwaitingInspection,nan,nan,nan,,,
333830,2J Takeaway,1,15,15,20,2015-01-12,52.057051,-2.712694
333831,A H Griffiths (Butcher),4,5,5,10,2014-05-15,52.361385,-2.876489
333832,A M Dawson (Chemist),Exempt,nan,nan,nan,2000-07-04,52.203377,-3.029993
333833,A M News,Exempt,nan,nan,nan,2005-11-15,52.056139,-2.717784
333834,A R G Fowler And Co,5,5,5,0,2010-11-25,52.14867,-2.474621
333835,A Rule of Tum,4,10,5,5,2014-02-20,,
333836,A Rule of Tum Burger Shop,4,0,0,10,2014-11-20,52.055604,-2.718607
333837,A S Green Limited,Exempt,nan,nan,nan,2014-08-14,52.105988,-2.400536
333838,A2ZEST,5,5,5,5,2014-08-12,52.066975,-2.719023
333839,Aardvark Cafe,4,5,10,5,2009-12-04,52.346066,-2.927038
333840,Abacus 2000 Nursery School,5,5,5,5,2014-11-13,51.911085,-2.58732
333841,Abbey Botanicals,5,0,0,0,2014-05-08,52.234171,-2.744112
333842,Abbey Grange Rest Home,5,0,5,5,2014-09-09,52.066778,-2.703936
333843,Abbots Lodge Bed & Breakfast,5,0,0,0,2010-05-11,52.316418,-2.863923
333844,ABC Childcare Centre,5,5,0,5,2015-01-28,52.052367,-2.705197
333845,Abundance Produce,Exempt,nan,nan,nan,2001-06-14,51.983644,-2.713756
333846,Active-8 club,4,5,5,10,2008-09-30,52.086758,-2.803333
333847,Agee's Catering,5,0,0,5,2013-03-15,52.212828,-3.03592
333848,AJ and CI Snell (Mobile),5,0,0,5,2012-07-11,,
333849,AJ Catering,5,0,5,5,2014-09-02,,
333850,Al & Glow Place,5,5,0,5,2014-02-14,51.883106,-2.633766
333851,Aladdins,4,0,10,5,2008-02-06,52.232245,-2.741532
333852,Aldi,5,5,0,5,2008-01-16,52.057091,-2.722408
333853,Aldi,AwaitingInspection,nan,nan,nan,,51.916445,-2.581603
333854,Aldi Stores Ltd,5,0,5,5,2009-07-30,52.22588,-2.74144
333855,Alexander Guest House,5,5,0,5,2011-03-03,52.058499,-2.728849
333856,All In One,Exempt,nan,nan,nan,2014-08-06,52.055604,-2.718607
333857,Allpay.Net Ltd,5,0,0,5,2012-05-03,52.07819,-2.63549
333858,Ally's Pantry Too,4,10,5,5,2014-12-09,52.038499,-2.68623
333859,Alma Inn,4,5,5,10,2008-07-23,51.926147,-2.497063
333860,Alphagrange Ltd,5,5,0,0,2012-03-26,52.055114,-2.525358
333861,Alumhurst,5,5,0,5,2010-11-02,52.008159,-2.574648
333862,Ambalama Spices,5,5,5,5,2011-05-10,51.951612,-2.71022
333863,Amber Coast,4,5,10,5,2014-09-18,52.056357,-2.718969
333864,Anchor Cafe,5,5,0,5,2013-10-03,52.189978,-2.507711
333865,Andy's Kitchen,5,5,0,0,2011-11-17,52.054304,-2.718017
333866,Angel Fish Bar,4,5,5,10,2014-04-17,52.203183,-3.028554
333867,Angel Inn,2,15,10,10,2013-05-22,52.247016,-2.807324
333868,Ann Fullwood Mobile,5,0,0,5,2013-05-09,,
333869,Ann Summers Ltd,Exempt,nan,nan,nan,2010-05-05,52.056286,-2.715832
333870,Annette's Sandwiches,5,0,0,5,2012-03-22,,
333871,AP Resort,5,5,5,5,2013-03-22,52.051672,-2.52103
333872,Aramark Ltd - Special Metals,5,0,0,0,2014-09-30,52.072968,-2.718069
333873,Argos Call And Collect Store,Exempt,nan,nan,nan,2010-07-28,51.915418,-2.581953
333874,Argos Distribution,Exempt,nan,nan,nan,2010-07-28,52.057572,-2.715707
333875,Arkstone Mill Produce,Exempt,nan,nan,nan,2005-03-15,52.018522,-2.833747
333876,ArmorGroup Services Ltd,5,5,0,0,2011-12-02,52.053425,-2.639572
333877,Arrow Masonic Hall,5,5,5,5,2007-04-17,52.201282,-3.023784
333878,Arrowbank Lodge,5,5,5,5,2011-04-07,52.202302,-3.026398
333879,As You Like It,5,5,5,0,2015-02-12,,
333880,Asda Stores Ltd,5,5,5,5,2014-10-01,52.049404,-2.722357
333881,Ashfield House,5,5,5,5,2014-10-10,52.226277,-2.752559
333882,Ashley Farm,4,0,0,10,2010-03-04,52.030074,-2.734042
333883,Ashperton Primary School,5,0,0,5,2012-02-01,52.067277,-2.515406
333884,Asia Village,5,5,5,5,2013-11-07,52.226146,-2.739161
333885,Ask,5,0,0,0,2012-01-25,52.055286,-2.71761
333886,Aspen House,5,0,0,5,2010-08-04,51.960446,-2.666394
333887,Aspire Living,5,5,5,5,2009-03-11,51.915805,-2.585491
333888,Aspire Living Ltd,5,5,5,5,2011-03-29,52.054553,-2.718473
333889,Aston House,5,5,0,5,2012-01-06,52.049676,-2.687364
333890,Atlantic Fish & Kebab Bar,5,5,5,5,2014-03-11,52.042638,-2.715804
333891,Audrey's Fish Bar,5,5,0,0,2012-02-16,51.902637,-2.586599
333892,Aylestone Court Hotel,2,15,10,10,2013-09-09,52.060761,-2.702776
333893,Aylestone School Business And Enterprise College,4,10,5,5,2015-01-14,52.064181,-2.69612
333894,B & M Home Store,5,5,0,0,2012-05-22,52.066644,-2.721614
333895,Baches Bargains,Exempt,nan,nan,nan,2007-04-05,52.153645,-2.666908
333896,Baileys DIY Ltd,5,0,0,0,2013-09-24,51.927699,-2.578331
333897,Baileys Home & Garden Ltd,5,5,5,5,2014-01-17,51.917098,-2.619211
333898,Baiting House,3,10,5,10,2014-11-20,52.26451,-2.463842
333899,Bake and Create,5,5,0,5,2014-10-21,,
333900,Bamboo Garden,4,10,5,5,2013-11-13,52.203827,-3.031949
333901,Bangla Lounge,4,5,5,10,2013-10-08,52.226775,-2.740621
333902,Baptist Church,Exempt,nan,nan,nan,2002-12-06,52.037581,-2.422972
333903,Barbara Miller Antique Tea Rooms,4,0,5,10,2008-04-30,52.189056,-2.504673
333904,Barber & Manuel,5,5,5,5,2013-10-21,52.22722,-2.738505
333905,Bargain Booze,Exempt,nan,nan,nan,2006-01-26,52.062639,-2.739666
333906,Bargain Booze Plus,5,0,5,5,2010-05-06,52.042638,-2.715804
333907,Bargates Childrens Centre,5,5,0,0,2015-01-12,52.22774,-2.745951
333908,Barneby Inn,3,10,5,10,2014-11-27,52.205625,-2.573637
333909,Barons Cross Community Room,Exempt,nan,nan,nan,2005-11-07,52.222134,-2.767757
333910,Barons Cross Inn,3,10,10,10,2013-11-20,52.222535,-2.761396
333911,Barrell Inn,5,0,5,5,2008-01-16,51.916811,-2.581971
333912,Bartestree & Lugwardine Playing Fields Social Club,4,0,5,10,2011-02-09,52.065876,-2.646387
333913,Bartestree Stores,5,5,5,5,2008-03-04,52.067503,-2.641597
333914,Barton Hall,Exempt,nan,nan,nan,2010-05-06,52.053635,-2.72295
333915,Bartonsham Stores,5,5,0,5,2010-06-15,52.050147,-2.708064
333916,Batterlicious,5,0,0,5,2014-03-27,52.057091,-2.722408
333917,Bay Horse,3,10,5,10,2014-12-09,52.189019,-2.506954
333918,BBQ's & Brews,4,5,5,10,2014-11-17,52.057932,-2.71125
333919,BB's Coffee & Muffins,4,5,5,10,2014-06-12,52.057634,-2.714497
333920,Beech House Nursery School,5,0,0,5,2014-02-21,52.048955,-2.695314
333921,Beer in Hand,5,0,5,0,2013-12-17,52.057091,-2.722408
333922,Behind Bars,5,0,0,0,2014-09-13,,
333923,Bell Inn,5,5,5,5,2014-06-12,52.102931,-2.780775
333924,Bella Torta,5,5,5,5,2011-06-06,52.053833,-2.718593
333925,Bells Inn,3,10,5,10,2013-09-27,52.159686,-2.975538
333926,Belmont Lodge Golf Course,5,5,5,5,2013-02-21,52.045003,-2.768537
333927,Bengry Motors,5,0,0,0,2011-09-01,52.226954,-2.74364
333928,Bengry Motors/car Wash Centre,Exempt,nan,nan,nan,2002-12-09,52.219357,-2.732241
333929,Benhall Farm,5,0,0,0,2010-03-04,51.918689,-2.598339
333930,Bennetts Of Ross Ltd,4,10,5,5,2014-05-01,51.914712,-2.60256
333931,Bernard Hackett Court,Exempt,nan,nan,nan,2011-03-30,51.907758,-2.589108
333932,Berries Restaurant And Coffee Shop,5,5,5,0,2014-05-13,52.093302,-2.905176
333933,Berrington Hall and Restaurant,5,5,0,0,2013-04-29,52.268894,-2.720601
333934,Biblins Tea Garden,5,5,0,0,2014-03-28,51.828446,-2.655809
333935,Biddlestone Orchards,Exempt,nan,nan,nan,2003-12-12,51.903244,-2.663555
333936,Big BBQ Shack,3,10,5,10,2014-08-01,,
333937,Big Trevs Snack Bar (A49 Layby),2,15,10,10,2015-01-20,,
333938,Birchams Grange Residential Home,5,0,5,5,2014-01-14,52.028265,-2.392072
333939,Bishop Of Hereford's Bluecoat School,5,5,0,5,2013-10-16,52.057369,-2.68334
333940,Bishops Frome Community Stores,4,5,5,10,2015-01-06,52.132414,-2.49455
333941,Bishops Of Bromyard,Exempt,nan,nan,nan,2005-05-31,52.187896,-2.504674
333942,Bishopswood Village Hall,Exempt,nan,nan,nan,2008-02-05,51.868943,-2.599915
333943,Bishopwood Stores,AwaitingInspection,nan,nan,nan,,51.864242,-2.594362
333944,Bistro Mondo,4,5,10,5,2013-11-12,51.914477,-2.585038
333945,Bizzie Lizzie,5,0,5,0,2013-05-22,52.139557,-3.007507
333946,Black Country Chips,5,5,5,5,2013-12-04,,
333947,Black Lion,3,10,5,10,2014-01-21,52.053515,-2.71904
333948,Black Mountains Barns,5,0,5,5,2011-10-07,51.938035,-2.97958
333949,Black Swan,3,10,10,10,2014-12-10,51.977075,-2.75494
333950,Black Swan Hotel,5,5,0,5,2008-09-18,52.226775,-2.740621
333951,Blackmarston School - Alliance in Partnership,5,0,5,5,2014-06-30,52.041372,-2.7258
333952,Blackwells Ltd,5,0,0,0,2011-04-08,52.06077,-2.736572
333953,Blanchworth Care - Holmer Care Centre,5,5,5,0,2014-06-12,52.078109,-2.722835
333954,Blue Duck Country Kitchen,4,5,5,10,2013-10-03,,
333955,Bluebell Lodge,5,0,0,0,2010-06-02,52.04692,-2.400488
333956,Blue-Ginger,4,0,10,5,2008-01-22,52.127281,-2.396944
333957,Bonitas Coffee,AwaitingInspection,nan,nan,nan,,,
333958,Booth Hall,3,10,10,10,2014-01-16,52.056,-2.715536
333959,Boots Co Plc,Exempt,nan,nan,nan,2009-11-19,52.036369,-2.422319
333960,Boots The Chemist,Exempt,nan,nan,nan,2000-09-18,52.227225,-2.737759
333961,Boots The Chemist,Exempt,nan,nan,nan,2004-06-16,51.914508,-2.58405
333962,Boots The Chemist Ltd,Exempt,nan,nan,nan,2009-03-18,52.056305,-2.717131
333963,Border Bean Ltd,5,5,0,5,2013-11-06,52.203573,-3.030158
333964,Border County Cook,5,0,0,5,2013-06-14,,
333965,Bosbury Cricket Pavilion,Exempt,nan,nan,nan,2001-06-05,52.087906,-2.446114
333966,Boughton Arms Hotel,4,10,5,5,2013-11-22,52.042673,-2.955418
333967,Bowley,5,0,5,5,2012-07-31,52.031988,-2.810951
333968,Bowley Court,5,5,0,5,2014-09-19,52.085726,-2.461153
333969,Brampton Golf & Leisure,5,5,0,0,2011-04-14,52.035941,-2.85827
333970,Brampton Road Post Office & Stores,4,10,0,0,2012-02-01,52.038693,-2.73306
333971,Brampton Stores (Premier),5,5,5,5,2012-06-28,51.922487,-2.579689
333972,Brandon Lodge,5,5,5,5,2010-05-20,52.033908,-2.723099
333973,Brandon Trust,AwaitingInspection,nan,nan,nan,,52.05624,-2.708407
333974,Brewers Arms,3,10,10,10,2012-11-27,52.051752,-2.702897
333975,Bridge Inn,4,5,10,5,2013-09-20,51.927664,-2.858064
333976,Bridges Child Care,5,0,5,5,2015-01-20,51.974792,-2.832221
333977,Bright Sparks Pre-School,Exempt,nan,nan,nan,2009-11-12,52.075747,-2.366356
333978,Brightwells Coffee Shop,5,5,5,5,2014-07-24,52.231718,-2.73082
333979,Brightwells Country Vehicle Auctions,Exempt,nan,nan,nan,2000-08-15,52.231718,-2.73082
333980,Brimfield & Little Hereford Sports,4,5,10,0,2014-02-22,52.305571,-2.675628
333981,Bringsty Cafe,4,5,5,10,2014-02-21,52.195079,-2.42985
333982,Britannia Inn,5,0,0,5,2010-07-08,52.058626,-2.732905
333983,Broad Oak Garage,5,0,0,5,2013-05-02,51.888116,-2.756718
333984,Broadfield Court Gardens & Vineyard,5,5,0,5,2013-10-29,52.177557,-2.672253
333985,Broadlands Bed & Breakfast,5,5,5,5,2011-02-22,51.920029,-2.578581
333986,Broadlands Bright Sparks Playgroup,Exempt,nan,nan,nan,2011-05-11,52.062987,-2.692746
333987,Broadlands Childrens Centre,Exempt,nan,nan,nan,2011-05-11,52.062987,-2.692746
333988,Broadlands Extended Schools Club,5,0,0,5,2011-05-11,52.062987,-2.692746
333989,Broadward Hall,Exempt,nan,nan,nan,1998-10-02,52.210646,-2.73782
333990,Brockhampton Court Nursing Home,4,5,10,5,2014-11-24,51.982712,-2.584369
333991,Brockhampton Cricket Club,5,5,5,5,2010-09-29,51.982712,-2.584369
333992,Brockhampton House,Exempt,nan,nan,nan,2003-09-25,52.192311,-2.462958
333993,Brockington Tea Rooms,3,10,5,10,2014-10-21,52.157615,-2.666134
333994,Bromley Court,5,5,5,5,2006-03-06,51.967161,-2.679157
333995,Bromyard Cricket Club,Exempt,nan,nan,nan,2004-07-06,52.185682,-2.519817
333996,Bromyard Leisure Centre,Exempt,nan,nan,nan,2004-07-16,52.189978,-2.507711
333997,Bromyard Masonic Club,5,0,5,5,2008-02-12,52.188746,-2.505722
333998,Bromyard Rugby Club,Exempt,nan,nan,nan,2005-11-18,52.1916,-2.509046
333999,Bromyard Town FC,3,10,10,10,2014-02-21,52.192367,-2.497659
334000,Brook House Barn,5,0,0,5,2013-05-16,52.287778,-2.769874
334001,Brook House Farm,Exempt,nan,nan,nan,2005-01-31,52.278693,-2.778658
334002,Brookfield House,5,5,5,5,2009-03-18,51.91922,-2.5786
334003,Brookfield School,5,5,0,0,2013-06-05,52.067476,-2.731037
334004,Broome Farm,4,0,10,10,2008-01-24,51.921516,-2.632024
334005,Broomy Hill Nursing Home,5,0,0,0,2014-03-25,52.053905,-2.733047
334006,Bryngwyn Court,Exempt,nan,nan,nan,2005-05-10,52.063038,-2.708355
334007,Bubbles Nursery,4,10,0,10,2015-01-15,52.031447,-2.395044
334008,Bulls Head,5,0,5,0,2011-10-07,52.014163,-3.044379
334009,Bumbles,Exempt,nan,nan,nan,2008-02-06,52.227433,-2.738919
334010,Bunch Of Carrots,5,0,5,5,2013-11-08,52.039855,-2.656523
334011,Burger Star Restaurant,3,10,10,10,2014-07-29,51.913822,-2.582892
334012,Burghill Valley Golf Club,4,10,5,5,2014-01-31,52.097925,-2.768177
334013,Burley Gate C E Primary School,5,5,0,5,2015-01-13,52.122012,-2.592018
334014,Burley Gate Post Office/stores,4,0,0,10,2010-03-29,52.122672,-2.584022
334015,Burley Gate Pre School,Exempt,nan,nan,nan,2006-05-16,52.122012,-2.592018
334016,Burton Court,Exempt,nan,nan,nan,2009-11-11,52.214661,-2.846798
334017,Burton Hotel,5,5,5,5,2013-10-16,52.20315,-3.031261
334018,Bus Station Cafe,5,0,0,0,2012-01-12,52.058044,-2.709107
334019,Busy Bees,Exempt,nan,nan,nan,2012-10-05,52.066975,-2.719023
334020,Busy Bees Nursery & Pre-School,4,0,10,10,2014-11-06,52.095802,-3.061365
334021,Busy Bees Pre-School,Exempt,nan,nan,nan,2008-02-05,52.038425,-2.428258
334022,Busy Bees Pre-School,Exempt,nan,nan,nan,2012-03-07,52.12993,-2.737538
334023,Butchers Shop,4,5,5,10,2014-01-28,51.953245,-2.89301
334024,Butterfingers,Exempt,nan,nan,nan,2008-09-16,51.931655,-2.478275
334025,Buttley Tea Room,4,10,5,5,2013-08-14,52.116777,-3.029003
334026,Buzzard House,AwaitingInspection,nan,nan,nan,,52.192505,-2.863346
334027,Bye Cross Farm Campsite,4,10,5,5,2014-07-28,,
334028,C & C Laming & Sons,5,5,5,5,2014-04-09,52.189655,-2.507664
334029,C & P Brookes,Exempt,nan,nan,nan,2003-05-15,52.206761,-3.02031
334030,C G Catering,Exempt,nan,nan,nan,2005-11-18,,
334031,C J Raven (Myrtles Kitchen),Exempt,nan,nan,nan,2015-01-23,52.189792,-2.506963
334032,C Ogleby,5,5,5,5,2013-07-04,52.054394,-2.710493
334033,C R News,5,5,0,5,2013-10-15,52.058553,-2.711099
334034,Cabin Childcare,5,0,0,5,2014-04-11,51.975592,-2.727793
334035,Cadbury staff canteen,5,5,0,0,2013-02-25,52.187326,-2.72446
334036,Cafe @ All Saints,5,5,0,0,2012-02-08,52.056305,-2.717131
334037,Cafe @ Nice Things,3,10,5,10,2014-01-20,52.036369,-2.422319
334038,Cafe 13,5,0,0,5,2014-01-14,51.915025,-2.576016
334039,Cafe Ascari,5,5,5,5,2015-02-10,52.056054,-2.718439
334040,Cafe eazz,5,0,5,5,2013-01-03,51.914643,-2.582205
334041,Cafe Fran,4,0,5,10,2012-01-10,52.05624,-2.714475
334042,Cafe H20,5,0,5,5,2013-03-21,52.088022,-2.341529
334043,Cafe Miro,5,5,5,5,2014-02-04,52.055311,-2.712068
334044,Cafe on the Corner,5,5,0,5,2014-09-02,52.189056,-2.504673
334045,Cafe Savery's Ltd,4,10,0,5,2014-10-31,52.228666,-2.738837
334046,Cafe Spa Refreshment Services,5,0,0,5,2012-08-16,52.036189,-2.434709
334047,Cafe Tuesday,4,5,5,10,2013-04-23,52.361385,-2.876489
334048,Cafe Zam Zam,5,5,5,5,2013-02-26,51.913637,-2.58382
334049,Cafe/Diner,4,5,5,10,2014-03-13,52.037761,-2.689426
334050,Caffe Alfresco,5,0,0,5,2013-05-16,,
334051,Caffe Eleganza,5,0,0,0,2012-02-01,51.914734,-2.583922
334052,Caffe Nero,5,5,0,0,2012-01-24,52.056357,-2.718969
334053,Cakes & Catering,5,5,5,5,2015-01-20,51.965342,-2.972956
334054,Cakes and Catering,5,5,5,5,2013-09-04,52.056357,-2.718969
334055,Callow Child Care,Exempt,nan,nan,nan,2015-01-30,,
334056,Callow Hills Farm - Priory Queenswood School,5,5,0,0,2013-03-06,52.053374,-2.484474
334057,Cameron & Swan,5,5,0,5,2014-09-12,52.037581,-2.422972
334058,Canal Road Day Centre,5,0,5,0,2011-10-18,52.059596,-2.711189
334059,Candy Castle,5,5,5,5,2009-06-26,52.050781,-2.717727
334060,Canon Pyon Breakfast Club,Exempt,nan,nan,nan,2008-02-08,52.143891,-2.793226
334061,Canon Pyon Post Office & Stores,Exempt,nan,nan,nan,2005-11-08,52.134068,-2.785951
334062,Canteen - Holme Lacy College Of Agriculture,5,5,0,0,2014-02-24,52.017029,-2.654484
334063,Caplor Farm,Exempt,nan,nan,nan,2001-07-16,52.0008,-2.588144
334064,Caprice,Exempt,nan,nan,nan,2011-08-25,,
334065,Captain Falafel,4,5,0,10,2012-10-31,,
334066,Caradoc Court,5,5,0,5,2010-04-30,51.943126,-2.644388
334067,Card Factory,Exempt,nan,nan,nan,,52.057136,-2.714942
334068,Card Factory,Exempt,nan,nan,nan,,51.914734,-2.583922
334069,Card Factory,AwaitingInspection,nan,nan,nan,,52.057572,-2.715707
334070,Cargill Retail Shop,4,5,10,5,2014-02-26,52.06428,-2.734676
334071,Carpenters Arms,5,0,5,0,2012-03-09,51.919537,-2.960434
334072,Cash Stores,5,5,5,5,2009-02-11,52.223531,-2.740479
334073,Castle Farm Pork,5,5,5,5,2011-11-23,52.040832,-2.866908
334074,Castle Green Bowling Club,Exempt,nan,nan,nan,2003-03-19,52.053696,-2.712991
334075,Castle House Hotel,5,0,5,0,2012-01-05,52.054097,-2.712093
334076,Castle Inn,Exempt,nan,nan,nan,2004-03-17,52.324052,-2.744959
334077,Castle Lodge Hotel,4,5,10,5,2014-11-13,51.915934,-2.599174
334078,Castlefields Stores,5,5,5,5,2009-02-10,52.222198,-2.735128
334079,CATS,4,5,5,10,2013-06-19,51.868943,-2.599915
334080,Caves Folly Nurseries,Exempt,nan,nan,nan,2008-08-28,52.069351,-2.364524
334081,Ceci Paolo Delicatessen & Caffe Bar,5,0,5,0,2014-03-04,52.036369,-2.422319
334082,Cedar Guest House,5,5,5,5,2011-04-07,52.059258,-2.732522
334083,Celebration,5,0,5,5,2008-01-15,52.036369,-2.422319
334084,Central Bakery,4,10,5,5,2015-01-20,52.226869,-2.740095
334085,Central Dojo,Exempt,nan,nan,nan,2004-03-03,52.056054,-2.718439
334086,Central Stores,5,0,0,0,2013-05-22,52.139557,-3.007507
334087,Centre 18,3,5,10,10,2012-03-14,52.056241,-2.708408
334088,Chandos Pharmacy,Exempt,nan,nan,nan,2000-05-04,52.054648,-2.71162
334089,Chapel Gallery,5,5,0,0,2007-01-23,52.218502,-2.890433
334090,Charades,5,5,5,5,2011-03-11,52.060139,-2.703102
334091,Charnwood Country Residence,5,5,0,5,2014-06-11,51.976454,-2.756531
334092,Chase Hotel,3,10,5,10,2014-04-07,51.912426,-2.579719
334093,Chave & Jackson Ltd,Exempt,nan,nan,nan,1998-07-23,52.055846,-2.717182
334094,Chepstow House Ltd,5,5,5,5,2012-09-13,51.912776,-2.585234
334095,Chez Pascal,3,5,10,10,2013-08-13,52.037135,-2.421758
334096,Chilli Fudge,5,0,0,0,2013-03-12,,
334097,Chilli Zoo,5,0,0,5,2013-10-08,,
334098,Chimichanga,4,5,10,5,2014-09-11,,
334099,China Boy 'Jo',5,0,0,5,2011-11-23,51.913703,-2.581393
334100,Chocolate Falls & Candy Calls,5,5,0,5,2013-11-07,,
334101,Chocolate Fantasy Fountain,Exempt,nan,nan,nan,2005-11-29,,
334102,Chopsticks Chinese Take-away,2,10,15,10,2014-09-30,52.22642,-2.73571
334103,Chrissie's Kitchen,4,5,5,10,2009-11-11,,
334104,Christian Life Centre,5,0,5,5,2010-12-09,52.062449,-2.718017
334105,Christine's Catering,5,0,0,5,2012-02-01,52.075885,-2.747867
334106,Church Barn Farm Shop & The Pantry,4,10,5,5,2013-08-07,52.118886,-3.068822
334107,Church Farm,5,5,5,5,2006-02-13,52.081217,-2.411565
334108,Church Stile Farm,5,0,5,5,2010-05-13,52.122088,-2.382291
334109,Churros Con Chocolate,AwaitingInspection,nan,nan,nan,,,
334110,Cider Museum,5,5,5,0,2012-10-04,52.056308,-2.726902
334111,Cider Orchard Restaurant,5,0,0,0,2009-12-09,52.061892,-2.698579
334112,City Gates Take-Away,5,5,5,5,2014-07-23,52.061838,-2.687871
334113,City Self Service,Exempt,nan,nan,nan,2001-10-18,52.059139,-2.709416
334114,CJ's Farm Shop,2,15,15,10,2014-09-24,52.112713,-2.522238
334115,Claires Accessories Uk Ltd,Exempt,nan,nan,nan,2005-11-18,52.057136,-2.714942
334116,Clehonger Pre School,Exempt,nan,nan,nan,2011-10-05,52.034625,-2.801334
334117,Clifford Farm,Exempt,nan,nan,nan,,,
334118,Clinton Cards,Exempt,nan,nan,nan,2001-04-26,52.056773,-2.715636
334119,Cloisters Cafe,5,0,0,5,2012-01-03,52.053621,-2.714958
334120,Close House Projects Ltd,5,5,5,5,2012-10-04,52.056674,-2.71419
334121,CN Sport,Exempt,nan,nan,nan,2014-08-06,52.056773,-2.715636
334122,Cock Of Tupsley,5,5,5,5,2014-05-06,52.05636,-2.682055
334123,Coffee 1,5,0,5,5,2013-08-28,52.227225,-2.737759
334124,Coffee Bean,3,10,5,10,2014-09-24,52.055311,-2.712068
334125,Coffee Cart Co Ltd,5,0,0,0,2014-09-25,,
334126,Coffee Cart Company Ltd  - Cappuccino Bar,5,5,0,0,2012-03-01,,
334127,Coldwells House,5,0,5,5,2014-07-14,52.079281,-2.717922
334128,College Fish & Chips,5,5,5,5,2014-10-02,52.068052,-2.711833
334129,College Green Spar Post Office & Store,5,5,5,5,2012-02-10,52.068052,-2.711833
334130,Collins Dairy,Exempt,nan,nan,nan,2004-01-26,51.915553,-2.569074
334131,Colwall & District British Legion Club,Exempt,nan,nan,nan,2005-12-15,52.079809,-2.361034
334132,Colwall Coffee Lounge,3,10,10,10,2013-05-21,52.079154,-2.360562
334133,Colwall Cricket Club,Exempt,nan,nan,nan,1998-05-18,52.074326,-2.366476
334134,Colwall Organics,Exempt,nan,nan,nan,2013-11-14,52.08945,-2.345174
334135,Colwall Park Hotel Ltd,4,10,5,5,2014-11-06,52.08125,-2.357397
334136,Colwall Post Office,Exempt,nan,nan,nan,2002-09-23,52.08125,-2.357397
334137,Compass Group UK & Ireland,5,5,0,0,2014-09-11,52.049404,-2.722357
334138,Confectionery Supplies,Exempt,nan,nan,nan,2012-11-22,52.051752,-2.702897
334139,Coningsby Children's Centre,4,0,10,10,2006-04-10,52.224047,-2.738482
334140,Connoisseur Coffee Systems Ltd,Exempt,nan,nan,nan,2004-05-27,52.058815,-2.685214
334141,Connolly's,5,5,5,5,2006-08-23,51.914023,-2.582226
334142,Conquest Theatre,Exempt,nan,nan,nan,2001-11-26,52.191903,-2.509679
334143,Continuum Conceits,5,5,0,0,2015-01-28,,
334144,Cookies Cafe,5,5,0,0,2012-01-11,52.056872,-2.717038
334145,Co-operative,5,5,5,0,2013-03-27,52.035011,-2.42493
334146,Co-operative,5,5,5,0,2014-11-06,52.078249,-3.124658
334147,Co-operative,5,0,0,0,2014-11-27,52.1916,-2.509046
334148,Co-operative,3,10,10,5,2014-11-26,52.202191,-3.029907
334149,Co-operative,Exempt,nan,nan,nan,2005-08-11,52.058785,-2.690318
334150,Co-operative,5,5,5,5,2013-12-11,52.074489,-2.742474
334151,Co-operative,5,5,5,5,2014-02-04,52.061794,-2.739609
334152,Co-operative,4,10,5,5,2012-09-07,52.042305,-2.712926
334153,Co-operative,5,5,5,5,2014-03-18,52.226414,-2.740966
334154,Co-operative,5,5,5,5,2014-06-12,52.189019,-2.506954
334155,Co-operative,Exempt,nan,nan,nan,2005-08-09,52.065886,-2.710311
334156,Copper Hall,5,5,5,5,2011-02-22,52.222068,-2.740001
334157,Copper Kettle,5,5,5,5,2014-04-07,52.069448,-2.696406
334158,Copperfield House,4,5,5,10,2011-03-30,51.914138,-2.602189
334159,Coppice Farm,4,5,5,10,2014-02-18,,
334160,Coral Racing Ltd,Exempt,nan,nan,nan,2000-02-17,52.057739,-2.716395
334161,Corner House,Exempt,nan,nan,nan,2003-02-27,51.991715,-2.947356
334162,Corners Inn,5,5,5,0,2014-10-02,52.249165,-2.815112
334163,Cornewall Arms,5,5,5,5,2011-02-14,51.938035,-2.97958
334164,Cornwall's Family Butchers,5,5,5,5,2014-05-20,51.915109,-2.582647
334165,Costa,5,5,5,5,2013-03-21,51.914224,-2.583334
334166,Costa,AwaitingInspection,nan,nan,nan,,52.056798,-2.715752
334167,Costa,5,5,5,5,2014-05-21,,
334168,Costa,4,5,10,5,2014-07-03,52.057289,-2.714915
334169,Cottage Farm B & B,5,5,5,5,2009-02-27,52.095742,-3.039934
334170,Cottage Of Content,5,5,5,5,2014-11-21,51.976075,-2.638324
334171,Cotterell Street Stores,5,5,0,5,2010-03-09,52.059091,-2.734809
334172,Cotteswold Dairy,Exempt,nan,nan,nan,2006-02-10,52.036189,-2.434709
334173,Country Cooks,4,5,10,5,2014-09-13,,
334174,Country Fare,4,0,0,10,2013-05-12,,
334175,Country Homes & Gardens,4,10,5,5,2014-03-11,52.131663,-2.73498
334176,Country Kitchen,Exempt,nan,nan,nan,2014-08-12,,
334177,Countrywide Farmers,Exempt,nan,nan,nan,2010-03-30,52.066132,-2.718615
334178,Countrywide Stores,Exempt,nan,nan,nan,2005-11-08,52.191903,-2.509679
334179,Countrywide Stores,Exempt,nan,nan,nan,2006-04-10,52.028141,-2.435141
334180,Countrywide Stores,Exempt,nan,nan,nan,2010-05-06,52.224182,-2.72973
334181,Cradley Royal British Legion Club,5,5,5,5,2006-02-24,52.11811,-2.402251
334182,Cranfields Cafe,4,10,5,5,2014-09-04,52.058499,-2.728849
334183,Crazy Creperie,5,0,0,0,2015-01-15,,
334184,Credenhill Community Centre,Exempt,nan,nan,nan,2010-04-21,52.083655,-2.808765
334185,Credenhill Court Rest Home,5,0,0,5,2015-01-22,52.090117,-2.803788
334186,Credenhill Fish Bar,5,0,5,5,2014-07-17,52.084243,-2.806936
334187,Credenhill Social Club,4,5,5,10,2011-06-07,52.083655,-2.808765
334188,Crepes Galore,5,0,0,5,2011-09-10,,
334189,Crews Farm,Exempt,nan,nan,nan,2012-10-30,,
334190,Crispy Cod,5,0,0,5,2013-03-23,52.057051,-2.712694
334191,Croft Castle,5,5,0,0,2013-04-25,52.285518,-2.808024
334192,Cross Inn,5,5,5,5,2013-11-07,52.222807,-2.850466
334193,Cross Keys,5,0,0,5,2011-10-13,51.867238,-2.630202
334194,Cross Keys Inn,5,0,0,0,2008-02-11,52.094703,-2.65403
334195,Crowe Farm,Exempt,nan,nan,nan,2000-07-13,52.121144,-3.003309
334196,Crown & Anchor,5,5,0,0,2012-05-15,52.066121,-2.662131
334197,Crown Catering,5,5,0,5,2014-12-05,52.061597,-2.71036
334198,Crown Inn,3,10,10,10,2014-11-13,51.893957,-2.493336
334199,Crown Inn,5,5,0,5,2014-03-18,52.018288,-2.567885
334200,Crown Inn,5,5,5,5,2011-09-22,51.950075,-2.981617
334201,Crumpton Hill Farm Shop,AwaitingInspection,nan,nan,nan,,52.137927,-2.354169
334202,Curious Chocolate,5,0,0,5,2010-08-02,51.917098,-2.619211
334203,Cut and Paste Childcare,Exempt,nan,nan,nan,2008-06-13,52.041973,-2.718782
334204,Cwm Farm,5,0,0,0,2010-03-06,51.969271,-2.901874
334205,Cwm Steps,4,0,5,10,2010-06-03,,
334206,Cwmmau Farm,Exempt,nan,nan,nan,1999-05-24,52.154208,-3.066218
334207,D J Benjamin & Son,3,10,10,5,2011-09-15,52.056773,-2.715636
334208,D J Cleland,5,5,5,5,2011-10-11,,
334209,D T Waller Butcher,5,5,5,5,2014-03-18,52.039185,-2.42427
334210,D T Waller Ltd,5,5,0,5,2015-01-29,52.079154,-2.360562
334211,D T Wallers,5,5,5,5,2010-09-22,52.032218,-2.433956
334212,Daf-Y-Nan Quick Break (Spar),5,0,5,0,2014-02-07,51.849006,-2.667359
334213,Daisy Chain Pre-School,Exempt,nan,nan,nan,2005-11-07,52.222134,-2.767757
334214,DaPa Catering,5,5,0,5,2013-06-05,,
334215,DaPa Catering 2,5,5,0,5,2014-03-18,,
334216,D'arcy's,4,5,0,10,2014-04-10,52.227433,-2.738919
334217,Dave Campbell Garages Ltd,4,5,5,10,2013-07-02,51.893957,-2.493336
334218,Dawnings,5,5,5,5,2011-04-14,51.921128,-2.585313
334219,Dawsons (Ross) Limited,Exempt,nan,nan,nan,2008-06-13,52.065582,-2.71582
334220,Day Lewis Pharmacy,Exempt,nan,nan,nan,2000-02-11,52.069966,-2.736899
334221,Day Lewis Pharmacy,Exempt,nan,nan,nan,2009-11-19,52.036839,-2.424117
334222,Day Nursery,5,0,5,5,2013-10-24,52.131377,-2.91112
334223,De Lacy House,5,0,0,0,2012-05-21,52.205237,-3.023919
334224,Deans Coffee,5,0,0,5,2014-03-13,,
334225,Decadent Dogs,5,5,0,5,2013-09-25,,
334226,Deli Lounge,5,5,0,0,2012-03-08,52.058553,-2.711099
334227,Delights Ltd,5,5,5,5,2015-01-23,,
334228,Delilah's,3,10,10,10,2014-08-22,52.035494,-2.4232
334229,Denny's Diner,5,0,0,0,2013-05-24,52.176849,-2.544531
334230,Dick's Proper Pork Products,3,10,10,10,2013-12-09,,
334231,Diego's Cafe,3,10,5,10,2014-11-28,52.053833,-2.718593
334232,Dilwyn Playgroup,Exempt,nan,nan,nan,2007-04-24,52.186939,-2.856042
334233,Dimarcos Fish Restaurant,3,10,10,10,2014-04-08,52.226892,-2.74216
334234,Dinedor Outdoor Centre,Exempt,nan,nan,nan,2010-05-12,52.024626,-2.698435
334235,Discount Hardware,Exempt,nan,nan,nan,,52.046492,-2.72511
334236,Ditton Farm,Exempt,nan,nan,nan,2002-02-13,51.915292,-2.685439
334237,Dobbins Farm Bed & Breakfast,4,0,5,10,2011-11-15,52.098835,-2.369231
334238,Dolly Mixtures,Exempt,nan,nan,nan,2009-11-27,52.088476,-2.795337
334239,Domino's Pizza,5,0,0,5,2013-02-21,52.045961,-2.725203
334240,Donna's Diner,2,15,10,10,2014-01-14,52.064251,-2.559935
334241,Dorstone Village Hall,5,0,5,5,2014-06-19,52.069141,-3.003222
334242,Dorstone's Front Room,5,5,5,5,2011-04-05,52.069141,-3.003222
334243,Dot 'n' Daisy's,5,0,5,5,2013-07-31,,
334244,Doughnuts,5,5,5,5,2013-04-15,,
334245,Doughnuts for you,5,0,0,5,2012-05-24,,
334246,Dovecote Care Home,5,5,0,5,2012-10-23,51.8822,-2.693987
334247,Down on the Farm Nursery,Exempt,nan,nan,nan,2010-08-18,52.020711,-2.730143
334248,Dr John Dinnen,5,0,0,0,2008-02-08,51.970477,-2.72327
334249,Dragon House,5,5,5,5,2013-02-26,51.916445,-2.581603
334250,Dragons Pool,4,0,10,10,2008-01-28,52.044056,-2.978674
334251,Drakes,Exempt,nan,nan,nan,2014-07-11,,
334252,Dressler Ltd,5,0,5,5,2008-11-25,52.147488,-2.484312
334253,Drybridge Day Centre,5,0,0,0,2014-03-27,52.05046,-2.718831
334254,Ducking Stool,3,10,10,10,2014-02-06,52.226553,-2.738758
334255,Duke Of York,Exempt,nan,nan,nan,2003-11-10,52.267831,-2.65618
334256,Duke's Head,5,5,0,0,2015-01-16,52.227225,-2.737759
334257,Dulas Court,5,0,0,0,2014-05-20,51.964269,-2.919647
334258,Dunelm Mill Shop,5,5,0,0,2012-11-06,52.069633,-2.721021
334259,Dunfield House Limited,5,5,0,0,2014-06-19,52.219407,-3.064515
334260,Eagle Inn,AwaitingInspection,nan,nan,nan,,51.915206,-2.583026
334261,Eardisland Community Shop Ltd,5,0,5,0,2010-04-07,52.222285,-2.853076
334262,Eardisland Tea Room,4,10,5,5,2014-08-05,,
334263,Earl Mortimer College & Sixth Form,5,0,5,0,2014-09-08,52.221891,-2.738153
334264,East Friars Ltd,3,10,10,10,2013-11-26,52.052837,-2.721115
334265,Eastbank Residential Home,5,5,5,5,2011-03-29,52.053486,-2.7045
334266,Eastnor Bowling Club,Exempt,nan,nan,nan,2003-11-20,52.035171,-2.375208
334267,Eastnor Castle (Castle kitchen),3,10,5,10,2009-10-08,52.029934,-2.390396
334268,Easy2Visit,3,10,5,10,2015-01-20,52.056657,-2.721337
334269,Edens,5,5,5,5,2011-02-15,51.840921,-2.638616
334270,Edgar Street Service Station,Exempt,nan,nan,nan,2004-02-28,52.06284,-2.717352
334271,Edisons Coffee Shop,5,5,0,5,2014-12-09,,
334272,Eejy Weejy Bakery,5,0,0,5,2013-07-18,,
334273,Eignbrook United Reformed Church,Exempt,nan,nan,nan,2009-01-08,52.057091,-2.722408
334274,Elachi,3,10,5,10,2014-10-06,51.914242,-2.585195
334275,Elaine's Farm Kitchen,5,0,5,5,2014-06-18,,
334276,Elizabeth Court,5,0,0,0,2012-04-16,52.057818,-2.700236
334277,Elizas Food Palace,5,0,0,5,2013-05-09,,
334278,Elmgrove Catering,5,0,5,5,2014-06-24,,
334279,Emma & Clive's Distinctive Catering,5,5,0,5,2014-03-28,,
334280,Emma's Pigs,5,5,0,5,2014-07-09,52.077323,-2.914848
334281,Englands Gate Inn,5,5,0,0,2014-10-08,52.157643,-2.668985
334282,ETL Spring Cafe,5,0,0,5,2014-08-12,52.019903,-2.854291
334283,Etnam News,5,0,0,0,2014-10-31,52.22642,-2.73571
334284,Etnam Street Fish Bar,4,5,5,10,2015-01-09,52.226235,-2.737859
334285,Euphoria Nightclub,Exempt,nan,nan,nan,2005-03-17,52.224755,-2.738786
334286,Europe Quality Food,1,0,5,20,2014-09-24,51.916445,-2.581603
334287,Evendine House Residential Home,5,5,0,0,2014-06-04,52.069231,-2.356864
334288,Ewe & Lamb Inn,4,10,0,5,2012-01-13,52.203573,-3.030158
334289,Express Baguettes,5,5,0,0,2013-05-02,,
334290,Fairfield High School,4,5,5,10,2014-07-03,52.037582,-2.955703
334291,Falcon Guest House,5,5,5,5,2011-02-22,51.98287,-2.56486
334292,Falcon Hotel,3,10,5,10,2014-11-10,52.188746,-2.505722
334293,Farmfoods Ltd,5,5,0,0,2012-05-17,52.045961,-2.725203
334294,Fat Man Chilli,5,5,5,5,2012-07-29,,
334295,Fiddlers Elbow Fish Bar,5,5,5,5,2013-09-11,52.359385,-2.873469
334296,Field Farm House,4,10,5,5,2014-07-16,52.045076,-2.66809
334297,Field Fayre,5,5,0,0,2014-06-18,51.915206,-2.583026
334298,Field Fayre,4,5,0,10,2010-09-15,,
334299,Fieldhouse Montessori Kindergarten,Exempt,nan,nan,nan,2008-04-18,52.086758,-2.803333
334300,Fishermans Arms,5,5,5,5,2014-08-14,52.210929,-2.654858
334301,Flaming Jack's Burger Shack,5,0,5,5,2014-06-20,,
334302,Flaming Tasty,5,0,0,5,2013-05-09,,
334303,Flowerdew's,5,5,5,5,2014-10-13,52.189056,-2.504673
334304,Flying Dutchman,4,10,5,5,2014-08-11,52.227005,-2.738458
334305,Flynns,5,0,0,0,2010-01-12,52.042638,-2.715804
334306,Fodder,5,5,0,5,2015-01-07,52.055546,-2.716331
334307,Folly Lane Stores,4,5,5,10,2011-07-07,52.059911,-2.69601
334308,Food for Thought,5,5,5,5,2013-05-08,52.041319,-2.95501
334309,Food to Go,5,0,0,5,2012-01-10,52.061892,-2.698579
334310,Forest View Guest House,5,5,5,5,2011-05-25,51.840921,-2.638616
334311,Forge Filling Station,4,0,0,10,2012-11-16,51.974792,-2.832221
334312,Four Oaks Fine Foods Ltd,5,0,5,0,2012-01-04,52.039193,-2.424679
334313,Fownhope Pre-School Playgroup,Exempt,nan,nan,nan,2006-10-02,52.006382,-2.613158
334314,Foxys Steak Bar,5,5,5,5,2013-11-14,52.189655,-2.507664
334315,Frankie and Benny's,5,0,0,0,2014-05-21,,
334316,Franks Luxury Biscuits Ltd,5,5,5,5,2013-10-30,52.071999,-2.705827
334317,Frasers Farm Shop,4,5,0,10,2008-03-27,52.035239,-2.946352
334318,Freedom Centre,4,0,5,10,2010-04-12,52.058951,-2.713716
334319,Friday Market,Exempt,nan,nan,nan,2004-10-05,52.28314,-2.463216
334320,From the Kitchen,4,5,5,10,2014-04-02,,
334321,Froome Bank Residential Home,Exempt,nan,nan,nan,2009-03-04,52.185888,-2.509595
334322,Fullwoods,5,0,0,5,2013-05-09,,
334323,Fun-2-Sea Island,4,5,5,10,2011-03-02,51.922307,-2.581563
334324,Fusion,Exempt,nan,nan,nan,,52.05867,-2.709569
334325,G Williams,AwaitingInspection,nan,nan,nan,,52.361385,-2.876489
334326,Gabriella Catering,5,0,5,0,2008-03-25,,
334327,Gaines Christian Youth Centre,5,5,5,0,2013-06-07,52.196684,-2.41348
334328,Gala Bingo Club,5,0,5,5,2014-02-12,52.055429,-2.71926
334329,Gallery Cafe,5,5,0,0,2014-03-12,52.279356,-2.780502
334330,Galloping Gourmet Catering,5,0,0,5,2014-09-13,,
334331,Ganarew House Care Home,5,5,5,5,2015-01-12,51.848295,-2.681619
334332,Garford Farm,5,5,5,5,2011-04-19,52.089303,-2.5849
334333,Garlands Catering,3,5,10,10,2014-06-08,,
334334,Garway Market,5,5,5,5,2008-02-07,51.892139,-2.794233
334335,Garway Moon Inn,3,10,5,10,2014-03-12,51.900787,-2.782424
334336,Garway Pre-School,Exempt,nan,nan,nan,2008-06-06,51.900787,-2.782424
334337,Gateway Nursery,5,0,5,5,2013-11-14,52.058678,-2.639093
334338,Gemma Handy Cafe,5,5,5,5,2014-12-04,52.056773,-2.715636
334339,Genesis TMC,5,0,0,0,2010-02-16,51.945996,-2.68697
334340,George's Delicatessen,5,0,0,5,2014-11-12,52.203573,-3.030158
334341,Gigi Bar and Grill (formerly Miro),5,5,5,5,2014-02-26,52.057051,-2.712694
334342,Gilberts,4,10,5,5,2012-09-26,52.188558,-2.50553
334343,Gilbies,4,10,5,5,2013-10-04,52.056674,-2.71419
334344,Ginger Village Ltd,5,5,0,5,2008-09-30,52.151943,-2.785696
334345,Gladwin & James,5,5,5,5,2008-01-15,52.035494,-2.4232
334346,Glass Tandoor,3,10,10,10,2014-11-07,52.057932,-2.71125
334347,Glazydayz Pottery Cafe,4,5,5,10,2011-02-02,52.04434,-2.425865
334348,Glewstone Court Hotel,5,5,0,0,2011-07-21,51.897055,-2.638031
334349,Go Peri,2,10,15,10,2014-06-09,52.057051,-2.712694
334350,Golden Cross Inn,5,5,5,5,2013-10-16,52.107171,-2.682933
334351,Golden Crust Bakery,4,10,5,5,2014-07-29,51.915758,-2.582234
334352,Golden Fleece Inn,4,0,10,5,2010-01-27,52.055311,-2.712068
334353,Golden Galleon,2,10,15,10,2013-07-05,52.057932,-2.71125
334354,Golden Gate Takeaway,4,5,10,5,2013-11-13,52.036839,-2.424117
334355,Golden Lion,3,10,10,10,2013-08-30,52.066566,-2.724108
334356,Golden River,5,5,5,5,2012-03-07,52.057051,-2.712694
334357,Golden Valley Day Care Centre,Exempt,nan,nan,nan,2005-03-15,52.041319,-2.95501
334358,Golden Valley Hog Roast,5,0,0,5,2014-02-24,52.057852,-2.835792
334359,Golden Valley Organics,5,0,0,0,2008-02-15,52.024626,-2.698435
334360,Golden Valley Post Office And Stores,5,5,0,5,2013-03-14,52.041319,-2.95501
334361,Golden Valley Pre-School,Exempt,nan,nan,nan,2005-11-28,52.041319,-2.95501
334362,Golden Valley Tarts,4,5,5,10,2012-06-21,51.981699,-2.930487
334363,Good Eating Catering,4,5,5,10,2014-08-01,,
334364,Goodies,Exempt,nan,nan,nan,2014-03-04,,
334365,Goodrich Castle Visitor Centre,5,5,5,5,2010-11-10,51.870554,-2.618818
334366,Goodrich Primary School,5,0,5,0,2011-10-11,51.870554,-2.618818
334367,Gorsley Baptist Church,5,5,0,5,2014-03-05,51.931655,-2.478275
334368,Gorsley Post Office And Stores,5,0,0,5,2012-03-14,51.932472,-2.471855
334369,Gorsley Pre-School Nursery,Exempt,nan,nan,nan,2008-05-01,51.931048,-2.472844
334370,Gorzac Farms,Exempt,nan,nan,nan,,52.150449,-2.551195
334371,Gower's Bistro & Bar,3,10,5,10,2014-02-18,51.840921,-2.638616
334372,Gracie's,4,5,5,10,2013-07-05,52.228148,-2.738184
334373,Grafton Inn,3,10,5,10,2014-09-24,52.020711,-2.730143
334374,Granary Tea Rooms,3,10,5,10,2014-10-21,52.226146,-2.739161
334375,Grand Vacation Company,Exempt,nan,nan,nan,2003-05-21,51.87143,-2.612846
334376,Granny Smiths Corner Store,5,5,5,5,2011-07-21,52.035607,-2.429105
334377,Grape Vaults,3,10,5,10,2014-01-14,52.228666,-2.738837
334378,Grapes,2,15,15,10,2014-07-01,52.056,-2.715536
334379,Grapevine,5,5,5,5,2011-02-22,52.203377,-3.029993
334380,Graze Outdoor Events Ltd,5,0,5,5,2013-04-24,52.029934,-2.390396
334381,Graze Tea Room Ltd,4,5,5,10,2013-07-24,52.029934,-2.390396
334382,Great Western Railway Staff Association,4,5,5,10,2013-11-14,52.05585,-2.723978
334383,Greedy Guts,1,15,10,20,2014-07-14,52.071999,-2.705827
334384,Green Acres Farm Shop,Exempt,nan,nan,nan,2004-12-21,52.14872,-2.727545
334385,Green Cow Kitchens,5,5,5,5,2014-06-10,52.206384,-2.433823
334386,Green Dragon,3,5,10,10,2013-10-08,52.133304,-2.496533
334387,Green Dragon Hotel,4,5,5,10,2014-07-17,52.055545,-2.717906
334388,Green Lane Stores,5,0,5,5,2010-12-16,52.059871,-2.74229
334389,Green Man Inn,4,5,5,10,2013-08-19,52.007191,-2.614918
334390,Green Whale Tump,5,0,5,5,2011-03-04,51.88297,-2.58906
334391,Greenhill Catering,5,0,0,5,2012-10-05,,
334392,Greenways Lamb,Exempt,nan,nan,nan,2008-12-31,52.252311,-2.677367
334393,Greggs,5,0,0,0,2012-01-24,52.056139,-2.717784
334394,Greggs,5,5,0,0,2012-01-24,52.05715,-2.714227
334395,Greggs,5,5,0,0,2013-03-27,52.036369,-2.422319
334396,Greggs,5,0,0,0,2013-12-06,51.915206,-2.583026
334397,Griller in the Mist,4,5,5,10,2013-12-05,,
334398,Grillers Ltd,5,5,5,5,2014-02-05,52.116223,-2.46563
334399,Grove Farm Direct,4,10,5,5,2011-09-07,52.252583,-2.703139
334400,Grove Golf Centre & Hickory Stick Restaurant,4,10,5,5,2014-09-22,52.191945,-2.71605
334401,Gurneys Butchers,3,10,10,5,2014-09-05,52.036369,-2.422319
334402,Gwalia Stores,4,5,5,10,2013-11-12,51.915758,-2.582234
334403,Gwatkin Cider,5,5,5,5,2013-03-19,51.999465,-2.902772
334404,H & K Catering,5,5,0,0,2011-05-10,,
334405,H A Rutherford & Sons,2,15,10,10,2014-03-12,52.051494,-2.718701
334406,H J Edwards & Son (Butchers),4,0,5,10,2013-05-02,51.928596,-2.562214
334407,H P Bulmer Staff Shop,Exempt,nan,nan,nan,2010-10-22,52.059577,-2.727553
334408,H R Beaumont,Exempt,nan,nan,nan,2007-12-31,52.252311,-2.677367
334409,Halls Catering,5,0,5,5,2012-10-15,,
334410,Halo Leisure (Bridge Street Park),5,5,5,5,2008-04-24,52.234171,-2.744112
334411,Halo Leisure Centre & Swimming Pool,5,5,5,5,2007-07-31,52.224047,-2.738482
334412,Hampton Grange Nursing Home,5,0,0,0,2014-11-17,52.048981,-2.691028
334413,Hampton Park United Reform Church,3,5,10,10,2014-01-15,52.052977,-2.687137
334414,Handley Organics,5,5,5,5,2014-11-18,52.037581,-2.422972
334415,Handmade Scotch Egg Company,4,10,5,5,2013-11-15,52.122103,-2.494203
334416,Happy Pork,5,5,0,0,2009-06-08,52.294328,-2.757891
334417,Hardwicke Hall,Exempt,nan,nan,nan,2002-07-02,52.083168,-3.06556
334418,Harris Butchers,3,10,10,10,2014-10-13,52.189056,-2.504673
334419,Harrison Catering Services,5,5,0,0,2013-07-16,52.067903,-2.706681
334420,Hawthorn Catering,5,5,5,5,2014-09-12,,
334421,Hay Wines,Exempt,nan,nan,nan,2011-03-17,52.036369,-2.422319
334422,Haynall Villa,4,10,5,5,2014-02-05,52.300409,-2.667953
334423,Hazelhurst Nursing Home,5,5,0,0,2014-05-13,51.864242,-2.594362
334424,HCT Nursery,5,0,0,5,2012-01-10,52.061892,-2.698579
334425,Heart Of Oak,5,5,5,5,2013-06-13,52.064572,-2.717949
334426,Hedonist Bakery,AwaitingInspection,nan,nan,nan,,51.949106,-2.685606
334427,Heggies,4,10,0,5,2014-11-03,52.062235,-2.739587
334428,Helen Smith (Mobile),5,0,0,5,2012-03-27,,
334429,Hellens,5,0,5,5,2008-01-11,51.994998,-2.499428
334430,Henryson Foods International Ltd,Exempt,nan,nan,nan,,52.214891,-2.73186
334431,Hereford Amateur Operatic Society,Exempt,nan,nan,nan,2004-06-08,52.059201,-2.730202
334432,Hereford and Ludlow College,4,0,5,10,2014-11-18,52.046216,-2.720352
334433,Hereford Art College (College Lane Campus),3,5,10,10,2013-10-15,52.067903,-2.706681
334434,Hereford Bowling Club,Exempt,nan,nan,nan,2005-03-14,52.056841,-2.717737
334435,Hereford Butchers,2,15,10,10,2014-11-05,52.056841,-2.717737
334436,Hereford Cathedral School,3,10,5,10,2014-06-27,52.053855,-2.714947
334437,Hereford Charcoal Grill,5,0,0,0,2012-02-14,52.059139,-2.709416
334438,Hereford City Sports Club,5,0,0,0,2008-02-26,52.067476,-2.731037
334439,Hereford Golf Academy,Exempt,nan,nan,nan,2004-01-08,52.089533,-2.718846
334440,Hereford Haven Centre,Exempt,nan,nan,nan,2005-05-18,52.055311,-2.712068
334441,Hereford Ice Cream,5,0,5,5,2010-09-07,,
334442,Hereford Lads Club,4,5,5,10,2010-05-21,52.064206,-2.721867
334443,Hereford Leisure Centre,3,10,5,10,2014-02-10,52.069703,-2.722787
334444,Hereford Leisure Pool,5,0,0,0,2012-07-18,52.050781,-2.717727
334445,Hereford Military Club,4,10,5,5,2007-02-13,52.055282,-2.721212
334446,Hereford Provisions,5,5,5,5,2014-06-12,52.056773,-2.715636
334447,Hereford Quaker Meeting,Exempt,nan,nan,nan,2011-11-18,52.054553,-2.718473
334448,Hereford Racecourse,4,10,5,5,2013-05-05,52.075303,-2.725883
334449,Hereford Rowing Club,4,10,5,5,2010-03-10,52.052837,-2.721115
334450,Hereford Rugby Football Club,5,5,5,0,2014-12-12,52.055305,-2.799808
334451,Hereford Sixth Form College,5,0,0,0,2012-09-28,52.062603,-2.698487
334452,Hereford Snooker Club,5,5,5,5,2013-11-13,52.058951,-2.713716
334453,Hereford Welsh Social Club,5,5,0,5,2014-09-10,52.048004,-2.717595
334454,Hereford Whitecross Club,Exempt,nan,nan,nan,2011-01-20,52.060188,-2.737686
334455,Hereford Wi Market,Exempt,nan,nan,nan,2003-11-10,52.055804,-2.713681
334456,Herefordshire College Of Art And Design,5,0,5,0,2012-09-13,52.061083,-2.696961
334457,Herefordshire Deli Hampers,5,0,0,0,2009-10-12,,
334458,Herefordshire Golf Club,5,0,5,0,2012-09-21,52.125232,-2.836628
334459,Herefordshire Headway,5,0,0,5,2011-12-06,52.085107,-2.806791
334460,Herefordshire Meat (Leominster),3,10,5,10,2014-10-06,52.227581,-2.738379
334461,Herefordshire Meats Ltd,4,5,5,10,2014-09-09,52.075885,-2.747867
334462,Herefordshire Old Peoples Housing Society Ltd,5,0,5,5,2013-10-24,52.039387,-2.643497
334463,Herefordshire Raceway,4,0,5,10,2014-02-25,52.171241,-2.888904
334464,Herefordshire Waterworks Museum,Exempt,nan,nan,nan,2005-08-09,52.05227,-2.730074
334465,Heron House,5,0,5,5,2011-02-23,52.102107,-2.749882
334466,Hidelow House Cottages,4,0,5,10,2011-02-22,52.142151,-2.440066
334467,High Ground Coffee,5,5,5,5,2009-09-15,,
334468,Highfield The Bage,5,5,5,5,2008-06-25,52.083185,-3.02823
334469,Highgate House,5,0,5,5,2011-03-10,52.218682,-2.739447
334470,Highmore Hedgehogs Pre School,Exempt,nan,nan,nan,2008-04-16,52.071513,-2.735363
334471,Highwell House,5,5,5,5,2014-07-02,52.185888,-2.509595
334472,Hilbrey Garage,Exempt,nan,nan,nan,2001-09-21,52.117001,-2.605095
334473,Hillcrest [PGL Travel],5,5,5,5,2014-03-17,51.959723,-2.58602
334474,Hillside Herb Farm,Exempt,nan,nan,nan,2004-10-11,52.260793,-2.696778
334475,Hillside House - Sodexho,5,5,0,0,2014-04-10,52.042306,-2.723045
334476,Hinton Community Centre,4,5,5,10,2008-04-04,52.046288,-2.720324
334477,Hinton Filling Station,5,0,5,5,2012-04-11,52.046288,-2.720324
334478,Hinton Green Country House Bed & Breakfast,4,0,0,10,2010-03-29,52.044612,-2.963537
334479,HM Catering,5,0,0,5,2013-02-19,,
334480,HMV UK Ltd,Exempt,nan,nan,nan,2010-09-01,52.056855,-2.713887
334481,Holgate Farm,5,5,5,5,2007-05-02,52.247016,-2.807324
334482,Holland & Barrett,5,0,0,5,2008-02-06,52.227433,-2.738919
334483,Holland and Barrett,Exempt,nan,nan,nan,2012-10-17,51.915418,-2.581953
334484,Holland And Barrett Retail Ltd,5,0,5,0,2007-01-03,52.056948,-2.71488
334485,Holly Cottage,5,5,5,5,2009-11-03,52.20694,-3.041958
334486,Holly Tree Guest House,5,5,0,0,2011-06-17,52.053635,-2.72295
334487,Holme Lacy House Hotel,5,5,5,5,2014-05-13,52.017468,-2.649944
334488,Holmer Court Residential Home,4,0,10,10,2014-07-23,52.077005,-2.716528
334489,Holmer Park,3,10,5,10,2014-02-10,52.076907,-2.720919
334490,Holmer Pre-School,Exempt,nan,nan,nan,2008-10-07,52.066829,-2.722288
334491,Holmer Stores,5,5,0,5,2013-01-23,52.075861,-2.722843
334492,Home Farm Foods,Exempt,nan,nan,nan,2004-02-09,51.911975,-2.574436
334493,Homebase Stores,Exempt,nan,nan,nan,2007-11-28,52.037268,-2.437125
334494,Homend Bakery Shop,5,5,5,5,2012-08-06,52.038107,-2.423983
334495,Homend Garage,Exempt,nan,nan,nan,2013-05-15,52.040928,-2.424739
334496,Honey Bees Nursery,Exempt,nan,nan,nan,2012-07-27,52.224047,-2.738482
334497,Hooty Roots,Exempt,nan,nan,nan,2014-11-18,52.056564,-2.718899
334498,Hop Pocket Craft Centre,5,5,5,0,2014-01-21,52.122103,-2.494203
334499,Hop Pocket Wine Company,Exempt,nan,nan,nan,2002-06-13,52.122103,-2.494203
334500,Hop Pole,1,15,10,20,2014-12-09,52.189056,-2.504673
334501,Hopbine Hotel,5,0,0,0,2010-03-13,52.0748,-2.712539
334502,Hope And Anchor,5,5,5,0,2014-02-07,51.915393,-2.586954
334503,Hope City Church,5,0,5,5,2014-02-13,52.055953,-2.711481
334504,Hope End House,5,0,5,5,2009-05-26,52.065811,-2.410314
334505,HOPE Family Centre,5,0,5,5,2014-06-12,52.18228,-2.520494
334506,Hope Scott House,2,15,5,10,2011-07-14,52.0748,-2.712539
334507,Hopes of Longtown,5,0,0,0,2013-07-04,51.950075,-2.981617
334508,Hopscotch Pre-School,Exempt,nan,nan,nan,2008-04-25,52.062489,-2.563691
334509,Horse & Groom,4,10,5,5,2010-01-27,52.057091,-2.722408
334510,Horse & Jockey Inn,4,10,0,5,2013-05-21,51.91545,-2.584498
334511,Hot Chocs Company,Exempt,nan,nan,nan,2015-01-30,,
334512,Hot Flames,5,5,5,5,2014-02-11,52.226869,-2.740095
334513,Houghton Court,Exempt,nan,nan,nan,2011-09-16,52.155309,-2.645826
334514,House of the Rising Bun,5,5,5,5,2013-05-08,52.025568,-2.846703
334515,How Caple Grange,5,0,5,5,2014-03-26,51.98287,-2.56486
334516,How Caple Tea Room and Post Office,5,5,5,5,2011-10-11,51.972981,-2.566497
334517,Howard Moseley Family Butcher,5,0,0,0,2011-05-24,,
334518,HR8 Apple Juice,Exempt,nan,nan,nan,2014-04-02,,
334519,H's,5,0,0,5,2013-05-10,,
334520,HSME Ltd,5,5,5,5,2011-06-07,52.05227,-2.730074
334521,Hunderton Neighbourhood Nursery,Exempt,nan,nan,nan,2003-10-01,52.048718,-2.724271
334522,Hunters Lodge,5,5,5,5,2012-08-20,51.9679,-2.74582
334523,Hunters Moon Bed and Breakfast,5,5,5,5,2012-11-20,51.944493,-2.489483
334524,Huntlands Farm Bed & Breakfast,4,5,5,10,2013-06-07,52.196684,-2.41348
334525,Hyderabad,3,10,10,10,2014-02-19,52.203498,-3.028474
334526,Ice Bytes,5,5,0,0,2013-03-05,52.038107,-2.423983
334527,Ice Cream Cabin,4,5,5,10,2010-08-11,,
334528,Iceland,5,0,0,5,2009-03-18,52.056357,-2.718969
334529,Ildiko Zsuzsa Toth,4,0,5,10,2014-02-07,,
334530,Imagination Station Pre-School,Exempt,nan,nan,nan,2010-04-21,52.083655,-2.808765
334531,Imperial,2,15,10,10,2014-01-13,52.057739,-2.716395
334532,In a Nutshell,5,5,0,0,2012-12-19,52.227067,-2.74146
334533,Indian Summer,4,5,5,10,2013-08-28,51.914477,-2.585038
334534,Inspiration Care,5,5,5,5,2010-03-12,52.226277,-2.752559
334535,International Food,5,5,5,5,2010-10-25,52.058216,-2.711794
334536,Istanbul Mini Market,5,5,0,5,2013-02-26,52.227581,-2.738379
334537,Ivington Nursery,Exempt,nan,nan,nan,2008-04-16,52.206015,-2.768884
334538,Ivy House,5,5,5,5,2011-01-10,52.05817,-2.692351
334539,Izzies,5,5,5,0,2014-03-26,,
334540,J & P Turner,Exempt,nan,nan,nan,2012-01-13,52.202076,-3.02768
334541,J A Pritchard And Son,5,5,0,0,2012-05-29,52.006006,-2.61292
334542,J Benjamins Chemist,Exempt,nan,nan,nan,2001-05-21,51.915109,-2.582647
334543,J Mart,Exempt,nan,nan,nan,2001-04-05,52.061294,-2.714293
334544,J R Catering,4,10,5,5,2014-11-13,52.036189,-2.434709
334545,J T Armstrong,Exempt,nan,nan,nan,2007-08-16,52.08392,-2.591616
334546,J W T Barber,Exempt,nan,nan,nan,2006-02-28,52.036484,-2.778902
334547,Jack in the Box (Bosbury) Ltd,5,5,5,5,2014-12-04,52.087906,-2.446114
334548,Jacquelines Snack Bar,5,5,5,5,2013-02-26,51.915206,-2.583026
334549,Jailhouse Nightclub,5,5,0,5,2012-03-22,52.055953,-2.711481
334550,Jake's,2,15,10,10,2014-10-31,52.203911,-3.032639
334551,Jalalabad Tandoori Restaurant,4,5,5,10,2013-10-08,52.22642,-2.73571
334552,Jalsagor Restaurant,1,15,15,20,2014-07-16,52.05407,-2.710619
334553,Jamals Kebab House,4,10,5,5,2014-08-14,52.053833,-2.718593
334554,Jamie's Farm,AwaitingInspection,nan,nan,nan,,51.956539,-2.943179
334555,Jane's Catering,5,5,5,5,2011-03-16,,
334556,Jane's Parlour,Exempt,nan,nan,nan,2001-06-29,52.203377,-3.029993
334557,JaPancakes,4,10,5,5,2014-05-03,,
334558,Jasmine House,5,0,0,5,2011-01-27,52.058553,-2.711099
334559,Jennifer Lewis,4,5,5,10,2013-06-13,,
334560,Jenny's Cafe,3,10,10,10,2014-01-14,51.927699,-2.578331
334561,JJ Lite Bites,5,5,0,5,2014-07-11,,
334562,Joanna Lenton Whitlock,Exempt,nan,nan,nan,2005-03-15,,
334563,John Kyrle High School,5,5,5,5,2015-01-14,51.923996,-2.578138
334564,John Lewis Fine Foods,Exempt,nan,nan,nan,2012-02-16,51.912987,-2.571614
334565,John Masefield High School,5,5,0,0,2012-02-29,52.031981,-2.422511
334566,Johnson Catering,5,0,0,0,2010-07-01,,
334567,Jollys of Goodrich,5,0,5,5,2008-01-17,51.871981,-2.619244
334568,Jo's Place,3,10,10,10,2014-03-21,51.86282,-2.645751
334569,JP Catering Services,5,5,0,0,2014-03-04,52.15842,-2.977586
334570,Jules Cafe,1,5,5,20,2014-05-29,52.159165,-2.874746
334571,Just Local,Exempt,nan,nan,nan,2011-02-04,52.056773,-2.715636
334572,Just Wood Fired,5,5,5,5,2014-04-30,,
334573,JV's Catering,1,5,5,20,2012-10-15,,
334574,Ka Ja Catering,5,5,0,0,2014-11-10,52.226775,-2.740621
334575,Kamal Tandoori,3,10,5,10,2014-02-20,52.059097,-2.714885
334576,Kelsmor Dairy,5,5,0,5,2014-12-03,51.900562,-2.775691
334577,Kenchester Tea Rooms,3,10,5,10,2013-11-20,52.093702,-2.725218
334578,KES Childcare,5,5,5,0,2014-07-02,52.020301,-2.846517
334579,Key Cottage Catering,5,5,5,5,2014-02-04,,
334580,KFC,5,5,0,0,2013-02-08,52.05867,-2.709569
334581,KFC,5,5,0,0,2015-01-15,51.928596,-2.562214
334582,Kids Zone,5,5,5,5,2008-09-29,52.316169,-2.859752
334583,Kidwells House,5,5,5,5,2011-02-17,52.063811,-2.715792
334584,Kimbolton Nursery,Exempt,nan,nan,nan,2006-09-06,52.247934,-2.697104
334585,King Charles II,5,5,5,5,2006-04-03,51.915206,-2.583026
334586,Kingfisher Trout Lake,Exempt,nan,nan,nan,2008-09-04,52.190845,-2.554766
334587,Kings Acre P O &Stores,4,10,0,10,2012-11-08,52.064535,-2.749807
334588,Kings Arms,3,10,5,10,2014-10-13,52.189655,-2.507664
334589,Kings Fee,5,5,0,5,2014-11-25,52.057932,-2.71125
334590,Kings Head,3,10,5,10,2014-01-15,52.211845,-2.633621
334591,Kings Head Hotel,5,5,0,0,2012-01-26,51.914477,-2.585038
334592,Kings News (Ctn),4,5,0,10,2010-03-08,52.203183,-3.028554
334593,Kingsland Bowling Club,Exempt,nan,nan,nan,2002-07-23,52.248459,-2.815787
334594,Kingsland Nursery,Exempt,nan,nan,nan,2008-04-23,52.247016,-2.807324
334595,Kingspan Insulation,5,0,5,0,2013-06-14,52.236725,-2.893053
334596,Kingstone High School - Iron Rice Bowl,5,5,0,0,2014-05-20,52.020301,-2.846517
334597,Kingstone Post Office & Stores,3,10,5,10,2013-01-16,52.016085,-2.842707
334598,Kington Bowling Club,Exempt,nan,nan,nan,2003-12-05,52.20302,-3.035896
334599,Kington Community Lunch Club,5,0,5,0,2013-06-12,52.204725,-3.036258
334600,Kington County Market,Exempt,nan,nan,nan,2003-12-10,52.203498,-3.028474
334601,Kington Court Community Centre,5,0,0,5,2014-04-22,52.205237,-3.023919
334602,Kington Fish & Chips,5,5,5,5,2013-04-02,52.203573,-3.030158
334603,Kington Kangaroos,Exempt,nan,nan,nan,2002-09-25,52.203099,-3.037113
334604,Kington Museum,Exempt,nan,nan,nan,2010-04-23,52.202564,-3.033501
334605,Kinnersley Arms,AwaitingInspection,nan,nan,nan,,52.133347,-2.96415
334606,KK Ventures,5,5,5,5,2014-10-06,,
334607,KMB Catering,5,5,5,5,2014-08-06,,
334608,Knights Farm Shop,Exempt,nan,nan,nan,2003-02-26,52.133971,-2.35706
334609,Koompir,5,0,0,5,2012-05-10,,
334610,K's Catering Ltd,5,0,0,5,2012-08-07,52.057852,-2.835792
334611,Kwiksnax,5,0,0,0,2012-07-11,,
334612,Kyrle Pope Court Social Club,5,5,5,5,2009-03-10,52.051137,-2.680415
334613,La Madeleine,5,5,5,5,2012-08-24,52.055546,-2.716331
334614,Lady Hawkins Community Leisure Centre,5,5,5,5,2009-12-10,52.204725,-3.036258
334615,Lady Hawkins High School,5,0,5,5,2014-09-24,52.203099,-3.037113
334616,Ladyridge Farm,4,0,10,5,2008-01-29,51.985365,-2.594859
334617,Lake View Nursery,5,5,5,0,2015-01-13,52.041605,-2.693086
334618,Lakeland,Exempt,nan,nan,nan,2011-05-19,52.05715,-2.714227
334619,Lakeside,AwaitingInspection,nan,nan,nan,,52.2528,-2.89068
334620,Lal Bagh Restaurant,1,10,10,20,2014-09-10,52.160359,-2.876173
334621,Lammas Lodge,4,5,5,10,2014-05-30,52.065741,-2.654482
334622,Lane Cottage Produce,5,5,0,0,2011-03-29,,
334623,Larruperz Community Centre,5,0,5,5,2013-01-24,51.915025,-2.576016
334624,Lavender House,5,0,0,0,2011-03-03,52.222535,-2.761396
334625,Lawfords House Care Home,5,5,5,5,2012-09-19,51.907979,-2.586334
334626,Lawton Group Ltd - Ross Court,5,5,0,5,2014-05-13,51.924394,-2.574013
334627,LDA Meats of Ledbury,4,10,5,5,2014-09-12,52.036189,-2.434709
334628,Lea House,5,5,5,5,2011-04-07,51.893957,-2.493336
334629,Lea Pre-School,Exempt,nan,nan,nan,2011-07-06,51.893074,-2.502278
334630,Lea Stores,5,5,5,5,2009-03-16,51.893957,-2.493336
334631,Leadership Trust Training Ltd,5,0,0,0,2011-04-06,51.91032,-2.542564
334632,Leadon Bank,5,0,0,5,2014-08-14,52.039587,-2.427642
334633,Leadon House Hotel,4,5,0,10,2010-03-17,52.027071,-2.442447
334634,Ledbury Amateur Dramatic Society,Exempt,nan,nan,nan,2003-02-25,52.036168,-2.425831
334635,Ledbury Bowling Club,Exempt,nan,nan,nan,2004-11-18,52.038552,-2.422923
334636,Ledbury Children's Centre,Exempt,nan,nan,nan,2008-11-05,52.039362,-2.429987
334637,Ledbury Cider & Juice Co,Exempt,nan,nan,nan,2013-08-09,52.047791,-2.428858
334638,Ledbury Leisure Centre,Exempt,nan,nan,nan,2003-01-16,52.031981,-2.422511
334639,Ledbury News,Exempt,nan,nan,nan,2009-06-05,52.036369,-2.422319
334640,Ledbury Nursing Home,5,5,0,5,2014-02-28,52.036168,-2.425831
334641,Ledbury Road Service Station,5,5,5,5,2008-10-21,52.054829,-2.702508
334642,Ledbury Rugby Club,5,0,0,0,2015-02-06,52.027071,-2.442447
334643,Ledbury Tennis Club,Exempt,nan,nan,nan,2001-07-31,52.034823,-2.422348
334644,Ledbury Town Football Club,4,5,5,10,2011-11-01,52.031268,-2.433247
334645,Legges of Bromyard,4,10,5,5,2014-09-29,52.1916,-2.509046
334646,Leintwardine Community Centre,5,5,5,5,2013-06-25,52.361385,-2.876489
334647,Leintwardine Youth Group,4,5,5,10,2013-04-23,52.361385,-2.876489
334648,Lekker Little Dutch Pancakes,5,0,0,0,2014-06-18,51.915206,-2.583026
334649,Lemon Thai,4,5,0,10,2014-12-11,51.913703,-2.581393
334650,Leominster Baptist Church,Exempt,nan,nan,nan,2003-02-03,52.226179,-2.735296
334651,Leominster Bowling Club,Exempt,nan,nan,nan,2001-05-14,52.224255,-2.741033
334652,Leominster Car Auctions,4,10,5,5,2013-09-11,52.231827,-2.827372
334653,Leominster Community Hospital,5,5,0,0,2014-03-19,52.22218,-2.739358
334654,Leominster Golf Club,5,0,0,0,2011-03-31,52.191945,-2.71605
334655,Leominster Homebrews,Exempt,nan,nan,nan,2008-12-09,52.228464,-2.739463
334656,Leominster Pharmacy,Exempt,nan,nan,nan,2000-06-29,52.226775,-2.740621
334657,Leominster Residential & Nursing Home,5,5,0,0,2015-01-14,52.226954,-2.74364
334658,Leominster Royal British Legion,4,0,5,10,2014-11-11,52.224755,-2.738786
334659,Leominster Wi Market,5,5,5,5,2012-06-28,52.2279,-2.740478
334660,Lichfield Vaults,5,0,0,5,2011-12-07,52.055546,-2.716331
334661,Lidl Uk,5,0,0,0,2012-07-13,52.058819,-2.705867
334662,Linden House,5,0,0,5,2011-03-11,51.913821,-2.584869
334663,Lindencroft Guest House,5,5,5,5,2011-02-16,52.059341,-2.69355
334664,Lin's Wok,4,10,5,5,2013-10-25,52.189019,-2.506954
334665,Linton Brook Farm - Guest House,5,5,5,5,2011-03-04,52.182355,-2.475155
334666,Lion Restaurant,5,5,5,5,2014-02-19,52.203498,-3.028474
334667,Little Acorns Day Nursery,5,5,5,0,2014-07-02,52.01935,-2.846193
334668,Little Acre Bed & Breakfast,5,5,5,5,2009-11-05,51.986063,-2.537669
334669,Little Cafe on the Square,5,0,0,5,2014-07-29,52.204622,-3.032539
334670,Little Dewchurch After School Club,Exempt,nan,nan,nan,2008-11-04,51.981304,-2.685428
334671,Little Gems Daycare,Exempt,nan,nan,nan,2008-07-09,52.107171,-2.682933
334672,Little Kingshill B & B,5,0,5,5,2011-02-23,52.088022,-2.341529
334673,Little Leintwardine Nursery,Exempt,nan,nan,nan,2011-03-04,52.362378,-2.874732
334674,Little Marcle Organic Produce,Exempt,nan,nan,nan,2010-02-22,52.038762,-2.460305
334675,Little Orchard Day Nursery Ltd,Exempt,nan,nan,nan,2008-12-10,52.205363,-3.027068
334676,Little Treaddow Farm House,5,5,5,0,2010-11-09,51.914686,-2.668958
334677,Littlebridge House,3,10,5,10,2013-04-30,52.217172,-2.475922
334678,Livability,5,5,5,5,2011-04-14,52.057934,-2.71688
334679,Live and Let Live,AwaitingInspection,nan,nan,nan,,52.207541,-2.411985
334680,Live And Let Live - Bringsty Common,2,15,5,10,2014-08-14,52.191138,-2.438121
334681,Llandinabo Farm Shop,4,10,5,5,2014-11-18,52.037581,-2.422972
334682,Llandinabo Kitchen,4,0,5,10,2013-11-25,51.945996,-2.68697
334683,Llangrove Leapfrogs,Exempt,nan,nan,nan,2008-04-11,51.869336,-2.690608
334684,Lloyds Chemist,Exempt,nan,nan,nan,2003-11-10,51.911434,-2.584024
334685,Lloyds Pharmacy,Exempt,nan,nan,nan,,52.054304,-2.718017
334686,Loafers Patisserie,5,5,5,5,2014-11-10,52.188746,-2.505722
334687,Loafer's Patisserie,4,10,5,5,2014-05-14,52.203498,-3.028474
334688,Locks Garage,5,5,5,5,2014-03-18,52.000703,-2.794551
334689,Lodge Farm,5,5,0,5,2012-08-08,,
334690,Lollipops Nursery School,5,5,0,5,2014-05-16,52.064572,-2.717949
334691,Londis Stores And Post Office,5,5,0,5,2008-01-24,52.043965,-2.848961
334692,Long Bar,5,5,0,0,2010-03-13,52.057932,-2.71125
334693,Longtown Outdoor Education Centre,5,0,0,0,2012-02-15,51.954234,-2.986467
334694,Longtown Pre-School,Exempt,nan,nan,nan,2011-09-20,51.957311,-2.989416
334695,Lord Nelson Antique Centre,5,5,0,0,2012-05-01,52.077572,-2.847935
334696,Lotty's,5,5,0,5,2013-07-10,,
334697,Lotus Chinese Restaurant,2,15,5,10,2013-09-03,52.056,-2.715536
334698,Lower Bache House,4,10,5,5,2014-01-14,52.247074,-2.66866
334699,Lower Brockhampton,Exempt,nan,nan,nan,2014-10-13,52.192311,-2.462958
334700,Lower Buckton,4,5,0,10,2014-09-10,52.354908,-2.904479
334701,Lower House Farm,4,5,5,10,2007-10-16,52.101111,-2.927745
334702,Lower Meadow Farm C/o,Exempt,nan,nan,nan,2012-03-28,52.03997,-2.949528
334703,Lower Wintercott,Exempt,nan,nan,nan,2000-08-14,52.196988,-2.770396
334704,Lucksall Caravan And Camping Park,Exempt,nan,nan,nan,2010-02-08,52.023849,-2.630566
334705,Lucky House,3,10,10,10,2014-03-06,52.059196,-2.735321
334706,Lucton School,5,5,0,0,2013-09-11,52.278235,-2.823619
334707,Luctonians Sports Club,5,0,0,0,2013-05-23,52.251097,-2.825694
334708,Ludlow Caterers,4,5,5,10,2014-11-19,52.353664,-2.840452
334709,Lulham Court Vineyard,Exempt,nan,nan,nan,2012-02-06,52.064434,-2.864272
334710,Lumleys At Kerne Bridge,5,5,5,5,2011-02-15,51.867212,-2.607937
334711,Lunch Club,3,5,10,10,2013-01-03,51.925856,-2.495722
334712,Lunch Club - Wellington Community Centre,5,0,5,5,2014-08-20,52.129288,-2.745284
334713,LWC - Hereford,5,5,0,5,2008-02-04,52.219357,-2.732241
334714,Lyde Court,5,0,0,0,2014-01-10,52.086844,-2.708601
334715,Lye Court Farm,Exempt,nan,nan,nan,2002-12-19,52.162488,-2.801787
334716,Lyn Bullock Catering,5,0,0,0,2012-02-23,,
334717,Lyndale Care Home,5,5,0,0,2012-01-09,52.058932,-2.703389
334718,Lynhales Hall Nursing Home,5,5,0,0,2014-05-20,52.200766,-2.986255
334719,M & J Catering,5,5,0,0,2011-11-24,,
334720,M & M Direct,5,0,0,5,2012-09-10,52.220955,-2.732575
334721,M & M Direct Ltd,5,0,0,5,2011-03-04,52.114462,-2.729455
334722,M & M Ices,5,0,5,5,2013-08-13,52.058771,-2.704714
334723,M A & R G Jenkins Greengrocers,Exempt,nan,nan,nan,2004-07-12,52.037581,-2.422972
334724,M E Fletcher,Exempt,nan,nan,nan,2008-02-07,52.228666,-2.738837
334725,M G Elcox,5,5,5,5,2006-03-07,52.056773,-2.715636
334726,M/s E C Drummond & Son,Exempt,nan,nan,nan,2006-08-01,51.896634,-2.614162
334727,Mace - Lomas (Kington) Ltd,5,5,5,5,2006-03-10,52.200846,-3.026364
334728,Madley Pre-school,Exempt,nan,nan,nan,2010-10-18,52.045239,-2.849321
334729,Madley Satellite - Eurest,5,0,0,5,2011-06-28,52.033301,-2.849167
334730,Maggie's Snacks,4,10,5,5,2014-12-10,,
334731,Mahi's,2,10,15,10,2014-06-24,52.189019,-2.506954
334732,Mailes & Sheehan,5,5,0,5,2014-06-13,52.056773,-2.715636
334733,Majestic Wine Warehouses Ltd,Exempt,nan,nan,nan,2008-07-03,52.048662,-2.718787
334734,Malvern Hills Hotel,3,10,5,10,2014-10-21,52.063582,-2.345762
334735,Man Of Ross Inn,5,5,0,5,2012-01-10,51.915008,-2.586673
334736,Mandy Moo's,5,0,5,0,2013-09-24,51.915253,-2.578913
334737,Mangalitsa Delicacy,3,10,5,10,2014-02-27,,
334738,Manic Ceramics,4,10,5,5,2010-03-01,52.056054,-2.718439
334739,Manor Fish Bar,3,10,10,10,2014-03-11,52.043533,-2.70898
334740,Manor Rest Home,5,5,0,5,2014-04-10,52.039577,-2.703129
334741,Marden Mini Market,4,5,10,5,2012-06-27,52.123775,-2.700101
334742,Marden Post Office & Stores,5,5,5,5,2006-03-27,52.126282,-2.691157
334743,Marden Pre-School,Exempt,nan,nan,nan,2007-05-08,52.126282,-2.691157
334744,Marises Barn Bed & Breakfast,5,0,5,5,2010-05-05,52.00689,-2.976144
334745,Mark Hurds Country Butchers,AwaitingInspection,nan,nan,nan,,52.164531,-2.886928
334746,Market Cafe,5,0,5,5,2014-02-19,52.077753,-2.763526
334747,Market House Cafe,5,5,0,5,2013-03-05,52.037581,-2.422972
334748,Marks & Spencers Plc,5,0,0,0,2012-01-24,52.056286,-2.715832
334749,Marlbrook Kids Club,Exempt,nan,nan,nan,2008-03-06,52.03915,-2.724641
334750,Marlbrook Primary School - Alliance in Partnership,5,5,0,5,2014-05-06,52.03915,-2.724641
334751,Marmahs,4,5,10,5,2012-10-27,,
334752,Marmaris Kebab,3,10,10,10,2014-07-16,52.057051,-2.712694
334753,Marshpools Country Inn,5,5,5,5,2004-09-08,52.147449,-2.853954
334754,Martha Trust Hereford Limited,5,0,5,5,2012-12-14,52.050136,-2.674727
334755,Martha Trust Hereford Ltd,5,0,5,0,2011-10-19,52.050417,-2.686733
334756,Martins,Exempt,nan,nan,nan,2013-01-07,52.062235,-2.739587
334757,Martins,Exempt,nan,nan,nan,2002-04-15,52.226553,-2.738758
334758,Martins,Exempt,nan,nan,nan,2000-03-06,52.05629,-2.694174
334759,Masonic Hall Co. Ltd - Catering for All Occasions,5,0,0,0,2012-01-24,52.057228,-2.710203
334760,Matabeau,4,5,10,5,2014-11-12,52.057478,-2.713459
334761,May Hill View,5,0,5,5,2009-07-29,51.9344,-2.524004
334762,MBR Whitney Stores,0,20,10,30,2014-03-04,52.118886,-3.068822
334763,Mccartneys Livestock Market,Exempt,nan,nan,nan,2003-03-13,52.203993,-3.026334
334764,McColls,4,5,5,10,2014-01-23,52.185798,-2.518019
334765,McColls,5,5,0,5,2012-01-18,52.043239,-2.730612
334766,Mcdonalds,5,5,5,5,2013-11-15,52.056855,-2.713887
334767,McDonalds,4,5,10,5,2014-06-05,52.04319,-2.732857
334768,Meadow Green Stores,5,0,0,0,2008-02-12,52.208663,-2.412581
334769,Mediterrane,3,10,5,10,2013-11-08,52.06656,-2.729461
334770,Mellington House,5,5,5,5,2011-04-07,52.159992,-2.874646
334771,Mermaid Fish Bar,4,5,10,5,2013-10-04,52.043239,-2.730612
334772,Merry Go Round Pre-School Nursery,Exempt,nan,nan,nan,2007-11-29,52.03915,-2.724641
334773,Merry Go Round Pre-School Nursery,Exempt,nan,nan,nan,2007-11-29,52.045335,-2.721781
334774,Merton Hotel,5,0,5,5,2013-01-24,52.058553,-2.711099
334775,Merton House Hotel,5,5,0,0,2012-01-26,51.915805,-2.585491
334776,Methodist Church,5,0,0,0,2009-07-13,52.039185,-2.42427
334777,Methodist Lunch Club,5,0,0,5,2013-08-22,52.039185,-2.42427
334778,Mews Cafe,5,0,0,5,2012-05-18,52.037581,-2.422972
334779,MFA Bowl,2,15,10,10,2014-08-06,52.061597,-2.71036
334780,Michaelchurch Preschool,Exempt,nan,nan,nan,,52.017412,-3.020323
334781,Midland Heart,4,5,10,5,2011-06-09,52.234809,-2.742658
334782,Midlands Event Catering,AwaitingInspection,nan,nan,nan,,,
334783,miEnterprise Herefordshire CIC (Cafe),5,5,5,5,2013-07-30,52.227713,-2.734443
334784,Mighty 8 Pool Club,4,10,5,5,2014-03-04,51.912192,-2.572375
334785,Milano Restaurant,5,5,5,5,2014-09-23,52.227433,-2.738919
334786,Mill Hill House Bed and Breakfast,5,5,5,5,2011-02-22,52.305529,-2.707395
334787,Mill House,Exempt,nan,nan,nan,2003-02-18,51.874991,-2.602276
334788,Mill Race,5,5,5,5,2012-11-06,51.874991,-2.602276
334789,Mill Street Stores,4,0,5,10,2010-07-28,52.053641,-2.710161
334790,Miller & Carter Hereford,5,0,0,0,2014-05-21,,
334791,Millets Ltd,Exempt,nan,nan,nan,2010-11-10,52.056357,-2.718969
334792,Mings,3,10,5,10,2014-02-26,51.916445,-2.581603
334793,Mobile Chefs,5,0,0,5,2014-06-08,,
334794,Model Farm,4,5,5,10,2011-04-20,51.91662,-2.567706
334795,Moka Bar,5,5,0,0,2011-07-13,52.056042,-2.716076
334796,Monkland Cheese Dairy (Cafe),5,5,0,5,2014-03-27,52.213456,-2.796485
334797,Monksoft Ltd,5,5,5,5,2013-10-02,52.038889,-2.756098
334798,Monument,3,10,10,5,2014-08-13,52.060593,-2.737576
334799,Moo Cows,4,5,5,10,2011-12-22,,
334800,Moody Cow,5,0,0,5,2011-10-25,51.937927,-2.527537
334801,Moon Inn,5,5,5,5,2012-02-09,52.033126,-2.625842
334802,Moor Court,5,5,5,5,2011-11-14,52.099266,-2.527585
334803,Moor Court Residential Home,5,5,5,5,2015-01-13,52.14879,-2.659002
334804,Moor Farm Stores,1,10,15,20,2013-10-22,52.066044,-2.741444
334805,Moores Bakery,3,10,10,10,2014-06-12,52.057572,-2.715707
334806,Moorfield Inn,5,5,5,5,2011-03-23,52.058845,-2.72073
334807,Mordiford Dragons Playgroup,Exempt,nan,nan,nan,2012-09-20,52.033126,-2.625842
334808,Moreton Stores,4,5,0,10,2012-03-02,52.107154,-2.721947
334809,Morning Fresh Fruits,Exempt,nan,nan,nan,2004-06-21,,
334810,Morrisons,5,5,0,5,2013-10-08,52.059557,-2.710094
334811,Morrisons,5,5,0,0,2014-01-20,52.222535,-2.761396
334812,Morrisons Supermarket,5,0,0,0,2011-10-11,51.916284,-2.577632
334813,Mortimer Country Stores,3,10,10,10,2013-07-04,52.315835,-2.861183
334814,Mortimer Cross Mill,3,10,5,10,2010-05-18,52.268741,-2.841556
334815,Mountain Mayhem,5,5,5,5,2011-01-26,51.99185,-3.020514
334816,Mousetrap Cheese,4,10,5,5,2014-06-25,52.226543,-2.737601
334817,Mousetrap Cheese,4,5,5,10,2014-07-09,52.055546,-2.716331
334818,Mr Chips,3,10,5,10,2014-06-30,52.058216,-2.711794
334819,Mr Freshwhip,4,5,5,10,2007-11-14,,
334820,Mr Tea's,5,0,0,0,2009-05-29,,
334821,Mr Whipy,5,5,5,5,2006-03-28,,
334822,Mr Wilding,Exempt,nan,nan,nan,2012-03-29,52.023353,-2.931745
334823,Mr Wilson's,5,5,5,5,2009-11-10,,
334824,MRH Retail Ltd (Shop),5,5,5,5,2011-11-15,52.235016,-2.726788
334825,Mrs A A Nellist,Exempt,nan,nan,nan,2005-04-22,,
334826,Mrs Asghar-Sandys,5,5,5,0,2010-09-22,,
334827,Mrs Muffin's Teashop,5,5,0,0,2014-04-02,52.037232,-2.422357
334828,Ms Miggins,4,5,10,5,2014-02-28,52.024338,-2.432758
334829,Much Marcle After School Club,Exempt,nan,nan,nan,2008-02-28,51.994998,-2.499428
334830,Much Marcle Lunch Club,Exempt,nan,nan,nan,2006-11-24,51.99939,-2.498268
334831,Much Marcle Nursery,Exempt,nan,nan,nan,2012-04-01,51.994998,-2.499428
334832,Much Marcle Post Office & Stores,5,0,5,0,2008-01-10,51.997034,-2.502626
334833,Munchies Restaurant/Takeaway,3,5,10,10,2013-11-25,52.057932,-2.71125
334834,Munderfield Harold B&B,5,5,5,5,2011-02-22,52.190845,-2.554766
334835,Munsley Acre,5,5,0,0,2012-03-27,52.065733,-2.474193
334836,Munstone House,5,0,0,5,2013-06-07,52.080984,-2.705268
334837,Muzey's,3,5,10,10,2013-03-22,52.053515,-2.71904
334838,My Coffee Corner,5,5,5,0,2014-07-30,,
334839,Myrtles Kitchen,AwaitingInspection,nan,nan,nan,,,
334840,Nags Head Inn,5,5,5,5,2014-10-17,52.054414,-2.964389
334841,Nandos,5,0,5,0,2014-06-05,,
334842,Natalka Polskie Delikatesy,4,5,5,10,2013-11-25,52.056357,-2.718969
334843,Naughty & Nice,AwaitingInspection,nan,nan,nan,,,
334844,Neil Gladwin Butchers,4,5,5,10,2014-01-23,52.189019,-2.506954
334845,Neil Powell (Butchers) Ltd,3,5,10,10,2014-01-28,52.057739,-2.716395
334846,Nethergreen,3,10,5,10,2011-03-03,52.124586,-2.417062
334847,Neville Arms,3,5,10,10,2011-08-23,51.969761,-2.895362
334848,Neville Symonds Associates Ltd,5,5,5,5,2010-11-22,,
334849,Nevin Catering Ltd,2,15,10,10,2014-05-20,52.243764,-2.878665
334850,New Canton House,3,10,10,10,2013-09-25,52.053515,-2.71904
334851,New Chop Suey Bar,3,10,10,10,2014-10-01,52.057091,-2.722408
334852,New Cross Farm,Exempt,nan,nan,nan,2011-11-24,52.219485,-2.534191
334853,New Golden Dragon,3,10,10,10,2014-05-20,52.228464,-2.739463
334854,New Golden Horse,2,15,15,10,2014-01-22,51.913637,-2.58382
334855,New Harp Inn,5,5,0,0,2011-09-28,51.960416,-2.662129
334856,New Hum-ming Garden,5,5,0,0,2012-02-14,52.054067,-2.702132
334857,New Inn,3,10,10,10,2013-10-08,52.067503,-2.641597
334858,New Inn,5,5,5,0,2013-10-22,52.142617,-2.349107
334859,New Inn,3,10,10,10,2013-07-25,52.217641,-2.893724
334860,New Inn,4,10,5,5,2013-08-19,52.007191,-2.614918
334861,New Jade Garden,5,5,5,0,2013-11-14,52.189019,-2.506954
334862,New Jasmine House,4,10,5,5,2014-07-30,52.084243,-2.806936
334863,New Look,Exempt,nan,nan,nan,2011-01-05,52.056305,-2.717131
334864,New Mee Mei House,3,5,10,10,2013-12-05,52.051494,-2.718701
334865,New Silver Dragon,3,10,10,10,2014-10-03,52.061838,-2.687871
334866,Newbridge Farm Park,5,5,5,5,2008-07-30,52.033912,-2.48801
334867,News Shops Express,5,5,0,5,2012-02-29,52.189655,-2.507664
334868,Newstead Nursing Home,5,5,0,0,2014-03-27,52.066778,-2.703936
334869,Newtown Cross Garage,4,5,5,10,2013-11-08,52.101126,-2.562864
334870,Niche,5,0,0,0,2012-04-04,,
334871,Nicholls Butchers,5,5,5,5,2014-06-25,52.226869,-2.740095
334872,Nick Seward,5,5,0,0,2012-02-09,51.929716,-2.551641
334873,Nightingale After School Club,Exempt,nan,nan,nan,2008-09-15,52.033126,-2.625842
334874,Nightingale After School Club,Exempt,nan,nan,nan,2008-09-15,52.006382,-2.613158
334875,Nine & Nine,3,10,10,10,2013-07-23,52.059193,-2.715324
334876,Nisa Supermarket,3,10,10,10,2014-04-09,52.203377,-3.029993
334877,No 21 Ltd,5,5,0,5,2014-08-22,52.036369,-2.422319
334878,No. 10 The Sandwich Bar,3,10,5,10,2014-01-21,52.055546,-2.716331
334879,Noah's Ark Pre-School,Exempt,nan,nan,nan,2010-12-09,52.062449,-2.718017
334880,Nomads Kitchen,5,0,0,5,2012-06-30,,
334881,Northside Service Station,5,0,5,5,2010-02-23,52.174321,-2.716381
334882,Norton House,5,0,0,0,2010-03-29,51.853478,-2.657189
334883,Now 'N' Zen,4,10,5,5,2013-07-26,,
334884,Nozstock Festival,3,10,5,10,2014-07-31,52.207625,-2.528532
334885,Number 1 Ledbury Road,4,5,5,10,2014-01-15,52.052876,-2.705846
334886,Number One Sandwich Bar Ltd,5,0,5,0,2012-12-14,52.036839,-2.424117
334887,Nutters,5,0,0,5,2012-01-11,52.055546,-2.716331
334888,Oak House Nursery School,5,5,0,5,2015-01-15,51.936133,-2.580185
334889,Oakchurch Farm Shop,4,10,5,5,2014-07-01,52.093302,-2.905176
334890,Oakchurch Farm Shop,5,5,5,5,2014-01-22,52.098636,-2.915387
334891,Oakdale House,5,5,5,5,2006-04-13,,
334892,Oaklands Nursing Home,5,0,0,0,2015-01-12,52.057601,-2.698891
334893,Oakley House Bed & Breakfast,4,0,10,10,2011-02-22,52.069351,-2.364524
334894,Obilash Restaurant,2,10,15,10,2014-07-29,51.913795,-2.579301
334895,Oceans,5,5,5,5,2014-02-27,52.054186,-2.710767
334896,Odeon Cinema,5,5,5,5,2014-06-06,,
334897,OK Diner,4,5,10,5,2014-03-04,52.235016,-2.726788
334898,Olchon Cottage Farm,4,5,5,10,2009-03-17,51.956837,-3.008207
334899,Olchon Valley Lamb,5,5,5,5,2010-05-25,51.99185,-3.020514
334900,Old Court Barns Care Home,5,5,0,0,2013-05-21,52.068716,-2.656422
334901,Old Court Hotel,4,10,5,5,2015-01-12,51.853584,-2.651107
334902,Old English Sweets,5,0,0,5,2011-05-10,,
334903,Old Granary Pierogi,4,0,0,10,2014-01-23,,
334904,Old Mill Guest House,5,0,5,5,2012-04-17,51.960416,-2.662129
334905,Old Rectory Guest House,5,5,5,5,2011-03-30,52.080758,-2.881749
334906,Old School Much Birch,5,0,5,5,2011-04-15,51.97612,-2.732548
334907,Oldfields,Exempt,nan,nan,nan,2001-09-10,52.143891,-2.793226
334908,Oldfields Garage,Exempt,nan,nan,nan,2006-02-27,52.22819,-2.742943
334909,Omag Ltd,3,10,5,10,2011-06-13,52.056872,-2.717038
334910,One and Only Truck Stop,5,0,0,5,2014-02-12,52.224841,-2.756487
334911,One Stop,Exempt,nan,nan,nan,2014-01-27,52.069966,-2.736899
334912,One Stop,5,0,0,0,2010-02-20,52.038107,-2.423983
334913,One Stop,5,5,0,0,2008-05-22,51.913822,-2.582892
334914,One Stop,5,5,5,5,2007-03-19,52.084243,-2.806936
334915,One Stop Stationers And Post Office,Exempt,nan,nan,nan,2003-02-26,51.915418,-2.581953
334916,Orangery Restaurant,5,5,5,5,2013-04-18,52.16859,-2.703744
334917,Orchard End,5,0,0,0,2011-04-06,52.123069,-2.741996
334918,Orchard House Bed and Breakfast,5,0,5,5,2012-10-11,52.03358,-2.422993
334919,Orchard House Care Home,5,0,0,5,2014-02-17,52.082611,-2.637508
334920,Organic Revolution,Exempt,nan,nan,nan,2006-10-17,52.176207,-3.072316
334921,Orles Barn,4,5,5,10,2013-10-17,51.915172,-2.602319
334922,Orleton C E Primary School,5,5,5,0,2014-02-05,52.304318,-2.739245
334923,Orleton Pre School,Exempt,nan,nan,nan,2005-06-14,52.304318,-2.739245
334924,Orlham Farm,5,5,5,5,2010-04-20,52.021088,-2.441208
334925,Our Lady's Stay and Play,Exempt,nan,nan,nan,2006-01-26,52.045335,-2.721781
334926,Outdoor Taste,4,5,5,10,2010-10-07,,
334927,Outside Bar Service,Exempt,nan,nan,nan,2005-01-24,52.054011,-2.729009
334928,Oval Stores,4,10,0,0,2014-11-18,52.043239,-2.730612
334929,Over 55 Club,5,0,5,5,2013-10-29,52.189792,-2.506963
334930,Oxfam,Exempt,nan,nan,nan,2005-04-08,52.056357,-2.718969
334931,Oxfam,Exempt,nan,nan,nan,2005-03-17,52.227005,-2.738458
334932,Oxfam Book Shop,Exempt,nan,nan,nan,2007-08-20,52.055286,-2.71761
334933,Oxfam Shop,Exempt,nan,nan,nan,,51.915109,-2.582647
334934,P & J Snacks,5,5,5,5,2014-03-13,,
334935,P & S Golf Court Management Limited - South Herefordshire Golf Club,5,5,5,5,2013-09-24,51.9344,-2.524004
334936,P J Nicholls Ltd,Exempt,nan,nan,nan,2005-04-11,52.016094,-2.412365
334937,P.A.W.S. (Play at Whitchurch School),5,0,0,0,2010-05-27,51.853584,-2.651107
334938,Paint Pots Pre-School,Exempt,nan,nan,nan,2008-02-06,52.097925,-2.768177
334939,Paintpots Rising 5's,Exempt,nan,nan,nan,2008-02-05,52.099412,-2.773195
334940,Palm Snacks,4,5,5,10,2013-10-24,,
334941,Pan Pizza,3,10,10,10,2013-08-28,51.913822,-2.582892
334942,Pandy Inn,2,15,10,10,2014-11-19,52.069141,-3.003222
334943,Papaya,5,5,5,5,2013-02-18,52.057051,-2.712694
334944,Paper Memories,Exempt,nan,nan,nan,2013-06-13,,
334945,Paradise Balti,3,10,10,10,2014-06-03,52.036769,-2.426186
334946,Park House,4,5,5,10,2013-10-03,52.188663,-2.50401
334947,Parkfields Country House,5,0,0,5,2010-09-07,51.891542,-2.545506
334948,Parry Pancakes,Exempt,nan,nan,nan,2003-07-05,,
334949,Parry's Fruit & Veg,Exempt,nan,nan,nan,2001-08-10,52.227433,-2.738919
334950,Parsons Bakery,5,5,0,0,2014-05-08,51.914734,-2.583922
334951,Paul Lewis Butchers,4,10,5,5,2014-07-03,52.203377,-3.029993
334952,Peacocks,Exempt,nan,nan,nan,,,
334953,Pear Tree Farm,5,0,0,5,2011-11-18,52.304737,-2.850598
334954,Pebble Walk Ltd T/A Prince of Wales Inn,5,0,0,5,2011-11-10,52.037232,-2.422357
334955,Pegasus Football Club,3,5,10,10,2014-02-28,52.072364,-2.712398
334956,Pembridge Auction,5,5,0,0,2013-03-11,52.218081,-2.89505
334957,Pembridge Pre-School,Exempt,nan,nan,nan,2008-04-23,52.218081,-2.89505
334958,Pencombe Hall,5,5,0,0,2013-12-05,52.169571,-2.584944
334959,Pencombe Under Fives,Exempt,nan,nan,nan,2008-04-28,52.172037,-2.584523
334960,Pengethley Farm Shop,4,5,10,5,2014-11-24,51.927322,-2.663518
334961,Pengethley Garden Centre,5,0,0,5,2011-12-28,51.927322,-2.663518
334962,Pengethley Manor Hotel,4,10,5,5,2013-08-27,51.927322,-2.663518
334963,Perfect Fried Chicken & Pizza,3,10,5,10,2014-03-19,52.059139,-2.709416
334964,Perfect Pig Roast,5,5,5,5,2014-04-07,,
334965,Perilla Ltd,Exempt,nan,nan,nan,2009-01-26,52.273298,-2.491487
334966,Perryfield House,Exempt,nan,nan,nan,2014-03-25,,
334967,Perseverance Cottage,5,0,5,5,2011-02-18,52.30178,-2.753941
334968,Peters,5,5,5,5,2007-10-24,52.08125,-2.357397
334969,Peterstow Village Stores,4,5,5,10,2013-01-24,51.919072,-2.633502
334970,Phillips & Preece,5,0,5,5,2011-11-01,52.056773,-2.715636
334971,Phoenix Organics,5,5,0,5,2009-01-20,52.19373,-2.506964
334972,Pierrepont Nursery,Exempt,nan,nan,nan,2004-06-22,52.278235,-2.823619
334973,Pilgrim Hotel,3,10,10,10,2014-07-08,51.97612,-2.732548
334974,Pinsley Guest House,5,5,5,5,2011-02-22,52.229577,-2.739803
334975,Pizza Alfresco,5,5,0,5,2013-11-03,,
334976,Pizza Express,5,5,0,0,2012-01-31,52.05537,-2.717188
334977,Pizza House,5,5,5,5,2014-02-28,52.036839,-2.424117
334978,Pizza Hut Uk Ltd,4,10,5,5,2014-10-02,52.064339,-2.716194
334979,Pizza Pronto,5,5,5,5,2014-06-13,52.22588,-2.74144
334980,Plaice 54,5,5,0,5,2014-04-14,52.046855,-2.730351
334981,Planet Buffet,1,15,10,20,2014-11-25,52.05867,-2.709569
334982,Play,Exempt,nan,nan,nan,2002-02-27,52.058336,-2.712758
334983,Play & Learn Nurseries Ltd,Exempt,nan,nan,nan,2009-03-13,52.046921,-2.718147
334984,Play Planet,5,0,5,0,2014-08-05,52.061294,-2.714293
334985,Playstation Day Nursery,5,5,0,5,2014-06-02,52.04434,-2.425865
334986,Plough Inn,AwaitingInspection,nan,nan,nan,,52.059201,-2.730202
334987,Plough Inn,3,10,5,10,2014-10-17,51.983433,-2.68249
334988,Plough Inn,5,0,0,5,2008-01-18,51.918032,-2.580562
334989,Poachers Cottage & Falcons Rest,5,0,0,5,2012-08-20,51.9679,-2.74582
334990,Polish Shop Edysia,4,0,10,10,2013-11-11,52.056357,-2.718969
334991,Polonia Foods,Exempt,nan,nan,nan,2009-07-16,52.063426,-2.718616
334992,Pomme Pomme Foods,4,5,5,10,2012-07-20,,
334993,Ponte Vecchio,5,5,5,5,2011-01-02,52.053833,-2.718593
334994,Pontillla,5,5,5,5,2012-06-26,,
334995,Pontrilas Post Office & Stores,Exempt,nan,nan,nan,2004-12-16,51.944362,-2.876147
334996,Pools Farm,Exempt,nan,nan,nan,2005-11-16,52.353664,-2.840452
334997,Poolwharf Farm,Exempt,nan,nan,nan,2000-08-24,51.965122,-2.783093
334998,Poppioggs,5,5,0,0,2014-02-12,52.219357,-2.732241
334999,Pork and Two Veg,5,0,5,5,2014-05-06,,
335000,Portland Guest House,5,5,5,5,2011-03-03,51.855687,-2.654492
335001,Portway Inn Hotel,2,15,5,10,2014-07-28,52.093302,-2.905176
335002,Post Office,Exempt,nan,nan,nan,2001-09-21,52.061838,-2.687871
335003,Post Office & Stores,Exempt,nan,nan,nan,2005-12-01,51.854581,-2.710303
335004,Post Office And Stores,5,5,5,5,2014-03-25,52.300025,-2.745699
335005,Pots & Pieces Teashop & Gallery,5,0,0,5,2012-01-26,51.914058,-2.584218
335006,Poulstone Health Education Centre,5,0,5,0,2009-08-13,51.954182,-2.628292
335007,Pound Farm,Exempt,nan,nan,nan,2010-03-29,52.017029,-2.654484
335008,Poundland PLC,5,0,0,0,2014-10-02,52.057433,-2.714888
335009,Poundstretcher Ltd,Exempt,nan,nan,nan,2000-02-26,52.056357,-2.718969
335010,Premier,4,5,5,10,2012-04-11,52.049404,-2.722357
335011,Premier Catering,5,0,0,5,2013-05-09,,
335012,Premier Corner Stores,5,0,5,0,2010-01-12,52.061838,-2.687871
335013,Premier Food and Wine,5,0,0,5,2012-06-15,52.037743,-2.734036
335014,Prezzo,5,0,5,0,2014-06-04,,
335015,Prickett's Place,5,0,0,0,2012-05-02,51.993598,-2.651462
335016,Pridewood Bed & Breakfast,5,5,5,5,2011-02-15,52.061276,-2.51029
335017,Primark,Exempt,nan,nan,nan,2011-03-14,52.057006,-2.717244
335018,Prince Of Wales,4,5,5,10,2014-02-06,51.910417,-2.586017
335019,Priors Frome Chapel,5,0,5,5,2011-03-09,52.049878,-2.620185
335020,Priory,5,5,0,0,2011-04-06,51.910515,-2.616067
335021,Priory Care Homes Ltd,5,0,5,0,2014-04-16,52.037542,-2.714002
335022,Priory Coffee House,5,5,0,0,2012-01-26,51.914242,-2.585195
335023,Prometheus Medical Ltd,5,0,0,0,2013-03-06,52.171703,-2.721135
335024,Prontos,4,5,5,10,2014-02-26,51.914716,-2.583834
335025,Provisions Of Colwall,3,10,10,10,2014-09-03,52.08125,-2.357397
335026,Pumpkin Cafe,5,5,5,0,2014-06-26,52.061597,-2.71036
335027,Putson Baptist Church,Exempt,nan,nan,nan,2007-09-19,52.041973,-2.718782
335028,Quality Fish & Chips Shop,5,0,0,5,2011-06-14,52.036769,-2.426186
335029,Quarry Farm,4,5,10,5,2010-07-28,52.059808,-3.016855
335030,Quarry Farm Shop,3,10,10,10,2014-11-05,52.256584,-2.748296
335031,Queen Elizabeth Humanities College,5,0,5,0,2013-07-10,52.184632,-2.519264
335032,Queens Arms,4,10,5,5,2007-06-19,52.05537,-2.717188
335033,Queenswood Cafe,5,0,0,5,2013-02-19,52.158955,-2.722581
335034,R & H Matthews & Son,5,0,0,0,2010-03-05,52.082892,-2.843162
335035,R Benbow,5,0,5,0,2011-02-15,,
335036,R Bright's Butchers,5,0,5,0,2013-07-25,52.227433,-2.738919
335037,R E Williams & Sons Ltd,4,10,5,5,2014-05-29,52.159992,-2.874646
335038,R I Huffer,Exempt,nan,nan,nan,2002-01-08,52.056773,-2.715636
335039,Radcliffe Guest House,5,5,5,5,2011-02-15,51.915008,-2.586673
335040,Raduni Indian Cuisine,2,15,10,10,2013-08-09,52.038107,-2.423983
335041,Ragged Stone Ltd,5,5,5,5,2014-08-05,52.099516,-2.428171
335042,Raglan House Cafe and Guest House,5,5,5,5,2014-04-15,51.915206,-2.583026
335043,Rainbow Nursery,Exempt,nan,nan,nan,2008-05-16,52.051338,-2.702818
335044,Ralph Court Gardens,AwaitingInspection,nan,nan,nan,,52.21812,-2.517575
335045,Ramos Pizza Kebab House,5,5,5,5,2014-06-24,52.189978,-2.507711
335046,Rankin Club (Conservative Club),Exempt,nan,nan,nan,2003-11-28,52.227225,-2.737759
335047,Ravenscrofts,5,0,0,5,2013-05-09,,
335048,Ravenscroft's,5,5,5,5,2013-04-15,51.917182,-2.581613
335049,Razbari,2,15,10,10,2014-07-03,52.057091,-2.722408
335050,Real Food to Go,5,5,0,5,2014-10-16,,
335051,Really Scrumptious,4,5,10,5,2014-09-13,,
335052,Really Scrumptious,4,10,0,5,2010-06-25,,
335053,Red House Nursery,Exempt,nan,nan,nan,2009-09-02,51.941783,-2.509427
335054,Red Lion Hotel,4,5,5,10,2013-11-06,52.094214,-2.977904
335055,Red Lion Inn,5,5,5,5,2012-06-18,52.045239,-2.849321
335056,Red Lion Inn,5,0,0,5,2013-02-27,52.130797,-2.388516
335057,Red Rail Farm,5,0,5,5,2011-04-18,51.951034,-2.659721
335058,Redhill Stores,2,15,0,10,2013-12-17,52.040906,-2.722687
335059,Redlands,5,5,5,5,2009-11-05,52.043067,-2.42734
335060,Re-Fuel,AwaitingInspection,nan,nan,nan,,52.057051,-2.712694
335061,Regency Cafe,4,10,5,5,2014-11-20,52.055804,-2.713681
335062,Reggies (layby at Locks Garage),5,5,5,5,2014-08-12,,
335063,Rehau Ltd,5,0,0,0,2011-06-29,51.891943,-2.618865
335064,Restaurant on 1,5,0,0,5,2014-06-06,,
335065,Reyes Catering Co,5,0,0,0,2014-11-18,52.059577,-2.727553
335066,Rhydspence Inn,5,5,5,5,2013-09-19,52.119439,-3.103509
335067,Richard Bufton Family Butchers,3,10,5,10,2014-07-29,52.203377,-3.029993
335068,Richmond Place Club,5,5,5,5,2014-11-09,52.058542,-2.720317
335069,Risbury Court,5,5,5,5,2010-04-01,52.191104,-2.667776
335070,Rita's Tearooms,5,5,5,5,2014-03-26,,
335071,Riverford Home Delivery,5,0,5,5,2013-11-21,,
335072,Riverside Baguette's,4,0,0,10,2013-06-11,51.840921,-2.638616
335073,Riverside Cafe,5,0,0,5,2012-06-20,52.023849,-2.630566
335074,Riverside House,4,0,5,10,2012-11-05,,
335075,Riverside Primary School,5,5,5,5,2015-01-16,52.048718,-2.724271
335076,River-side Tea Garden,3,10,10,10,2013-06-27,52.113706,-3.087712
335077,Robert Owen Vocational School,5,5,0,5,2014-11-14,52.059521,-2.71603
335078,Robin's Nest,5,5,5,5,2014-02-06,51.903099,-2.709963
335079,Rocket,4,0,5,10,2014-01-09,52.055546,-2.716331
335080,Rod's Catering,4,5,5,10,2014-12-09,52.058542,-2.720317
335081,Rosalind Jane Adams,5,0,5,5,2010-09-22,52.061027,-2.420802
335082,Rose & Crown,4,10,5,5,2014-04-14,52.056315,-2.695895
335083,Rose And Lion Inn,5,5,5,0,2008-05-22,52.188431,-2.509888
335084,Rose Cottage B & B,5,5,5,5,2011-02-16,52.166069,-2.940222
335085,Rose Cottage Tea Gardens,4,10,5,5,2014-03-26,51.840921,-2.638616
335086,Rosedale Retirement Home,5,0,5,5,2013-07-09,51.908765,-2.587217
335087,Roses,5,5,5,5,2010-04-07,51.853584,-2.651107
335088,Roses Pop Up Vintage Tearoom,5,0,0,0,2013-02-05,,
335089,Ross Baptist Church,Exempt,nan,nan,nan,2003-03-17,51.914643,-2.582205
335090,Ross Conservative Club,5,5,0,0,2014-03-26,51.909382,-2.584405
335091,Ross Garden Stores Ltd,5,5,0,5,2015-02-03,51.916418,-2.574275
335092,Ross Labels Ltd,5,0,5,5,2013-05-02,51.928596,-2.562214
335093,Ross Market Cafe,3,5,10,10,2014-11-17,51.927699,-2.578331
335094,Ross Masonic Club,4,0,10,5,2008-02-05,51.913814,-2.588082
335095,Ross on Wye Bowling Club,4,0,5,10,2014-02-26,51.911946,-2.585819
335096,Ross On Wye Community Hospital,5,0,0,0,2014-05-13,51.912552,-2.583414
335097,Ross on Wye Golf Club,5,5,0,0,2012-07-31,51.933441,-2.487908
335098,Ross on Wye RFC,4,10,5,5,2013-02-11,51.923295,-2.590693
335099,Ross on Wye Underground Supper Club,AwaitingInspection,nan,nan,nan,,,
335100,Ross Preschool Playcroup,Exempt,nan,nan,nan,2006-05-09,51.915025,-2.576016
335101,Ross Rowing Club,3,10,5,10,2009-11-09,51.915393,-2.586954
335102,Ross Tennis Centre,5,5,0,5,2008-04-02,51.911946,-2.585819
335103,Ross-on-Wye Children's Centre,5,5,5,5,2009-10-14,51.915025,-2.576016
335104,Rotherwas Service Station,5,5,0,5,2014-12-09,52.039375,-2.690063
335105,Rowden House School,5,0,0,0,2014-08-05,52.207625,-2.528532
335106,Rowden House School Units,5,0,5,5,2014-08-05,52.207625,-2.528532
335107,Rowden Mill,4,10,5,5,2013-12-16,52.207625,-2.528532
335108,Rowlands Pharmacy,Exempt,nan,nan,nan,,52.058829,-2.740697
335109,Rowlestone Farmhouse Icecream,5,0,0,5,2014-05-21,51.942547,-2.911564
335110,Royal Arms,5,5,5,5,2013-07-09,51.870556,-2.691121
335111,Royal British Legion Club,4,0,10,5,2008-02-06,52.037385,-2.422373
335112,Royal Edward Masonic Club,4,5,5,10,2013-12-12,52.224755,-2.738786
335113,Royal George,5,5,0,0,2013-05-08,52.299619,-2.934177
335114,Royal Hotel,4,10,0,5,2014-08-18,51.914154,-2.586706
335115,Royal Lodge,5,5,5,5,2014-03-20,51.840921,-2.638616
335116,Royal National College Enterprises,5,0,0,5,2011-07-21,52.067903,-2.706681
335117,Royal National College For The Blind,5,0,0,0,2013-02-25,52.067903,-2.706681
335118,Royal Oak,5,0,0,0,2013-02-15,52.198937,-2.485252
335119,Royal Oak,4,10,5,0,2014-03-13,52.004626,-2.493111
335120,Royal Oak Hotel,AwaitingInspection,nan,nan,nan,,52.034823,-2.422348
335121,Royal Oak Inn,2,15,5,10,2014-10-31,52.203911,-3.032639
335122,Royal Voluntary Service Herefordshire,5,5,5,0,2013-08-22,52.04989,-2.709037
335123,Roy's Dairy Burger,5,5,5,5,2014-01-14,52.2279,-2.740478
335124,Ruby Chinese Takeaway,3,10,5,10,2014-01-20,52.057051,-2.712694
335125,Rumbling Tum,4,5,5,10,2014-02-20,51.925635,-2.572095
335126,Rushall Social Club,5,5,5,5,2008-03-11,52.012662,-2.52285
335127,S Cooper,5,5,5,5,2013-10-03,,
335128,S.M.A.S.H,Exempt,nan,nan,nan,2008-09-24,52.046921,-2.718147
335129,Sabores De Portugal,5,0,0,5,2013-03-12,52.057091,-2.722408
335130,Saffrons Garage,5,0,5,0,2014-11-21,52.163714,-2.675056
335131,Sainsbury's Supermarkets Ltd,5,5,5,0,2014-06-23,52.054633,-2.724454
335132,Sainsbury's Supermarkets Ltd,5,0,5,5,2009-09-03,51.915418,-2.581953
335133,Sally's Pantry Ltd,5,5,5,5,2014-02-19,52.200846,-3.026364
335134,Sally's Place The Malvern Hills Shop,5,5,0,5,2014-11-06,52.063582,-2.345762
335135,Salters Hill Charity,5,5,5,5,2010-01-29,52.038762,-2.460305
335136,Salter's Hill Charity Ltd,5,0,5,5,2013-03-25,51.937648,-2.47252
335137,Saltmarshe Castle Caravan Park Shop,5,5,5,5,2010-04-07,52.217172,-2.475922
335138,Saltmarshe Castle Leisure Club,4,10,5,5,2013-03-01,52.217172,-2.475922
335139,Salvation Army,5,0,0,5,2011-11-22,52.059752,-2.721007
335140,Sam's Kitchen,5,5,0,0,2012-09-14,,
335141,Sandown News,5,0,5,5,2008-01-31,52.073113,-2.741153
335142,Sandwich Bar and Coffee Shop,5,5,5,5,2013-07-30,51.913637,-2.58382
335143,Sandy's,4,5,5,10,2015-01-12,,
335144,Saracens Head,2,15,5,10,2010-01-27,52.05121,-2.718201
335145,Saracens Head Hotel,5,5,5,5,2014-03-20,51.840921,-2.638616
335146,Sarah's Gifts and Hampers Ltd,5,0,5,5,2010-10-26,,
335147,Saucery,5,5,5,5,2014-07-03,,
335148,Saunders Catering,5,0,5,0,2011-05-10,,
335149,Savers Health & Beauty,Exempt,nan,nan,nan,2013-09-03,52.227433,-2.738919
335150,Savoy's,5,5,0,5,2015-01-16,52.228464,-2.739463
335151,Sawberry Hill Farm,Exempt,nan,nan,nan,2009-01-19,52.193356,-2.548448
335152,Saxon Hall,AwaitingInspection,nan,nan,nan,,52.037433,-2.711201
335153,Saxtys,5,5,5,5,2013-03-22,52.057739,-2.716395
335154,Scout Hut,Exempt,nan,nan,nan,2010-03-10,52.075747,-2.366356
335155,Scrumptious,5,0,0,5,2014-02-12,52.07819,-2.63549
335156,Scrumpy House,4,10,5,5,2014-12-10,51.995028,-2.51325
335157,Seggin Bees,5,0,5,5,2013-10-08,,
335158,SENAD Group (Fairfield House),5,5,0,5,2013-01-29,52.332772,-2.663716
335159,Seven Seas Fish Bar,5,5,5,5,2014-07-29,51.915206,-2.583026
335160,Seven Stars,5,5,0,0,2011-11-10,52.037581,-2.422972
335161,Seven Stars Inn,3,10,5,10,2013-03-14,52.035599,-2.799602
335162,SFS Off Licence,AwaitingInspection,nan,nan,nan,,52.057932,-2.71125
335163,Shabagh Indian Restaurant,3,10,10,10,2013-10-08,52.2279,-2.740478
335164,Shake Island,AwaitingInspection,nan,nan,nan,,,
335165,Share After School & Holiday Club,Exempt,nan,nan,nan,2008-04-28,52.155899,-2.867768
335166,Shark Motor Cycles,Exempt,nan,nan,nan,2014-11-05,52.066975,-2.719023
335167,Sharon McGowan Wedding Cakes & Catering,4,5,5,10,2013-09-27,,
335168,Shawny B's,4,5,5,10,2014-03-19,,
335169,Shepherds Ice Cream (EVENTS),5,5,0,0,2014-09-17,,
335170,Shipley Gardens,5,0,0,5,2010-05-21,52.018866,-2.647574
335171,Shobdon Arches  Playgroup,Exempt,nan,nan,nan,2007-06-20,52.25181,-2.879996
335172,Shobdon Arches Pre-School,Exempt,nan,nan,nan,2009-09-15,52.25181,-2.879996
335173,Shobdon Arches Visitor Centre,Exempt,nan,nan,nan,2002-03-15,52.259932,-2.879586
335174,Shobdon Stores Ltd,5,0,0,0,2011-01-18,52.25181,-2.879996
335175,Shooters Bar Ltd,5,0,0,5,2011-06-22,52.2279,-2.740478
335176,Shortwood,5,5,5,5,2014-08-06,52.160347,-2.593989
335177,Shun Fat Chinese Takeaway,4,10,5,5,2014-11-27,52.189084,-2.510641
335178,Simply The Best Foods Limited,5,0,5,0,2008-02-13,52.071999,-2.705827
335179,Simply@Thai,3,10,10,10,2013-12-02,52.059016,-2.714913
335180,Sink Green Farm,5,0,5,5,2011-03-21,52.035868,-2.673026
335181,Sisters Catering,5,5,5,5,2014-04-02,52.005715,-2.821562
335182,Sitara,2,15,10,10,2013-11-21,52.036369,-2.422319
335183,Small Breeds Farm Park & Owl Centre,4,5,5,10,2014-10-06,52.188702,-3.033281
335184,Snack Attack,4,5,5,10,2013-08-22,,
335185,Snack Bar,5,0,0,5,2012-06-19,,
335186,Sodexho Healthcare (County Hospital),5,5,0,5,2014-10-21,52.05695,-2.705546
335187,Sodexo - Bromyard Community Hospital,5,0,0,0,2015-01-06,52.186323,-2.506806
335188,Sodexo Onsite Catering - Heineken,5,0,0,5,2014-07-23,52.059246,-2.728657
335189,Somerville House,5,5,5,5,2011-03-09,52.057497,-2.699823
335190,South Meadow Children's Centre,Exempt,nan,nan,nan,2011-03-17,52.046921,-2.718147
335191,South Street Stores,4,10,0,5,2012-03-09,52.218682,-2.739447
335192,Southgate Court,4,0,10,10,2008-02-15,52.047405,-2.721479
335193,Spar,4,0,5,10,2011-12-07,52.203911,-3.032639
335194,Spar,5,5,5,5,2014-02-03,52.226892,-2.74216
335195,Spar Stores,5,5,5,5,2009-04-02,52.036369,-2.422319
335196,Spar Stores,5,5,0,5,2011-03-30,51.915206,-2.583026
335197,Sparklers Nursery,Exempt,nan,nan,nan,2009-10-07,52.066921,-2.726287
335198,Sparkys Cafe Bar,5,0,0,0,2014-11-20,52.226869,-2.740095
335199,Special Occasions,Exempt,nan,nan,nan,2005-10-21,51.914058,-2.584218
335200,Spectra Group (UK) Ltd,Exempt,nan,nan,nan,2009-12-09,52.019799,-2.837501
335201,Spirit,5,0,5,5,2013-04-26,52.057051,-2.712694
335202,Spread Eagle,4,5,5,10,2014-02-05,52.054304,-2.718017
335203,Spring Grove,Exempt,nan,nan,nan,2001-08-30,52.169204,-2.983539
335204,Squeaky Pig,5,5,5,5,2010-09-23,,
335205,St Frances of Rome Prish Annex,5,0,5,5,2011-03-02,51.911434,-2.584024
335206,St James Breakfast & After School Club,Exempt,nan,nan,nan,2011-09-15,52.04989,-2.709037
335207,St Johns Methodist Church,5,0,5,5,2013-12-04,52.054648,-2.71162
335208,St Martin with St Francis Lunch Club,4,0,0,10,2014-04-24,52.040607,-2.73904
335209,St Martins Church Hall,Exempt,nan,nan,nan,2010-07-26,52.046288,-2.720324
335210,St Marys Church Of England Primary School,5,5,0,0,2012-02-20,52.006382,-2.613158
335211,St Mary's RC High School,4,0,5,10,2013-10-09,52.064064,-2.658702
335212,St Michael & All Angels Church,Exempt,nan,nan,nan,2002-07-22,52.037135,-2.421758
335213,St Michaels Hospice,5,5,0,5,2014-01-14,52.061696,-2.63139
335214,St Michael's Nursery,Exempt,nan,nan,nan,2008-03-11,52.155204,-2.688272
335215,St Owen Convenience Store,4,0,10,10,2014-09-15,52.054394,-2.710493
335216,St Pauls CE Primary School,5,0,5,5,2013-10-16,52.05636,-2.682055
335217,St Pauls Nursery at Hampton Dene School,Exempt,nan,nan,nan,2007-11-12,52.055387,-2.687043
335218,"St Paul's Nursery, Breakfast & After School Club",Exempt,nan,nan,nan,2007-11-09,52.055387,-2.687043
335219,St Peters,5,0,5,5,2012-01-31,52.05624,-2.714475
335220,St Peters Church House,Exempt,nan,nan,nan,2005-01-28,52.055804,-2.713681
335221,St Peters Tuesday Cafe,Exempt,nan,nan,nan,2003-02-11,52.055804,-2.713681
335222,St Richard's School,5,5,5,0,2013-11-13,52.200623,-2.570661
335223,St Thomas Cantilupe Playgroup,Exempt,nan,nan,nan,2008-02-06,52.058951,-2.713716
335224,St Weonards Post Office & Stores,5,5,0,5,2013-05-02,51.9152,-2.73487
335225,St Weonards Primary School,5,5,0,5,2014-09-19,51.913844,-2.733234
335226,St Wulstans Farm,3,10,5,10,2009-09-10,51.854581,-2.710303
335227,St. Francis Centre Playgroup,Exempt,nan,nan,nan,2002-03-07,52.041226,-2.733393
335228,Stables Tea Room,5,5,5,5,2012-06-21,51.973851,-2.891993
335229,Stagecoach Inn,5,5,0,0,2012-01-25,52.056054,-2.718439
335230,Stagecoach Sandwich Bar,3,10,10,10,2014-12-02,52.056054,-2.718439
335231,Stagg Inn,4,10,5,5,2013-05-21,52.230709,-2.981443
335232,Stanley House Nursing Home,5,5,0,5,2014-09-19,52.085726,-2.461153
335233,Starbucks,5,5,5,5,2013-06-25,52.056855,-2.713887
335234,Starting Gate Travel Inn,4,10,5,5,2014-04-23,52.074946,-2.722492
335235,Station House,5,5,5,5,2011-02-15,51.943761,-2.878361
335236,Staunton House Bed & Breakfast,4,10,5,5,2012-07-24,52.236016,-2.924405
335237,Staunton On Wye Pre-School,Exempt,nan,nan,nan,2011-01-12,52.101304,-2.93169
335238,Steiner Academy,5,5,0,5,2014-06-11,51.976454,-2.756531
335239,Stepping Stone,4,0,0,10,2008-03-04,52.226775,-2.740621
335240,Steve Tully Catering,5,0,5,5,2010-07-08,,
335241,Stock's Snacks Stuff,5,5,5,0,2014-06-06,,
335242,Stocks Tree,5,5,0,5,2012-05-22,52.120402,-2.646928
335243,Stockton Cross Inn,2,15,10,10,2014-02-18,52.247017,-2.706215
335244,Stokes News,Exempt,nan,nan,nan,2004-12-15,52.042085,-2.715109
335245,Stokes Stores,4,5,5,10,2012-08-17,52.042085,-2.715109
335246,Stretton Care Ltd,5,5,0,0,2014-04-29,52.094597,-2.772586
335247,Stretton Sugwas Lunch Club,Exempt,nan,nan,nan,2011-02-23,52.073396,-2.790312
335248,Subway,5,0,0,5,2012-08-24,52.057478,-2.713459
335249,Subway,5,5,0,0,2013-03-06,52.043239,-2.730612
335250,Subway,5,5,0,0,2015-01-12,52.227433,-2.738919
335251,Subway,5,0,5,5,2010-09-13,51.923949,-2.574982
335252,Sue Ryder,Exempt,nan,nan,nan,2011-03-22,52.203573,-3.030158
335253,Sue Ryder Care,Exempt,nan,nan,nan,2012-11-28,52.038107,-2.423983
335254,Sue Ryder Charity,Exempt,nan,nan,nan,2012-01-10,51.915109,-2.582647
335255,Sue Ryder Shop,Exempt,nan,nan,nan,2011-03-22,52.226775,-2.740621
335256,SugarSugar,AwaitingInspection,nan,nan,nan,,51.92146,-2.610299
335257,Summer Palace,3,10,5,10,2013-10-04,52.059097,-2.714885
335258,Sun Valley Canteen (Compass Catering),4,10,0,5,2014-01-28,52.064778,-2.72968
335259,Sun Valley Canteen (Eurest Catering),4,10,0,5,2014-01-28,52.064778,-2.72968
335260,Sunny Bank Pigs and Goats,Exempt,nan,nan,nan,2014-03-13,,
335261,Sunnymount Hotel,5,0,5,5,2010-03-16,51.915293,-2.574508
335262,Super Kool,3,10,5,10,2010-10-05,,
335263,Super Snacks,4,5,5,10,2014-04-23,,
335264,Superdrug,Exempt,nan,nan,nan,2000-02-26,52.056357,-2.718969
335265,Superdrug Stores,Exempt,nan,nan,nan,2003-03-17,51.914508,-2.58405
335266,Supersam,AwaitingInspection,nan,nan,nan,,52.056657,-2.721337
335267,Survival Wholefoods,4,5,5,10,2013-10-24,52.164531,-2.886928
335268,Sutton Seedlings,Exempt,nan,nan,nan,2008-07-09,52.108307,-2.680833
335269,Swan Inn,3,10,10,10,2014-09-03,52.069448,-2.696406
335270,Sweet Chilli,3,5,10,10,2014-10-07,52.053833,-2.718593
335271,Sweet Sandwiches,5,5,0,0,2012-02-29,52.037581,-2.422972
335272,Sweet Sensations,5,0,0,0,2013-04-15,,
335273,Sweet Things,5,0,0,5,2012-05-18,,
335274,Sweet Thoughts,Exempt,nan,nan,nan,2005-11-14,52.057634,-2.714497
335275,Sweets 'n' Treats,Exempt,nan,nan,nan,2008-09-04,52.056357,-2.718969
335276,Symonds Yat Services,5,0,0,5,2011-10-25,51.851729,-2.664438
335277,T J Morgan & Son,Exempt,nan,nan,nan,2005-04-19,52.203377,-3.029993
335278,Table Manners,5,5,0,0,2014-10-21,52.191945,-2.71605
335279,Tack Farm Livery Stables,5,0,5,0,2012-06-18,,
335280,Talbot Hotel,3,10,10,10,2014-09-15,52.226775,-2.740621
335281,Talbot Hotel,5,0,0,0,2012-01-04,52.035494,-2.4232
335282,Tan Brook Centre,5,0,0,0,2008-02-04,52.058771,-2.704714
335283,Tan House Farm,5,5,5,5,2008-04-09,51.941327,-2.49838
335284,Tan House Farm,Exempt,nan,nan,nan,2005-04-04,51.969761,-2.895362
335285,Tangs Fish Bar,3,10,5,10,2013-03-27,52.039185,-2.42427
335286,Tanners Wines Ltd,Exempt,nan,nan,nan,1999-01-12,52.055804,-2.713681
335287,Tara's Tasty Takeaways,5,5,5,5,2014-03-05,,
335288,Taste,5,5,0,5,2014-05-30,52.071999,-2.705827
335289,Taste For Adventure Limited,4,5,5,10,2014-09-04,52.086354,-2.7886
335290,Taste of India,4,5,10,5,2014-06-09,52.227067,-2.74146
335291,Taste Of Oriental,1,10,10,20,2014-11-27,52.203573,-3.030158
335292,Tasty Trotters,5,0,5,0,2014-05-22,,
335293,Taylors Pharmacy,Exempt,nan,nan,nan,2000-03-03,52.055311,-2.712068
335294,Tea Room - Hergest Croft Gardens,5,5,5,5,2014-05-20,52.204057,-3.045652
335295,Teabirds,Exempt,nan,nan,nan,2014-04-11,,
335296,Temple Bar Inn,5,5,0,0,2014-08-28,51.952687,-2.89185
335297,Territorial Army Centre,Exempt,nan,nan,nan,2005-03-15,52.051135,-2.703733
335298,Tesco,5,0,5,0,2014-10-31,52.059258,-2.732522
335299,Tesco,5,0,0,0,2013-11-15,52.040462,-2.426732
335300,Tesco,5,0,5,0,2014-02-13,52.057188,-2.719741
335301,Tesco,5,5,0,0,2015-01-07,52.042317,-2.740045
335302,Tesco Customer Cafe,5,0,0,0,2014-09-08,52.042317,-2.740045
335303,Tesco Express,5,0,5,5,2011-04-28,52.043412,-2.718601
335304,Tesco Express,5,5,5,5,2011-08-03,52.055118,-2.69929
335305,Texaco Service Station,Exempt,nan,nan,nan,2005-07-01,52.066829,-2.722288
335306,Thai Gallery,5,0,0,0,2012-02-08,52.055286,-2.71761
335307,Thai on Wye,3,10,10,10,2014-02-25,52.056054,-2.718439
335308,Thai Rama IV,5,5,0,0,2011-11-23,52.077653,-2.363234
335309,Thatch Close,5,0,5,5,2009-12-02,51.872849,-2.677037
335310,The Amberley Arms,3,10,10,10,2014-01-22,52.124576,-2.672112
335311,The Antique Teashop,5,5,5,0,2015-01-14,52.056503,-2.714188
335312,The Apothecary Shop,Exempt,nan,nan,nan,2010-04-20,,
335313,The Axe And Cleaver,4,10,0,0,2013-08-27,51.967753,-2.715803
335314,The Baker's Arms,3,5,10,10,2014-01-23,52.30178,-2.753941
335315,The Bakers Dozen,5,5,5,5,2014-06-04,52.036839,-2.424117
335316,The Balance Inn,5,5,5,5,2011-09-07,52.262691,-2.753615
335317,The Bannut Garden & Nursery,5,5,5,0,2006-03-27,52.188793,-2.452068
335318,The Barrels Public House,5,0,5,5,2009-07-20,52.054394,-2.710493
335319,The Bateman Arms,5,5,0,5,2014-03-14,52.25181,-2.879996
335320,The Bay Horse Inn,4,10,0,10,2014-10-30,52.067796,-2.76426
335321,The Beefy Boys,AwaitingInspection,nan,nan,nan,,52.123304,-2.700605
335322,The Bell Inn,AwaitingInspection,nan,nan,nan,,52.087906,-2.446114
335323,The Bell Inn,4,10,0,5,2012-04-27,52.22642,-2.73571
335324,The Bell Inn,4,5,5,10,2014-06-27,52.279356,-2.780502
335325,The Benchmark B&B,5,5,5,5,2010-10-07,52.203911,-3.032639
335326,The Best,3,10,10,10,2014-05-08,51.916445,-2.581603
335327,The Blue Orchid House,5,5,5,5,2013-03-27,52.036369,-2.422319
335328,The Boat Inn,4,10,5,5,2013-08-22,52.118886,-3.068822
335329,The Boot Inn,5,5,5,5,2014-08-29,52.300025,-2.745699
335330,The Bowens Country House,5,5,5,5,2012-05-03,52.004449,-2.607859
335331,The Bowling Green Inn,4,5,5,10,2011-01-21,52.056841,-2.717737
335332,The Brewery Inn,5,5,0,0,2013-05-31,52.036769,-2.426186
335333,The Bridge Cafe,5,5,5,5,2014-01-17,52.080925,-2.648225
335334,The Bridge House Hotel,4,5,5,10,2012-07-05,51.915421,-2.59924
335335,The Bridge Inn,5,5,5,5,2012-03-06,51.997093,-2.993031
335336,The Broadleys,4,10,5,5,2012-02-29,52.042839,-2.719743
335337,The Bull Ring,2,15,10,10,2014-02-27,52.016085,-2.842707
335338,The Bush Inn,4,10,5,5,2014-08-07,52.158709,-2.80495
335339,The Butchers Arms,3,10,10,10,2014-03-18,52.020948,-2.55677
335340,The Butchery,4,10,5,5,2009-11-19,52.11811,-2.402251
335341,The Buttercup,5,5,0,0,2014-03-12,52.227781,-2.739422
335342,The Buttery,3,10,10,10,2014-07-09,52.057572,-2.715707
335343,The Cafe @ No 1,3,10,10,10,2014-08-07,52.188558,-2.50553
335344,The Cafe and Tearooms on Bridge Street,3,10,5,10,2013-11-07,52.218737,-2.890335
335345,The Castle Inn,5,5,5,5,2014-02-18,52.316169,-2.859752
335346,The Castlefields,3,10,10,10,2014-07-08,52.101395,-3.03297
335347,The Chase Inn,4,10,5,5,2014-10-21,52.085475,-2.342166
335348,The Chase Inn,3,10,10,5,2014-02-21,52.133304,-2.496533
335349,The Chequers Inn,4,5,5,10,2013-10-15,52.22642,-2.73571
335350,The Chocbox,4,10,5,5,2013-08-13,52.203377,-3.029993
335351,The Chocolate Box,Exempt,nan,nan,nan,2005-11-18,52.038107,-2.423983
335352,The Cider Barn,5,0,5,5,2014-07-09,52.207598,-2.889073
335353,The Clover Mill,5,0,5,5,2014-05-15,,
335354,The Coffee Shop,4,0,5,10,2010-03-11,51.9679,-2.74582
335355,The Coffee Shop,4,0,5,10,2012-09-10,52.222846,-2.729137
335356,The Comet Inn,5,0,0,5,2011-08-24,52.036243,-2.845112
335357,The Commercial,4,10,5,5,2009-09-14,52.059139,-2.709416
335358,The Cookery Club,Exempt,nan,nan,nan,2012-05-21,52.083191,-2.822503
335359,The Cooking Cooks Italian Kitchen,3,10,10,10,2012-10-31,,
335360,The Cotterell Arms,4,10,0,10,2006-04-24,52.058626,-2.732905
335361,The Courtyard Trading Company Ltd,5,5,0,0,2012-02-09,52.062449,-2.718017
