,addressline1,addressline2,addressline3,addressline4,businessname,businesstype,businesstypeid,confidenceinmanagement,extractdate,fhrsid,hygiene,itemcount,latitude,localauthoritybusinessid,localauthoritycode,localauthorityemailaddress,localauthorityname,localauthoritywebsite,longitude,postcode,ratingdate,ratingkey,ratingvalue,returncode,schemetype,structural
160214,21st Century Kidz,Emerald Street,,Blackburn,21st Century Kidz,Hospitals/Childcare/Caring Premises,5,5,,212128,0,,53.77031300000000,85893,897,publicprotection@blackburn.gov.uk,Blackburn,http://www.blackburn.gov.uk,-2.47711800000000,BB1 9QJ,2014-06-30,fhrs_5_en-GB,5,,FHRS,0
160215,Blackburn Service Station,Whalley Banks,,Blackburn,4 Court Pharmacy,Retailers - other,4613,,,211644,,,53.74356800000000,95349,897,publicprotection@blackburn.gov.uk,Blackburn,http://www.blackburn.gov.uk,-2.49196200000000,BB2 1NT,2014-07-08,fhrs_exempt_en-GB,Exempt,,FHRS,
160216,"Johnson Plant Hire, Fort Street Industrial Estate",Fort Street,,Blackburn,A & S Catering/Travel/Valeting/Car Hire,Other catering premises,7841,,,211975,,,53.75237700000000,94691,897,publicprotection@blackburn.gov.uk,Blackburn,http://www.blackburn.gov.uk,-2.46934700000000,BB1 5DP,2013-12-18,fhrs_exempt_en-GB,Exempt,,FHRS,
160217,,59-61 Sudellside Street,,Darwen,A & S Convenience,Retailers - other,4613,5,,211832,15,,53.69706000000000,102525,897,publicprotection@blackburn.gov.uk,Blackburn,http://www.blackburn.gov.uk,-2.45882600000000,BB3 3DL,2011-11-09,fhrs_2_en-GB,2,,FHRS,5
160218,Unit 2,Fletcher Street,,Blackburn,A and B Catering Supplies,Retailers - supermarkets/hypermarkets,7840,,,211803,,,53.75627100000000,88538,897,publicprotection@blackburn.gov.uk,Blackburn,http://www.blackburn.gov.uk,-2.53405500000000,BB2 4AQ,2014-09-18,fhrs_exempt_en-GB,Exempt,,FHRS,
160219,Unit 6,Duttons Way,,Blackburn,A Quarter Of Limited,Retailers - other,4613,5,,211285,0,,53.73309700000000,93461,897,publicprotection@blackburn.gov.uk,Blackburn,http://www.blackburn.gov.uk,-2.44349900000000,BB1 2QR,2014-11-25,fhrs_5_en-GB,5,,FHRS,0
160220,,16 Colenso Road,,Blackburn,A Sweet Retreat,Other catering premises,7841,,,727922,,,53.75986200000000,109287,897,publicprotection@blackburn.gov.uk,Blackburn,http://www.blackburn.gov.uk,-2.49008900000000,BB1 8DR,,fhrs_exempt_en-GB,Exempt,,FHRS,
160221,Acorn House,Whalley New Road,,Blackburn,Acorn House,Hospitals/Childcare/Caring Premises,5,0,,427434,5,,53.76728900000000,104069,897,publicprotection@blackburn.gov.uk,Blackburn,http://www.blackburn.gov.uk,-2.47596100000000,BB1 9SP,2014-09-29,fhrs_5_en-GB,5,,FHRS,5
160222,Former Livesey Health Centre,Cherry Tree Lane,,Livesey,Acorns Holiday Club,Hospitals/Childcare/Caring Premises,5,10,,421819,5,,53.72929400000000,103995,897,publicprotection@blackburn.gov.uk,Blackburn,http://www.blackburn.gov.uk,-2.52595900000000,BB2 5NX,2014-07-01,fhrs_4_en-GB,4,,FHRS,5
160223,,241-243 Whalley New Road,,Blackburn,Adams Newsagents,Retailers - other,4613,30,,415349,20,,53.76251000000000,103929,897,publicprotection@blackburn.gov.uk,Blackburn,http://www.blackburn.gov.uk,-2.47294900000000,BB1 9TJ,2013-05-09,fhrs_0_en-GB,0,,FHRS,20
160224,,485-487 Blackburn Road,,Darwen,Adams Off-Licence,Retailers - other,4613,10,,212467,10,,53.71509400000000,1193,897,publicprotection@blackburn.gov.uk,Blackburn,http://www.blackburn.gov.uk,-2.48288700000000,BB3 0AR,2014-06-30,fhrs_3_en-GB,3,,FHRS,5
160225,Adelphi Hotel,33 Railway Road,,Blackburn,Adelphi Beer Emporium,Pub/bar/nightclub,7843,10,,211957,5,,53.74737500000000,400,897,publicprotection@blackburn.gov.uk,Blackburn,http://www.blackburn.gov.uk,-2.47954200000000,BB1 1EZ,2014-06-17,fhrs_2_en-GB,2,,FHRS,15
160226,,49 Hope Street,,Blackburn,Adil Food Store,Retailers - other,4613,10,,212109,5,,53.75118900000000,100225,897,publicprotection@blackburn.gov.uk,Blackburn,http://www.blackburn.gov.uk,-2.49203600000000,BB2 1DY,2014-01-21,fhrs_3_en-GB,3,,FHRS,10
160227,Anchor Football Ground,Anchor Road,,Darwen,AFC Darwen,Other catering premises,7841,,,211945,,,53.71021600000000,2721,897,publicprotection@blackburn.gov.uk,Blackburn,http://www.blackburn.gov.uk,-2.48002800000000,BB3 0BB,2014-07-01,fhrs_exempt_en-GB,Exempt,,FHRS,
160228,,1 Leach Street,,Blackburn,Aftabs,Retailers - other,4613,5,,212422,5,,53.73598100000000,80332,897,publicprotection@blackburn.gov.uk,Blackburn,http://www.blackburn.gov.uk,-2.48341400000000,BB2 3SE,2014-05-14,fhrs_5_en-GB,5,,FHRS,5
160229,"Stall 3 C3, Market Hall",Church Street,,Blackburn,Aharoni's,Takeaway/sandwich shop,7844,0,,211417,0,,53.74815400000000,101249,897,publicprotection@blackburn.gov.uk,Blackburn,http://www.blackburn.gov.uk,-2.48267400000000,BB1 5AF,2013-09-12,fhrs_5_en-GB,5,,FHRS,0
160230,,5 Johnston Street,,Blackburn,AJK Fish & Chips,Takeaway/sandwich shop,7844,10,,212038,10,,53.74912700000000,78952,897,publicprotection@blackburn.gov.uk,Blackburn,http://www.blackburn.gov.uk,-2.49298200000000,BB2 1ES,2014-04-09,fhrs_2_en-GB,2,,FHRS,15
160231,,194 Duckworth Street,,Darwen,Akash Indian Takeaway,Takeaway/sandwich shop,7844,5,,211611,10,,53.69790400000000,56891,897,publicprotection@blackburn.gov.uk,Blackburn,http://www.blackburn.gov.uk,-2.47055800000000,BB3 1PX,2014-12-15,fhrs_4_en-GB,4,,FHRS,5
160232,,196 Duckworth Street,,Darwen,Akash Restaurant,Restaurant/Cafe/Canteen,1,,,212364,,,53.69790400000000,1250,897,publicprotection@blackburn.gov.uk,Blackburn,http://www.blackburn.gov.uk,-2.47055800000000,BB3 1PX,2014-11-20,fhrs_5_en-GB,5,,FHRS,
160233,,16a-18 Whalley Banks,,Blackburn,Al Ameera Polish Mini Market,Retailers - supermarkets/hypermarkets,7840,20,,643436,10,,53.74423300000000,107199,897,publicprotection@blackburn.gov.uk,Blackburn,http://www.blackburn.gov.uk,-2.49171100000000,BB2 1NU,2014-05-15,fhrs_1_en-GB,1,,FHRS,15
160234,,2 Moore Street,,Preston,Al Lazeez (H343 VWW),Mobile caterer,7846,10,,211277,10,,53.75684800000000,79147,897,publicprotection@blackburn.gov.uk,Blackburn,http://www.blackburn.gov.uk,-2.68343600000000,PR1 4NT,2013-08-15,fhrs_2_en-GB,2,,FHRS,15
160235,,21a New Bank Road,,Blackburn,Al Makkah Halal,Retailers - other,4613,5,,211791,5,,53.75195300000000,71418,897,publicprotection@blackburn.gov.uk,Blackburn,http://www.blackburn.gov.uk,-2.50290300000000,BB2 6JW,2014-11-18,fhrs_4_en-GB,4,,FHRS,10
160236,,Montague Street,,Blackburn,Aldi,Retailers - supermarkets/hypermarkets,7840,0,,712466,0,,53.74982000000000,107476,897,publicprotection@blackburn.gov.uk,Blackburn,http://www.blackburn.gov.uk,-2.49274800000000,BB2 1EH,2014-10-29,fhrs_5_en-GB,5,,FHRS,0
160237,Aldi Foodstore Ltd,Livesey Branch Road,,Livesey,Aldi Store,Retailers - supermarkets/hypermarkets,7840,5,,211877,5,,53.72862000000000,885,897,publicprotection@blackburn.gov.uk,Blackburn,http://www.blackburn.gov.uk,-2.49204500000000,BB2 4LQ,2014-05-29,fhrs_5_en-GB,5,,FHRS,5
160238,,23 Blackburn Road,,Darwen,Alexander's,Retailers - other,4613,5,,211470,5,,53.70319600000000,81276,897,publicprotection@blackburn.gov.uk,Blackburn,http://www.blackburn.gov.uk,-2.47563100000000,BB3 1EJ,2014-03-01,fhrs_5_en-GB,5,,FHRS,5
160239,Alexandra Hotel,29 Dukes Brow,,Blackburn,Alexandra Hotel,Pub/bar/nightclub,7843,10,,212239,10,,53.75247400000000,98865,897,publicprotection@blackburn.gov.uk,Blackburn,http://www.blackburn.gov.uk,-2.49655500000000,BB2 6EX,2014-03-17,fhrs_2_en-GB,2,,FHRS,15
160240,Alexandra Hotel,Alexandra View,,Darwen,Alexandra Hotel,Pub/bar/nightclub,7843,10,,211850,5,,53.70067600000000,1257,897,publicprotection@blackburn.gov.uk,Blackburn,http://www.blackburn.gov.uk,-2.47646600000000,BB3 1NL,2014-09-26,fhrs_4_en-GB,4,,FHRS,5
160241,,201 Duckworth Street,,Darwen,Alfresco,Takeaway/sandwich shop,7844,10,,211944,10,,53.69740600000000,1404,897,publicprotection@blackburn.gov.uk,Blackburn,http://www.blackburn.gov.uk,-2.46912900000000,BB3 1AU,2013-02-21,fhrs_3_en-GB,3,,FHRS,10
160242,,700 Preston Old Road,,Blackburn,Ali Raj,Takeaway/sandwich shop,7844,10,,212160,10,,53.72723000000000,97172,897,publicprotection@blackburn.gov.uk,Blackburn,http://www.blackburn.gov.uk,-2.53730100000000,BB2 5EP,2014-09-26,fhrs_3_en-GB,3,,FHRS,10
160243,India Mill,Harwood Street,,Blackburn,Almonds (@ Graham and Brown Ltd),Restaurant/Cafe/Canteen,1,5,,212465,0,,53.75116100000000,3431,897,publicprotection@blackburn.gov.uk,Blackburn,http://www.blackburn.gov.uk,-2.46067400000000,BB1 3BD,2014-11-13,fhrs_5_en-GB,5,,FHRS,0
160244,,2 July Street,,Blackburn,Almurshid Grocers,Retailers - other,4613,20,,212386,10,,53.74432800000000,345,897,publicprotection@blackburn.gov.uk,Blackburn,http://www.blackburn.gov.uk,-2.46372300000000,BB1 1SR,2014-04-11,fhrs_1_en-GB,1,,FHRS,10
160245,,20 New Bank Road,,Blackburn,Al-Syed Food Store,Retailers - other,4613,20,,690794,15,,53.75195300000000,108253,897,publicprotection@blackburn.gov.uk,Blackburn,http://www.blackburn.gov.uk,-2.50290300000000,BB2 6JW,2014-09-04,fhrs_1_en-GB,1,,FHRS,15
160246,,189 Duckworth Street,,Darwen,Amalfi Lounge,Restaurant/Cafe/Canteen,1,5,,536519,5,,53.69740600000000,105634,897,publicprotection@blackburn.gov.uk,Blackburn,http://www.blackburn.gov.uk,-2.46912900000000,BB3 1AU,2014-09-05,fhrs_5_en-GB,5,,FHRS,5
160247,,145 Blackburn Road,,Darwen,Aman's Convenience Store,Retailers - other,4613,10,,212209,5,,53.70536400000000,93958,897,publicprotection@blackburn.gov.uk,Blackburn,http://www.blackburn.gov.uk,-2.47748800000000,BB3 1ET,2012-03-08,fhrs_4_en-GB,4,,FHRS,5
160248,,187 Whalley New Road,,Blackburn,Amar's Chippery,Takeaway/sandwich shop,7844,10,,690805,15,,53.76095100000000,108427,897,publicprotection@blackburn.gov.uk,Blackburn,http://www.blackburn.gov.uk,-2.47185400000000,BB1 9TL,2014-09-04,fhrs_2_en-GB,2,,FHRS,10
160249,,110-112 Duckworth Street,,Darwen,Anaz Restaurant,Restaurant/Cafe/Canteen,1,5,,211768,5,,53.69869100000000,1231,897,publicprotection@blackburn.gov.uk,Blackburn,http://www.blackburn.gov.uk,-2.47144500000000,BB3 1QA,2015-01-23,fhrs_5_en-GB,5,,FHRS,0
160250,Anchor Hotel,Blackburn Road,,Darwen,Anchor Hotel,Pub/bar/nightclub,7843,10,,211156,10,,53.71103800000000,1186,897,publicprotection@blackburn.gov.uk,Blackburn,http://www.blackburn.gov.uk,-2.48134000000000,BB3 0AB,2014-09-16,fhrs_3_en-GB,3,,FHRS,10
160251,,Livesey Branch Road,,Livesey,Andrews Court Care Home,Hospitals/Childcare/Caring Premises,5,,,690797,,,53.72842300000000,108264,897,publicprotection@blackburn.gov.uk,Blackburn,http://www.blackburn.gov.uk,-2.50066700000000,BB2 4QR,,fhrs_awaitinginspection_en-GB,AwaitingInspection,,FHRS,
160252,4 Leonard Terrace,Johnson New Road,,Hoddlesden,Angela Chadwick,Other catering premises,7841,,,212003,,,53.70515800000000,97246,897,publicprotection@blackburn.gov.uk,Blackburn,http://www.blackburn.gov.uk,-2.43475200000000,BB3 3NT,,fhrs_exempt_en-GB,Exempt,,FHRS,
160253,,44 King William Street,,Blackburn,Ann Summers,Retailers - other,4613,,,211776,,,53.74905800000000,79315,897,publicprotection@blackburn.gov.uk,Blackburn,http://www.blackburn.gov.uk,-2.48347300000000,BB1 7DP,2014-03-17,fhrs_exempt_en-GB,Exempt,,FHRS,
160254,Town Hall,Croft Street,,Darwen,Annex Cafe,Restaurant/Cafe/Canteen,1,10,,212460,5,,53.69593000000000,100230,897,publicprotection@blackburn.gov.uk,Blackburn,http://www.blackburn.gov.uk,-2.46744600000000,BB3 1BQ,2014-06-11,fhrs_3_en-GB,3,,FHRS,10
160255,,25 Glencarron Close,,Hoddlesden,Ann's Fabulicious Cakes & Bakes,Other catering premises,7841,,,657215,,,53.69338300000000,107689,897,publicprotection@blackburn.gov.uk,Blackburn,http://www.blackburn.gov.uk,-2.43248000000000,BB3 3RF,,fhrs_exempt_en-GB,Exempt,,FHRS,
160256,,10 Bolton Road,,Edgworth,Antonello's,Restaurant/Cafe/Canteen,1,,,724031,,,53.63858000000000,109132,897,publicprotection@blackburn.gov.uk,Blackburn,http://www.blackburn.gov.uk,-2.39667900000000,BL7 0DS,,fhrs_awaitinginspection_en-GB,AwaitingInspection,,FHRS,
160257,,80 London Road,,Blackburn,Anwar Halal Meats,Retailers - other,4613,10,,537779,5,,53.75511100000000,105932,897,publicprotection@blackburn.gov.uk,Blackburn,http://www.blackburn.gov.uk,-2.48252700000000,BB1 7LR,2013-09-19,fhrs_2_en-GB,2,,FHRS,15
160258,,1 Kelsall Avenue,,Blackburn,Apple Trees,Hospitals/Childcare/Caring Premises,5,0,,211589,5,,53.76258700000000,100616,897,publicprotection@blackburn.gov.uk,Blackburn,http://www.blackburn.gov.uk,-2.46254400000000,BB1 5RU,2013-06-10,fhrs_5_en-GB,5,,FHRS,5
160259,Aquamania Ltd,Hart Street,,Blackburn,Aquamania Ltd,Restaurant/Cafe/Canteen,1,10,,211919,0,,53.74765500000000,97893,897,publicprotection@blackburn.gov.uk,Blackburn,http://www.blackburn.gov.uk,-2.47464700000000,BB1 1HW,2014-10-29,fhrs_4_en-GB,4,,FHRS,10
160260,,7 Market Way,,Blackburn,Argos,Retailers - supermarkets/hypermarkets,7840,,,211956,,,53.74947200000000,1929,897,publicprotection@blackburn.gov.uk,Blackburn,http://www.blackburn.gov.uk,-2.48329600000000,BB1 7JF,2014-05-16,fhrs_exempt_en-GB,Exempt,,FHRS,
160261,"Unit C, Towns Moor Retail Park",Great Bolton Street,,Blackburn,Argos,Retailers - supermarkets/hypermarkets,7840,,,211389,,,,80720,897,publicprotection@blackburn.gov.uk,Blackburn,http://www.blackburn.gov.uk,,BB2 3BW,2014-05-14,fhrs_exempt_en-GB,Exempt,,FHRS,
160262,,85 Montague Street,,Blackburn,Armaans Restaurant,Restaurant/Cafe/Canteen,1,10,,712467,10,,53.74982000000000,107989,897,publicprotection@blackburn.gov.uk,Blackburn,http://www.blackburn.gov.uk,-2.49274800000000,BB2 1EH,2014-10-29,fhrs_3_en-GB,3,,FHRS,5
160263,,38 Darwen Street,,Blackburn,Aroma,Takeaway/sandwich shop,7844,,,727917,,,53.74629300000000,109143,897,publicprotection@blackburn.gov.uk,Blackburn,http://www.blackburn.gov.uk,-2.48271400000000,BB2 2BH,,fhrs_awaitinginspection_en-GB,AwaitingInspection,,FHRS,
160264,,School Street,,Darwen,ASDA,Retailers - supermarkets/hypermarkets,7840,0,,211657,0,,53.69632400000000,101974,897,publicprotection@blackburn.gov.uk,Blackburn,http://www.blackburn.gov.uk,-2.46766300000000,BB3 1BE,2014-01-10,fhrs_5_en-GB,5,,FHRS,5
160265,Asda Superstore,Grimshaw Park,,Blackburn,Asda Stores Ltd,Retailers - supermarkets/hypermarkets,7840,0,,212400,0,,53.73931900000000,426,897,publicprotection@blackburn.gov.uk,Blackburn,http://www.blackburn.gov.uk,-2.47788800000000,BB2 3AG,2014-09-24,fhrs_5_en-GB,5,,FHRS,0
160266,,93 Lambeth Street,,Blackburn,Asghar Food Store,Retailers - other,4613,5,,211461,5,,53.74469000000000,78223,897,publicprotection@blackburn.gov.uk,Blackburn,http://www.blackburn.gov.uk,-2.46309000000000,BB1 1SL,2014-08-20,fhrs_5_en-GB,5,,FHRS,0
160267,Ashleigh County School,Ross Street,,Darwen,Ashleigh  Primary School,School/college/university,7845,0,,211845,0,,53.68162700000000,1195,897,publicprotection@blackburn.gov.uk,Blackburn,http://www.blackburn.gov.uk,-2.46356300000000,BB3 2JT,2013-05-21,fhrs_5_en-GB,5,,FHRS,5
160268,,76 Heys Lane,,Blackburn,Ashtons Bakery,Retailers - other,4613,5,,212087,5,,53.72763200000000,990,897,publicprotection@blackburn.gov.uk,Blackburn,http://www.blackburn.gov.uk,-2.49838400000000,BB2 4ND,2014-11-12,fhrs_5_en-GB,5,,FHRS,5
160269,Ashworth Nursery School,Addison Close,,Blackburn,Ashworth Nursery School,School/college/university,7845,5,,212398,5,,53.74794100000000,69889,897,publicprotection@blackburn.gov.uk,Blackburn,http://www.blackburn.gov.uk,-2.49509100000000,BB2 1QU,2012-04-04,fhrs_5_en-GB,5,,FHRS,5
160270,"Unit 7, Whalley Range Business Park",Boyle Street,,Blackburn,Asia Continental,Distributors/Transporters,7,5,,482317,5,,53.75527900000000,105057,897,publicprotection@blackburn.gov.uk,Blackburn,http://www.blackburn.gov.uk,-2.47652300000000,BB1 6DG,2014-06-30,fhrs_2_en-GB,2,,FHRS,15
160271,,44 New Bank Road,,Blackburn,Asim's Chippery & Curry House,Takeaway/sandwich shop,7844,5,,211303,5,,53.75195300000000,3885,897,publicprotection@blackburn.gov.uk,Blackburn,http://www.blackburn.gov.uk,-2.50290300000000,BB2 6JW,2014-03-01,fhrs_4_en-GB,4,,FHRS,10
160272,Astley Bank Hotel,,,Darwen,Astley Bank Hotel Ltd,Hotel/bed & breakfast/guest house,7842,0,,212105,0,,53.68611600000000,1486,897,publicprotection@blackburn.gov.uk,Blackburn,http://www.blackburn.gov.uk,-2.46703500000000,BB3 2QB,2014-01-09,fhrs_5_en-GB,5,,FHRS,0
160273,,95 Accrington Road,,Blackburn,Aston Chemists,Retailers - other,4613,,,212276,,,53.74844400000000,1608,897,publicprotection@blackburn.gov.uk,Blackburn,http://www.blackburn.gov.uk,-2.45427500000000,BB1 2AF,2014-10-10,fhrs_exempt_en-GB,Exempt,,FHRS,
160274,"Audley And Queens Park Childrens Centre, Audley And Queens Park Neighbourhood Learning Centre",Pringle Street,,Blackburn,Audley & Queens Pk Childrens Ctr,Hospitals/Childcare/Caring Premises,5,0,,212506,5,,53.74460200000000,84155,897,publicprotection@blackburn.gov.uk,Blackburn,http://www.blackburn.gov.uk,-2.46019300000000,BB1 1TP,2014-06-17,fhrs_5_en-GB,5,,FHRS,0
160275,Audley Junior And Infant School,Queens Park Road,,Blackburn,Audley Junior School,School/college/university,7845,0,,211769,0,,53.74176200000000,325,897,publicprotection@blackburn.gov.uk,Blackburn,http://www.blackburn.gov.uk,-2.46480100000000,BB1 1SE,2014-09-08,fhrs_5_en-GB,5,,FHRS,0
160276,,194 Audley Range,,Blackburn,Audley News,Retailers - other,4613,5,,211505,5,,53.74496500000000,310,897,publicprotection@blackburn.gov.uk,Blackburn,http://www.blackburn.gov.uk,-2.46388100000000,BB1 1TG,2014-02-12,fhrs_4_en-GB,4,,FHRS,10
160277,,208 Audley Range,,Blackburn,Audley Pound Centre,Retailers - other,4613,,,211921,,,53.74496500000000,98933,897,publicprotection@blackburn.gov.uk,Blackburn,http://www.blackburn.gov.uk,-2.46388100000000,BB1 1TG,2012-01-13,fhrs_exempt_en-GB,Exempt,,FHRS,
160278,,14 Audley Range,,Blackburn,Audley Range Post Office,Retailers - other,4613,,,211258,,,53.74357900000000,1737,897,publicprotection@blackburn.gov.uk,Blackburn,http://www.blackburn.gov.uk,-2.47138700000000,BB1 1TD,2014-07-08,fhrs_exempt_en-GB,Exempt,,FHRS,
160279,Audley Range Working Mens Club,Audley Range,,Blackburn,Audley W M C,Pub/bar/nightclub,7843,5,,211902,5,,53.74496500000000,69515,897,publicprotection@blackburn.gov.uk,Blackburn,http://www.blackburn.gov.uk,-2.46388100000000,BB1 1TG,2014-06-30,fhrs_5_en-GB,5,,FHRS,5
160280,Avondale County School,Durham Road,,Darwen,Avondale Primary School,School/college/university,7845,0,,212026,0,,53.70210700000000,1275,897,publicprotection@blackburn.gov.uk,Blackburn,http://www.blackburn.gov.uk,-2.47834500000000,BB3 1NN,2014-11-14,fhrs_5_en-GB,5,,FHRS,5
160281,"Unit 94, Glenfield Park Business Centre",Philips Road,,Blackburn,Azalea Foods Ltd,Manufacturers/packers,7839,,,730800,,,53.76101500000000,109349,897,publicprotection@blackburn.gov.uk,Blackburn,http://www.blackburn.gov.uk,-2.45756600000000,BB1 5PF,,fhrs_exempt_en-GB,Exempt,,FHRS,
160282,,31-41 Market Way,,Blackburn,B & M Stores,Retailers - other,4613,,,694003,,,53.74960800000000,108064,897,publicprotection@blackburn.gov.uk,Blackburn,http://www.blackburn.gov.uk,-2.48299400000000,BB1 7JQ,,fhrs_awaitinginspection_en-GB,AwaitingInspection,,FHRS,
160283,"Unit 4, Peel Centre",Lower Audley Street,,Blackburn,B & M Stores,Retailers - other,4613,10,,571255,5,,53.74300700000000,99219,897,publicprotection@blackburn.gov.uk,Blackburn,http://www.blackburn.gov.uk,-2.47934000000000,BB1 1BB,2014-02-19,fhrs_4_en-GB,4,,FHRS,5
160284,,56 King William Street,,Blackburn,B H S,Retailers - other,4613,,,211512,,,53.74905800000000,2224,897,publicprotection@blackburn.gov.uk,Blackburn,http://www.blackburn.gov.uk,-2.48347300000000,BB1 7DP,2013-11-06,fhrs_exempt_en-GB,Exempt,,FHRS,
160285,"Unit 1, Nova Scotia Retail Park",Bolton Road,,Blackburn,B&Q Cafe,Other catering premises,7841,0,,212002,5,,53.73994400000000,96849,897,publicprotection@blackburn.gov.uk,Blackburn,http://www.blackburn.gov.uk,-2.48353500000000,BB2 3QP,2014-10-15,fhrs_5_en-GB,5,,FHRS,5
160286,,9 Fore Street,,Darwen,Bamboo House,Takeaway/sandwich shop,7844,,,727921,,,53.72168000000000,109286,897,publicprotection@blackburn.gov.uk,Blackburn,http://www.blackburn.gov.uk,-2.47462700000000,BB3 0QD,,fhrs_awaitinginspection_en-GB,AwaitingInspection,,FHRS,
160287,Bank Top Neighbourhood Learning Centre,Arthur Way,,Blackburn,Bank Top Neighbourhood Learning Centre,Other catering premises,7841,,,211740,,,53.74670700000000,97183,897,publicprotection@blackburn.gov.uk,Blackburn,http://www.blackburn.gov.uk,-2.49572900000000,BB2 1QP,2014-02-19,fhrs_exempt_en-GB,Exempt,,FHRS,
160288,,38-40 Bank Top,,Blackburn,Bank Top Newsagents,Retailers - other,4613,5,,211369,5,,53.74317100000000,836,897,publicprotection@blackburn.gov.uk,Blackburn,http://www.blackburn.gov.uk,-2.49439800000000,BB2 1TB,2014-10-23,fhrs_5_en-GB,5,,FHRS,0
160289,,6 Mincing Lane,,Blackburn,Bar Ibiza,Pub/bar/nightclub,7843,10,,211523,5,,53.74681800000000,364,897,publicprotection@blackburn.gov.uk,Blackburn,http://www.blackburn.gov.uk,-2.48402400000000,BB2 2EB,2011-11-17,fhrs_4_en-GB,4,,FHRS,5
160290,"Unit 2, Lion Complex Bay Street Works",Willow Street,,Blackburn,Barkat Cash & Carry Ltd,Retailers - other,4613,20,,212337,5,,53.75938300000000,99627,897,publicprotection@blackburn.gov.uk,Blackburn,http://www.blackburn.gov.uk,-2.46824200000000,BB1 5NJ,2014-02-27,fhrs_1_en-GB,1,,FHRS,15
160291,The Barlow Memorial Institute,Bolton Road,,Edgworth,Barlow Institute,Other catering premises,7841,,,212187,,,53.64518800000000,101770,897,publicprotection@blackburn.gov.uk,Blackburn,http://www.blackburn.gov.uk,-2.39332200000000,BL7 0AP,2012-05-22,fhrs_exempt_en-GB,Exempt,,FHRS,
160292,,2 New Chapel Street,,Blackburn,Barm Pots,Restaurant/Cafe/Canteen,1,5,,211647,10,,53.73577300000000,96413,897,publicprotection@blackburn.gov.uk,Blackburn,http://www.blackburn.gov.uk,-2.50319500000000,BB2 2RD,2012-03-12,fhrs_3_en-GB,3,,FHRS,10
160293,Barnabas House,93 Watery Lane,,Darwen,Barnabas House,Hospitals/Childcare/Caring Premises,5,0,,211263,0,,53.68484300000000,1475,897,publicprotection@blackburn.gov.uk,Blackburn,http://www.blackburn.gov.uk,-2.45469600000000,BB3 2ET,2014-11-28,fhrs_5_en-GB,5,,FHRS,5
160294,,161 Whalley Old Road,,Blackburn,Barnes Bakery,Retailers - other,4613,5,,212476,10,,53.75987900000000,3709,897,publicprotection@blackburn.gov.uk,Blackburn,http://www.blackburn.gov.uk,-2.46544100000000,BB1 5PQ,2013-09-03,fhrs_4_en-GB,4,,FHRS,5
160295,,35 Northgate,,Blackburn,Baroque,Pub/bar/nightclub,7843,10,,530702,10,,53.74847600000000,104425,897,publicprotection@blackburn.gov.uk,Blackburn,http://www.blackburn.gov.uk,-2.48513500000000,BB2 1JU,2014-02-25,fhrs_3_en-GB,3,,FHRS,10
160296,,53 Preston New Road,,Blackburn,Bars Rest Bistro,Restaurant/Cafe/Canteen,1,5,,211696,0,,53.75190000000000,56933,897,publicprotection@blackburn.gov.uk,Blackburn,http://www.blackburn.gov.uk,-2.49189200000000,BB2 6AY,2014-07-21,fhrs_5_en-GB,5,,FHRS,0
160297,Barzooka,70 Victoria Street,,Blackburn,Barzooka,Pub/bar/nightclub,7843,5,,212142,5,,53.75129900000000,487,897,publicprotection@blackburn.gov.uk,Blackburn,http://www.blackburn.gov.uk,-2.48272600000000,BB1 6DN,2012-04-17,fhrs_5_en-GB,5,,FHRS,5
160298,,49-53 Railway Road,,Darwen,Basnetts of Darwen Ltd,Distributors/Transporters,7,,,212037,,,53.69715200000000,1385,897,publicprotection@blackburn.gov.uk,Blackburn,http://www.blackburn.gov.uk,-2.46524800000000,BB3 2RJ,2013-08-05,fhrs_exempt_en-GB,Exempt,,FHRS,
160299,,77 Whalley New Road,,Blackburn,Bastwell Bargain Store,Retailers - other,4613,0,,212490,5,,53.75730000000000,710,897,publicprotection@blackburn.gov.uk,Blackburn,http://www.blackburn.gov.uk,-2.47228400000000,BB1 6JY,2012-04-03,fhrs_5_en-GB,5,,FHRS,0
160300,,110 Whalley New Road,,Blackburn,Bastwell Curry Centre,Takeaway/sandwich shop,7844,20,,211430,10,,53.75758100000000,428,897,publicprotection@blackburn.gov.uk,Blackburn,http://www.blackburn.gov.uk,-2.47155900000000,BB1 6LD,2014-11-12,fhrs_1_en-GB,1,,FHRS,15
160301,,53 Whalley New Road,,Blackburn,Bastwell News,Retailers - other,4613,10,,211581,5,,53.75730000000000,102208,897,publicprotection@blackburn.gov.uk,Blackburn,http://www.blackburn.gov.uk,-2.47228400000000,BB1 6JY,2013-07-04,fhrs_3_en-GB,3,,FHRS,10
160302,,75 Whalley New Road,,Blackburn,Bastwell Pharmacy,Retailers - other,4613,,,211634,,,53.75730000000000,99923,897,publicprotection@blackburn.gov.uk,Blackburn,http://www.blackburn.gov.uk,-2.47228400000000,BB1 6JY,2013-02-14,fhrs_exempt_en-GB,Exempt,,FHRS,
160303,Blackburn College,Nab Lane,,Blackburn,Beacon Centre Cafe Bar,Restaurant/Cafe/Canteen,1,5,,427432,0,,53.74808100000000,104046,897,publicprotection@blackburn.gov.uk,Blackburn,http://www.blackburn.gov.uk,-2.48948200000000,BB2 1LH,2014-10-22,fhrs_5_en-GB,5,,FHRS,5
160304,Beardwood Hospital,Preston New Road,,Blackburn,Beardwood Hospital,Hospitals/Childcare/Caring Premises,5,5,,212107,0,,53.75514500000000,1133,897,publicprotection@blackburn.gov.uk,Blackburn,http://www.blackburn.gov.uk,-2.51328500000000,BB2 7AE,2013-02-12,fhrs_5_en-GB,5,,FHRS,5
160305,"Stall 8 F5, Market Hall",Church Street,,Blackburn,Bedfords Cooked Meats,Retailers - other,4613,5,,211328,5,,53.74815400000000,101218,897,publicprotection@blackburn.gov.uk,Blackburn,http://www.blackburn.gov.uk,-2.48267400000000,BB1 5AF,2013-09-02,fhrs_5_en-GB,5,,FHRS,0
160306,Beechwood Road Working Mens Club,Beechwood Road,,Blackburn,Beechwood Club,Pub/bar/nightclub,7843,5,,212488,10,,53.75676300000000,275,897,publicprotection@blackburn.gov.uk,Blackburn,http://www.blackburn.gov.uk,-2.46707500000000,BB1 5JL,2014-06-30,fhrs_4_en-GB,4,,FHRS,5
160307,Beechwood Garden Centre,Roman Road,,Blackburn,Beechwood Garden Centre,Retailers - other,4613,5,,211353,5,,53.72687900000000,2593,897,publicprotection@blackburn.gov.uk,Blackburn,http://www.blackburn.gov.uk,-2.46445500000000,BB1 2LB,2014-12-05,fhrs_5_en-GB,5,,FHRS,5
160308,Bee Hive Inn,426 Preston Old Road,,Blackburn,Beehive Inn,Pub/bar/nightclub,7843,5,,211940,5,,53.73268700000000,1069,897,publicprotection@blackburn.gov.uk,Blackburn,http://www.blackburn.gov.uk,-2.52071100000000,BB2 5LP,2014-08-12,fhrs_5_en-GB,5,,FHRS,5
160309,,Haslingden Road,,Blackburn,Beehive Service Station/Spar,Retailers - supermarkets/hypermarkets,7840,0,,212008,0,,53.73096700000000,98683,897,publicprotection@blackburn.gov.uk,Blackburn,http://www.blackburn.gov.uk,-2.45067600000000,BB1 2PX,2012-01-06,fhrs_5_en-GB,5,,FHRS,5
160310,The Belgrave,Belgrave Road,,Darwen,Belgrave Live Music Bar,Pub/bar/nightclub,7843,5,,212014,0,,53.69317800000000,102340,897,publicprotection@blackburn.gov.uk,Blackburn,http://www.blackburn.gov.uk,-2.47000500000000,BB3 2RP,2014-10-28,fhrs_5_en-GB,5,,FHRS,5
160311,,1 Belgrave Road,,Darwen,Belgrave Off Licence & Groceries,Retailers - other,4613,0,,211887,0,,53.69317800000000,84067,897,publicprotection@blackburn.gov.uk,Blackburn,http://www.blackburn.gov.uk,-2.47000500000000,BB3 2RP,2013-09-09,fhrs_5_en-GB,5,,FHRS,0
160312,,47 Duckworth Street,,Darwen,Bells Pantry,Restaurant/Cafe/Canteen,1,10,,352532,10,,53.70163700000000,103209,897,publicprotection@blackburn.gov.uk,Blackburn,http://www.blackburn.gov.uk,-2.47431100000000,BB3 1AR,2014-01-16,fhrs_3_en-GB,3,,FHRS,5
160313,,101 High Street,,Belmont,Belmont Bull Hotel,Pub/bar/nightclub,7843,5,,212119,5,,53.64075500000000,1499,897,publicprotection@blackburn.gov.uk,Blackburn,http://www.blackburn.gov.uk,-2.49545300000000,BL7 8AJ,2014-12-01,fhrs_5_en-GB,5,,FHRS,5
160314,Belmont Cp School,Ryecroft Lane,,Belmont,Belmont Primary School,School/college/university,7845,5,,211332,5,,53.64034700000000,1530,897,publicprotection@blackburn.gov.uk,Blackburn,http://www.blackburn.gov.uk,-2.49638600000000,BL7 8AH,2014-11-25,fhrs_5_en-GB,5,,FHRS,5
160315,,124 Accrington Road,,Blackburn,Beltbusters,Takeaway/sandwich shop,7844,10,,536521,10,,53.74798700000000,105915,897,publicprotection@blackburn.gov.uk,Blackburn,http://www.blackburn.gov.uk,-2.45411900000000,BB1 2AE,2013-07-09,fhrs_3_en-GB,3,,FHRS,10
160316,,9 The Dene,,Blackburn,Bespoke Cakes & Chocolates,Retailers - other,4613,5,,565781,0,,53.76095800000000,106310,897,publicprotection@blackburn.gov.uk,Blackburn,http://www.blackburn.gov.uk,-2.50957900000000,BB2 7QS,2013-09-23,fhrs_5_en-GB,5,,FHRS,0
160317,,1-3 Queens Park Road,,Blackburn,Best 4 Less,Retailers - other,4613,10,,485871,15,,53.74358200000000,104718,897,publicprotection@blackburn.gov.uk,Blackburn,http://www.blackburn.gov.uk,-2.46585200000000,BB1 1RF,2014-02-19,fhrs_2_en-GB,2,,FHRS,10
160318,,59-61 Sudellside Street,,Darwen,Best One,Retailers - other,4613,20,,636077,5,,53.69706000000000,103611,897,publicprotection@blackburn.gov.uk,Blackburn,http://www.blackburn.gov.uk,-2.45882600000000,BB3 3DL,2014-02-07,fhrs_1_en-GB,1,,FHRS,5
160319,Bestway,Lower Eccleshill Road,,Darwen,Bestway Cash & Carry Ltd,Retailers - supermarkets/hypermarkets,7840,,,211999,,,53.71368600000000,81550,897,publicprotection@blackburn.gov.uk,Blackburn,http://www.blackburn.gov.uk,-2.46615800000000,BB3 0RP,2014-12-01,fhrs_exempt_en-GB,Exempt,,FHRS,
160320,,33 Blackburn Road,,Darwen,Big Baps,Restaurant/Cafe/Canteen,1,5,,212090,5,,53.70319600000000,101881,897,publicprotection@blackburn.gov.uk,Blackburn,http://www.blackburn.gov.uk,-2.47563100000000,BB3 1EJ,2014-12-09,fhrs_5_en-GB,5,,FHRS,5
160321,,7 Bridge Street,,Darwen,Big Bites,Takeaway/sandwich shop,7844,10,,212527,10,,53.69475700000000,80196,897,publicprotection@blackburn.gov.uk,Blackburn,http://www.blackburn.gov.uk,-2.46635800000000,BB3 2AA,2013-12-16,fhrs_3_en-GB,3,,FHRS,10
160322,,35 Blackburn Road,,Darwen,Bilash Balti,Takeaway/sandwich shop,7844,5,,211209,10,,53.70319600000000,86496,897,publicprotection@blackburn.gov.uk,Blackburn,http://www.blackburn.gov.uk,-2.47563100000000,BB3 1EJ,2013-12-16,fhrs_4_en-GB,4,,FHRS,5
160323,,18 Copy Nook,,Blackburn,Billy Bunters,Restaurant/Cafe/Canteen,1,0,,211622,0,,53.74863700000000,93404,897,publicprotection@blackburn.gov.uk,Blackburn,http://www.blackburn.gov.uk,-2.46731900000000,BB1 3AN,2014-12-01,fhrs_5_en-GB,5,,FHRS,5
160324,,36 Darwen Street,,Blackburn,Bios Naturecure Clinic,Retailers - supermarkets/hypermarkets,7840,,,212318,,,53.74629300000000,77695,897,publicprotection@blackburn.gov.uk,Blackburn,http://www.blackburn.gov.uk,-2.48271400000000,BB2 2BH,2014-12-17,fhrs_exempt_en-GB,Exempt,,FHRS,
160325,Birch Hall Nursing Home,Birch Hall Avenue,,Darwen,Birch Hall Nursing Home,Hospitals/Childcare/Caring Premises,5,5,,212379,5,,53.71073200000000,1228,897,publicprotection@blackburn.gov.uk,Blackburn,http://www.blackburn.gov.uk,-2.48589700000000,BB3 0JB,2013-10-31,fhrs_5_en-GB,5,,FHRS,5
160326,,9a-11 Gorse Road,,Blackburn,Birchfield,Hospitals/Childcare/Caring Premises,5,0,,211226,0,,53.74925100000000,95478,897,publicprotection@blackburn.gov.uk,Blackburn,http://www.blackburn.gov.uk,-2.50857300000000,BB2 6LY,2014-03-24,fhrs_5_en-GB,5,,FHRS,5
160327,,36 New Bank Road,,Blackburn,Birdy's,Takeaway/sandwich shop,7844,,,699616,,,53.75195300000000,108440,897,publicprotection@blackburn.gov.uk,Blackburn,http://www.blackburn.gov.uk,-2.50290300000000,BB2 6JW,,fhrs_awaitinginspection_en-GB,AwaitingInspection,,FHRS,
160328,"Stall C04-C05 And C07-C08, Three Day Market Hall",Croft Street,,Darwen,Biscuit Barrell Cafe,Restaurant/Cafe/Canteen,1,10,,212293,5,,53.69545400000000,79926,897,publicprotection@blackburn.gov.uk,Blackburn,http://www.blackburn.gov.uk,-2.46722900000000,BB3 1BG,2014-07-14,fhrs_4_en-GB,4,,FHRS,5
160329,,2 Queens Park Road,,Blackburn,Bismillah Halal Meat Centre,Retailers - other,4613,10,,571254,15,,53.74358200000000,106453,897,publicprotection@blackburn.gov.uk,Blackburn,http://www.blackburn.gov.uk,-2.46585200000000,BB1 1RF,2014-02-19,fhrs_2_en-GB,2,,FHRS,10
160330,,167-169 Bolton Road,,Edgworth,Black Bull,Pub/bar/nightclub,7843,10,,212183,10,,53.64225500000000,1516,897,publicprotection@blackburn.gov.uk,Blackburn,http://www.blackburn.gov.uk,-2.39703100000000,BL7 0AF,2014-01-16,fhrs_3_en-GB,3,,FHRS,5
160331,,2 Church Street,,Belmont,Black Dog Inn,Pub/bar/nightclub,7843,5,,211743,5,,53.63772100000000,98471,897,publicprotection@blackburn.gov.uk,Blackburn,http://www.blackburn.gov.uk,-2.49446400000000,BL7 8AB,2014-02-08,fhrs_4_en-GB,4,,FHRS,10
160332,Black Horse Hotel,72-74 Redearth Road,,Darwen,Black Horse Hotel,Pub/bar/nightclub,7843,10,,211952,5,,53.69268300000000,1245,897,publicprotection@blackburn.gov.uk,Blackburn,http://www.blackburn.gov.uk,-2.46330600000000,BB3 2AF,2013-10-02,fhrs_3_en-GB,3,,FHRS,10
160333,,140 Roman Road,,Blackburn,Blackamoor Inn,Pub/bar/nightclub,7843,5,,211447,0,,53.72309000000000,315,897,publicprotection@blackburn.gov.uk,Blackburn,http://www.blackburn.gov.uk,-2.46112500000000,BB1 2LD,2014-11-25,fhrs_5_en-GB,5,,FHRS,5
160334,,13-19 Grantham Street,,Blackburn,Blackburn & District Supported Housing,Hospitals/Childcare/Caring Premises,5,10,,643450,5,,53.73463800000000,97800,897,publicprotection@blackburn.gov.uk,Blackburn,http://www.blackburn.gov.uk,-2.50389400000000,BB2 4BZ,2014-02-11,fhrs_4_en-GB,4,,FHRS,5
160335,,Shadsworth Road,,Blackburn,Blackburn Central High School,School/college/university,7845,5,,429884,0,,53.73566800000000,104104,897,publicprotection@blackburn.gov.uk,Blackburn,http://www.blackburn.gov.uk,-2.45298500000000,BB1 2HT,2013-03-13,fhrs_5_en-GB,5,,FHRS,0
160336,,3 Mill Lane,,Blackburn,Blackburn Community Church/Funky Footprints,Hospitals/Childcare/Caring Premises,5,10,,544861,5,,53.74588400000000,105958,897,publicprotection@blackburn.gov.uk,Blackburn,http://www.blackburn.gov.uk,-2.48380100000000,BB2 2AU,2013-04-30,fhrs_4_en-GB,4,,FHRS,5
160337,Fire Station,Byrom Street,,Blackburn,Blackburn Community Fire Station,Restaurant/Cafe/Canteen,1,10,,211858,5,,53.74311200000000,103050,897,publicprotection@blackburn.gov.uk,Blackburn,http://www.blackburn.gov.uk,-2.48702900000000,BB2 2LE,2014-02-17,fhrs_4_en-GB,4,,FHRS,5
160338,"Unit 2, Whalley Banks Trading Estate",Whalley Banks,,Blackburn,Blackburn Food Bank,Restaurant/Cafe/Canteen,1,5,,465953,0,,53.74367100000000,104429,897,publicprotection@blackburn.gov.uk,Blackburn,http://www.blackburn.gov.uk,-2.49093200000000,BB2 1NR,2012-12-31,fhrs_5_en-GB,5,,FHRS,0
160339,,Lower Audley Street,,Blackburn,Blackburn Ice Arena,Other catering premises,7841,0,,211261,5,,53.74242800000000,1930,897,publicprotection@blackburn.gov.uk,Blackburn,http://www.blackburn.gov.uk,-2.47828800000000,BB2 3DY,2014-12-15,fhrs_5_en-GB,5,,FHRS,5
160340,,41a Richmond Terrace,,Blackburn,Blackburn Masonic Hall,Pub/bar/nightclub,7843,10,,211190,5,,53.75046300000000,483,897,publicprotection@blackburn.gov.uk,Blackburn,http://www.blackburn.gov.uk,-2.48508200000000,BB1 7AW,2013-10-08,fhrs_4_en-GB,4,,FHRS,5
160341,,30 Darwen Street,,Blackburn,Blackburn News,Retailers - other,4613,10,,643426,5,,53.74673200000000,105918,897,publicprotection@blackburn.gov.uk,Blackburn,http://www.blackburn.gov.uk,-2.48300700000000,BB2 2BY,2014-02-19,fhrs_4_en-GB,4,,FHRS,5
160342,6 Ainsworth Mall,Ainsworth Street,,Blackburn,Blackburn News Centre,Retailers - other,4613,5,,211293,5,,53.74917300000000,88231,897,publicprotection@blackburn.gov.uk,Blackburn,http://www.blackburn.gov.uk,-2.48174600000000,BB1 6AW,2012-04-30,fhrs_5_en-GB,5,,FHRS,0
160343,Blackburn Northern Cricket And Squash Club,Pleckgate Road,,Blackburn,Blackburn Northern,Pub/bar/nightclub,7843,5,,212480,5,,53.76758700000000,671,897,publicprotection@blackburn.gov.uk,Blackburn,http://www.blackburn.gov.uk,-2.48682700000000,BB1 8QA,2013-07-07,fhrs_5_en-GB,5,,FHRS,5
160344,Ewood Park,Nuttall Street,,Blackburn,Blackburn Rovers Football Club (Blues Bar/Kiosks),Other catering premises,7841,0,,212114,0,,53.72778700000000,2582,897,publicprotection@blackburn.gov.uk,Blackburn,http://www.blackburn.gov.uk,-2.48920100000000,BB2 4JF,2013-06-18,fhrs_5_en-GB,5,,FHRS,0
160345,,50-54 Church Street,,Blackburn,Blackburn Rovers/The Brew Room,Restaurant/Cafe/Canteen,1,0,,212443,0,,53.74788800000000,99463,897,publicprotection@blackburn.gov.uk,Blackburn,http://www.blackburn.gov.uk,-2.48168600000000,BB1 5AL,2013-02-20,fhrs_5_en-GB,5,,FHRS,5
160346,Blackburn Rugby Club,Ramsgreave Drive,,Blackburn,Blackburn RUFC,Pub/bar/nightclub,7843,10,,211870,5,,53.77134900000000,679,897,publicprotection@blackburn.gov.uk,Blackburn,http://www.blackburn.gov.uk,-2.48787200000000,BB1 8NB,2014-02-27,fhrs_4_en-GB,4,,FHRS,5
160347,Blackburn Service Station,Whalley Banks,,Blackburn,Blackburn Service Station (Shell),Retailers - supermarkets/hypermarkets,7840,5,,212122,5,,53.74356800000000,1873,897,publicprotection@blackburn.gov.uk,Blackburn,http://www.blackburn.gov.uk,-2.49196200000000,BB2 1NT,2012-04-04,fhrs_5_en-GB,5,,FHRS,5
160348,,81 Walter Street,,Blackburn,Blackburn Sweets Company,Other catering premises,7841,,,432679,,,53.74457500000000,103506,897,publicprotection@blackburn.gov.uk,Blackburn,http://www.blackburn.gov.uk,-2.46489300000000,BB1 1SU,2013-10-16,fhrs_exempt_en-GB,Exempt,,FHRS,
160349,,Jubilee Street,,Blackburn,Blackburn Youth Zone,Restaurant/Cafe/Canteen,1,5,,211345,5,,53.74603500000000,102756,897,publicprotection@blackburn.gov.uk,Blackburn,http://www.blackburn.gov.uk,-2.48189200000000,BB1 1EP,2015-01-07,fhrs_5_en-GB,5,,FHRS,0
160350,Blakewater Lodge Rest Home,Swallow Drive,,Blackburn,Blakewater Lodge Home for Eld.,Hospitals/Childcare/Caring Premises,5,5,,211632,10,,53.75208300000000,668,897,publicprotection@blackburn.gov.uk,Blackburn,http://www.blackburn.gov.uk,-2.47777600000000,BB1 6LE,2014-11-05,fhrs_4_en-GB,4,,FHRS,5
160351,,11-13 Blakey Moor,,Blackburn,Blakey Moor Newsagents,Retailers - other,4613,10,,212093,5,,53.74865200000000,102334,897,publicprotection@blackburn.gov.uk,Blackburn,http://www.blackburn.gov.uk,-2.48600100000000,BB2 1LL,2013-11-11,fhrs_4_en-GB,4,,FHRS,5
160352,,Duckworth Street,,Darwen,Bob Inn,Pub/bar/nightclub,7843,5,,552572,5,,53.69790400000000,1259,897,publicprotection@blackburn.gov.uk,Blackburn,http://www.blackburn.gov.uk,-2.47055800000000,BB3 1PX,2014-02-06,fhrs_4_en-GB,4,,FHRS,10
160353,,92 Bolton Road,,Blackburn,Bolton Road Off Licence,Retailers - other,4613,10,,211712,5,,53.73983400000000,96074,897,publicprotection@blackburn.gov.uk,Blackburn,http://www.blackburn.gov.uk,-2.48620200000000,BB2 3PZ,2014-02-19,fhrs_3_en-GB,3,,FHRS,10
160354,,389 Bolton Road,,Darwen,Bolton Road Post Office,Retailers - supermarkets/hypermarkets,7840,,,212199,,,53.68409100000000,2846,897,publicprotection@blackburn.gov.uk,Blackburn,http://www.blackburn.gov.uk,-2.46075900000000,BB3 2JQ,2014-02-12,fhrs_exempt_en-GB,Exempt,,FHRS,
160355,Bolton Road Service Station,352 Bolton Road,,Darwen,Bolton Road Service Station,Retailers - other,4613,5,,211435,5,,53.68626700000000,34128,897,publicprotection@blackburn.gov.uk,Blackburn,http://www.blackburn.gov.uk,-2.46287200000000,BB3 2PS,2013-02-13,fhrs_5_en-GB,5,,FHRS,5
160356,Bolton Sailing Club,Belmont Road,,Belmont,Bolton Sailing Club c/o  Rear Commodore,Pub/bar/nightclub,7843,5,,212382,5,,53.64530800000000,1507,897,publicprotection@blackburn.gov.uk,Blackburn,http://www.blackburn.gov.uk,-2.49647400000000,BL7 8BD,2014-07-28,fhrs_5_en-GB,5,,FHRS,5
160357,Booker Cash And Carry,Amberley Street,,Blackburn,Booker Cash And Carry,Retailers - supermarkets/hypermarkets,7840,,,211173,,,53.73734800000000,2613,897,publicprotection@blackburn.gov.uk,Blackburn,http://www.blackburn.gov.uk,-2.50060600000000,BB2 2QH,2012-06-25,fhrs_exempt_en-GB,Exempt,,FHRS,
160358,,193-195 Accrington Road,,Blackburn,Boots Pharmacy,Retailers - other,4613,,,211537,,,53.74752500000000,95837,897,publicprotection@blackburn.gov.uk,Blackburn,http://www.blackburn.gov.uk,-2.45015600000000,BB1 2AQ,2013-02-26,fhrs_exempt_en-GB,Exempt,,FHRS,
160359,,98 Audley Range,,Blackburn,Boots The Chemist,Retailers - other,4613,,,211646,,,53.74391000000000,95835,897,publicprotection@blackburn.gov.uk,Blackburn,http://www.blackburn.gov.uk,-2.46946500000000,BB1 1TF,2013-12-04,fhrs_exempt_en-GB,Exempt,,FHRS,
160360,,2 Cobden Court,,Blackburn,Boots the Chemist,Retailers - other,4613,0,,211172,0,,53.74917800000000,2022,897,publicprotection@blackburn.gov.uk,Blackburn,http://www.blackburn.gov.uk,-2.48268600000000,BB1 7JG,2013-11-08,fhrs_5_en-GB,5,,FHRS,0
160361,,8 Market Street,,Darwen,Boots The Chemist,Retailers - other,4613,,,211882,,,53.69620700000000,2773,897,publicprotection@blackburn.gov.uk,Blackburn,http://www.blackburn.gov.uk,-2.46793400000000,BB3 1AZ,2014-07-11,fhrs_exempt_en-GB,Exempt,,FHRS,
160362,"Unit B2, Towns Moor Retail Park",Great Bolton Street,,Blackburn,Boots The Chemist Ltd,Retailers - other,4613,,,211558,,,53.74260200000000,85827,897,publicprotection@blackburn.gov.uk,Blackburn,http://www.blackburn.gov.uk,-2.48200400000000,BB2 3PX,2012-05-02,fhrs_exempt_en-GB,Exempt,,FHRS,
160363,,49 Duckworth Street,,Darwen,Booze Brothers,Retailers - other,4613,10,,432678,5,,53.70163700000000,103474,897,publicprotection@blackburn.gov.uk,Blackburn,http://www.blackburn.gov.uk,-2.47431100000000,BB3 1AR,2012-09-06,fhrs_4_en-GB,4,,FHRS,0
160364,Bowlplex,Mayson Street,,Blackburn,Bowlplex,Other catering premises,7841,,,211533,,,53.74460100000000,93371,897,publicprotection@blackburn.gov.uk,Blackburn,http://www.blackburn.gov.uk,-2.47864500000000,BB1 1AQ,2013-06-05,fhrs_exempt_en-GB,Exempt,,FHRS,
160365,Bradleys Sandwich Bar,34a Darwen Street,,Blackburn,Bradley's Sandwich Bar,Restaurant/Cafe/Canteen,1,5,,211364,0,,53.74629300000000,468,897,publicprotection@blackburn.gov.uk,Blackburn,http://www.blackburn.gov.uk,-2.48271400000000,BB2 2BH,2014-07-02,fhrs_4_en-GB,4,,FHRS,10
160366,Branch Court Care Home,Livesey Branch Road,,Livesey,Branch Court Care Home,Hospitals/Childcare/Caring Premises,5,5,,211322,5,,53.72842300000000,100525,897,publicprotection@blackburn.gov.uk,Blackburn,http://www.blackburn.gov.uk,-2.50066700000000,BB2 4QR,2014-10-29,fhrs_5_en-GB,5,,FHRS,5
160367,,299 Preston New Road,,Blackburn,Brenda/Terence Kennedy,Hospitals/Childcare/Caring Premises,5,,,212333,,,53.74989100000000,88030,897,publicprotection@blackburn.gov.uk,Blackburn,http://www.blackburn.gov.uk,-2.50391000000000,BB2 6PL,2010-05-28,fhrs_exempt_en-GB,Exempt,,FHRS,
160368,,47-51 Bridge Street,,Darwen,Bridge Cafe,Restaurant/Cafe/Canteen,1,0,,212401,0,,53.69475700000000,57345,897,publicprotection@blackburn.gov.uk,Blackburn,http://www.blackburn.gov.uk,-2.46635800000000,BB3 2AA,2013-07-29,fhrs_5_en-GB,5,,FHRS,0
160369,,27-33 Bridge Street,,Darwen,Bridge St Sports & Social Club,Pub/bar/nightclub,7843,5,,211514,5,,53.69467600000000,1240,897,publicprotection@blackburn.gov.uk,Blackburn,http://www.blackburn.gov.uk,-2.46616000000000,BB3 2AA,2012-04-25,fhrs_5_en-GB,5,,FHRS,5
160370,Bridgewater Court,Bath Street,,Blackburn,Bridgewater Court,Hospitals/Childcare/Caring Premises,5,5,,211981,5,,53.74343300000000,84285,897,publicprotection@blackburn.gov.uk,Blackburn,http://www.blackburn.gov.uk,-2.50055700000000,BB2 1UJ,2011-09-14,fhrs_5_en-GB,5,,FHRS,5
160371,Shadsworth Bakery,Sett End Road North,,Blackburn,Bright Blue Foods Ltd,Manufacturers/packers,7839,,,212304,,,53.73397000000000,94300,897,publicprotection@blackburn.gov.uk,Blackburn,http://www.blackburn.gov.uk,-2.44793400000000,BB1 2PT,2014-11-18,fhrs_exempt_en-GB,Exempt,,FHRS,
160372,,191 Accrington Road,,Blackburn,Britain News Ltd,Retailers - other,4613,0,,212348,0,,53.74752500000000,98834,897,publicprotection@blackburn.gov.uk,Blackburn,http://www.blackburn.gov.uk,-2.45015600000000,BB1 2AQ,2010-05-28,fhrs_5_en-GB,5,,FHRS,0
160373,,103 Duckworth Street,,Darwen,British Queen,Pub/bar/nightclub,7843,5,,212376,5,,53.70003600000000,1369,897,publicprotection@blackburn.gov.uk,Blackburn,http://www.blackburn.gov.uk,-2.47227800000000,BB3 1AT,2013-06-18,fhrs_5_en-GB,5,,FHRS,5
160374,Brookhouse Primary School,Troy Street,,Blackburn,Brookhouse Primary School (LCC),School/college/university,7845,5,,212301,0,,53.75863500000000,641,897,publicprotection@blackburn.gov.uk,Blackburn,http://www.blackburn.gov.uk,-2.47559000000000,BB1 6NY,2014-10-24,fhrs_5_en-GB,5,,FHRS,5
160375,Brown Cow Inn,125 Livesey Branch Road,,Livesey,Brown Cow Inn,Pub/bar/nightclub,7843,5,,212254,5,,53.72664600000000,79944,897,publicprotection@blackburn.gov.uk,Blackburn,http://www.blackburn.gov.uk,-2.51268000000000,BB2 4RA,2013-05-20,fhrs_5_en-GB,5,,FHRS,5
160376,Brownhill Arms,Whalley New Road,,Blackburn,Brownhill Arms,Pub/bar/nightclub,7843,5,,211186,5,,53.77524900000000,83698,897,publicprotection@blackburn.gov.uk,Blackburn,http://www.blackburn.gov.uk,-2.47922200000000,BB1 9BA,2012-11-26,fhrs_5_en-GB,5,,FHRS,5
160377,,758 Whalley New Road,,Blackburn,Brownhill Chippy,Takeaway/sandwich shop,7844,20,,212317,15,,53.77524900000000,84256,897,publicprotection@blackburn.gov.uk,Blackburn,http://www.blackburn.gov.uk,-2.47922200000000,BB1 9BA,2014-08-06,fhrs_1_en-GB,1,,FHRS,10
160378,,785 Whalley New Road,,Blackburn,Brownhill Pharmacy,Retailers - supermarkets/hypermarkets,7840,,,212463,,,53.77882200000000,1557,897,publicprotection@blackburn.gov.uk,Blackburn,http://www.blackburn.gov.uk,-2.47797300000000,BB1 9BE,2012-04-18,fhrs_exempt_en-GB,Exempt,,FHRS,
160379,,82 New Chapel Street,,Blackburn,Brunch,Takeaway/sandwich shop,7844,0,,510724,5,,53.73408500000000,105209,897,publicprotection@blackburn.gov.uk,Blackburn,http://www.blackburn.gov.uk,-2.50285600000000,BB2 4DT,2013-08-13,fhrs_5_en-GB,5,,FHRS,0
160380,,Cambridge Street,,Blackburn,Brunel Nursery School,School/college/university,7845,0,,212397,0,,53.74553400000000,69832,897,publicprotection@blackburn.gov.uk,Blackburn,http://www.blackburn.gov.uk,-2.47228800000000,BB1 1HN,2012-05-29,fhrs_5_en-GB,5,,FHRS,0
160381,,2 Bryan Street,,Blackburn,Bryan Street Chippy,Takeaway/sandwich shop,7844,5,,211880,0,,53.73540900000000,897,897,publicprotection@blackburn.gov.uk,Blackburn,http://www.blackburn.gov.uk,-2.48478700000000,BB2 3PH,2013-12-19,fhrs_4_en-GB,4,,FHRS,10
160382,Telephone Exchange,Jubilee Street,,Blackburn,BT Division Eurest Catering,Restaurant/Cafe/Canteen,1,5,,211967,0,,53.74603500000000,457,897,publicprotection@blackburn.gov.uk,Blackburn,http://www.blackburn.gov.uk,-2.48189200000000,BB1 1EP,2014-12-05,fhrs_5_en-GB,5,,FHRS,0
160383,,264-266 Audley Range,,Blackburn,Bubbas Butty Bar,Takeaway/sandwich shop,7844,,,727924,,,53.74579100000000,109306,897,publicprotection@blackburn.gov.uk,Blackburn,http://www.blackburn.gov.uk,-2.45950800000000,BB1 1UB,,fhrs_awaitinginspection_en-GB,AwaitingInspection,,FHRS,
160384,Bulls Head,97-99 Redlam,,Blackburn,Bulls Head,Pub/bar/nightclub,7843,5,,212462,5,,53.74234200000000,1005,897,publicprotection@blackburn.gov.uk,Blackburn,http://www.blackburn.gov.uk,-2.50357700000000,BB2 1UN,2012-09-12,fhrs_4_en-GB,4,,FHRS,10
160385,Bulls Head Hotel,799 Whalley New Road,,Blackburn,Bull's Head,Pub/bar/nightclub,7843,10,,624047,10,,53.75631800000000,107027,897,publicprotection@blackburn.gov.uk,Blackburn,http://www.blackburn.gov.uk,-2.45548600000000,BB1 9BQ,2014-02-27,fhrs_2_en-GB,2,,FHRS,15
160386,Grimshaw Retail Park,Lower Audley Street,,Blackburn,Burger King,Restaurant/Cafe/Canteen,1,5,,352540,0,,53.74300800000000,103338,897,publicprotection@blackburn.gov.uk,Blackburn,http://www.blackburn.gov.uk,-2.47934000000000,BB1 1BB,2014-12-16,fhrs_5_en-GB,5,,FHRS,0
160387,,190 Burnley Road,,Blackburn,Burnley Road Fish and Chips,Takeaway/sandwich shop,7844,5,,615875,5,,53.75243000000000,106885,897,publicprotection@blackburn.gov.uk,Blackburn,http://www.blackburn.gov.uk,-2.44843400000000,BB1 3HW,2014-02-27,fhrs_5_en-GB,5,,FHRS,5
160388,"Stall 1 Ca4, Market Hall",Church Street,,Blackburn,Butler's Cafe,Takeaway/sandwich shop,7844,5,,211838,5,,53.74815400000000,101250,897,publicprotection@blackburn.gov.uk,Blackburn,http://www.blackburn.gov.uk,-2.48267400000000,BB1 5AF,2015-01-28,fhrs_5_en-GB,5,,FHRS,5
160389,,15-17 Bridge Street,,Darwen,Buxtons Bakery,Retailers - other,4613,5,,212473,5,,53.69475700000000,1237,897,publicprotection@blackburn.gov.uk,Blackburn,http://www.blackburn.gov.uk,-2.46635800000000,BB3 2AA,2014-11-28,fhrs_4_en-GB,4,,FHRS,10
160390,,30 Adelaide Terrace,,Blackburn,C B Halal Meats & Poultry,Distributors/Transporters,7,,,212224,,,53.75157200000000,84180,897,publicprotection@blackburn.gov.uk,Blackburn,http://www.blackburn.gov.uk,-2.49731800000000,BB2 6ET,2010-05-11,fhrs_exempt_en-GB,Exempt,,FHRS,
160391,,74 Northgate,,Blackburn,Caesars Pizza Place,Takeaway/sandwich shop,7844,10,,212030,10,,53.74918200000000,3716,897,publicprotection@blackburn.gov.uk,Blackburn,http://www.blackburn.gov.uk,-2.48611300000000,BB2 1AA,2014-12-03,fhrs_2_en-GB,2,,FHRS,15
160392,,Walker Road,,Blackburn,Cafe,Restaurant/Cafe/Canteen,1,10,,643435,5,,53.72623400000000,107059,897,publicprotection@blackburn.gov.uk,Blackburn,http://www.blackburn.gov.uk,-2.45220200000000,BB1 2JZ,2014-03-06,fhrs_4_en-GB,4,,FHRS,5
160393,,3 Foundry Street,,Darwen,Cafe Hub,Restaurant/Cafe/Canteen,1,5,,565782,5,,,106340,897,publicprotection@blackburn.gov.uk,Blackburn,http://www.blackburn.gov.uk,,BB3 1DJ,2013-09-25,fhrs_5_en-GB,5,,FHRS,0
160394,Blackburn Cathedral,,,Blackburn,Cafe in The Crypt,Restaurant/Cafe/Canteen,1,5,,212522,10,,53.74702300000000,56997,897,publicprotection@blackburn.gov.uk,Blackburn,http://www.blackburn.gov.uk,-2.48207000000000,BB1 5AA,2013-09-06,fhrs_4_en-GB,4,,FHRS,5
160395,,41 Railway Road,,Darwen,Cafe Lush,Restaurant/Cafe/Canteen,1,5,,690790,5,,53.69715200000000,108231,897,publicprotection@blackburn.gov.uk,Blackburn,http://www.blackburn.gov.uk,-2.46524800000000,BB3 2RJ,2014-09-10,fhrs_5_en-GB,5,,FHRS,5
160396,,45 Preston New Road,,Blackburn,Cafe Mist,Restaurant/Cafe/Canteen,1,10,,624046,10,,53.75129400000000,103153,897,publicprotection@blackburn.gov.uk,Blackburn,http://www.blackburn.gov.uk,-2.48838200000000,BB2 6AE,2014-01-08,fhrs_2_en-GB,2,,FHRS,15
160397,Royal Blackburn Hospital,Haslingden Road,,Blackburn,Cafe Nuovo,Restaurant/Cafe/Canteen,1,5,,211400,5,,53.73663100000000,94616,897,publicprotection@blackburn.gov.uk,Blackburn,http://www.blackburn.gov.uk,-2.46682200000000,BB2 3HH,2013-12-20,fhrs_5_en-GB,5,,FHRS,5
160398,Dunelm,Lower Audley Street,,Blackburn,Cafe Pausa,Restaurant/Cafe/Canteen,1,0,,724032,0,,53.74411700000000,109155,897,publicprotection@blackburn.gov.uk,Blackburn,http://www.blackburn.gov.uk,-2.48068700000000,BB1 1DG,2015-02-05,fhrs_5_en-GB,5,,FHRS,0
160399,,1 Bolton Road,,Darwen,Candy Box,Retailers - other,4613,5,,636080,0,,53.69379500000000,105714,897,publicprotection@blackburn.gov.uk,Blackburn,http://www.blackburn.gov.uk,-2.46630200000000,BB3 1DF,2014-02-06,fhrs_5_en-GB,5,,FHRS,5
160400,"Stall C06, Three Day Market Hall",Croft Street,,Darwen,Candy Rush,Retailers - other,4613,5,,636081,5,,53.69545400000000,107423,897,publicprotection@blackburn.gov.uk,Blackburn,http://www.blackburn.gov.uk,-2.46722900000000,BB3 1BG,2014-02-07,fhrs_5_en-GB,5,,FHRS,5
160401,,34 Bank Top,,Blackburn,Candyland,Retailers - other,4613,5,,583216,5,,53.74317100000000,106569,897,publicprotection@blackburn.gov.uk,Blackburn,http://www.blackburn.gov.uk,-2.49439800000000,BB2 1TB,2014-02-11,fhrs_5_en-GB,5,,FHRS,5
160402,,84 Sarah Street,,Darwen,Candy's Cafe,Restaurant/Cafe/Canteen,1,,,622773,,,53.69776700000000,107191,897,publicprotection@blackburn.gov.uk,Blackburn,http://www.blackburn.gov.uk,-2.46184700000000,BB3 3ET,2014-12-12,fhrs_4_en-GB,4,,FHRS,
160403,,22-24 Spring Hill,,Blackburn,Card Factory,Retailers - other,4613,,,542426,,,53.74883700000000,105990,897,publicprotection@blackburn.gov.uk,Blackburn,http://www.blackburn.gov.uk,-2.48257600000000,BB1 7JB,,fhrs_exempt_en-GB,Exempt,,FHRS,
160404,"Unit 4, The Square Morrisons",Railway Road,,Blackburn,Card Factory,Retailers - other,4613,,,657218,,,53.74829300000000,107707,897,publicprotection@blackburn.gov.uk,Blackburn,http://www.blackburn.gov.uk,-2.47935500000000,BB1 5AZ,2014-06-17,fhrs_exempt_en-GB,Exempt,,FHRS,
160405,Rainbow House,Agnes Street,,Blackburn,Care 4 Kids,Hospitals/Childcare/Caring Premises,5,0,,211439,0,,53.74000700000000,78976,897,publicprotection@blackburn.gov.uk,Blackburn,http://www.blackburn.gov.uk,-2.49655900000000,BB2 2NR,2013-09-20,fhrs_5_en-GB,5,,FHRS,5
160406,,83-85 Sudell Road,,Darwen,Carla's,Retailers - other,4613,5,,212289,5,,53.69566000000000,1386,897,publicprotection@blackburn.gov.uk,Blackburn,http://www.blackburn.gov.uk,-2.45820500000000,BB3 3JA,2014-09-09,fhrs_5_en-GB,5,,FHRS,5
160407,,239 Whalley New Road,,Blackburn,Carolines Celebration Cakes,Retailers - other,4613,5,,212311,5,,53.76251000000000,701,897,publicprotection@blackburn.gov.uk,Blackburn,http://www.blackburn.gov.uk,-2.47294900000000,BB1 9TJ,2014-09-18,fhrs_5_en-GB,5,,FHRS,5
160408,"Stall D6d019, Six Day Market Hall",Croft Street,,Darwen,Carter & Booth,Retailers - other,4613,20,,211453,10,,53.69545400000000,57431,897,publicprotection@blackburn.gov.uk,Blackburn,http://www.blackburn.gov.uk,-2.46722900000000,BB3 1BG,2013-12-18,fhrs_1_en-GB,1,,FHRS,0
160409,,60 Cedar Street,,Blackburn,Cedar Food Store,Retailers - other,4613,10,,211175,10,,53.75881300000000,529,897,publicprotection@blackburn.gov.uk,Blackburn,http://www.blackburn.gov.uk,-2.47157300000000,BB1 6NW,2014-09-03,fhrs_3_en-GB,3,,FHRS,5
160410,Cedars County Infant School,Hawthorne Street,,Blackburn,Cedars Infant School (Self Managed),School/college/university,7845,0,,211901,0,,53.76234700000000,688,897,publicprotection@blackburn.gov.uk,Blackburn,http://www.blackburn.gov.uk,-2.47555600000000,BB1 9TH,2013-09-13,fhrs_5_en-GB,5,,FHRS,0
160411,,57-59 Duckworth Street,,Darwen,Celebration Cakes,Retailers - other,4613,5,,212374,5,,53.70003600000000,1348,897,publicprotection@blackburn.gov.uk,Blackburn,http://www.blackburn.gov.uk,-2.47227800000000,BB3 1AT,2012-11-06,fhrs_5_en-GB,5,,FHRS,5
160412,Hornby House,39-41 King Street,,Blackburn,Cellar Bar,Pub/bar/nightclub,7843,10,,211519,5,,53.74638600000000,469,897,publicprotection@blackburn.gov.uk,Blackburn,http://www.blackburn.gov.uk,-2.48629300000000,BB2 2DH,2012-08-08,fhrs_2_en-GB,2,,FHRS,15
160413,Central United Reformed,Duckworth Street,,Darwen,Central United Reformed Church,Other catering premises,7841,,,212117,,,53.70003600000000,1332,897,publicprotection@blackburn.gov.uk,Blackburn,http://www.blackburn.gov.uk,-2.47227800000000,BB3 1AT,2015-01-21,fhrs_exempt_en-GB,Exempt,,FHRS,
160414,,12 Copy Nook,,Blackburn,Chaks Bar-Bq,Takeaway/sandwich shop,7844,10,,690796,15,,53.74863700000000,108263,897,publicprotection@blackburn.gov.uk,Blackburn,http://www.blackburn.gov.uk,-2.46731900000000,BB1 3AN,2015-01-06,fhrs_2_en-GB,2,,FHRS,15
160415,Chapel Stores,62 Olive Lane,,Darwen,Chapel Stores Off Licence,Retailers - other,4613,10,,463561,5,,53.70149500000000,104605,897,publicprotection@blackburn.gov.uk,Blackburn,http://www.blackburn.gov.uk,-2.46476600000000,BB3 0ET,2014-11-28,fhrs_3_en-GB,3,,FHRS,10
160416,,95 Montague Street,,Blackburn,Charcoal Cuisine,Takeaway/sandwich shop,7844,0,,405708,0,,53.74982000000000,103437,897,publicprotection@blackburn.gov.uk,Blackburn,http://www.blackburn.gov.uk,-2.49274800000000,BB2 1EH,2014-05-07,fhrs_5_en-GB,5,,FHRS,0
160417,,110 Manxman Road,,Blackburn,Cheaper Market,Retailers - other,4613,10,,212081,5,,53.73153100000000,969,897,publicprotection@blackburn.gov.uk,Blackburn,http://www.blackburn.gov.uk,-2.47445000000000,BB2 3EP,2014-01-28,fhrs_4_en-GB,4,,FHRS,5
160418,,49 Roe Lee Park,,Blackburn,Cherry Blossom Bakery,Other catering premises,7841,,,551276,,,53.77301300000000,106171,897,publicprotection@blackburn.gov.uk,Blackburn,http://www.blackburn.gov.uk,-2.47848400000000,BB1 9RZ,2013-10-31,fhrs_exempt_en-GB,Exempt,,FHRS,
160419,Cherry Lodge,Islington,,Blackburn,Cherry Lodge,Retailers - other,4613,5,,211885,5,,53.74251700000000,3176,897,publicprotection@blackburn.gov.uk,Blackburn,http://www.blackburn.gov.uk,-2.48520200000000,BB2 2LN,2014-08-08,fhrs_5_en-GB,5,,FHRS,5
160420,,420 Preston Old Road,,Blackburn,Cherry Tree Chippy,Takeaway/sandwich shop,7844,5,,211248,0,,53.73268700000000,101779,897,publicprotection@blackburn.gov.uk,Blackburn,http://www.blackburn.gov.uk,-2.52071100000000,BB2 5LP,2013-03-21,fhrs_5_en-GB,5,,FHRS,5
160421,Cherry Tree Cricket & Tennis Club,459 Preston Old Road,,Blackburn,Cherry Tree Cricket and Tennis Club,Other catering premises,7841,5,,212365,5,,53.73013500000000,2707,897,publicprotection@blackburn.gov.uk,Blackburn,http://www.blackburn.gov.uk,-2.52474200000000,BB2 5ND,2013-06-12,fhrs_5_en-GB,5,,FHRS,5
160422,,100 Chester Street,,Blackburn,Chester Street Stores,Retailers - supermarkets/hypermarkets,7840,5,,212525,5,,53.74722900000000,87809,897,publicprotection@blackburn.gov.uk,Blackburn,http://www.blackburn.gov.uk,-2.47118500000000,BB1 1DR,2014-12-03,fhrs_5_en-GB,5,,FHRS,5
160423,,8-10 Copy Nook,,Blackburn,Chesters,Restaurant/Cafe/Canteen,1,5,,211486,5,,53.74863700000000,102592,897,publicprotection@blackburn.gov.uk,Blackburn,http://www.blackburn.gov.uk,-2.46731900000000,BB1 3AN,2014-07-04,fhrs_4_en-GB,4,,FHRS,10
160424,Chetham Arms,83 High Street,,Edgworth,Chetham Arms,Pub/bar/nightclub,7843,10,,530706,10,,53.63716100000000,105830,897,publicprotection@blackburn.gov.uk,Blackburn,http://www.blackburn.gov.uk,-2.40443900000000,BL7 0EW,2015-01-13,fhrs_2_en-GB,2,,FHRS,15
160425,,9 Duckworth Street,,Darwen,Chilli Red,Takeaway/sandwich shop,7844,,,724035,,,53.70163700000000,109225,897,publicprotection@blackburn.gov.uk,Blackburn,http://www.blackburn.gov.uk,-2.47431100000000,BB3 1AR,,fhrs_awaitinginspection_en-GB,AwaitingInspection,,FHRS,
160426,,139-141 Preston New Road,,Blackburn,Chimneys Guest House,Hotel/bed & breakfast/guest house,7842,0,,211559,0,,53.75066000000000,862,897,publicprotection@blackburn.gov.uk,Blackburn,http://www.blackburn.gov.uk,-2.49623000000000,BB2 6BJ,2014-12-05,fhrs_5_en-GB,5,,FHRS,0
160427,,46 Bolton Road,,Blackburn,China Wok,Takeaway/sandwich shop,7844,5,,211530,10,,53.73983400000000,93061,897,publicprotection@blackburn.gov.uk,Blackburn,http://www.blackburn.gov.uk,-2.48620200000000,BB2 3PZ,2014-12-02,fhrs_3_en-GB,3,,FHRS,10
160428,Unit A,Lower Audley Street,,Blackburn,Chiquito's,Restaurant/Cafe/Canteen,1,0,,211529,5,,53.74300800000000,92994,897,publicprotection@blackburn.gov.uk,Blackburn,http://www.blackburn.gov.uk,-2.47934000000000,BB1 1BB,2014-12-16,fhrs_5_en-GB,5,,FHRS,5
160429,,55 James Street,,Blackburn,Chocolat by Daniel Coletta,Retailers - other,4613,,,716797,,,53.75097900000000,108709,897,publicprotection@blackburn.gov.uk,Blackburn,http://www.blackburn.gov.uk,-2.48188800000000,BB1 6BE,,fhrs_awaitinginspection_en-GB,AwaitingInspection,,FHRS,
160430,,140a Livesey Branch Road,,Livesey,Chopsticks,Takeaway/sandwich shop,7844,10,,211476,5,,53.72921200000000,983,897,publicprotection@blackburn.gov.uk,Blackburn,http://www.blackburn.gov.uk,-2.49682600000000,BB2 4LU,2013-06-03,fhrs_3_en-GB,3,,FHRS,10
160431,M65 Junction 4 Blackburn Interchange,Commercial Road,,Darwen,Chopstix Noodle Bar,Takeaway/sandwich shop,7844,5,,668839,5,,53.71363500000000,107930,897,publicprotection@blackburn.gov.uk,Blackburn,http://www.blackburn.gov.uk,-2.48155200000000,BB3 0AT,2014-06-16,fhrs_5_en-GB,5,,FHRS,0
160432,,126 Greenway Street,,Darwen,Christine/Damian Davies,Hospitals/Childcare/Caring Premises,5,,,212484,,,53.70322300000000,88808,897,publicprotection@blackburn.gov.uk,Blackburn,http://www.blackburn.gov.uk,-2.47342000000000,BB3 1EQ,2010-10-06,fhrs_exempt_en-GB,Exempt,,FHRS,
160433,,353 Accrington Road,,Blackburn,Chung's Intack Chippy,Takeaway/sandwich shop,7844,5,,212197,10,,53.74771100000000,282,897,publicprotection@blackburn.gov.uk,Blackburn,http://www.blackburn.gov.uk,-2.44615500000000,BB1 2AL,2013-11-27,fhrs_3_en-GB,3,,FHRS,10
160434,,17 Whalley Range,,Blackburn,Chunky Chicken,Takeaway/sandwich shop,7844,10,,643451,5,,53.75380000000000,99626,897,publicprotection@blackburn.gov.uk,Blackburn,http://www.blackburn.gov.uk,-2.48000900000000,BB1 6DX,2014-02-20,fhrs_3_en-GB,3,,FHRS,10
160435,,23 Whalley Range,,Blackburn,Chunky Chicken,Takeaway/sandwich shop,7844,5,,212016,10,,53.75380000000000,100526,897,publicprotection@blackburn.gov.uk,Blackburn,http://www.blackburn.gov.uk,-2.48000900000000,BB1 6DX,2014-09-02,fhrs_0_en-GB,0,,FHRS,25
160436,,51 Regent Street,,Blackburn,Cinnamon,Restaurant/Cafe/Canteen,1,5,,212227,5,,53.75113100000000,84391,897,publicprotection@blackburn.gov.uk,Blackburn,http://www.blackburn.gov.uk,-2.48214700000000,BB1 6BH,2013-02-20,fhrs_4_en-GB,4,,FHRS,10
160437,Old Town Hall,Floor 2 King William Street,,Blackburn,Civic Catering - Blackburn with Darwen,Restaurant/Cafe/Canteen,1,0,,211790,0,,53.74993800000000,70025,897,publicprotection@blackburn.gov.uk,Blackburn,http://www.blackburn.gov.uk,-2.48381700000000,BB1 7DY,2013-09-05,fhrs_5_en-GB,5,,FHRS,0
160438,,32 Market Street,,Darwen,CJ'S,Restaurant/Cafe/Canteen,1,5,,211570,5,,53.69580900000000,96048,897,publicprotection@blackburn.gov.uk,Blackburn,http://www.blackburn.gov.uk,-2.46839900000000,BB3 1PS,2013-11-18,fhrs_4_en-GB,4,,FHRS,10
160439,Clifton Arms,48 Grimshaw Park,,Blackburn,Clifton Arms,Pub/bar/nightclub,7843,5,,211217,5,,53.73931900000000,78971,897,publicprotection@blackburn.gov.uk,Blackburn,http://www.blackburn.gov.uk,-2.47788800000000,BB2 3AG,2013-06-10,fhrs_5_en-GB,5,,FHRS,5
160440,,231 Blackburn Road,,Darwen,Clifton Lawns,Hospitals/Childcare/Caring Premises,5,5,,212236,0,,53.70770200000000,97775,897,publicprotection@blackburn.gov.uk,Blackburn,http://www.blackburn.gov.uk,-2.47943900000000,BB3 1HL,2014-10-02,fhrs_5_en-GB,5,,FHRS,5
160441,Clog And Billycock,Billinge End Road,,Blackburn,Clog & Billycock,Pub/bar/nightclub,7843,5,,211573,10,,53.74987700000000,96233,897,publicprotection@blackburn.gov.uk,Blackburn,http://www.blackburn.gov.uk,-2.52988600000000,BB2 6QB,2014-06-18,fhrs_3_en-GB,3,,FHRS,10
160442,Clough Head Farm,Broadhead Road,,Turton,Clough Head Farm,Hotel/bed & breakfast/guest house,7842,5,,211971,5,,53.68476100000000,93242,897,publicprotection@blackburn.gov.uk,Blackburn,http://www.blackburn.gov.uk,-2.38568100000000,BL7 0JN,2014-11-19,fhrs_5_en-GB,5,,FHRS,0
160443,Coach House Nursery,Shear Bank Road,,Blackburn,Coach House Nursery,Hospitals/Childcare/Caring Premises,5,5,,211603,0,,53.75528000000000,3184,897,publicprotection@blackburn.gov.uk,Blackburn,http://www.blackburn.gov.uk,-2.49184100000000,BB1 8BA,2015-02-04,fhrs_5_en-GB,5,,FHRS,5
160444,,149 Duckworth Street,,Darwen,Cod Father Express,Takeaway/sandwich shop,7844,10,,212491,5,,53.70003600000000,94832,897,publicprotection@blackburn.gov.uk,Blackburn,http://www.blackburn.gov.uk,-2.47227800000000,BB3 1AT,2015-01-13,fhrs_4_en-GB,4,,FHRS,5
160445,,57 Higher Croft Road,,Blackburn,Coffees To Go,Mobile caterer,7846,5,,352531,5,,53.72536200000000,103195,897,publicprotection@blackburn.gov.uk,Blackburn,http://www.blackburn.gov.uk,-2.47306200000000,BB3 0QT,2014-02-20,fhrs_5_en-GB,5,,FHRS,5
160446,,63 Whalley Range,,Blackburn,Cohens Chemist,Retailers - other,4613,,,211993,,,53.75473000000000,80660,897,publicprotection@blackburn.gov.uk,Blackburn,http://www.blackburn.gov.uk,-2.47898900000000,BB1 6EA,2014-12-03,fhrs_exempt_en-GB,Exempt,,FHRS,
160447,,371 Whalley New Road,,Blackburn,Cohens Chemist,Retailers - other,4613,,,211284,,,53.76728900000000,93180,897,publicprotection@blackburn.gov.uk,Blackburn,http://www.blackburn.gov.uk,-2.47596100000000,BB1 9SP,2013-11-15,fhrs_exempt_en-GB,Exempt,,FHRS,
160448,United Coopertative Ltd,Livesey Branch Road,,Livesey,Co-Op (formerly Livesey Service Station),Retailers - supermarkets/hypermarkets,7840,5,,211531,5,,53.72820000000000,93076,897,publicprotection@blackburn.gov.uk,Blackburn,http://www.blackburn.gov.uk,-2.50455900000000,BB2 4QL,2012-11-14,fhrs_5_en-GB,5,,FHRS,5
160449,,609-613 Whalley New Road,,Blackburn,CO-OP Lateshop Brownhill,Retailers - supermarkets/hypermarkets,7840,0,,212028,5,,53.77524900000000,191,897,publicprotection@blackburn.gov.uk,Blackburn,http://www.blackburn.gov.uk,-2.47922200000000,BB1 9BA,2012-11-06,fhrs_4_en-GB,4,,FHRS,10
160450,,140-148 Blackburn Road,,Darwen,CO-OP Lateshop Hollins Grove,Retailers - supermarkets/hypermarkets,7840,0,,211161,0,,53.70581900000000,1207,897,publicprotection@blackburn.gov.uk,Blackburn,http://www.blackburn.gov.uk,-2.47832700000000,BB3 1QU,2014-10-21,fhrs_5_en-GB,5,,FHRS,5
160451,,Oakenhurst Road,,Blackburn,Co-op Pharmacy,Retailers - other,4613,,,212292,,,53.74642100000000,79063,897,publicprotection@blackburn.gov.uk,Blackburn,http://www.blackburn.gov.uk,-2.49316300000000,BB2 1SN,2013-11-27,fhrs_exempt_en-GB,Exempt,,FHRS,
160452,,21 Railway Road,,Blackburn,Coral,Retailers - other,4613,,,211355,,,53.74810900000000,1850,897,publicprotection@blackburn.gov.uk,Blackburn,http://www.blackburn.gov.uk,-2.48044500000000,BB1 5AX,2014-01-24,fhrs_exempt_en-GB,Exempt,,FHRS,
160453,,1-3 Dyson Street,,Blackburn,Coral,Retailers - other,4613,,,212283,,,53.73591500000000,2559,897,publicprotection@blackburn.gov.uk,Blackburn,http://www.blackburn.gov.uk,-2.48624800000000,BB2 3RZ,2012-05-24,fhrs_exempt_en-GB,Exempt,,FHRS,
160454,,21 Cardwell Place,,Blackburn,Corner Convenience Store,Retailers - other,4613,10,,212010,5,,53.74774300000000,98862,897,publicprotection@blackburn.gov.uk,Blackburn,http://www.blackburn.gov.uk,-2.48644500000000,BB2 1LG,2014-07-31,fhrs_4_en-GB,4,,FHRS,0
160455,"Next Unit B1, Towns Moor Retail Park",Great Bolton Street,,Blackburn,Costa,Restaurant/Cafe/Canteen,1,0,,690792,5,,,108247,897,publicprotection@blackburn.gov.uk,Blackburn,http://www.blackburn.gov.uk,,BB2 3BW,2014-12-01,fhrs_5_en-GB,5,,FHRS,5
160456,,21 Cobden Court,,Blackburn,Costa Coffee,Restaurant/Cafe/Canteen,1,0,,211654,0,,53.74917800000000,99172,897,publicprotection@blackburn.gov.uk,Blackburn,http://www.blackburn.gov.uk,-2.48268600000000,BB1 7JG,2014-12-09,fhrs_5_en-GB,5,,FHRS,5
160457,Blackburn Services M65,Commercial Road,,Darwen,Costa Coffee,Restaurant/Cafe/Canteen,1,5,,455944,5,,53.71363500000000,104344,897,publicprotection@blackburn.gov.uk,Blackburn,http://www.blackburn.gov.uk,-2.48155200000000,BB3 0AT,2015-01-05,fhrs_5_en-GB,5,,FHRS,5
160458,Blackburn College,Feilden Street,,Blackburn,Courtyard Cafe,Restaurant/Cafe/Canteen,1,5,,211815,5,,53.74808100000000,99882,897,publicprotection@blackburn.gov.uk,Blackburn,http://www.blackburn.gov.uk,-2.48948200000000,BB2 1LH,2014-10-22,fhrs_5_en-GB,5,,FHRS,5
160459,Craven Heifer Inn,Pole Lane,,Darwen,Craven Heifer,Pub/bar/nightclub,7843,10,,212282,5,,53.69078100000000,1426,897,publicprotection@blackburn.gov.uk,Blackburn,http://www.blackburn.gov.uk,-2.44829300000000,BB3 3LD,2014-02-08,fhrs_3_en-GB,3,,FHRS,10
160460,Crown And Thistle Inn,Roman Road,,Eccleshill,Crown & Thistle Inn,Pub/bar/nightclub,7843,10,,212429,15,,53.67910200000000,94703,897,publicprotection@blackburn.gov.uk,Blackburn,http://www.blackburn.gov.uk,-2.42712600000000,BB3 3PP,2014-09-09,fhrs_2_en-GB,2,,FHRS,15
160461,,Hollins Road,,Darwen,Crown Paints,Restaurant/Cafe/Canteen,1,0,,211506,0,,53.69501900000000,1218,897,publicprotection@blackburn.gov.uk,Blackburn,http://www.blackburn.gov.uk,-2.46822400000000,BB3 0BE,2013-10-15,fhrs_5_en-GB,5,,FHRS,5
160462,Crown Berger Sports And Social Club,Anchor Road,,Darwen,Crown Paints Sports & Social,Pub/bar/nightclub,7843,5,,211279,5,,53.71115100000000,79785,897,publicprotection@blackburn.gov.uk,Blackburn,http://www.blackburn.gov.uk,-2.47766000000000,BB3 0BB,2012-06-18,fhrs_5_en-GB,5,,FHRS,5
160463,,7 Railway Road,,Darwen,Crunchy Plus,Takeaway/sandwich shop,7844,,,211818,,,53.69626900000000,96582,897,publicprotection@blackburn.gov.uk,Blackburn,http://www.blackburn.gov.uk,-2.46573800000000,BB3 2RG,,fhrs_awaitinginspection_en-GB,AwaitingInspection,,FHRS,
160464,,32 Darwen Street,,Blackburn,Cube,Restaurant/Cafe/Canteen,1,10,,352512,5,,53.74666000000000,101993,897,publicprotection@blackburn.gov.uk,Blackburn,http://www.blackburn.gov.uk,-2.48303600000000,BB2 2BY,2013-11-18,fhrs_3_en-GB,3,,FHRS,10
160465,,36 Hazel Avenue,,Darwen,Culinary Art,Other catering premises,7841,,,700844,,,53.70224600000000,108581,897,publicprotection@blackburn.gov.uk,Blackburn,http://www.blackburn.gov.uk,-2.46116900000000,BB3 3AJ,,fhrs_exempt_en-GB,Exempt,,FHRS,
160466,,17 Melita Street,,Darwen,Cupcakes Galore,Other catering premises,7841,0,,427435,0,,53.69147300000000,104083,897,publicprotection@blackburn.gov.uk,Blackburn,http://www.blackburn.gov.uk,-2.46015800000000,BB3 2DA,2013-08-13,fhrs_5_en-GB,5,,FHRS,0
160467,,44 Railway Road,,Darwen,Curry Palace,Takeaway/sandwich shop,7844,5,,449460,10,,53.69715200000000,104410,897,publicprotection@blackburn.gov.uk,Blackburn,http://www.blackburn.gov.uk,-2.46524800000000,BB3 2RJ,2014-08-13,fhrs_3_en-GB,3,,FHRS,10
160468,Blackburn College,Feilden Street,,Blackburn,Curve Restaurant,Restaurant/Cafe/Canteen,1,0,,212058,0,,53.74808100000000,99715,897,publicprotection@blackburn.gov.uk,Blackburn,http://www.blackburn.gov.uk,-2.48948200000000,BB2 1LH,2013-07-16,fhrs_5_en-GB,5,,FHRS,5
160469,Kokni Muslim Association,Newton Street,,Blackburn,Cutchi Muslim Association,Other catering premises,7841,,,212201,,,53.74733200000000,3440,897,publicprotection@blackburn.gov.uk,Blackburn,http://www.blackburn.gov.uk,-2.46296700000000,BB1 1NE,2009-05-18,fhrs_exempt_en-GB,Exempt,,FHRS,
160470,Town Hall,Croft Street,,Darwen,D & D Gee,Retailers - other,4613,5,,212424,5,,53.69593000000000,82000,897,publicprotection@blackburn.gov.uk,Blackburn,http://www.blackburn.gov.uk,-2.46744600000000,BB3 1BQ,2012-04-18,fhrs_5_en-GB,5,,FHRS,5
160471,The Wharf Studios,Eanam,,Blackburn,D A P A Centre,Other catering premises,7841,10,,446616,5,,53.74922100000000,69773,897,publicprotection@blackburn.gov.uk,Blackburn,http://www.blackburn.gov.uk,-2.47417900000000,BB1 5BY,2013-06-25,fhrs_4_en-GB,4,,FHRS,5
160472,,356-358 Bolton Road,,Blackburn,D And C Leaver Bakers,Retailers - other,4613,5,,211704,5,,53.72687600000000,923,897,publicprotection@blackburn.gov.uk,Blackburn,http://www.blackburn.gov.uk,-2.49005400000000,BB2 4JQ,2014-08-05,fhrs_5_en-GB,5,,FHRS,5
160473,,1-3 Blackburn Road,,Edgworth,D Whitehead,Retailers - other,4613,5,,211267,5,,53.64787300000000,1503,897,publicprotection@blackburn.gov.uk,Blackburn,http://www.blackburn.gov.uk,-2.39414900000000,BL7 0BA,2014-12-02,fhrs_5_en-GB,5,,FHRS,5
160474,,1 Barton Street,,Blackburn,Dahna Lounge,Restaurant/Cafe/Canteen,1,10,,643427,5,,53.74787000000000,105919,897,publicprotection@blackburn.gov.uk,Blackburn,http://www.blackburn.gov.uk,-2.48602200000000,BB2 1LJ,2014-02-25,fhrs_2_en-GB,2,,FHRS,15
160475,Daisyfield Swimming Pool,Daisy Lane,,Blackburn,Daisyfield Pools,Other catering premises,7841,,,211569,,,53.75407700000000,82,897,publicprotection@blackburn.gov.uk,Blackburn,http://www.blackburn.gov.uk,-2.47135300000000,BB1 5HB,2013-06-06,fhrs_exempt_en-GB,Exempt,,FHRS,
160476,Daisyfield Primary School,Clinton Street,,Blackburn,Daisyfield Primary School,School/college/university,7845,0,,212217,5,,53.75588000000000,95018,897,publicprotection@blackburn.gov.uk,Blackburn,http://www.blackburn.gov.uk,-2.46523000000000,BB1 5LB,2014-12-05,fhrs_5_en-GB,5,,FHRS,5
160477,Stall F4/7 Market Hall,Church Street,,Blackburn,Dales & Co Fine Foods,Retailers - other,4613,10,,704662,10,,53.74815400000000,108686,897,publicprotection@blackburn.gov.uk,Blackburn,http://www.blackburn.gov.uk,-2.48267400000000,BB1 5AF,2014-09-03,fhrs_3_en-GB,3,,FHRS,5
160478,,Sett End Road,,Blackburn,Daniel Thwaites Distribution Centre,Distributors/Transporters,7,,,211884,,,53.73397000000000,66871,897,publicprotection@blackburn.gov.uk,Blackburn,http://www.blackburn.gov.uk,-2.44793400000000,BB1 2PT,2012-10-02,fhrs_exempt_en-GB,Exempt,,FHRS,
160479,Star Brewery,Penny Street,,Blackburn,Daniel Thwaites Plc,Manufacturers/packers,7839,,,211692,,,53.74930900000000,434,897,publicprotection@blackburn.gov.uk,Blackburn,http://www.blackburn.gov.uk,-2.47926100000000,BB1 6HL,2012-11-05,fhrs_exempt_en-GB,Exempt,,FHRS,
160480,Darwen Health Centre,James Street West,,Darwen,Darwen (HCC) Ltd,Retailers - other,4613,,,211916,,,53.69572500000000,96438,897,publicprotection@blackburn.gov.uk,Blackburn,http://www.blackburn.gov.uk,-2.47145700000000,BB3 1PY,2013-02-13,fhrs_exempt_en-GB,Exempt,,FHRS,
160481,Darwen Aldridge Community Academy,Sudell Road,,Darwen,Darwen Aldridge Community Academy,School/college/university,7845,5,,211318,5,,53.69434600000000,99499,897,publicprotection@blackburn.gov.uk,Blackburn,http://www.blackburn.gov.uk,-2.46562600000000,BB3 3HD,2013-11-13,fhrs_5_en-GB,5,,FHRS,5
160482,,19-21 Police Street,,Darwen,Darwen Aldridge Enterprise Studio,Hospitals/Childcare/Caring Premises,5,0,,727923,0,,,109299,897,publicprotection@blackburn.gov.uk,Blackburn,http://www.blackburn.gov.uk,,BB3 1AF,2015-01-12,fhrs_5_en-GB,5,,FHRS,0
160483,Darwen Catholic Club,Wellington Fold,,Darwen,Darwen Catholic Club,Pub/bar/nightclub,7843,5,,211521,5,,53.69656100000000,1337,897,publicprotection@blackburn.gov.uk,Blackburn,http://www.blackburn.gov.uk,-2.46914900000000,BB3 1AB,2014-05-15,fhrs_5_en-GB,5,,FHRS,5
160484,Darwen Childrens Centre,Lord Street,,Darwen,Darwen Childrens Centre,Hospitals/Childcare/Caring Premises,5,0,,211222,0,,53.70029500000000,81677,897,publicprotection@blackburn.gov.uk,Blackburn,http://www.blackburn.gov.uk,-2.46598000000000,BB3 0HD,2014-11-28,fhrs_5_en-GB,5,,FHRS,5
160485,The Chapels,Winterton Road,,Darwen,Darwen Childrens Centre,Hospitals/Childcare/Caring Premises,5,0,,212225,0,,53.70230800000000,84216,897,publicprotection@blackburn.gov.uk,Blackburn,http://www.blackburn.gov.uk,-2.46365400000000,BB3 0ER,2011-09-08,fhrs_5_en-GB,5,,FHRS,0
160486,Birch Hall Cricket Ground,Leven Grove,,Darwen,Darwen Cricket Club,Pub/bar/nightclub,7843,5,,211601,5,,53.70964700000000,1220,897,publicprotection@blackburn.gov.uk,Blackburn,http://www.blackburn.gov.uk,-2.48523300000000,BB3 0JS,2014-08-20,fhrs_5_en-GB,5,,FHRS,5
160487,,47a Blackburn Road,,Darwen,Darwen Deli Cakes,Retailers - other,4613,10,,211585,5,,53.70319600000000,102754,897,publicprotection@blackburn.gov.uk,Blackburn,http://www.blackburn.gov.uk,-2.47563100000000,BB3 1EJ,2014-02-06,fhrs_4_en-GB,4,,FHRS,5
160488,Darwen Fire Station,Union Street,,Darwen,Darwen Fire Station,Restaurant/Cafe/Canteen,1,5,,212477,5,,53.69689600000000,1387,897,publicprotection@blackburn.gov.uk,Blackburn,http://www.blackburn.gov.uk,-2.46854700000000,BB3 0DA,2012-04-03,fhrs_5_en-GB,5,,FHRS,5
160489,Darwen Golf Club Ltd,Duddon Avenue,,Darwen,Darwen Golf Club,Pub/bar/nightclub,7843,5,,211342,5,,53.70589100000000,16,897,publicprotection@blackburn.gov.uk,Blackburn,http://www.blackburn.gov.uk,-2.49365800000000,BB3 0LB,2014-12-03,fhrs_2_en-GB,2,,FHRS,15
160490,,11 Bridge Street,,Darwen,Darwen Home Brewing,Retailers - other,4613,,,530704,,,53.69467600000000,105700,897,publicprotection@blackburn.gov.uk,Blackburn,http://www.blackburn.gov.uk,-2.46616000000000,BB3 2AA,2014-02-07,fhrs_exempt_en-GB,Exempt,,FHRS,
160491,,The Green,,Darwen,Darwen Leisure Centre Cafe,Restaurant/Cafe/Canteen,1,,,712474,,,53.69573400000000,108986,897,publicprotection@blackburn.gov.uk,Blackburn,http://www.blackburn.gov.uk,-2.46932200000000,BB3 1PW,,fhrs_awaitinginspection_en-GB,AwaitingInspection,,FHRS,
160492,Darwen Library Theatre,Knott Street,,Darwen,Darwen Library Theatre,Other catering premises,7841,0,,212396,0,,53.69682500000000,3609,897,publicprotection@blackburn.gov.uk,Blackburn,http://www.blackburn.gov.uk,-2.46618400000000,BB3 3BU,2013-05-20,fhrs_5_en-GB,5,,FHRS,0
160493,Darwen Masonic Hall,Hawkshaw Avenue,,Darwen,Darwen Masonic Hall,Pub/bar/nightclub,7843,,,211760,,,53.70725700000000,1175,897,publicprotection@blackburn.gov.uk,Blackburn,http://www.blackburn.gov.uk,-2.48058500000000,BB3 1QZ,2015-02-09,fhrs_5_en-GB,5,,FHRS,
160494,The Pavillion,Anyon Street,,Darwen,Darwen Subs Bowling Club,Pub/bar/nightclub,7843,5,,211510,5,,53.70121000000000,1366,897,publicprotection@blackburn.gov.uk,Blackburn,http://www.blackburn.gov.uk,-2.45706800000000,BB3 3AQ,2013-08-07,fhrs_5_en-GB,5,,FHRS,5
160495,,Blackburn Road,,Darwen,Darwen Vale High School,School/college/university,7845,0,,463564,0,,,1196,897,publicprotection@blackburn.gov.uk,Blackburn,http://www.blackburn.gov.uk,,BB3 0AL,2013-04-22,fhrs_5_en-GB,5,,FHRS,5
160496,Sudellside Community Centre,Sudellside Street,,Darwen,Darwen Valley Community Centre,Hospitals/Childcare/Caring Premises,5,10,,211604,0,,53.69706000000000,1356,897,publicprotection@blackburn.gov.uk,Blackburn,http://www.blackburn.gov.uk,-2.45882600000000,BB3 3DL,2011-01-17,fhrs_4_en-GB,4,,FHRS,0
160497,,6 Colenso Road,,Blackburn,Daulah Diner,Mobile caterer,7846,5,,212082,5,,53.75986200000000,97120,897,publicprotection@blackburn.gov.uk,Blackburn,http://www.blackburn.gov.uk,-2.49008900000000,BB1 8DR,2014-12-08,fhrs_4_en-GB,4,,FHRS,10
160498,,14 Northgate,,Blackburn,Debenhams,Restaurant/Cafe/Canteen,1,0,,211772,0,,53.76600900000000,2105,897,publicprotection@blackburn.gov.uk,Blackburn,http://www.blackburn.gov.uk,-2.50765300000000,BB2 7DJ,2014-02-17,fhrs_5_en-GB,5,,FHRS,5
160499,,118 London Road,,Blackburn,Delawala Grocers,Retailers - other,4613,5,,211452,5,,53.75618200000000,516,897,publicprotection@blackburn.gov.uk,Blackburn,http://www.blackburn.gov.uk,-2.47994500000000,BB1 7NA,2013-09-06,fhrs_5_en-GB,5,,FHRS,5
160500,,1 Croft Street,,Darwen,Deli Carlo,Retailers - other,4613,5,,212496,5,,53.69593000000000,95849,897,publicprotection@blackburn.gov.uk,Blackburn,http://www.blackburn.gov.uk,-2.46744600000000,BB3 1BQ,2014-10-17,fhrs_5_en-GB,5,,FHRS,0
160501,,1a Campbell Place,,Blackburn,Deli Licious,Restaurant/Cafe/Canteen,1,5,,211805,5,,53.74064700000000,89049,897,publicprotection@blackburn.gov.uk,Blackburn,http://www.blackburn.gov.uk,-2.50686200000000,BB2 2TF,2014-12-08,fhrs_5_en-GB,5,,FHRS,5
160502,Derwent Hall,George Street,,Darwen,Derwent Hall,Other catering premises,7841,5,,212195,5,,53.69878200000000,1233,897,publicprotection@blackburn.gov.uk,Blackburn,http://www.blackburn.gov.uk,-2.46906800000000,BB3 0DQ,2014-08-11,fhrs_5_en-GB,5,,FHRS,5
160503,,39 Victoria Street,,Blackburn,Desi Lunch,Takeaway/sandwich shop,7844,,,668836,,,53.75129900000000,107681,897,publicprotection@blackburn.gov.uk,Blackburn,http://www.blackburn.gov.uk,-2.48272600000000,BB1 6DN,,fhrs_awaitinginspection_en-GB,AwaitingInspection,,FHRS,
160504,,16 Audley Range,,Blackburn,Desi Taste,Takeaway/sandwich shop,7844,0,,212347,0,,53.74349700000000,98701,897,publicprotection@blackburn.gov.uk,Blackburn,http://www.blackburn.gov.uk,-2.47149200000000,BB1 1TD,2011-10-04,fhrs_5_en-GB,5,,FHRS,5
160505,,171 Addison Street,,Blackburn,Devonport Road Store,Retailers - other,4613,5,,211693,5,,53.74901300000000,24377,897,publicprotection@blackburn.gov.uk,Blackburn,http://www.blackburn.gov.uk,-2.49674200000000,BB2 1HN,2014-09-15,fhrs_5_en-GB,5,,FHRS,5
160506,,62 Queens Park Road,,Blackburn,Dhorat's Newsagents,Retailers - other,4613,10,,212112,5,,53.74176200000000,229,897,publicprotection@blackburn.gov.uk,Blackburn,http://www.blackburn.gov.uk,-2.46480100000000,BB1 1SE,2014-10-27,fhrs_4_en-GB,4,,FHRS,5
160507,,185 Whalley New Road,,Blackburn,Dial a Curry,Takeaway/sandwich shop,7844,5,,211969,5,,53.76095100000000,93186,897,publicprotection@blackburn.gov.uk,Blackburn,http://www.blackburn.gov.uk,-2.47185400000000,BB1 9TL,2014-03-12,fhrs_5_en-GB,5,,FHRS,5
160508,,18 Turkey Street,,Accrington,Dinky Diner,Mobile caterer,7846,5,,211203,5,,53.75755000000000,99551,897,publicprotection@blackburn.gov.uk,Blackburn,http://www.blackburn.gov.uk,-2.35563400000000,BB5 6EW,2015-01-29,fhrs_5_en-GB,5,,FHRS,5
160509,,15a Market Way,,Blackburn,Ditsch,Takeaway/sandwich shop,7844,0,,211481,5,,53.74960800000000,101877,897,publicprotection@blackburn.gov.uk,Blackburn,http://www.blackburn.gov.uk,-2.48299400000000,BB1 7JQ,2014-12-09,fhrs_5_en-GB,5,,FHRS,0
160510,,17a Gorse Road,,Blackburn,Dixon House,Hospitals/Childcare/Caring Premises,5,5,,211898,5,,53.74925100000000,78156,897,publicprotection@blackburn.gov.uk,Blackburn,http://www.blackburn.gov.uk,-2.50857300000000,BB2 6LY,2014-12-08,fhrs_5_en-GB,5,,FHRS,5
160511,Dixons Newsagents,217a Duckworth Street,,Darwen,Dixon's Newsagents,Retailers - other,4613,10,,690802,10,,53.69740600000000,108337,897,publicprotection@blackburn.gov.uk,Blackburn,http://www.blackburn.gov.uk,-2.46912900000000,BB3 1AU,2014-07-23,fhrs_3_en-GB,3,,FHRS,5
160512,,108 Whalley New Road,,Blackburn,Dixy Chicken,Takeaway/sandwich shop,7844,10,,622774,15,,53.75758100000000,107217,897,publicprotection@blackburn.gov.uk,Blackburn,http://www.blackburn.gov.uk,-2.47155900000000,BB1 6LD,2013-12-19,fhrs_2_en-GB,2,,FHRS,5
160513,,46 Darwen Street,,Blackburn,Dixy Chicken,Takeaway/sandwich shop,7844,20,,590410,15,,53.74629300000000,106796,897,publicprotection@blackburn.gov.uk,Blackburn,http://www.blackburn.gov.uk,-2.48271400000000,BB2 2BH,2014-12-30,fhrs_1_en-GB,1,,FHRS,15
160514,,27 Blackburn Road,,Darwen,Dixyland Chicken & Ribs,Takeaway/sandwich shop,7844,5,,211684,5,,53.70319600000000,1358,897,publicprotection@blackburn.gov.uk,Blackburn,http://www.blackburn.gov.uk,-2.47563100000000,BB3 1EJ,2014-02-08,fhrs_4_en-GB,4,,FHRS,10
160515,Bowling Green Hotel,386 Bolton Road,,Darwen,Dolly's Tea Room,Restaurant/Cafe/Canteen,1,0,,447766,0,,53.68575600000000,104332,897,publicprotection@blackburn.gov.uk,Blackburn,http://www.blackburn.gov.uk,-2.46254900000000,BB3 2PS,2015-01-23,fhrs_5_en-GB,5,,FHRS,0
160516,"Unit 2, Royal Retail Park",Infirmary Road,,Blackburn,Domino's Pizza,Takeaway/sandwich shop,7844,,,715229,,,,108676,897,publicprotection@blackburn.gov.uk,Blackburn,http://www.blackburn.gov.uk,,BB2 3LR,,fhrs_awaitinginspection_en-GB,AwaitingInspection,,FHRS,
160517,,197a Preston New Road,,Blackburn,Don Luca,Takeaway/sandwich shop,7844,10,,668838,5,,53.74969300000000,107906,897,publicprotection@blackburn.gov.uk,Blackburn,http://www.blackburn.gov.uk,-2.49958500000000,BB2 6BN,2014-08-01,fhrs_4_en-GB,4,,FHRS,5
160518,,36 Copy Nook,,Blackburn,Donner Express,Takeaway/sandwich shop,7844,10,,631595,5,,53.74863700000000,106761,897,publicprotection@blackburn.gov.uk,Blackburn,http://www.blackburn.gov.uk,-2.46731900000000,BB1 3AN,2014-02-19,fhrs_3_en-GB,3,,FHRS,10
160519,Market Hall,Church Street,,Blackburn,Don't Walk Pasta Bar,Takeaway/sandwich shop,7844,,,690798,,,53.74815400000000,108288,897,publicprotection@blackburn.gov.uk,Blackburn,http://www.blackburn.gov.uk,-2.48267400000000,BB1 5AF,,fhrs_awaitinginspection_en-GB,AwaitingInspection,,FHRS,
160520,"D W Sports, J J B Soccerdome",Haslingden Road,,Blackburn,DW Sports Fitness,Other catering premises,7841,,,212064,,,53.72747000000000,85230,897,publicprotection@blackburn.gov.uk,Blackburn,http://www.blackburn.gov.uk,-2.44618300000000,BB1 2NG,2014-07-04,fhrs_exempt_en-GB,Exempt,,FHRS,
160521,,19 Brassey Street,,Middleton,DY's Mobile Catering,Mobile caterer,7846,0,,211426,0,,53.55480100000000,102585,897,publicprotection@blackburn.gov.uk,Blackburn,http://www.blackburn.gov.uk,-2.19157300000000,M24 6AU,2012-02-15,fhrs_4_en-GB,4,,FHRS,10
160522,Earcroft Childrens Centre,Veronica Street,,Darwen,Earcroft Childrens Centre,Hospitals/Childcare/Caring Premises,5,5,,211624,5,,53.71013500000000,93559,897,publicprotection@blackburn.gov.uk,Blackburn,http://www.blackburn.gov.uk,-2.48234500000000,BB3 0AF,2012-06-18,fhrs_5_en-GB,5,,FHRS,0
160523,,7 Preston New Road,,Blackburn,East Lake News,Retailers - other,4613,10,,579453,5,,53.75063500000000,106517,897,publicprotection@blackburn.gov.uk,Blackburn,http://www.blackburn.gov.uk,-2.48685800000000,BB2 1AR,2013-08-06,fhrs_3_en-GB,3,,FHRS,10
160524,East Lancashire Cricket Club,Dukes Brow,,Blackburn,East Lancashire Cricket Club,Pub/bar/nightclub,7843,5,,212143,5,,53.75476300000000,731,897,publicprotection@blackburn.gov.uk,Blackburn,http://www.blackburn.gov.uk,-2.50361900000000,BB2 6DJ,2012-04-04,fhrs_5_en-GB,5,,FHRS,5
160525,East Lancashire Hospice,Park Lee Road,,Blackburn,East Lancashire Hospice,Hospitals/Childcare/Caring Premises,5,0,,211556,5,,53.73401800000000,57018,897,publicprotection@blackburn.gov.uk,Blackburn,http://www.blackburn.gov.uk,-2.47982900000000,BB2 3NY,2014-01-07,fhrs_5_en-GB,5,,FHRS,0
160526,Carus Centre,1 Sydney Street,,Hoddlesden,East Rural Youth and Community Association,Other catering premises,7841,,,212310,,,53.69560800000000,69965,897,publicprotection@blackburn.gov.uk,Blackburn,http://www.blackburn.gov.uk,-2.43115500000000,BB3 3LZ,2013-07-04,fhrs_exempt_en-GB,Exempt,,FHRS,
160527,,67 Whalley New Road,,Blackburn,Eastern Delight,Takeaway/sandwich shop,7844,5,,211489,5,,53.75730000000000,101493,897,publicprotection@blackburn.gov.uk,Blackburn,http://www.blackburn.gov.uk,-2.47228400000000,BB1 6JY,2014-04-15,fhrs_4_en-GB,4,,FHRS,10
160528,,84 Whalley Banks,,Blackburn,Eastern Spice,Takeaway/sandwich shop,7844,5,,212287,10,,53.74345400000000,3329,897,publicprotection@blackburn.gov.uk,Blackburn,http://www.blackburn.gov.uk,-2.49341600000000,BB2 1PB,2014-11-12,fhrs_3_en-GB,3,,FHRS,10
160529,,619 Whalley New Road,,Blackburn,Easton Butcher,Retailers - other,4613,5,,212313,10,,53.77524900000000,707,897,publicprotection@blackburn.gov.uk,Blackburn,http://www.blackburn.gov.uk,-2.47922200000000,BB1 9BA,2014-12-05,fhrs_4_en-GB,4,,FHRS,5
160530,Edgworth Cricket Club,Bolton Road,,Edgworth,Edgworth Cricket Club,Pub/bar/nightclub,7843,10,,211522,10,,53.64518800000000,1533,897,publicprotection@blackburn.gov.uk,Blackburn,http://www.blackburn.gov.uk,-2.39332200000000,BL7 0AP,2014-11-12,fhrs_3_en-GB,3,,FHRS,10
160531,Edgworth Post Office,Blackburn Road,,Edgworth,Edgworth Stores & Post Office Ltd,Restaurant/Cafe/Canteen,1,5,,212341,5,,53.64827800000000,81747,897,publicprotection@blackburn.gov.uk,Blackburn,http://www.blackburn.gov.uk,-2.39407700000000,BL7 0BB,2014-01-28,fhrs_5_en-GB,5,,FHRS,5
160532,,2 Edmund Street,,Darwen,Edmund Street Off Licence,Retailers - other,4613,20,,624051,15,,53.69479000000000,107225,897,publicprotection@blackburn.gov.uk,Blackburn,http://www.blackburn.gov.uk,-2.46010300000000,BB3 2DL,2014-04-29,fhrs_1_en-GB,1,,FHRS,15
160533,,17 Cobden Court,,Blackburn,Ed's Easy Diner,Restaurant/Cafe/Canteen,1,,,727918,,,53.74917800000000,109216,897,publicprotection@blackburn.gov.uk,Blackburn,http://www.blackburn.gov.uk,-2.48268600000000,BB1 7JG,,fhrs_awaitinginspection_en-GB,AwaitingInspection,,FHRS,
160534,,505 Preston Old Road,,Blackburn,Eileens Corner Shop,Retailers - other,4613,5,,212106,5,,53.72884100000000,1156,897,publicprotection@blackburn.gov.uk,Blackburn,http://www.blackburn.gov.uk,-2.52880300000000,BB2 5NU,2014-06-11,fhrs_5_en-GB,5,,FHRS,5
160535,,28 Church Street,,Blackburn,El Greco,Restaurant/Cafe/Canteen,1,10,,212362,5,,53.74788800000000,101539,897,publicprotection@blackburn.gov.uk,Blackburn,http://www.blackburn.gov.uk,-2.48168600000000,BB1 5AL,2013-02-20,fhrs_4_en-GB,4,,FHRS,5
160536,Nile House,Pump Street,,Blackburn,Elin Distribution Ltd,Retailers - supermarkets/hypermarkets,7840,,,212156,,,53.74406300000000,81163,897,publicprotection@blackburn.gov.uk,Blackburn,http://www.blackburn.gov.uk,-2.49404500000000,BB2 1PG,2014-05-19,fhrs_exempt_en-GB,Exempt,,FHRS,
160537,,99 Accrington Road,,Blackburn,Empire Fish & Chips,Takeaway/sandwich shop,7844,,,211691,,,53.74844400000000,215,897,publicprotection@blackburn.gov.uk,Blackburn,http://www.blackburn.gov.uk,-2.45427500000000,BB1 2AF,2015-02-10,fhrs_5_en-GB,5,,FHRS,
160538,,8 Bridge Street,,Darwen,Enchanting Cakes,Retailers - other,4613,,,704663,,,53.69467600000000,108688,897,publicprotection@blackburn.gov.uk,Blackburn,http://www.blackburn.gov.uk,-2.46616000000000,BB3 2AA,,fhrs_awaitinginspection_en-GB,AwaitingInspection,,FHRS,
160539,Engineers Arms,13 Duckworth Street,,Darwen,Engineers Arms,Pub/bar/nightclub,7843,5,,211511,5,,53.70163700000000,1368,897,publicprotection@blackburn.gov.uk,Blackburn,http://www.blackburn.gov.uk,-2.47431100000000,BB3 1AR,2014-06-25,fhrs_4_en-GB,4,,FHRS,10
160540,,128 Livesey Branch Road,,Livesey,Enjoy,Restaurant/Cafe/Canteen,1,5,,615873,5,,53.72921200000000,106673,897,publicprotection@blackburn.gov.uk,Blackburn,http://www.blackburn.gov.uk,-2.49682600000000,BB2 4LU,2014-02-12,fhrs_5_en-GB,5,,FHRS,5
160541,Entwistle Hotel,15 Entwistle Street,,Darwen,Entwistle Hotel,Pub/bar/nightclub,7843,10,,211728,0,,53.69572900000000,86472,897,publicprotection@blackburn.gov.uk,Blackburn,http://www.blackburn.gov.uk,-2.46368800000000,BB3 3HS,2012-08-24,fhrs_4_en-GB,4,,FHRS,10
160542,,68-70 Darwen Street,,Blackburn,eQuit.it,Restaurant/Cafe/Canteen,1,0,,657217,0,,53.74551300000000,107706,897,publicprotection@blackburn.gov.uk,Blackburn,http://www.blackburn.gov.uk,-2.48209800000000,BB2 2BL,2014-06-17,fhrs_5_en-GB,5,,FHRS,0
160543,,1 Cobden Court,,Blackburn,Eresso,Restaurant/Cafe/Canteen,1,5,,212249,10,,53.74917800000000,86997,897,publicprotection@blackburn.gov.uk,Blackburn,http://www.blackburn.gov.uk,-2.48268600000000,BB1 7JG,2014-09-24,fhrs_3_en-GB,3,,FHRS,10
160544,,31 Bromley Street,,Blackburn,Esham Stores,Retailers - other,4613,5,,212324,5,,53.74841900000000,51512,897,publicprotection@blackburn.gov.uk,Blackburn,http://www.blackburn.gov.uk,-2.49894900000000,BB2 6LH,2012-08-06,fhrs_5_en-GB,5,,FHRS,5
160545,,21 Cemetery Road,,Darwen,Everest Pharmacy,Retailers - other,4613,,,211483,,,53.67917700000000,102154,897,publicprotection@blackburn.gov.uk,Blackburn,http://www.blackburn.gov.uk,-2.45773800000000,BB3 2LZ,2015-01-05,fhrs_exempt_en-GB,Exempt,,FHRS,
160546,"Unit 5 - 7, Brookhouse Business Centre",Whalley Range,,Blackburn,Everlasting Moments Ltd,Other catering premises,7841,5,,550241,5,,53.75533100000000,106162,897,publicprotection@blackburn.gov.uk,Blackburn,http://www.blackburn.gov.uk,-2.47703900000000,BB1 6BB,2013-11-11,fhrs_5_en-GB,5,,FHRS,0
160547,,330 Bolton Road,,Blackburn,Ewood Butty Box,Takeaway/sandwich shop,7844,,,724034,,,53.72841800000000,109220,897,publicprotection@blackburn.gov.uk,Blackburn,http://www.blackburn.gov.uk,-2.49090600000000,BB2 4HY,,fhrs_awaitinginspection_en-GB,AwaitingInspection,,FHRS,
160548,,275 Bolton Road,,Blackburn,Ewood Corner Shop,Retailers - other,4613,10,,212294,5,,53.73298500000000,56971,897,publicprotection@blackburn.gov.uk,Blackburn,http://www.blackburn.gov.uk,-2.49074700000000,BB2 4HL,2014-07-22,fhrs_4_en-GB,4,,FHRS,5
160549,,344-346 Bolton Road,,Blackburn,Ewood Newsagents,Retailers - other,4613,10,,211367,5,,53.72841800000000,932,897,publicprotection@blackburn.gov.uk,Blackburn,http://www.blackburn.gov.uk,-2.49090600000000,BB2 4HY,2012-05-22,fhrs_4_en-GB,4,,FHRS,5
160550,,316-322 Bolton Road,,Blackburn,Ewood Park Working Mens Club,Pub/bar/nightclub,7843,5,,211959,5,,53.72837300000000,900,897,publicprotection@blackburn.gov.uk,Blackburn,http://www.blackburn.gov.uk,-2.49087500000000,BB2 4HY,2013-07-17,fhrs_4_en-GB,4,,FHRS,10
160551,Ewood Service Station,Bolton Road,,Blackburn,Ewood PFS (Petrol Filling Station),Retailers - other,4613,5,,211763,0,,53.72222100000000,2719,897,publicprotection@blackburn.gov.uk,Blackburn,http://www.blackburn.gov.uk,-2.48542300000000,BB2 4LA,2014-09-09,fhrs_5_en-GB,5,,FHRS,5
160552,,424 Bolton Road,,Blackburn,Ewood Sandwich Bar,Restaurant/Cafe/Canteen,1,10,,212018,10,,53.72687600000000,101587,897,publicprotection@blackburn.gov.uk,Blackburn,http://www.blackburn.gov.uk,-2.49005400000000,BB2 4JQ,2013-06-27,fhrs_2_en-GB,2,,FHRS,15
160553,"Stall 1 F9, Market Hall",Church Street,,Blackburn,Exchange Coffee,Takeaway/sandwich shop,7844,0,,211151,5,,53.74815400000000,101251,897,publicprotection@blackburn.gov.uk,Blackburn,http://www.blackburn.gov.uk,-2.48267400000000,BB1 5AF,2013-06-18,fhrs_5_en-GB,5,,FHRS,5
160554,,13-15 Fleming Square,,Blackburn,Exchange Coffee Company,Restaurant/Cafe/Canteen,1,5,,211714,5,,53.74728500000000,425,897,publicprotection@blackburn.gov.uk,Blackburn,http://www.blackburn.gov.uk,-2.48398400000000,BB2 2DG,2014-02-14,fhrs_5_en-GB,5,,FHRS,5
160555,,4 Ouseburn Road,,Blackburn,Faisal Adil Convenience Store,Retailers - other,4613,10,,643431,5,,53.72546900000000,106318,897,publicprotection@blackburn.gov.uk,Blackburn,http://www.blackburn.gov.uk,-2.49984400000000,BB2 4NL,2014-02-12,fhrs_2_en-GB,2,,FHRS,15
160556,,251 Audley Range,,Blackburn,Fareed Take-A-Way,Takeaway/sandwich shop,7844,,,212123,,,53.74614400000000,3121,897,publicprotection@blackburn.gov.uk,Blackburn,http://www.blackburn.gov.uk,-2.45895100000000,BB1 1UA,2014-12-08,fhrs_4_en-GB,4,,FHRS,
160557,,25 King Street,,Blackburn,Farm Foods,Retailers - other,4613,5,,211180,5,,53.74638600000000,461,897,publicprotection@blackburn.gov.uk,Blackburn,http://www.blackburn.gov.uk,-2.48629300000000,BB2 2DH,2014-06-17,fhrs_5_en-GB,5,,FHRS,5
160558,Feildens Arms,673 Preston Old Road,,Blackburn,Feildens Arms,Pub/bar/nightclub,7843,5,,211252,5,,53.72710900000000,1072,897,publicprotection@blackburn.gov.uk,Blackburn,http://www.blackburn.gov.uk,-2.53616300000000,BB2 5ER,2014-09-09,fhrs_5_en-GB,5,,FHRS,5
160559,,Livesey Branch Road,,Livesey,Feniscowles and Pleasington Sports And Social Club mail to other addr),Pub/bar/nightclub,7843,0,,212179,0,,53.72325000000000,1141,897,publicprotection@blackburn.gov.uk,Blackburn,http://www.blackburn.gov.uk,-2.53487100000000,BB2 5EF,2014-08-20,fhrs_5_en-GB,5,,FHRS,0
160560,Feniscowles Post Office,712 Preston Old Road,,Blackburn,Feniscowles Convenience Store & Post Office,Retailers - supermarkets/hypermarkets,7840,10,,211528,5,,53.72723000000000,92851,897,publicprotection@blackburn.gov.uk,Blackburn,http://www.blackburn.gov.uk,-2.53730100000000,BB2 5EP,2014-06-30,fhrs_4_en-GB,4,,FHRS,5
160561,Feniscowles County Infant School,Park Farm Road,,Feniscowles,Feniscowles Infant School,School/college/university,7845,0,,211336,0,,53.72624400000000,1150,897,publicprotection@blackburn.gov.uk,Blackburn,http://www.blackburn.gov.uk,-2.53678800000000,BB2 5HW,2015-01-27,fhrs_5_en-GB,5,,FHRS,5
160562,,667 Preston Old Road,,Blackburn,Feniscowles Methodist Church,Restaurant/Cafe/Canteen,1,,,212435,,,53.72710900000000,98211,897,publicprotection@blackburn.gov.uk,Blackburn,http://www.blackburn.gov.uk,-2.53616300000000,BB2 5ER,2013-10-01,fhrs_exempt_en-GB,Exempt,,FHRS,
160563,Lammack County School,Lammack Road,,Blackburn,Fernbank Nursery Ltd,Hospitals/Childcare/Caring Premises,5,5,,211789,5,,53.76665500000000,95638,897,publicprotection@blackburn.gov.uk,Blackburn,http://www.blackburn.gov.uk,-2.49710200000000,BB1 8LH,2012-11-22,fhrs_5_en-GB,5,,FHRS,0
160564,,Jack Walker Way,,Ewood,Fernhurst Court Nursery,Hospitals/Childcare/Caring Premises,5,0,,212141,0,,53.72184400000000,84925,897,publicprotection@blackburn.gov.uk,Blackburn,http://www.blackburn.gov.uk,-2.49189000000000,BB2 4JJ,2014-03-06,fhrs_5_en-GB,5,,FHRS,0
160565,,3 Wilton Close,,Blackburn,Festive Catering,Mobile caterer,7846,5,,657220,0,,53.76140800000000,107730,897,publicprotection@blackburn.gov.uk,Blackburn,http://www.blackburn.gov.uk,-2.51773000000000,BB2 7FE,2014-06-11,fhrs_5_en-GB,5,,FHRS,0
160566,,36 Altom Street,,Blackburn,Firdos Cash & Carry,Retailers - other,4613,10,,211985,10,,53.75301500000000,525,897,publicprotection@blackburn.gov.uk,Blackburn,http://www.blackburn.gov.uk,-2.48523300000000,BB1 7ER,2013-12-17,fhrs_3_en-GB,3,,FHRS,10
160567,,11 Langden Brook Square,,Blackburn,Firoza Ices,Retailers - other,4613,10,,643417,5,,53.74084600000000,102874,897,publicprotection@blackburn.gov.uk,Blackburn,http://www.blackburn.gov.uk,-2.46923300000000,BB1 1TA,2014-07-23,fhrs_3_en-GB,3,,FHRS,10
160568,,45 Crosby Road,,Blackburn,Fish & Chip Shop,Takeaway/sandwich shop,7844,10,,211875,10,,53.72934200000000,81473,897,publicprotection@blackburn.gov.uk,Blackburn,http://www.blackburn.gov.uk,-2.48247400000000,BB2 3NF,2014-03-03,fhrs_2_en-GB,2,,FHRS,15
160569,,95 Redlam,,Blackburn,Five Star Meats,Retailers - other,4613,10,,212088,5,,53.74234200000000,1047,897,publicprotection@blackburn.gov.uk,Blackburn,http://www.blackburn.gov.uk,-2.50357700000000,BB2 1UN,2013-10-25,fhrs_4_en-GB,4,,FHRS,5
160570,,12 Pinewood,,Livesey,Flavours,Restaurant/Cafe/Canteen,1,5,,212483,5,,53.72775800000000,44461,897,publicprotection@blackburn.gov.uk,Blackburn,http://www.blackburn.gov.uk,-2.51954400000000,BB2 5AD,2014-05-07,fhrs_5_en-GB,5,,FHRS,5
160571,,Florence Street,,Blackburn,Florence House Res Care Home,Hospitals/Childcare/Caring Premises,5,0,,212223,5,,53.75520400000000,83507,897,publicprotection@blackburn.gov.uk,Blackburn,http://www.blackburn.gov.uk,-2.46804400000000,BB1 5JP,2011-06-16,fhrs_5_en-GB,5,,FHRS,0
160572,The Barlow Memorial Institute,Bolton Road,,Edgworth,Florries Tearoom,Restaurant/Cafe/Canteen,1,10,,370987,5,,53.64518800000000,103500,897,publicprotection@blackburn.gov.uk,Blackburn,http://www.blackburn.gov.uk,-2.39332200000000,BL7 0AP,2012-07-05,fhrs_4_en-GB,4,,FHRS,5
160573,Unit 22,Railway Road,,Darwen,Food 4 Dooz,Other catering premises,7841,5,,211361,5,,53.69862400000000,79254,897,publicprotection@blackburn.gov.uk,Blackburn,http://www.blackburn.gov.uk,-2.46579500000000,BB3 3EH,2015-01-29,fhrs_5_en-GB,5,,FHRS,5
160574,"Unit 406, Glenfield Park Site 2",Blakewater Road,,Blackburn,Food by Angela,Restaurant/Cafe/Canteen,1,5,,212534,10,,53.75873100000000,98560,897,publicprotection@blackburn.gov.uk,Blackburn,http://www.blackburn.gov.uk,-2.46016500000000,BB1 5QH,2013-07-24,fhrs_3_en-GB,3,,FHRS,10
160575,,6 Glenshiels Avenue,,Hoddlesden,Food Rangers,Mobile caterer,7846,,,211700,,,53.69313100000000,88622,897,publicprotection@blackburn.gov.uk,Blackburn,http://www.blackburn.gov.uk,-2.43506700000000,BB3 3LS,2014-06-03,fhrs_5_en-GB,5,,FHRS,
160576,Foresters Arms,92 Fecitt Brow,,Blackburn,Foresters Arms,Pub/bar/nightclub,7843,10,,212134,5,,53.74657900000000,95299,897,publicprotection@blackburn.gov.uk,Blackburn,http://www.blackburn.gov.uk,-2.44837200000000,BB1 2AZ,2012-03-09,fhrs_4_en-GB,4,,FHRS,5
160577,Fosse Bank House,Fosse Close,,Blackburn,Fosse Bank House,Hospitals/Childcare/Caring Premises,5,0,,212336,5,,53.72602600000000,80675,897,publicprotection@blackburn.gov.uk,Blackburn,http://www.blackburn.gov.uk,-2.46643100000000,BB2 3UB,2012-08-10,fhrs_5_en-GB,5,,FHRS,5
160578,Fountain Chippy,197 Accrington Road,,Blackburn,Fountain Chippy,Takeaway/sandwich shop,7844,0,,212069,0,,53.74752500000000,87141,897,publicprotection@blackburn.gov.uk,Blackburn,http://www.blackburn.gov.uk,-2.45015600000000,BB1 2AQ,2014-12-05,fhrs_4_en-GB,4,,FHRS,10
160579,,1 Ewood,,Blackburn,Fox And Hounds,Pub/bar/nightclub,7843,5,,211457,5,,53.73000800000000,938,897,publicprotection@blackburn.gov.uk,Blackburn,http://www.blackburn.gov.uk,-2.49324300000000,BB2 4LL,2012-07-13,fhrs_5_en-GB,5,,FHRS,5
160580,,71 East Park Road,,Blackburn,Fox's Sandwich Deli,Takeaway/sandwich shop,7844,10,,370660,15,,53.75846200000000,103473,897,publicprotection@blackburn.gov.uk,Blackburn,http://www.blackburn.gov.uk,-2.48942100000000,BB1 8DW,2013-11-11,fhrs_2_en-GB,2,,FHRS,10
160581,,26 East Park Road,,Blackburn,Franciscan Convent,Hospitals/Childcare/Caring Premises,5,0,,212504,0,,53.75617500000000,763,897,publicprotection@blackburn.gov.uk,Blackburn,http://www.blackburn.gov.uk,-2.49259500000000,BB1 8BB,2014-09-25,fhrs_5_en-GB,5,,FHRS,0
160582,,12 Wellington Fold,,Darwen,Francos Dessert Bar & Lounge,Restaurant/Cafe/Canteen,1,,,690784,,,53.69636500000000,107801,897,publicprotection@blackburn.gov.uk,Blackburn,http://www.blackburn.gov.uk,-2.46884400000000,BB3 1PU,,fhrs_awaitinginspection_en-GB,AwaitingInspection,,FHRS,
160583,Unit B,Lower Audley Street,,Blackburn,Frankie & Benny's Restaurant,Restaurant/Cafe/Canteen,1,0,,211730,5,,53.74300800000000,87443,897,publicprotection@blackburn.gov.uk,Blackburn,http://www.blackburn.gov.uk,-2.47934000000000,BB1 1BB,2014-06-11,fhrs_5_en-GB,5,,FHRS,5
160584,,46 Whalley Banks,,Blackburn,Freddy's Chicken,Takeaway/sandwich shop,7844,5,,212077,5,,53.74423400000000,96142,897,publicprotection@blackburn.gov.uk,Blackburn,http://www.blackburn.gov.uk,-2.49171200000000,BB2 1NU,2013-12-20,fhrs_5_en-GB,5,,FHRS,5
160585,,94 Glenfield Close,,Blackburn,Fresh Fish 4 U,Mobile caterer,7846,5,,457450,5,,53.75645100000000,104661,897,publicprotection@blackburn.gov.uk,Blackburn,http://www.blackburn.gov.uk,-2.46187000000000,BB1 5NE,2014-03-04,fhrs_5_en-GB,5,,FHRS,5
160586,,19-21 Bridge Street,,Darwen,Friar Rugg`s,Takeaway/sandwich shop,7844,10,,211942,5,,53.69475700000000,1251,897,publicprotection@blackburn.gov.uk,Blackburn,http://www.blackburn.gov.uk,-2.46635800000000,BB3 2AA,2014-12-12,fhrs_3_en-GB,3,,FHRS,10
160587,,221 Whalley Old Road,,Blackburn,Friends Corner,Retailers - other,4613,0,,352519,0,,53.76125800000000,103074,897,publicprotection@blackburn.gov.uk,Blackburn,http://www.blackburn.gov.uk,-2.46447100000000,BB1 5SA,2013-03-04,fhrs_5_en-GB,5,,FHRS,5
160588,,463 Whalley New Road,,Blackburn,Funky Fried Chicken,Takeaway/sandwich shop,7844,10,,636076,10,,53.76728900000000,101492,897,publicprotection@blackburn.gov.uk,Blackburn,http://www.blackburn.gov.uk,-2.47596100000000,BB1 9SP,2014-02-25,fhrs_3_en-GB,3,,FHRS,5
160589,,25 Cherry Street,,Blackburn,Furthergate General Store,Retailers - other,4613,5,,211154,10,,53.74770100000000,103072,897,publicprotection@blackburn.gov.uk,Blackburn,http://www.blackburn.gov.uk,-2.45822500000000,BB1 1NT,2014-09-29,fhrs_3_en-GB,3,,FHRS,10
160590,,24 Cherry Street,,Blackburn,Furthergate Post Office,Retailers - supermarkets/hypermarkets,7840,,,211677,,,53.74790600000000,1684,897,publicprotection@blackburn.gov.uk,Blackburn,http://www.blackburn.gov.uk,-2.45872800000000,BB1 1NR,2014-03-07,fhrs_exempt_en-GB,Exempt,,FHRS,
