,businessname,ratingvalue,structural,hygiene,confidenceinmanagement,ratingdate,latitude,longitude
160214,21st Century Kidz,5,0,0,5,2014-06-30,53.770313,-2.477118
160215,4 Court Pharmacy,Exempt,nan,nan,nan,2014-07-08,53.743568,-2.491962
160216,A & S Catering/Travel/Valeting/Car Hire,Exempt,nan,nan,nan,2013-12-18,53.752377,-2.469347
160217,A & S Convenience,2,5,15,5,2011-11-09,53.69706,-2.458826
160218,A and B Catering Supplies,Exempt,nan,nan,nan,2014-09-18,53.756271,-2.534055
160219,A Quarter Of Limited,5,0,0,5,2014-11-25,53.733097,-2.443499
160220,A Sweet Retreat,Exempt,nan,nan,nan,,53.759862,-2.490089
160221,Acorn House,5,5,5,0,2014-09-29,53.767289,-2.475961
160222,Acorns Holiday Club,4,5,5,10,2014-07-01,53.729294,-2.525959
160223,Adams Newsagents,0,20,20,30,2013-05-09,53.76251,-2.472949
160224,Adams Off-Licence,3,5,10,10,2014-06-30,53.715094,-2.482887
160225,Adelphi Beer Emporium,2,15,5,10,2014-06-17,53.747375,-2.479542
160226,Adil Food Store,3,10,5,10,2014-01-21,53.751189,-2.492036
160227,AFC Darwen,Exempt,nan,nan,nan,2014-07-01,53.710216,-2.480028
160228,Aftabs,5,5,5,5,2014-05-14,53.735981,-2.483414
160229,Aharoni's,5,0,0,0,2013-09-12,53.748154,-2.482674
160230,AJK Fish & Chips,2,15,10,10,2014-04-09,53.749127,-2.492982
160231,Akash Indian Takeaway,4,5,10,5,2014-12-15,53.697904,-2.470558
160232,Akash Restaurant,5,nan,nan,nan,2014-11-20,53.697904,-2.470558
160233,Al Ameera Polish Mini Market,1,15,10,20,2014-05-15,53.744233,-2.491711
160234,Al Lazeez (H343 VWW),2,15,10,10,2013-08-15,53.756848,-2.683436
160235,Al Makkah Halal,4,10,5,5,2014-11-18,53.751953,-2.502903
160236,Aldi,5,0,0,0,2014-10-29,53.74982,-2.492748
160237,Aldi Store,5,5,5,5,2014-05-29,53.72862,-2.492045
160238,Alexander's,5,5,5,5,2014-03-01,53.703196,-2.475631
160239,Alexandra Hotel,2,15,10,10,2014-03-17,53.752474,-2.496555
160240,Alexandra Hotel,4,5,5,10,2014-09-26,53.700676,-2.476466
160241,Alfresco,3,10,10,10,2013-02-21,53.697406,-2.469129
160242,Ali Raj,3,10,10,10,2014-09-26,53.72723,-2.537301
160243,Almonds (@ Graham and Brown Ltd),5,0,0,5,2014-11-13,53.751161,-2.460674
160244,Almurshid Grocers,1,10,10,20,2014-04-11,53.744328,-2.463723
160245,Al-Syed Food Store,1,15,15,20,2014-09-04,53.751953,-2.502903
160246,Amalfi Lounge,5,5,5,5,2014-09-05,53.697406,-2.469129
160247,Aman's Convenience Store,4,5,5,10,2012-03-08,53.705364,-2.477488
160248,Amar's Chippery,2,10,15,10,2014-09-04,53.760951,-2.471854
160249,Anaz Restaurant,5,0,5,5,2015-01-23,53.698691,-2.471445
160250,Anchor Hotel,3,10,10,10,2014-09-16,53.711038,-2.48134
160251,Andrews Court Care Home,AwaitingInspection,nan,nan,nan,,53.728423,-2.500667
160252,Angela Chadwick,Exempt,nan,nan,nan,,53.705158,-2.434752
160253,Ann Summers,Exempt,nan,nan,nan,2014-03-17,53.749058,-2.483473
160254,Annex Cafe,3,10,5,10,2014-06-11,53.69593,-2.467446
160255,Ann's Fabulicious Cakes & Bakes,Exempt,nan,nan,nan,,53.693383,-2.43248
160256,Antonello's,AwaitingInspection,nan,nan,nan,,53.63858,-2.396679
160257,Anwar Halal Meats,2,15,5,10,2013-09-19,53.755111,-2.482527
160258,Apple Trees,5,5,5,0,2013-06-10,53.762587,-2.462544
160259,Aquamania Ltd,4,10,0,10,2014-10-29,53.747655,-2.474647
160260,Argos,Exempt,nan,nan,nan,2014-05-16,53.749472,-2.483296
160261,Argos,Exempt,nan,nan,nan,2014-05-14,,
160262,Armaans Restaurant,3,5,10,10,2014-10-29,53.74982,-2.492748
160263,Aroma,AwaitingInspection,nan,nan,nan,,53.746293,-2.482714
160264,ASDA,5,5,0,0,2014-01-10,53.696324,-2.467663
160265,Asda Stores Ltd,5,0,0,0,2014-09-24,53.739319,-2.477888
160266,Asghar Food Store,5,0,5,5,2014-08-20,53.74469,-2.46309
160267,Ashleigh  Primary School,5,5,0,0,2013-05-21,53.681627,-2.463563
160268,Ashtons Bakery,5,5,5,5,2014-11-12,53.727632,-2.498384
160269,Ashworth Nursery School,5,5,5,5,2012-04-04,53.747941,-2.495091
160270,Asia Continental,2,15,5,5,2014-06-30,53.755279,-2.476523
160271,Asim's Chippery & Curry House,4,10,5,5,2014-03-01,53.751953,-2.502903
160272,Astley Bank Hotel Ltd,5,0,0,0,2014-01-09,53.686116,-2.467035
160273,Aston Chemists,Exempt,nan,nan,nan,2014-10-10,53.748444,-2.454275
160274,Audley & Queens Pk Childrens Ctr,5,0,5,0,2014-06-17,53.744602,-2.460193
160275,Audley Junior School,5,0,0,0,2014-09-08,53.741762,-2.464801
160276,Audley News,4,10,5,5,2014-02-12,53.744965,-2.463881
160277,Audley Pound Centre,Exempt,nan,nan,nan,2012-01-13,53.744965,-2.463881
160278,Audley Range Post Office,Exempt,nan,nan,nan,2014-07-08,53.743579,-2.471387
160279,Audley W M C,5,5,5,5,2014-06-30,53.744965,-2.463881
160280,Avondale Primary School,5,5,0,0,2014-11-14,53.702107,-2.478345
160281,Azalea Foods Ltd,Exempt,nan,nan,nan,,53.761015,-2.457566
160282,B & M Stores,AwaitingInspection,nan,nan,nan,,53.749608,-2.482994
160283,B & M Stores,4,5,5,10,2014-02-19,53.743007,-2.47934
160284,B H S,Exempt,nan,nan,nan,2013-11-06,53.749058,-2.483473
160285,B&Q Cafe,5,5,5,0,2014-10-15,53.739944,-2.483535
160286,Bamboo House,AwaitingInspection,nan,nan,nan,,53.72168,-2.474627
160287,Bank Top Neighbourhood Learning Centre,Exempt,nan,nan,nan,2014-02-19,53.746707,-2.495729
160288,Bank Top Newsagents,5,0,5,5,2014-10-23,53.743171,-2.494398
160289,Bar Ibiza,4,5,5,10,2011-11-17,53.746818,-2.484024
160290,Barkat Cash & Carry Ltd,1,15,5,20,2014-02-27,53.759383,-2.468242
160291,Barlow Institute,Exempt,nan,nan,nan,2012-05-22,53.645188,-2.393322
160292,Barm Pots,3,10,10,5,2012-03-12,53.735773,-2.503195
160293,Barnabas House,5,5,0,0,2014-11-28,53.684843,-2.454696
160294,Barnes Bakery,4,5,10,5,2013-09-03,53.759879,-2.465441
160295,Baroque,3,10,10,10,2014-02-25,53.748476,-2.485135
160296,Bars Rest Bistro,5,0,0,5,2014-07-21,53.7519,-2.491892
160297,Barzooka,5,5,5,5,2012-04-17,53.751299,-2.482726
160298,Basnetts of Darwen Ltd,Exempt,nan,nan,nan,2013-08-05,53.697152,-2.465248
160299,Bastwell Bargain Store,5,0,5,0,2012-04-03,53.7573,-2.472284
160300,Bastwell Curry Centre,1,15,10,20,2014-11-12,53.757581,-2.471559
160301,Bastwell News,3,10,5,10,2013-07-04,53.7573,-2.472284
160302,Bastwell Pharmacy,Exempt,nan,nan,nan,2013-02-14,53.7573,-2.472284
160303,Beacon Centre Cafe Bar,5,5,0,5,2014-10-22,53.748081,-2.489482
160304,Beardwood Hospital,5,5,0,5,2013-02-12,53.755145,-2.513285
160305,Bedfords Cooked Meats,5,0,5,5,2013-09-02,53.748154,-2.482674
160306,Beechwood Club,4,5,10,5,2014-06-30,53.756763,-2.467075
160307,Beechwood Garden Centre,5,5,5,5,2014-12-05,53.726879,-2.464455
160308,Beehive Inn,5,5,5,5,2014-08-12,53.732687,-2.520711
160309,Beehive Service Station/Spar,5,5,0,0,2012-01-06,53.730967,-2.450676
160310,Belgrave Live Music Bar,5,5,0,5,2014-10-28,53.693178,-2.470005
160311,Belgrave Off Licence & Groceries,5,0,0,0,2013-09-09,53.693178,-2.470005
160312,Bells Pantry,3,5,10,10,2014-01-16,53.701637,-2.474311
160313,Belmont Bull Hotel,5,5,5,5,2014-12-01,53.640755,-2.495453
160314,Belmont Primary School,5,5,5,5,2014-11-25,53.640347,-2.496386
160315,Beltbusters,3,10,10,10,2013-07-09,53.747987,-2.454119
160316,Bespoke Cakes & Chocolates,5,0,0,5,2013-09-23,53.760958,-2.509579
160317,Best 4 Less,2,10,15,10,2014-02-19,53.743582,-2.465852
160318,Best One,1,5,5,20,2014-02-07,53.69706,-2.458826
160319,Bestway Cash & Carry Ltd,Exempt,nan,nan,nan,2014-12-01,53.713686,-2.466158
160320,Big Baps,5,5,5,5,2014-12-09,53.703196,-2.475631
160321,Big Bites,3,10,10,10,2013-12-16,53.694757,-2.466358
160322,Bilash Balti,4,5,10,5,2013-12-16,53.703196,-2.475631
160323,Billy Bunters,5,5,0,0,2014-12-01,53.748637,-2.467319
160324,Bios Naturecure Clinic,Exempt,nan,nan,nan,2014-12-17,53.746293,-2.482714
160325,Birch Hall Nursing Home,5,5,5,5,2013-10-31,53.710732,-2.485897
160326,Birchfield,5,5,0,0,2014-03-24,53.749251,-2.508573
160327,Birdy's,AwaitingInspection,nan,nan,nan,,53.751953,-2.502903
160328,Biscuit Barrell Cafe,4,5,5,10,2014-07-14,53.695454,-2.467229
160329,Bismillah Halal Meat Centre,2,10,15,10,2014-02-19,53.743582,-2.465852
160330,Black Bull,3,5,10,10,2014-01-16,53.642255,-2.397031
160331,Black Dog Inn,4,10,5,5,2014-02-08,53.637721,-2.494464
160332,Black Horse Hotel,3,10,5,10,2013-10-02,53.692683,-2.463306
160333,Blackamoor Inn,5,5,0,5,2014-11-25,53.72309,-2.461125
160334,Blackburn & District Supported Housing,4,5,5,10,2014-02-11,53.734638,-2.503894
160335,Blackburn Central High School,5,0,0,5,2013-03-13,53.735668,-2.452985
160336,Blackburn Community Church/Funky Footprints,4,5,5,10,2013-04-30,53.745884,-2.483801
160337,Blackburn Community Fire Station,4,5,5,10,2014-02-17,53.743112,-2.487029
160338,Blackburn Food Bank,5,0,0,5,2012-12-31,53.743671,-2.490932
160339,Blackburn Ice Arena,5,5,5,0,2014-12-15,53.742428,-2.478288
160340,Blackburn Masonic Hall,4,5,5,10,2013-10-08,53.750463,-2.485082
160341,Blackburn News,4,5,5,10,2014-02-19,53.746732,-2.483007
160342,Blackburn News Centre,5,0,5,5,2012-04-30,53.749173,-2.481746
160343,Blackburn Northern,5,5,5,5,2013-07-07,53.767587,-2.486827
160344,Blackburn Rovers Football Club (Blues Bar/Kiosks),5,0,0,0,2013-06-18,53.727787,-2.489201
160345,Blackburn Rovers/The Brew Room,5,5,0,0,2013-02-20,53.747888,-2.481686
160346,Blackburn RUFC,4,5,5,10,2014-02-27,53.771349,-2.487872
160347,Blackburn Service Station (Shell),5,5,5,5,2012-04-04,53.743568,-2.491962
160348,Blackburn Sweets Company,Exempt,nan,nan,nan,2013-10-16,53.744575,-2.464893
160349,Blackburn Youth Zone,5,0,5,5,2015-01-07,53.746035,-2.481892
160350,Blakewater Lodge Home for Eld.,4,5,10,5,2014-11-05,53.752083,-2.477776
160351,Blakey Moor Newsagents,4,5,5,10,2013-11-11,53.748652,-2.486001
160352,Bob Inn,4,10,5,5,2014-02-06,53.697904,-2.470558
160353,Bolton Road Off Licence,3,10,5,10,2014-02-19,53.739834,-2.486202
160354,Bolton Road Post Office,Exempt,nan,nan,nan,2014-02-12,53.684091,-2.460759
160355,Bolton Road Service Station,5,5,5,5,2013-02-13,53.686267,-2.462872
160356,Bolton Sailing Club c/o  Rear Commodore,5,5,5,5,2014-07-28,53.645308,-2.496474
160357,Booker Cash And Carry,Exempt,nan,nan,nan,2012-06-25,53.737348,-2.500606
160358,Boots Pharmacy,Exempt,nan,nan,nan,2013-02-26,53.747525,-2.450156
160359,Boots The Chemist,Exempt,nan,nan,nan,2013-12-04,53.74391,-2.469465
160360,Boots the Chemist,5,0,0,0,2013-11-08,53.749178,-2.482686
160361,Boots The Chemist,Exempt,nan,nan,nan,2014-07-11,53.696207,-2.467934
160362,Boots The Chemist Ltd,Exempt,nan,nan,nan,2012-05-02,53.742602,-2.482004
160363,Booze Brothers,4,0,5,10,2012-09-06,53.701637,-2.474311
160364,Bowlplex,Exempt,nan,nan,nan,2013-06-05,53.744601,-2.478645
160365,Bradley's Sandwich Bar,4,10,0,5,2014-07-02,53.746293,-2.482714
160366,Branch Court Care Home,5,5,5,5,2014-10-29,53.728423,-2.500667
160367,Brenda/Terence Kennedy,Exempt,nan,nan,nan,2010-05-28,53.749891,-2.50391
160368,Bridge Cafe,5,0,0,0,2013-07-29,53.694757,-2.466358
160369,Bridge St Sports & Social Club,5,5,5,5,2012-04-25,53.694676,-2.46616
160370,Bridgewater Court,5,5,5,5,2011-09-14,53.743433,-2.500557
160371,Bright Blue Foods Ltd,Exempt,nan,nan,nan,2014-11-18,53.73397,-2.447934
160372,Britain News Ltd,5,0,0,0,2010-05-28,53.747525,-2.450156
160373,British Queen,5,5,5,5,2013-06-18,53.700036,-2.472278
160374,Brookhouse Primary School (LCC),5,5,0,5,2014-10-24,53.758635,-2.47559
160375,Brown Cow Inn,5,5,5,5,2013-05-20,53.726646,-2.51268
160376,Brownhill Arms,5,5,5,5,2012-11-26,53.775249,-2.479222
160377,Brownhill Chippy,1,10,15,20,2014-08-06,53.775249,-2.479222
160378,Brownhill Pharmacy,Exempt,nan,nan,nan,2012-04-18,53.778822,-2.477973
160379,Brunch,5,0,5,0,2013-08-13,53.734085,-2.502856
160380,Brunel Nursery School,5,0,0,0,2012-05-29,53.745534,-2.472288
160381,Bryan Street Chippy,4,10,0,5,2013-12-19,53.735409,-2.484787
160382,BT Division Eurest Catering,5,0,0,5,2014-12-05,53.746035,-2.481892
160383,Bubbas Butty Bar,AwaitingInspection,nan,nan,nan,,53.745791,-2.459508
160384,Bulls Head,4,10,5,5,2012-09-12,53.742342,-2.503577
160385,Bull's Head,2,15,10,10,2014-02-27,53.756318,-2.455486
160386,Burger King,5,0,0,5,2014-12-16,53.743008,-2.47934
160387,Burnley Road Fish and Chips,5,5,5,5,2014-02-27,53.75243,-2.448434
160388,Butler's Cafe,5,5,5,5,2015-01-28,53.748154,-2.482674
160389,Buxtons Bakery,4,10,5,5,2014-11-28,53.694757,-2.466358
160390,C B Halal Meats & Poultry,Exempt,nan,nan,nan,2010-05-11,53.751572,-2.497318
160391,Caesars Pizza Place,2,15,10,10,2014-12-03,53.749182,-2.486113
160392,Cafe,4,5,5,10,2014-03-06,53.726234,-2.452202
160393,Cafe Hub,5,0,5,5,2013-09-25,,
160394,Cafe in The Crypt,4,5,10,5,2013-09-06,53.747023,-2.48207
160395,Cafe Lush,5,5,5,5,2014-09-10,53.697152,-2.465248
160396,Cafe Mist,2,15,10,10,2014-01-08,53.751294,-2.488382
160397,Cafe Nuovo,5,5,5,5,2013-12-20,53.736631,-2.466822
160398,Cafe Pausa,5,0,0,0,2015-02-05,53.744117,-2.480687
160399,Candy Box,5,5,0,5,2014-02-06,53.693795,-2.466302
160400,Candy Rush,5,5,5,5,2014-02-07,53.695454,-2.467229
160401,Candyland,5,5,5,5,2014-02-11,53.743171,-2.494398
160402,Candy's Cafe,4,nan,nan,nan,2014-12-12,53.697767,-2.461847
160403,Card Factory,Exempt,nan,nan,nan,,53.748837,-2.482576
160404,Card Factory,Exempt,nan,nan,nan,2014-06-17,53.748293,-2.479355
160405,Care 4 Kids,5,5,0,0,2013-09-20,53.740007,-2.496559
160406,Carla's,5,5,5,5,2014-09-09,53.69566,-2.458205
160407,Carolines Celebration Cakes,5,5,5,5,2014-09-18,53.76251,-2.472949
160408,Carter & Booth,1,0,10,20,2013-12-18,53.695454,-2.467229
160409,Cedar Food Store,3,5,10,10,2014-09-03,53.758813,-2.471573
160410,Cedars Infant School (Self Managed),5,0,0,0,2013-09-13,53.762347,-2.475556
160411,Celebration Cakes,5,5,5,5,2012-11-06,53.700036,-2.472278
160412,Cellar Bar,2,15,5,10,2012-08-08,53.746386,-2.486293
160413,Central United Reformed Church,Exempt,nan,nan,nan,2015-01-21,53.700036,-2.472278
160414,Chaks Bar-Bq,2,15,15,10,2015-01-06,53.748637,-2.467319
160415,Chapel Stores Off Licence,3,10,5,10,2014-11-28,53.701495,-2.464766
160416,Charcoal Cuisine,5,0,0,0,2014-05-07,53.74982,-2.492748
160417,Cheaper Market,4,5,5,10,2014-01-28,53.731531,-2.47445
160418,Cherry Blossom Bakery,Exempt,nan,nan,nan,2013-10-31,53.773013,-2.478484
160419,Cherry Lodge,5,5,5,5,2014-08-08,53.742517,-2.485202
160420,Cherry Tree Chippy,5,5,0,5,2013-03-21,53.732687,-2.520711
160421,Cherry Tree Cricket and Tennis Club,5,5,5,5,2013-06-12,53.730135,-2.524742
160422,Chester Street Stores,5,5,5,5,2014-12-03,53.747229,-2.471185
160423,Chesters,4,10,5,5,2014-07-04,53.748637,-2.467319
160424,Chetham Arms,2,15,10,10,2015-01-13,53.637161,-2.404439
160425,Chilli Red,AwaitingInspection,nan,nan,nan,,53.701637,-2.474311
160426,Chimneys Guest House,5,0,0,0,2014-12-05,53.75066,-2.49623
160427,China Wok,3,10,10,5,2014-12-02,53.739834,-2.486202
160428,Chiquito's,5,5,5,0,2014-12-16,53.743008,-2.47934
160429,Chocolat by Daniel Coletta,AwaitingInspection,nan,nan,nan,,53.750979,-2.481888
160430,Chopsticks,3,10,5,10,2013-06-03,53.729212,-2.496826
160431,Chopstix Noodle Bar,5,0,5,5,2014-06-16,53.713635,-2.481552
160432,Christine/Damian Davies,Exempt,nan,nan,nan,2010-10-06,53.703223,-2.47342
160433,Chung's Intack Chippy,3,10,10,5,2013-11-27,53.747711,-2.446155
160434,Chunky Chicken,3,10,5,10,2014-02-20,53.7538,-2.480009
160435,Chunky Chicken,0,25,10,5,2014-09-02,53.7538,-2.480009
160436,Cinnamon,4,10,5,5,2013-02-20,53.751131,-2.482147
160437,Civic Catering - Blackburn with Darwen,5,0,0,0,2013-09-05,53.749938,-2.483817
160438,CJ'S,4,10,5,5,2013-11-18,53.695809,-2.468399
160439,Clifton Arms,5,5,5,5,2013-06-10,53.739319,-2.477888
160440,Clifton Lawns,5,5,0,5,2014-10-02,53.707702,-2.479439
160441,Clog & Billycock,3,10,10,5,2014-06-18,53.749877,-2.529886
160442,Clough Head Farm,5,0,5,5,2014-11-19,53.684761,-2.385681
160443,Coach House Nursery,5,5,0,5,2015-02-04,53.75528,-2.491841
160444,Cod Father Express,4,5,5,10,2015-01-13,53.700036,-2.472278
160445,Coffees To Go,5,5,5,5,2014-02-20,53.725362,-2.473062
160446,Cohens Chemist,Exempt,nan,nan,nan,2014-12-03,53.75473,-2.478989
160447,Cohens Chemist,Exempt,nan,nan,nan,2013-11-15,53.767289,-2.475961
160448,Co-Op (formerly Livesey Service Station),5,5,5,5,2012-11-14,53.7282,-2.504559
160449,CO-OP Lateshop Brownhill,4,10,5,0,2012-11-06,53.775249,-2.479222
160450,CO-OP Lateshop Hollins Grove,5,5,0,0,2014-10-21,53.705819,-2.478327
160451,Co-op Pharmacy,Exempt,nan,nan,nan,2013-11-27,53.746421,-2.493163
160452,Coral,Exempt,nan,nan,nan,2014-01-24,53.748109,-2.480445
160453,Coral,Exempt,nan,nan,nan,2012-05-24,53.735915,-2.486248
160454,Corner Convenience Store,4,0,5,10,2014-07-31,53.747743,-2.486445
160455,Costa,5,5,5,0,2014-12-01,,
160456,Costa Coffee,5,5,0,0,2014-12-09,53.749178,-2.482686
160457,Costa Coffee,5,5,5,5,2015-01-05,53.713635,-2.481552
160458,Courtyard Cafe,5,5,5,5,2014-10-22,53.748081,-2.489482
160459,Craven Heifer,3,10,5,10,2014-02-08,53.690781,-2.448293
160460,Crown & Thistle Inn,2,15,15,10,2014-09-09,53.679102,-2.427126
160461,Crown Paints,5,5,0,0,2013-10-15,53.695019,-2.468224
160462,Crown Paints Sports & Social,5,5,5,5,2012-06-18,53.711151,-2.47766
160463,Crunchy Plus,AwaitingInspection,nan,nan,nan,,53.696269,-2.465738
160464,Cube,3,10,5,10,2013-11-18,53.74666,-2.483036
160465,Culinary Art,Exempt,nan,nan,nan,,53.702246,-2.461169
160466,Cupcakes Galore,5,0,0,0,2013-08-13,53.691473,-2.460158
160467,Curry Palace,3,10,10,5,2014-08-13,53.697152,-2.465248
160468,Curve Restaurant,5,5,0,0,2013-07-16,53.748081,-2.489482
160469,Cutchi Muslim Association,Exempt,nan,nan,nan,2009-05-18,53.747332,-2.462967
160470,D & D Gee,5,5,5,5,2012-04-18,53.69593,-2.467446
160471,D A P A Centre,4,5,5,10,2013-06-25,53.749221,-2.474179
160472,D And C Leaver Bakers,5,5,5,5,2014-08-05,53.726876,-2.490054
160473,D Whitehead,5,5,5,5,2014-12-02,53.647873,-2.394149
160474,Dahna Lounge,2,15,5,10,2014-02-25,53.74787,-2.486022
160475,Daisyfield Pools,Exempt,nan,nan,nan,2013-06-06,53.754077,-2.471353
160476,Daisyfield Primary School,5,5,5,0,2014-12-05,53.75588,-2.46523
160477,Dales & Co Fine Foods,3,5,10,10,2014-09-03,53.748154,-2.482674
160478,Daniel Thwaites Distribution Centre,Exempt,nan,nan,nan,2012-10-02,53.73397,-2.447934
160479,Daniel Thwaites Plc,Exempt,nan,nan,nan,2012-11-05,53.749309,-2.479261
160480,Darwen (HCC) Ltd,Exempt,nan,nan,nan,2013-02-13,53.695725,-2.471457
160481,Darwen Aldridge Community Academy,5,5,5,5,2013-11-13,53.694346,-2.465626
160482,Darwen Aldridge Enterprise Studio,5,0,0,0,2015-01-12,,
160483,Darwen Catholic Club,5,5,5,5,2014-05-15,53.696561,-2.469149
160484,Darwen Childrens Centre,5,5,0,0,2014-11-28,53.700295,-2.46598
160485,Darwen Childrens Centre,5,0,0,0,2011-09-08,53.702308,-2.463654
160486,Darwen Cricket Club,5,5,5,5,2014-08-20,53.709647,-2.485233
160487,Darwen Deli Cakes,4,5,5,10,2014-02-06,53.703196,-2.475631
160488,Darwen Fire Station,5,5,5,5,2012-04-03,53.696896,-2.468547
160489,Darwen Golf Club,2,15,5,5,2014-12-03,53.705891,-2.493658
160490,Darwen Home Brewing,Exempt,nan,nan,nan,2014-02-07,53.694676,-2.46616
160491,Darwen Leisure Centre Cafe,AwaitingInspection,nan,nan,nan,,53.695734,-2.469322
160492,Darwen Library Theatre,5,0,0,0,2013-05-20,53.696825,-2.466184
160493,Darwen Masonic Hall,5,nan,nan,nan,2015-02-09,53.707257,-2.480585
160494,Darwen Subs Bowling Club,5,5,5,5,2013-08-07,53.70121,-2.457068
160495,Darwen Vale High School,5,5,0,0,2013-04-22,,
160496,Darwen Valley Community Centre,4,0,0,10,2011-01-17,53.69706,-2.458826
160497,Daulah Diner,4,10,5,5,2014-12-08,53.759862,-2.490089
160498,Debenhams,5,5,0,0,2014-02-17,53.766009,-2.507653
160499,Delawala Grocers,5,5,5,5,2013-09-06,53.756182,-2.479945
160500,Deli Carlo,5,0,5,5,2014-10-17,53.69593,-2.467446
160501,Deli Licious,5,5,5,5,2014-12-08,53.740647,-2.506862
160502,Derwent Hall,5,5,5,5,2014-08-11,53.698782,-2.469068
160503,Desi Lunch,AwaitingInspection,nan,nan,nan,,53.751299,-2.482726
160504,Desi Taste,5,5,0,0,2011-10-04,53.743497,-2.471492
160505,Devonport Road Store,5,5,5,5,2014-09-15,53.749013,-2.496742
160506,Dhorat's Newsagents,4,5,5,10,2014-10-27,53.741762,-2.464801
160507,Dial a Curry,5,5,5,5,2014-03-12,53.760951,-2.471854
160508,Dinky Diner,5,5,5,5,2015-01-29,53.75755,-2.355634
160509,Ditsch,5,0,5,0,2014-12-09,53.749608,-2.482994
160510,Dixon House,5,5,5,5,2014-12-08,53.749251,-2.508573
160511,Dixon's Newsagents,3,5,10,10,2014-07-23,53.697406,-2.469129
160512,Dixy Chicken,2,5,15,10,2013-12-19,53.757581,-2.471559
160513,Dixy Chicken,1,15,15,20,2014-12-30,53.746293,-2.482714
160514,Dixyland Chicken & Ribs,4,10,5,5,2014-02-08,53.703196,-2.475631
160515,Dolly's Tea Room,5,0,0,0,2015-01-23,53.685756,-2.462549
160516,Domino's Pizza,AwaitingInspection,nan,nan,nan,,,
160517,Don Luca,4,5,5,10,2014-08-01,53.749693,-2.499585
160518,Donner Express,3,10,5,10,2014-02-19,53.748637,-2.467319
160519,Don't Walk Pasta Bar,AwaitingInspection,nan,nan,nan,,53.748154,-2.482674
160520,DW Sports Fitness,Exempt,nan,nan,nan,2014-07-04,53.72747,-2.446183
160521,DY's Mobile Catering,4,10,0,0,2012-02-15,53.554801,-2.191573
160522,Earcroft Childrens Centre,5,0,5,5,2012-06-18,53.710135,-2.482345
160523,East Lake News,3,10,5,10,2013-08-06,53.750635,-2.486858
160524,East Lancashire Cricket Club,5,5,5,5,2012-04-04,53.754763,-2.503619
160525,East Lancashire Hospice,5,0,5,0,2014-01-07,53.734018,-2.479829
160526,East Rural Youth and Community Association,Exempt,nan,nan,nan,2013-07-04,53.695608,-2.431155
160527,Eastern Delight,4,10,5,5,2014-04-15,53.7573,-2.472284
160528,Eastern Spice,3,10,10,5,2014-11-12,53.743454,-2.493416
160529,Easton Butcher,4,5,10,5,2014-12-05,53.775249,-2.479222
160530,Edgworth Cricket Club,3,10,10,10,2014-11-12,53.645188,-2.393322
160531,Edgworth Stores & Post Office Ltd,5,5,5,5,2014-01-28,53.648278,-2.394077
160532,Edmund Street Off Licence,1,15,15,20,2014-04-29,53.69479,-2.460103
160533,Ed's Easy Diner,AwaitingInspection,nan,nan,nan,,53.749178,-2.482686
160534,Eileens Corner Shop,5,5,5,5,2014-06-11,53.728841,-2.528803
160535,El Greco,4,5,5,10,2013-02-20,53.747888,-2.481686
160536,Elin Distribution Ltd,Exempt,nan,nan,nan,2014-05-19,53.744063,-2.494045
160537,Empire Fish & Chips,5,nan,nan,nan,2015-02-10,53.748444,-2.454275
160538,Enchanting Cakes,AwaitingInspection,nan,nan,nan,,53.694676,-2.46616
160539,Engineers Arms,4,10,5,5,2014-06-25,53.701637,-2.474311
160540,Enjoy,5,5,5,5,2014-02-12,53.729212,-2.496826
160541,Entwistle Hotel,4,10,0,10,2012-08-24,53.695729,-2.463688
160542,eQuit.it,5,0,0,0,2014-06-17,53.745513,-2.482098
160543,Eresso,3,10,10,5,2014-09-24,53.749178,-2.482686
160544,Esham Stores,5,5,5,5,2012-08-06,53.748419,-2.498949
160545,Everest Pharmacy,Exempt,nan,nan,nan,2015-01-05,53.679177,-2.457738
160546,Everlasting Moments Ltd,5,0,5,5,2013-11-11,53.755331,-2.477039
160547,Ewood Butty Box,AwaitingInspection,nan,nan,nan,,53.728418,-2.490906
160548,Ewood Corner Shop,4,5,5,10,2014-07-22,53.732985,-2.490747
160549,Ewood Newsagents,4,5,5,10,2012-05-22,53.728418,-2.490906
160550,Ewood Park Working Mens Club,4,10,5,5,2013-07-17,53.728373,-2.490875
160551,Ewood PFS (Petrol Filling Station),5,5,0,5,2014-09-09,53.722221,-2.485423
160552,Ewood Sandwich Bar,2,15,10,10,2013-06-27,53.726876,-2.490054
160553,Exchange Coffee,5,5,5,0,2013-06-18,53.748154,-2.482674
160554,Exchange Coffee Company,5,5,5,5,2014-02-14,53.747285,-2.483984
160555,Faisal Adil Convenience Store,2,15,5,10,2014-02-12,53.725469,-2.499844
160556,Fareed Take-A-Way,4,nan,nan,nan,2014-12-08,53.746144,-2.458951
160557,Farm Foods,5,5,5,5,2014-06-17,53.746386,-2.486293
160558,Feildens Arms,5,5,5,5,2014-09-09,53.727109,-2.536163
160559,Feniscowles and Pleasington Sports And Social Club mail to other addr),5,0,0,0,2014-08-20,53.72325,-2.534871
160560,Feniscowles Convenience Store & Post Office,4,5,5,10,2014-06-30,53.72723,-2.537301
160561,Feniscowles Infant School,5,5,0,0,2015-01-27,53.726244,-2.536788
160562,Feniscowles Methodist Church,Exempt,nan,nan,nan,2013-10-01,53.727109,-2.536163
160563,Fernbank Nursery Ltd,5,0,5,5,2012-11-22,53.766655,-2.497102
160564,Fernhurst Court Nursery,5,0,0,0,2014-03-06,53.721844,-2.49189
160565,Festive Catering,5,0,0,5,2014-06-11,53.761408,-2.51773
160566,Firdos Cash & Carry,3,10,10,10,2013-12-17,53.753015,-2.485233
160567,Firoza Ices,3,10,5,10,2014-07-23,53.740846,-2.469233
160568,Fish & Chip Shop,2,15,10,10,2014-03-03,53.729342,-2.482474
160569,Five Star Meats,4,5,5,10,2013-10-25,53.742342,-2.503577
160570,Flavours,5,5,5,5,2014-05-07,53.727758,-2.519544
160571,Florence House Res Care Home,5,0,5,0,2011-06-16,53.755204,-2.468044
160572,Florries Tearoom,4,5,5,10,2012-07-05,53.645188,-2.393322
160573,Food 4 Dooz,5,5,5,5,2015-01-29,53.698624,-2.465795
160574,Food by Angela,3,10,10,5,2013-07-24,53.758731,-2.460165
160575,Food Rangers,5,nan,nan,nan,2014-06-03,53.693131,-2.435067
160576,Foresters Arms,4,5,5,10,2012-03-09,53.746579,-2.448372
160577,Fosse Bank House,5,5,5,0,2012-08-10,53.726026,-2.466431
160578,Fountain Chippy,4,10,0,0,2014-12-05,53.747525,-2.450156
160579,Fox And Hounds,5,5,5,5,2012-07-13,53.730008,-2.493243
160580,Fox's Sandwich Deli,2,10,15,10,2013-11-11,53.758462,-2.489421
160581,Franciscan Convent,5,0,0,0,2014-09-25,53.756175,-2.492595
160582,Francos Dessert Bar & Lounge,AwaitingInspection,nan,nan,nan,,53.696365,-2.468844
160583,Frankie & Benny's Restaurant,5,5,5,0,2014-06-11,53.743008,-2.47934
160584,Freddy's Chicken,5,5,5,5,2013-12-20,53.744234,-2.491712
160585,Fresh Fish 4 U,5,5,5,5,2014-03-04,53.756451,-2.46187
160586,Friar Rugg`s,3,10,5,10,2014-12-12,53.694757,-2.466358
160587,Friends Corner,5,5,0,0,2013-03-04,53.761258,-2.464471
160588,Funky Fried Chicken,3,5,10,10,2014-02-25,53.767289,-2.475961
160589,Furthergate General Store,3,10,10,5,2014-09-29,53.747701,-2.458225
160590,Furthergate Post Office,Exempt,nan,nan,nan,2014-03-07,53.747906,-2.458728
160591,Furthergate Service Station,5,5,5,0,2012-02-03,53.749789,-2.45984
160592,Gala Bingo,5,5,0,0,2015-02-09,53.750698,-2.480201
160593,Galaxy News,3,5,10,10,2014-03-18,53.746293,-2.482714
160594,Game,Exempt,nan,nan,nan,,53.749058,-2.483473
160595,Garden Village Store,1,10,5,20,2014-02-13,53.686397,-2.454894
160596,Gazal Sweets & Restaurant Ltd (Maida),4,10,5,5,2013-10-23,53.749221,-2.474179
160597,Geloo Brothers Chemist,Exempt,nan,nan,nan,2014-10-27,53.696896,-2.468547
160598,Geloo Brothers Chemist,Exempt,nan,nan,nan,2013-11-06,53.732717,-2.501188
160599,Geo Superstore,1,10,10,20,2013-11-19,53.73976,-2.473436
160600,Get Stuffed,4,10,5,5,2014-03-18,53.747711,-2.446155
160601,Ghiwala Self Serve,3,5,10,10,2013-12-02,53.743973,-2.466994
160602,Gill Off Licence,5,5,5,0,2013-03-08,53.755892,-2.466868
160603,Gilly's Sandwich Bar,5,5,0,0,2013-03-04,53.69593,-2.467446
160604,Ginger Muffin,5,5,5,5,2014-03-05,53.750367,-2.486461
160605,Godfather,5,5,5,5,2014-02-27,53.748652,-2.486001
160606,Godfather Pizza House,5,5,5,5,2014-02-20,53.697406,-2.469129
160607,Golden Cup Inn,5,5,5,5,2014-07-31,53.714276,-2.482907
160608,Golden Grill,5,5,5,5,2014-12-15,53.695809,-2.468399
160609,Golden Ocean,5,5,5,5,2014-02-08,53.705364,-2.477488
160610,Goodfella's Takeaway,3,10,10,10,2013-12-17,53.749498,-2.496778
160611,Grace Community Church,Exempt,nan,nan,nan,2014-09-03,53.745885,-2.498979
160612,Grafters,4,10,5,5,2014-06-11,53.715102,-2.476568
160613,Granville Road Pharmacy,Exempt,nan,nan,nan,2013-11-11,53.752654,-2.500925
160614,Great British Burger Co,AwaitingInspection,nan,nan,nan,,,
160615,Great Village Restaurant,5,5,5,5,2014-10-15,53.727758,-2.519544
160616,Green Lane Mini Market,5,5,5,5,2014-09-15,53.716737,-2.482496
160617,Greenfield Community Centre,5,5,0,0,2013-12-19,53.729523,-2.514488
160618,Greenfield Inn,5,5,5,5,2007-12-19,53.685058,-2.449928
160619,Greenhalghs Craft Bakery Ltd,5,0,0,0,2012-03-09,53.696207,-2.467934
160620,Greens,4,0,5,10,2013-10-23,53.748154,-2.482674
160621,Greens Baker,4,10,5,0,2014-12-16,53.735702,-2.48573
160622,Greenview Nursery,5,5,5,5,2014-02-11,53.729523,-2.514488
160623,Greggs,5,5,0,0,2014-12-19,53.749058,-2.483473
160624,Greggs,5,0,5,0,2014-11-11,53.713635,-2.481552
160625,Greggs,5,0,5,0,2014-02-22,53.730681,-2.452583
160626,Greggs Bakers,5,5,0,0,2014-12-09,53.749608,-2.482994
160627,Greggs Bakers,5,0,0,0,2013-10-23,53.696207,-2.467934
160628,Griffin Park Primary School,5,5,0,0,2013-02-25,53.740726,-2.503072
160629,Griller,5,5,5,5,2014-10-30,53.752977,-2.481107
160630,Grillish,2,10,15,5,2014-07-09,53.749127,-2.492982
160631,Grimshaw Park Service Station,5,0,0,0,2014-10-10,53.739319,-2.477888
160632,Guide Conservative Club,5,0,0,0,2014-07-08,53.728951,-2.444092
160633,Guide Post Office,Exempt,nan,nan,nan,2014-02-28,53.728584,-2.448499
160634,Guide Village Restaurant,2,15,10,10,2014-07-25,53.728951,-2.444092
160635,Hafeji's Food Store,1,10,15,20,2014-02-13,53.747903,-2.49782
160636,Haidari Foodstore,4,5,5,10,2014-10-27,53.756658,-2.488869
160637,Haji's Halal Meat,5,0,0,5,2013-03-07,53.760964,-2.475434
160638,Hajis Takeaway,2,15,15,10,2014-10-27,53.75773,-2.472743
160639,Hake Boat,4,5,0,10,2013-11-08,53.748109,-2.480445
160640,Hamilton Arms,4,10,5,5,2011-07-18,53.737229,-2.494586
160641,Hamilton's,5,5,5,5,2012-04-03,53.758462,-2.489421
160642,Hamza Takeaway,3,10,10,10,2014-02-19,53.743582,-2.465852
160643,Hancock Street Children's Centre,5,5,5,5,2014-06-17,53.739816,-2.495087
160644,Hannah Alam Superstore,3,10,5,10,2014-01-14,53.749479,-2.501159
160645,Hanna's Convenience Store,4,5,10,5,2013-06-18,53.735682,-2.483926
160646,Hanslod News,4,5,5,10,2014-02-03,53.754266,-2.506419
160647,Hardeez Chicken,5,5,5,5,2014-02-19,53.748637,-2.467319
160648,Hardings Bakery,2,15,10,5,2014-11-12,53.73722,-2.503258
160649,Hare And Hounds Hotel,4,10,5,5,2012-09-25,53.76511,-2.496825
160650,Harry's,3,5,10,10,2014-09-04,53.749127,-2.492982
160651,Haslingden Road General Store,4,10,10,0,2012-09-24,53.738805,-2.473956
160652,Havelock Inn,3,5,10,10,2014-07-11,53.737545,-2.496394
160653,Haweli Restaurant & Takeaway,5,5,5,5,2014-03-12,53.74859,-2.470184
160654,Hawkhurst,5,5,0,5,2014-07-11,53.756074,-2.49094
160655,Hawthorns County Junior School,5,0,5,0,2013-03-04,53.759549,-2.483063
160656,Herbert Parkinson Ltd,5,5,0,0,2013-08-08,53.70897,-2.48371
160657,Higher Bank Residential Home,5,5,5,5,2013-06-18,53.752258,-2.496522
160658,Higher Croft Childrens Centre,5,0,5,5,2014-01-10,53.728448,-2.472203
160659,Higher Ravenswing,4,10,5,5,2014-01-28,53.756832,-2.501202
160660,Higher Witton Newsagents,5,0,0,0,2013-02-13,53.744609,-2.507334
160661,Hill View Hotel,4,5,5,10,2014-09-08,53.750972,-2.496795
160662,Hindle Arms,5,5,5,5,2013-06-12,53.722827,-2.470791
160663,Hings Chippy,2,15,5,5,2014-12-17,53.693795,-2.466302
160664,Hoddlesden Conservative Club,5,5,5,5,2012-05-25,53.696049,-2.433386
160665,Hoddlesden Village Chip Shop,5,5,5,5,2014-02-21,53.696209,-2.431479
160666,Hoddlesden Village Stores & Post Office,5,5,5,5,2014-02-21,53.696209,-2.431479
160667,Holdens Edgworth Ltd,Exempt,nan,nan,nan,2014-12-02,53.647873,-2.394149
160668,Holdens Ice Cream,5,5,5,5,2013-11-25,53.647873,-2.394149
160669,Hole I'th Wall,4,5,5,10,2014-11-12,53.759468,-2.487582
160670,Holland & Barrett,5,5,5,5,2012-10-19,53.749178,-2.482686
160671,Hollin Bridge Store,3,5,10,10,2013-12-02,53.736062,-2.494269
160672,Hollins Grove Conservative Club,4,5,10,5,2013-06-20,53.703749,-2.476652
160673,Holly Street Stores,4,10,5,5,2014-08-07,53.761077,-2.474146
160674,Holly Tree Fish & Chips,5,5,0,0,2013-09-23,53.727758,-2.519544
160675,Holly Tree Pizza House,2,15,10,10,2014-09-17,53.727758,-2.519544
160676,Hollymount,5,5,5,0,2014-06-03,53.752738,-2.493555
160677,Hollytree Childcare,Exempt,nan,nan,nan,,53.728267,-2.520308
160678,Holy Souls R C Primary School (LCC),5,0,5,0,2014-11-06,53.770229,-2.484748
160679,Holy Trinity C of E School,5,0,0,0,2013-03-05,53.694871,-2.469388
160680,Hong Kong Kitchen,1,10,20,20,2014-05-20,53.734085,-2.502856
160681,Hopstar Brewery,Exempt,nan,nan,nan,2015-01-21,53.690781,-2.448293
160682,Hopstar Brewery,Exempt,nan,nan,nan,2012-03-08,53.6857,-2.45849
160683,Hopstar Brewery Tap,5,5,5,5,2014-02-07,53.694676,-2.46616
160684,Hot And Tender,3,10,10,10,2014-08-11,53.747987,-2.454119
160685,Hot Shots,5,5,5,5,2012-04-02,53.696365,-2.468844
160686,Humpty Dumpty's,4,0,10,0,2014-12-12,53.69706,-2.458826
160687,Hussain Grocers,1,15,15,20,2014-06-20,53.749043,-2.498092
160688,I & S Newsagents,5,5,5,5,2014-09-04,53.691079,-2.466666
160689,Iceland,5,5,5,5,2011-07-07,53.72862,-2.492045
160690,Iceland,5,5,5,5,2013-11-22,53.696324,-2.467663
160691,Imran Tandoori,5,5,5,0,2015-01-13,53.745672,-2.500296
160692,India 2 U,4,5,10,5,2014-07-28,53.72168,-2.474627
160693,Indian Kitchen Takeaway,AwaitingInspection,nan,nan,nan,,53.696269,-2.465738
160694,Intack Inn,4,5,5,10,2013-05-30,53.747711,-2.446155
160695,Intack Mini Market,2,15,5,5,2014-02-21,53.747711,-2.446155
160696,Intack Post Office,Exempt,nan,nan,nan,2012-07-13,53.747711,-2.446155
160697,Intack Primary School (LCC),5,5,0,0,2012-03-09,53.751489,-2.445194
160698,Irish Country Gold,Exempt,nan,nan,nan,2014-11-03,53.731243,-2.441736
160699,Ivy Hotel,3,10,10,5,2012-03-08,53.736466,-2.485633
160700,Ivy Street Community Centre,4,0,5,10,2013-12-18,53.736551,-2.486726
160701,Jamiatul-Ilm Wal Huda,4,10,0,5,2014-09-04,53.754926,-2.465614
160702,Janie's,2,15,15,10,2014-11-26,53.701548,-2.433882
160703,Jan's Conference Centre,5,0,5,0,2015-01-07,53.744174,-2.473198
160704,Jays Properties,4,5,5,10,2014-03-21,53.739834,-2.486202
160705,JJB Soccer Dome (Powerleague),4,5,5,10,2013-12-20,53.72747,-2.446183
160706,John and Cathy Woods,5,5,5,5,2013-09-24,53.695454,-2.467229
160707,John Smethurst Childrens Centre,5,5,5,5,2013-06-05,53.759549,-2.483063
160708,John's Store,5,0,0,5,2013-03-12,53.740505,-2.500022
160709,Johnston Pharmacy,Exempt,nan,nan,nan,2014-10-13,53.748679,-2.494948
160710,Jollof Rice & Spoons,3,10,10,10,2013-11-28,53.748939,-2.497135
160711,Jo's Little Sandwich Shop,4,5,5,10,2015-01-06,53.684091,-2.460759
160712,Julies Hot Stuff,5,0,5,0,2013-09-02,53.847141,-2.217044
160713,Jumbles Sailing Club (Mail to other address),4,5,5,10,2013-06-26,53.628119,-2.404262
160714,K & A Haworth,5,5,0,5,2014-12-15,53.69566,-2.458205
160715,K2,2,15,5,10,2014-02-25,53.736062,-2.494269
160716,K2 Taj,2,15,10,10,2013-10-08,53.75784,-2.487745
160717,K2 Taj Chippy,5,5,5,0,2014-11-11,53.757929,-2.469955
160718,Kabin,5,5,5,5,2014-12-05,53.751577,-2.471537
160719,Kam's Chinese Takeaway,5,5,5,5,2015-01-23,53.703196,-2.475631
160720,Karim`s Pharmacy,Exempt,nan,nan,nan,2013-10-09,53.735702,-2.48573
160721,Kashmir Food Store,2,15,10,10,2013-10-01,53.749127,-2.492982
160722,Kashmir Halal Centre,2,0,15,10,2012-09-17,53.74962,-2.497765
160723,Kassims,2,0,15,10,2014-09-16,53.747089,-2.496749
160724,Kathrada Stores,3,5,10,10,2014-01-15,53.743582,-2.465852
160725,Kay Street Newsagents,3,5,10,10,2014-01-30,53.695806,-2.462235
160726,Kayleighs Baps,4,10,5,5,2013-07-29,53.750236,-2.451156
160727,Kebabish,3,10,10,10,2014-02-13,53.705364,-2.477488
160728,Kebabish Original,4,10,5,0,2014-05-08,53.75886,-2.471088
160729,Kentucky Fried Chicken,5,nan,nan,nan,2014-06-04,53.736675,-2.469157
160730,Ketolife Ltd,Exempt,nan,nan,nan,2014-03-04,53.761386,-2.45933
160731,Khana Khazana,4,nan,nan,nan,2013-10-09,53.747655,-2.474647
160732,Khanjra Co Ltd,Exempt,nan,nan,nan,2014-11-19,53.750285,-2.464137
160733,Khans,5,5,5,5,2014-10-28,53.754461,-2.485492
160734,Khan's Spice Takeaway,5,5,5,5,2011-06-28,53.748679,-2.494948
160735,Khonat News,5,5,5,5,2011-11-01,53.749127,-2.492982
160736,Khyber Restaurant & Takeaway,5,5,5,5,2013-08-21,53.7538,-2.480009
160737,Kiddiwinks,5,0,0,0,2014-07-08,53.726879,-2.464455
160738,Kidsland Ltd,5,0,5,5,2014-12-17,53.681043,-2.45414
160739,King Edward VII,5,5,5,5,2014-01-28,53.72747,-2.446183
160740,King Georges Hall,5,5,0,5,2013-09-05,53.749182,-2.486113
160741,King Street News,Exempt,nan,nan,nan,2012-08-31,53.746386,-2.486293
160742,King William Hotel,5,nan,nan,nan,2014-11-12,53.625537,-2.410134
160743,Kings Court Nursery,3,10,10,10,2014-02-17,53.746386,-2.486293
160744,Kings Court Nursery (Toddlers),3,10,10,10,2014-02-17,53.746386,-2.486293
160745,Kitty Honey Jamaican Food,5,0,5,5,2014-05-19,53.748154,-2.482674
160746,Konkan Fisheries,4,10,5,5,2013-12-09,53.757929,-2.469955
160747,KQF Superstore,3,10,10,10,2014-02-20,53.75473,-2.478989
160748,Krakow,4,10,5,5,2014-02-11,53.743207,-2.494353
160749,Kurdish Delights,2,15,10,10,2013-03-04,53.744234,-2.491712
160750,L A Swindlehurst News,5,0,0,0,2011-10-10,53.778921,-2.477974
160751,La Glacier,5,5,5,5,2014-02-20,53.75473,-2.478989
160752,La Luna,3,5,10,10,2014-09-17,53.696269,-2.465738
160753,Lacko,AwaitingInspection,nan,nan,nan,,53.744234,-2.491712
160754,Lalas,2,10,15,10,2014-07-16,53.752977,-2.481107
160755,Lala's,2,15,10,10,2014-07-16,53.752977,-2.481107
160756,Lammack Community Primary School,5,0,0,0,2015-02-03,53.766655,-2.497102
160757,Lancashire Fayre,4,10,0,5,2013-11-04,53.738582,-2.491403
160758,Lancaster House,5,5,5,5,2014-12-08,53.750507,-2.502613
160759,Larkhill Pharmacy Geloo Brothers,Exempt,nan,nan,nan,2014-07-02,53.750468,-2.474906
160760,Larmenier Retirement Village,5,0,0,5,2014-05-29,53.760697,-2.516007
160761,Last Orders Inn,5,5,0,5,2012-06-12,53.746293,-2.482714
160762,Late Nite Mini Market,3,10,5,10,2013-12-02,53.744234,-2.491712
160763,Late Shopper,1,10,10,20,2014-02-10,53.759468,-2.487582
160764,Leamington Road Pre-School,4,5,5,10,2012-01-16,53.752654,-2.500925
160765,Lee Chippy,2,15,15,5,2014-09-17,53.72723,-2.537301
160766,Leemings Butchers,4,5,5,10,2014-11-26,53.695454,-2.467229
160767,Lees Cantonese,3,10,10,10,2014-05-20,53.69566,-2.458205
160768,Les Enfants,5,5,5,5,2014-11-25,53.701207,-2.482909
160769,Lidl,5,0,5,0,2013-12-10,53.698691,-2.471445
160770,Lidl UK GmbH,5,0,0,0,2013-10-23,53.746001,-2.488215
160771,Lifestyle Express,4,5,10,5,2012-04-16,53.738122,-2.504784
160772,Lima's Hair & Beauty,Exempt,nan,nan,nan,,53.748679,-2.494948
160773,Limbrick Corner,5,5,5,5,2013-10-18,53.752254,-2.486543
160774,Limefield Newsagents,4,10,5,5,2013-09-10,53.74948,-2.50116
160775,Linden House Nursing Home,5,5,5,5,2014-09-10,53.746152,-2.451916
160776,Lion Hotel,4,5,5,10,2013-03-15,53.745672,-2.498188
160777,Lisa's Childcare,Exempt,nan,nan,nan,,53.762993,-2.464353
160778,Lite Lunch,4,10,5,5,2014-11-26,53.739834,-2.486202
160779,Little Acorns Nursery,5,5,5,5,2014-11-12,53.718379,-2.532839
160780,Little Harwood Butchers,3,10,10,10,2011-06-29,53.759773,-2.464985
160781,Little Harwood Childrens Centre,5,0,5,0,2011-06-27,53.759879,-2.465441
160782,Little Harwood Community Centre,Exempt,nan,nan,nan,2011-08-12,53.759879,-2.465441
160783,Livesey Children's & All Age Centre,5,0,0,0,2014-11-13,53.727223,-2.501623
160784,Livesey Community Centre,Exempt,nan,nan,nan,2013-04-23,53.726681,-2.541568
160785,Livesey Pharmacy,Exempt,nan,nan,nan,2014-10-13,53.7282,-2.504559
160786,Liz n Lil's,4,5,5,10,2013-08-07,53.749182,-2.486113
160787,Lloyds Pharmacy,Exempt,nan,nan,nan,2013-10-09,53.705364,-2.477488
160788,Lloyds Pharmacy,Exempt,nan,nan,nan,2014-06-10,53.695279,-2.466
160789,Lloyds Pharmacy,Exempt,nan,nan,nan,2012-04-04,53.731133,-2.505944
160790,Lloyds Pharmacy,Exempt,nan,nan,nan,2013-11-21,53.738582,-2.475712
160791,Lloyds Pharmacy Ltd,Exempt,nan,nan,nan,2007-06-04,53.734085,-2.502856
160792,Lock Mill Service Station,5,5,5,5,2014-11-13,53.732985,-2.490747
160793,London Road Chippy,2,15,10,5,2014-08-11,53.698979,-2.462164
160794,Longfield,5,5,0,0,2013-11-27,53.752055,-2.508576
160795,Longshaw Infant School,5,5,0,0,2014-01-10,53.729342,-2.482474
160796,Longshaw Junior School,5,5,0,0,2013-09-16,53.73394,-2.483406
160797,Longshaw Nursery & Children's Centre,5,0,0,0,2014-11-13,53.729342,-2.482474
160798,Longshaw Sports & Social Club Ltd,5,5,5,5,2012-07-13,53.735409,-2.484787
160799,Lord Raglan Hotel,4,10,5,5,2014-07-03,53.729463,-2.505408
160800,Lotus Garden,3,10,10,10,2014-12-11,53.767289,-2.475961
160801,Lower Darwen Primary School,5,5,5,5,2014-06-04,53.756271,-2.534055
160802,LP Creations,Exempt,nan,nan,nan,2015-01-17,53.762016,-2.493057
160803,Lunch Club,Exempt,nan,nan,nan,2014-06-30,53.742528,-2.497787
160804,Lunches 2 Go,5,0,0,5,2013-03-08,53.77128,-2.484897
160805,Lynwood Cantonese,4,10,5,5,2014-12-10,53.7096,-2.481324
160806,Lynwood Express,3,10,5,10,2014-02-20,53.705038,-2.473379
160807,Lynwood Pizza House,4,10,5,5,2014-02-28,53.711038,-2.48134
160808,Lynwood Wines,3,10,10,10,2013-09-30,53.711038,-2.48134
160809,M & I Newsagents,5,5,5,5,2013-10-30,53.750236,-2.451156
160810,M and O Fish,4,5,5,10,2014-02-07,53.695454,-2.467229
160811,Mac's Snack Shack,5,0,5,0,2015-01-12,53.688017,-2.465996
160812,Madina Store,4,5,0,10,2012-03-23,53.7538,-2.480009
160813,Magdalene House,4,5,10,5,2013-10-28,53.753937,-2.490475
160814,Mai,4,10,5,5,2014-08-05,53.761067,-2.487616
160815,Malcolm McClure Mobile,4,5,0,10,2012-05-15,53.753162,-2.506102
160816,Mamas Pizza,3,10,10,10,2013-11-27,53.747711,-2.446155
160817,Manchester Sweet Centre,5,5,5,5,2014-02-20,53.7538,-2.480009
160818,Mangiamo Restaurant,2,10,15,10,2014-03-20,53.691079,-2.466666
160819,Manlee Chinese Restaurant,5,0,5,5,2014-07-02,53.697152,-2.465248
160820,Mansha Sweet Centre,5,0,5,5,2014-02-20,53.756549,-2.475748
160821,Manxman Off Licence,0,15,20,20,2014-04-24,53.730728,-2.484187
160822,Maple Store,5,0,0,5,2013-03-06,53.764859,-2.507487
160823,Marhaba Icecream Parlour,5,5,5,5,2014-07-18,53.752598,-2.48136
160824,Marigold's,2,15,0,10,2013-06-06,53.695734,-2.469322
160825,Marks & Spencer/store and cafe,5,5,0,0,2014-04-09,53.749124,-2.484945
160826,Mars Minimarket,4,10,5,5,2013-08-06,53.748679,-2.494948
160827,Marsh House Chippy,3,10,5,10,2014-09-10,53.69508,-2.457078
160828,Marshmallows,5,0,5,5,2013-12-03,53.69508,-2.457078
160829,Mashrabiya,2,15,5,10,2014-06-10,53.759879,-2.465441
160830,Mash's Wing Ranch,4,5,10,5,2014-10-30,53.750855,-2.485936
160831,Mastercook Foods Ltd,Exempt,nan,nan,nan,2013-10-31,53.752033,-2.483401
160832,May Flower,5,5,5,5,2013-12-04,53.739166,-2.506359
160833,Mayat News,3,10,5,10,2012-03-08,53.702107,-2.478345
160834,Mayers Fishmongers,1,5,10,20,2014-02-17,53.748154,-2.482674
160835,Mayfield Chippy,5,5,0,0,2013-09-11,53.686001,-2.461915
160836,MB Distribution (Blackburn) Ltd,Exempt,nan,nan,nan,2014-11-19,53.746885,-2.460233
160837,MCC Indian Takeaway & Fast Food,4,10,5,5,2014-02-19,53.746214,-2.501925
160838,McColls,4,10,0,5,2014-05-30,53.695279,-2.466
160839,McDonalds Restaurant,5,5,5,0,2014-12-10,53.75243,-2.448434
160840,McDonalds Restaurant Ltd,5,5,0,0,2014-12-18,53.748785,-2.484335
160841,McDonalds Restaurant Ltd,5,5,0,0,2013-11-04,53.713125,-2.476349
160842,McDonald's Restaurant Ltd,5,5,0,0,2013-01-07,53.72862,-2.492045
160843,Meadowcroft Barn B & B,5,0,0,5,2014-02-21,53.64115,-2.388641
160844,Meadowhead Infant School,5,0,0,0,2014-11-07,53.729586,-2.50832
160845,Meadowhead Junior School,5,0,0,0,2015-02-06,53.728258,-2.507698
160846,Medina Dairy Ltd,Exempt,nan,nan,nan,,53.761386,-2.45933
160847,Meena Bakery,2,15,10,10,2014-03-24,53.751299,-2.482726
160848,Mega Munch,5,5,5,5,2013-06-04,53.735495,-2.470038
160849,Melt Dessert Bar,5,nan,nan,nan,2014-07-16,53.757929,-2.469955
160850,Melt Gelato & Catering,AwaitingInspection,nan,nan,nan,,53.757929,-2.469955
160851,MFS Greengrocers,2,15,5,10,2013-06-28,53.754144,-2.481651
160852,Miami,3,10,10,10,2014-03-12,53.746293,-2.482714
160853,Miami Chicken & Pizza,3,10,10,10,2014-12-15,53.693795,-2.466302
160854,Michael & Natalie Sweeney,Exempt,nan,nan,nan,,53.718721,-2.468078
160855,Michelles Childcare/Ms Michelle Aldore,Exempt,nan,nan,nan,,53.763796,-2.466076
160856,Mighty Fresh,Exempt,nan,nan,nan,2014-10-15,53.746885,-2.460233
160857,Mill Hill Hotel,5,5,5,5,2013-06-18,53.738122,-2.504784
160858,Mill Hill Working Mens Club,5,0,0,0,2014-09-03,53.732946,-2.500175
160859,Millies Cookies,5,5,5,5,2014-03-04,53.749178,-2.482686
160860,Miran's Corner Shop,AwaitingInspection,nan,nan,nan,,53.739816,-2.495087
160861,Miss Heather Thompson,Exempt,nan,nan,nan,,53.719166,-2.466977
160862,Mister Fu's,4,10,5,5,2014-02-28,53.705364,-2.477488
160863,Mohammed & Sons,1,15,10,20,2014-10-01,53.742445,-2.467083
160864,Mohammed Grocers,5,0,5,0,2012-04-03,53.755206,-2.481117
160865,Molloy's,4,10,5,5,2014-02-04,53.750292,-2.485125
160866,Moonlight,3,10,10,10,2014-07-16,53.747987,-2.454119
160867,Moorey's Health Store,5,5,0,5,2014-11-18,53.748154,-2.482674
160868,Moorgate Arms,4,5,0,10,2012-08-02,53.728423,-2.500667
160869,Moorings Trust,5,5,5,5,2014-10-30,53.744063,-2.494045
160870,Moorland View HFE,4,5,10,5,2014-05-28,53.702676,-2.466097
160871,More Or Less Celebrations,AwaitingInspection,nan,nan,nan,,53.734085,-2.502856
160872,Morrisons Local,AwaitingInspection,nan,nan,nan,,53.758462,-2.489421
160873,Morrison's M Local,AwaitingInspection,nan,nan,nan,,,
160874,Moss Bridge Post Office,4,5,5,10,2014-07-22,53.714276,-2.482907
160875,Motala Grocers,3,5,10,10,2011-06-07,53.7282,-2.504559
160876,Mothercare World,Exempt,nan,nan,nan,2014-07-14,53.743008,-2.47934
160877,Mr Joes,4,5,5,10,2014-02-20,53.728448,-2.472203
160878,Mr Joe's,4,5,10,5,2014-06-10,53.761067,-2.487615
160879,Mr Yummy,AwaitingInspection,nan,nan,nan,,53.718488,-1.878844
160880,Mrs Sarah Ann Halsall Rimmer,Exempt,nan,nan,nan,,53.693329,-2.449532
160881,Mrs Vicky Leanne O'Callaghan,Exempt,nan,nan,nan,,53.73384,-2.505552
160882,Ms Abbie May Campbell,Exempt,nan,nan,nan,,53.72983,-2.501532
160883,Ms Allana Wilcock,Exempt,nan,nan,nan,,53.703223,-2.47342
160884,Ms Andrea Gaston,Exempt,nan,nan,nan,,53.724445,-2.533067
160885,Ms Angela Charnock,Exempt,nan,nan,nan,,53.772958,-2.478969
160886,Ms Ann Gaffney,Exempt,nan,nan,nan,2010-06-10,53.72977,-2.494362
160887,Ms Claire Fielding,Exempt,nan,nan,nan,,53.76292,-2.491748
160888,Ms Deborah Curran,Exempt,nan,nan,nan,2010-07-05,53.72747,-2.446183
160889,Ms Deborah Havard,Exempt,nan,nan,nan,2010-07-26,53.726968,-2.525521
160890,Ms Elaine Claire Entwistle,Exempt,nan,nan,nan,,53.746176,-2.508884
160891,Ms Elizabeth Dixon/Busy Lizzies,Exempt,nan,nan,nan,,53.733087,-2.472027
160892,Ms Elizabeth Jane Aubrey,Exempt,nan,nan,nan,,53.647077,-2.395563
160893,Ms Farzana Sidat/Daisyfield Childcare,Exempt,nan,nan,nan,,53.755204,-2.468044
160894,Ms Gemma Benn,Exempt,nan,nan,nan,,53.72747,-2.446183
160895,Ms Hakeema Hussein,Exempt,nan,nan,nan,,53.747494,-2.456024
160896,Ms Hawa Lorgat,Exempt,nan,nan,nan,2010-06-07,53.761012,-2.4903
160897,Ms Jacqueline Greaves,Exempt,nan,nan,nan,2010-06-28,53.746338,-2.495906
160898,Ms Joanne Mitchell,Exempt,nan,nan,nan,,53.718329,-2.47859
160899,Ms Karen Mallord,Exempt,nan,nan,nan,,53.693383,-2.43248
160900,Ms Karen Wright,Exempt,nan,nan,nan,,53.693955,-2.455082
160901,Ms Kate Parsonage,Exempt,nan,nan,nan,,53.652384,-2.39997
160902,Ms Kathleen Angela Taylor,Exempt,nan,nan,nan,,53.693329,-2.449532
160903,Ms Kelly Drugan,Exempt,nan,nan,nan,,53.718493,-2.478016
160904,Ms Khatija Chopdat,Exempt,nan,nan,nan,,53.762862,-2.47491
160905,Ms Leonie Roberts-King,Exempt,nan,nan,nan,,53.772956,-2.479393
160906,Ms Lorraine Gallagher,Exempt,nan,nan,nan,,53.739919,-2.506853
160907,Ms Lynda Taylor,Exempt,nan,nan,nan,,53.724445,-2.533067
160908,Ms Nichola Jennifer Barnes,Exempt,nan,nan,nan,,53.727953,-2.494644
160909,Ms Nicola Peggs,Exempt,nan,nan,nan,,53.774183,-2.475948
160910,Ms Nuzat Nisa Ali,Exempt,nan,nan,nan,,53.762124,-2.486339
160911,Ms Pamela Townsend,Exempt,nan,nan,nan,,53.717355,-2.488322
160912,Ms Paula Gerrard,Exempt,nan,nan,nan,,53.73524,-2.481965
160913,Ms Rachel Jane Charnley,Exempt,nan,nan,nan,,53.732756,-2.487227
160914,Ms Rebecca Voce,Exempt,nan,nan,nan,,53.723762,-2.493231
160915,Ms Sandra Craney,Exempt,nan,nan,nan,,53.707257,-2.480585
160916,Ms Sarah Crossley,Exempt,nan,nan,nan,2010-06-02,53.701169,-2.479077
160917,Ms Shahnaz Hussain,Exempt,nan,nan,nan,2010-06-07,53.747966,-2.454786
160918,Ms Sharon Middleton/BBS Kids,Exempt,nan,nan,nan,,53.724886,-2.490925
160919,Ms Simone Rebecca Kennedy,Exempt,nan,nan,nan,,53.744649,-2.447699
160920,Ms Stacey Hayhurst,Exempt,nan,nan,nan,,53.741054,-2.506321
160921,Ms Vanessa Kay,Exempt,nan,nan,nan,2010-06-17,53.678638,-2.457868
160922,Ms Vivienne Jennifer Wright,Exempt,nan,nan,nan,,53.734583,-2.484429
160923,Ms Yasmin Ughratdar/Little Angel,Exempt,nan,nan,nan,,53.754484,-2.488616
160924,Muffins Restaurant,1,10,15,20,2014-03-24,53.74969,-2.485043
160925,Mulla's Grocer,5,5,5,5,2012-04-18,53.740592,-2.498659
160926,Munch Box,3,10,10,5,2014-03-12,53.75473,-2.478989
160927,Munchies,3,5,10,10,2012-12-05,53.721487,-2.477838
160928,Naafiah,3,10,5,10,2014-11-26,53.74391,-2.469465
160929,Nadeems,5,5,0,5,2013-10-22,53.747743,-2.486445
160930,Nafees Bakers Ltd,AwaitingInspection,nan,nan,nan,,53.7538,-2.480009
160931,National Halal Centre,5,0,5,5,2014-03-04,53.7513,-2.459538
160932,Natural Choice Health Foods,5,5,5,5,2014-11-28,53.694757,-2.466358
160933,Navigation Inn,5,5,5,5,2012-04-12,53.732446,-2.50358
160934,Naz Kebab House,AwaitingInspection,nan,nan,nan,,53.757581,-2.471559
160935,Naz Self Serve,3,5,10,10,2013-06-05,53.739194,-2.452387
160936,Nelson's Ices,4,5,5,10,2014-06-12,53.748235,-2.362895
160937,New Bank Road Post Office,Exempt,nan,nan,nan,2012-06-28,53.751953,-2.502903
160938,New Dragon,3,10,10,10,2013-01-09,53.747987,-2.454119
160939,New Dragon,3,10,10,10,2014-12-12,53.728418,-2.490906
160940,New Great Star Takeaway,3,10,5,10,2014-07-02,53.686267,-2.462872
160941,New Look,Exempt,nan,nan,nan,,53.749178,-2.482686
160942,New Moon Bar,3,10,10,10,2014-09-26,53.734085,-2.502856
160943,New Railway Sports and Social Club,5,5,0,0,2010-08-17,53.739834,-2.486202
160944,New Star,4,5,10,5,2012-03-12,53.703749,-2.476652
160945,New Top Choice Food Store,1,15,10,20,2014-02-25,53.759773,-2.464985
160946,New Xing Fu,5,5,5,5,2014-12-05,53.750236,-2.451156
160947,Newfield School,5,5,0,0,2013-03-14,53.736836,-2.455606
160948,Newsagents (Was Foundry Arms),2,10,15,5,2014-02-13,53.75128,-2.471716
160949,Nibbles,5,5,5,5,2014-02-05,53.732687,-2.520711
160950,Nightsafe @ Platform 5,5,0,5,0,2013-09-09,53.747375,-2.479542
160951,Nilus Mini Market,5,5,5,5,2013-09-09,53.728423,-2.500667
160952,No 39 Kebab & Pizza House,4,10,5,5,2013-10-22,53.746293,-2.482714
160953,Nobles Amusements,Exempt,nan,nan,nan,2014-12-09,53.74872,-2.484804
160954,Nook Barn Nursery,5,5,0,5,2015-02-11,53.730958,-2.517461
160955,Northcote at the Rovers,5,0,0,0,2014-04-11,53.727787,-2.489201
160956,Northwood Nursing & Residential Care Home,2,15,10,10,2014-09-03,53.750455,-2.504386
160957,Number 39,AwaitingInspection,nan,nan,nan,,53.694676,-2.46616
160958,Nuts Unlimited,5,5,0,5,2012-05-21,53.748154,-2.482674
160959,Oak Tree Nursery,3,10,5,10,2014-12-08,53.749634,-2.462796
160960,Oakenhurst Farm Brewers Fayre,4,10,5,0,2014-09-10,53.717581,-2.474672
160961,Oaklands Hotel,4,5,5,10,2012-05-16,53.750972,-2.496795
160962,Oaksfield,5,5,5,5,2014-10-16,53.713862,-2.480782
160963,Oasis Fastfood,3,10,10,10,2014-11-03,53.746293,-2.482714
160964,Oasis Ices,3,10,5,10,2014-08-27,53.75846,-2.47442
160965,Ocean Chippy,4,10,5,5,2014-03-10,53.743454,-2.493416
160966,Ocean Palace,3,10,5,10,2014-02-28,53.670075,-2.44995
160967,Oddies,AwaitingInspection,nan,nan,nan,,53.74872,-2.484804
160968,Oddies Bakery,5,0,5,0,2013-09-12,53.748154,-2.482674
160969,Old Bank Lane Traditional Fish n Chips,5,0,0,0,2014-11-03,53.735495,-2.470038
160970,Old Blackburnians AFC,5,0,0,0,2014-08-29,53.76511,-2.496825
160971,Old Gates Nursing Home,5,5,5,5,2014-12-09,53.727106,-2.516611
160972,Old Toll Bar,3,10,10,10,2012-09-04,53.747294,-2.449562
160973,Old Vicarage Nursery,5,5,5,0,2014-02-10,53.741687,-2.505403
160974,Olde England Kiosk,5,5,5,5,2014-11-11,53.702407,-2.488528
160975,Oldfield House,5,5,0,0,2014-03-06,53.705762,-2.483476
160976,Oldfield Manor,3,10,5,10,2014-10-01,53.707257,-2.480585
160977,Olive Lane Store (Premier),5,5,5,5,2012-07-11,53.7004,-2.461922
160978,Olive Tree Domicillary Services,AwaitingInspection,nan,nan,nan,,53.746386,-2.486293
160979,Oliver's Coffee House & Cafe,3,5,10,10,2013-08-02,53.699455,-2.47159
160980,Olly (The Fruit & Veg Van),5,0,0,5,2012-07-06,53.758023,-2.475689
160981,O'Marleys Red Lion,4,10,5,5,2013-12-04,53.751489,-2.445194
160982,One Stop,5,0,0,0,2014-08-06,53.734778,-2.485098
160983,One Stop,5,0,5,5,2014-05-20,53.751953,-2.502903
160984,One Stop Stores Ltd,5,5,5,5,2011-11-29,53.731785,-2.513167
160985,Orchard Working Mens Club,5,5,0,0,2014-09-08,53.75886,-2.471088
160986,Oriental Star,5,5,0,5,2013-03-21,53.744234,-2.491712
160987,Oscar Bears Nursery,5,5,5,5,2014-12-05,53.707093,-2.483431
160988,Oscar Bears Nursery,5,5,0,0,2014-12-08,53.743932,-2.501731
160989,Our Lady & St John School & 6th Form,5,0,5,0,2012-03-08,53.741111,-2.453893
160990,Our Ladys Primary School,5,5,5,5,2014-12-10,53.726792,-2.477246
160991,Out of School XP Ltd,5,5,0,5,2014-07-11,53.722441,-2.493079
160992,Oyster and Otter,5,nan,nan,nan,2014-10-28,53.723668,-2.529829
160993,P P Engineering,5,5,0,5,2013-08-20,53.756048,-2.45683
160994,Pamelas Cafe Takeaway,5,5,5,5,2014-12-05,53.695454,-2.467229
160995,Panda Express,2,15,15,10,2014-07-02,53.700036,-2.472278
160996,Papa's Chicken,AwaitingInspection,nan,nan,nan,,53.742517,-2.498227
160997,Paradise Bread Shop,3,10,10,10,2014-02-11,53.743207,-2.494353
160998,Park Garage (Spar),5,0,0,5,2012-03-02,53.77788,-2.477401
160999,Park Inn,4,10,5,5,2014-02-13,53.679177,-2.457738
161000,Parkinson Convenience Store,5,5,5,0,2013-03-15,53.735337,-2.499961
161001,Patel Bros Newsagents & Off Licence,4,5,5,10,2012-03-05,53.747508,-2.445122
161002,Patel Grocers,3,10,10,5,2014-08-06,53.754461,-2.485492
161003,Patel Grocers,5,5,5,5,2014-09-10,53.747987,-2.454119
161004,Patels High Class Confectionery,5,5,5,5,2014-09-09,53.751953,-2.502903
161005,Pauls Snacks,4,5,10,5,2012-03-12,53.728416,-2.495665
161006,Peekaboo Day Care,AwaitingInspection,nan,nan,nan,,53.700036,-2.472278
161007,Pentland Distribution Group,5,5,5,5,2014-01-29,53.723726,-2.454448
161008,Peoples News,4,5,5,10,2014-02-11,53.73145,-2.47457
161009,Phillips Of Blackburn,Exempt,nan,nan,nan,,53.766164,-2.457926
161010,Pickup Bank Fine Foods,Exempt,nan,nan,nan,2013-02-13,53.767388,-2.478223
161011,Pizza Hot,1,10,15,20,2014-03-26,53.700036,-2.472278
161012,Pizza Hut,5,5,5,0,2015-02-11,53.744117,-2.480687
161013,Pizza Island,5,5,5,5,2014-12-03,53.752792,-2.482637
161014,Pizza Italia,4,10,5,5,2013-06-25,53.732687,-2.520711
161015,Pizza Planet,0,15,20,20,2014-11-04,53.750432,-2.494802
161016,PK Foods,5,5,5,5,2014-01-23,53.746144,-2.458951
161017,Pleasington Golf Club,3,nan,nan,nan,2014-05-16,53.729657,-2.543243
161018,Pleckgate High School,5,0,0,5,2014-02-10,53.767587,-2.486827
161019,Pleckgate Newsagents,5,0,0,0,2013-02-28,53.77128,-2.484897
161020,Polash Tandoori Takeaway,4,nan,nan,nan,2014-08-20,53.691079,-2.466666
161021,Polish Butchers Shop,5,0,0,5,2014-01-23,53.743171,-2.494398
161022,Polish Catholic Social Club,5,5,5,5,2014-12-16,53.752261,-2.489409
161023,Post Office Counters/Delivery Office,Exempt,nan,nan,nan,2013-02-12,53.695433,-2.468092
161024,Postal Order,5,5,0,0,2015-01-07,53.756271,-2.534055
161025,Pothouse Stores,4,5,5,10,2012-03-08,53.703065,-2.453771
161026,Pound Express,4,5,5,10,2014-02-06,53.697152,-2.465248
161027,Poundbakery,5,5,0,0,2013-09-16,53.749608,-2.482994
161028,Poundcraze,Exempt,nan,nan,nan,2014-02-17,,
161029,Poundworld,Exempt,nan,nan,nan,2008-02-26,53.748564,-2.483468
161030,Premier Atlantic Store,3,10,5,10,2014-04-16,53.738942,-2.480098
161031,Premier Convenience Store,4,5,5,10,2014-02-24,53.759773,-2.464985
161032,Premier Express,4,0,5,10,2013-03-20,53.7212,-2.475334
161033,Premier Stores,1,10,10,20,2013-07-26,53.759468,-2.487582
161034,Press Panini/Milkshake,5,5,5,5,2013-12-13,53.748154,-2.482674
161035,Preston Way Service Station (Ambala),5,5,5,5,2013-02-13,53.75066,-2.49623
161036,Primrose Nursery,5,5,5,5,2014-12-12,53.692982,-2.460447
161037,Prince Of Wales,4,5,5,10,2014-07-25,53.702238,-2.465562
161038,Provider Cash & Carry,Exempt,nan,nan,nan,2012-05-24,53.760479,-2.479646
161039,Punch Bowl Inn,3,10,5,10,2014-09-12,53.703065,-2.453771
161040,Punch Hotel,5,5,5,5,2013-04-16,53.703726,-2.464291
161041,Purpletons Butty Bar,3,10,10,10,2014-12-08,53.734146,-2.483772
161042,Pyramid Takeaway,3,10,10,10,2013-11-08,53.746293,-2.482714
161043,Q Ices,AwaitingInspection,nan,nan,nan,,53.748642,-2.501681
161044,Quality Save,5,5,5,5,2013-11-23,53.696207,-2.467934
161045,Quarrymans,4,5,10,5,2012-04-18,53.753954,-2.501486
161046,Queen Elizabeth's Grammar School,5,5,5,5,2015-01-28,53.753393,-2.495974
161047,Queens Lodge Nursing Home,5,5,5,0,2014-02-21,53.736675,-2.469157
161048,Rae's Wholefoods,5,5,5,5,2014-02-14,53.728002,-2.531506
161049,Railway Hotel,5,0,0,0,2014-10-30,53.72949,-2.542407
161050,Railway News,5,5,5,5,2011-10-17,53.748109,-2.480445
161051,Rainbow Childrens Nursery,5,5,0,0,2014-11-28,53.700535,-2.477933
161052,Raj Indian Cuisine,4,10,5,5,2013-08-14,53.739834,-2.486202
161053,Range Coffee-shop,5,5,0,0,2013-08-19,53.755023,-2.452041
161054,Range Hill Filling Station,5,5,5,5,2012-11-06,53.746792,-2.453863
161055,Ranken Arms,5,nan,nan,nan,2014-06-27,53.695906,-2.430764
161056,Rashers,5,5,5,0,2014-12-09,53.732717,-2.501188
161057,Ravat Stores,4,5,5,10,2014-08-06,53.747525,-2.450156
161058,Ravenswing Manor,5,0,5,5,2014-02-05,53.735506,-2.515365
161059,Rays,4,5,5,10,2014-08-07,53.762836,-2.479233
161060,Rebound,AwaitingInspection,nan,nan,nan,,53.74969,-2.485043
161061,Red Earth,3,10,10,10,2013-10-09,53.732985,-2.490747
161062,Redlam News,4,0,5,10,2011-04-12,53.742593,-2.503853
161063,Redlam Superstore,4,5,10,5,2010-01-22,53.741591,-2.506812
161064,Reedy's Naturally,Exempt,nan,nan,nan,2011-06-29,53.73035,-2.447563
161065,Refreshment Bar,5,0,0,0,2014-07-02,53.748476,-2.485135
161066,Rehmans Fish 'N' Chips,2,15,10,10,2013-09-24,53.745547,-2.462159
161067,Resh's Restaurant & Cocktail Lounge,3,10,5,10,2015-01-13,53.703196,-2.475631
161068,Revidge Fold Community Lunch Club,5,5,5,5,2013-05-31,53.761067,-2.487616
161069,Rice Bowl,3,10,10,10,2014-03-12,53.741396,-2.50634
161070,Ripplehead Ices,5,5,5,5,2014-11-13,,
161071,Rising Sun Hotel,5,5,5,5,2014-07-03,53.778822,-2.477973
161072,Riverside  Nursery,5,0,0,0,2014-11-12,53.722485,-2.480031
161073,Rizwan Cash and Carry,3,10,10,10,2014-10-28,53.753421,-2.482477
161074,Roe Lee Bowling Club,4,5,5,10,2014-03-10,53.773062,-2.475252
161075,Roe Lee Fish & Chips,4,5,5,10,2014-07-18,53.767289,-2.475961
161076,Roe Lee Indian Takeaway,2,5,15,10,2013-12-18,53.767981,-2.476014
161077,Roe Lee News,3,10,5,10,2013-09-24,53.767981,-2.476014
161078,Roe Lee Park School,5,0,5,5,2014-01-13,53.771426,-2.47314
161079,Roman Road Community Centre,5,0,5,5,2015-01-29,53.727555,-2.468434
161080,Romero Pizza House,4,10,5,5,2014-02-27,53.778822,-2.477973
161081,Roomali Restaurant,5,5,5,5,2015-01-28,,
161082,Roosters Chicken & Pizza,3,10,10,10,2014-05-28,53.695169,-2.468831
161083,Roosterz Chickens,2,15,10,10,2014-06-12,53.749127,-2.492982
161084,Rose & Crown,2,15,15,10,2014-09-17,53.645568,-2.389771
161085,Rosehill Service Station,3,10,5,10,2014-08-18,53.74823,-2.470347
161086,Royal Blackburn Hospital,4,10,5,5,2014-12-03,53.736631,-2.466822
161087,Royal Oak Hotel,3,10,10,10,2014-09-16,53.76708,-2.483316
161088,Royal Sweet Centre,1,15,15,20,2014-06-26,53.744965,-2.463881
161089,Ruby's Cheese,5,0,0,5,2013-10-07,53.748154,-2.482674
161090,Ruchi Bangla,3,10,10,10,2014-11-12,53.728418,-2.490906
161091,Rumble Tumble,4,5,5,10,2013-05-30,53.73976,-2.473436
161092,Rumble Tums,4,5,10,5,2015-01-06,53.728448,-2.472203
161093,Runaround at Hapy Daze,5,0,0,5,2014-07-14,53.693004,-2.466354
161094,Rushton's,3,10,10,10,2014-07-30,53.695454,-2.467229
161095,S Parr & Son,5,0,0,5,2013-11-04,53.748154,-2.482674
161096,S Parr & Son,5,0,0,5,2014-12-12,53.69593,-2.467446
161097,Sacha's Mini Market,3,5,10,10,2014-08-06,53.741637,-2.445711
161098,Sacred Heart Church,Exempt,nan,nan,nan,2013-06-14,53.749891,-2.50391
161099,Sacred Heart RCP School,5,5,5,5,2014-11-05,53.753067,-2.503174
161100,Safe and Sound Childcare,Exempt,nan,nan,nan,,53.702841,-2.467568
161101,Safe Hands,5,0,0,0,2014-07-21,53.70686,-2.483201
161102,Saffron Indian Takeaway,5,nan,nan,nan,2014-06-25,53.747711,-2.446155
161103,Sahad Kebab House,3,10,10,5,2014-09-10,53.743579,-2.471387
161104,Sahara Cafe,5,5,5,5,2014-02-19,53.744522,-2.482709
161105,Sahenaz Sonvadi,Exempt,nan,nan,nan,,53.749994,-2.502834
161106,Saigon Buffet & Bar,2,15,10,10,2014-11-25,53.750188,-2.484047
161107,Sainsbury's,5,0,0,0,2014-02-05,53.73234,-2.520071
161108,Sainsbury's Plc,5,5,5,5,2013-11-26,53.693474,-2.465632
161109,Salvation Army (Citadel),5,0,0,0,2012-08-03,53.748711,-2.478253
161110,Salvation Army Centre,5,5,0,0,2014-02-03,53.746187,-2.486579
161111,Sam Seafoods,AwaitingInspection,nan,nan,nan,,53.748154,-2.482674
161112,Sam's Bar,3,5,10,10,2014-07-01,53.747601,-2.483851
161113,San Marino,4,10,5,5,2014-11-24,53.634212,-2.48659
161114,San Remo Pizza House,4,5,5,10,2014-08-07,53.697406,-2.469129
161115,Sandon Street Grocers,4,5,5,10,2014-02-07,53.698755,-2.462085
161116,Sandwich Shop,5,5,5,0,2014-11-19,53.748637,-2.467319
161117,Sandwiches to Go,5,5,5,5,2015-01-21,53.691079,-2.466666
161118,Sandy Brook House,5,0,0,0,2014-07-01,53.72086,-2.477406
161119,Santas,5,5,0,0,2013-04-16,53.739834,-2.486202
161120,Savers Health & Beauty,AwaitingInspection,nan,nan,nan,,53.696324,-2.467663
161121,Savoy Self Serve Garage,5,5,5,5,2014-06-20,53.705364,-2.477488
161122,Scholars Restaurant Blackburn College,5,5,0,0,2013-07-02,53.748081,-2.489482
161123,School House Nursery,5,0,5,5,2013-09-09,53.752133,-2.515659
161124,Schools Out Kids Club Ltd,4,5,10,5,2012-05-28,53.642934,-2.395373
161125,Scott Stewart Fruit & Veg,5,5,0,5,2014-11-20,53.748154,-2.482674
161126,Scott Stewart Fruit & Veg,5,5,5,5,2013-10-21,53.695454,-2.467229
161127,Scrummy Yummy Workshop,Exempt,nan,nan,nan,2014-12-04,53.730111,-2.474616
161128,SE & J Worsley Newsagents Ltd,1,10,15,20,2014-10-27,53.735061,-2.518361
161129,Seedat's Newsagents,4,5,5,10,2014-01-30,53.739814,-2.495511
161130,Seize-a-Salad,AwaitingInspection,nan,nan,nan,,53.748154,-2.482674
161131,Seven Trees Childrens Centre,5,0,5,0,2011-06-27,53.75614,-2.479111
161132,Shad Tandoori Restaurant,4,0,10,5,2013-12-18,53.745828,-2.503906
161133,Shadsworth Childrens Centre,5,nan,nan,nan,2014-10-01,53.739194,-2.452387
161134,Shadsworth Chippy & Curry House,1,10,15,20,2014-03-19,53.739194,-2.452387
161135,Shadsworth House,3,5,10,10,2014-03-06,53.740079,-2.446362
161136,Shadsworth Infant School (LCC),5,5,0,0,2014-10-24,53.74414,-2.44448
161137,Shadsworth Junior School (LCC),5,5,0,0,2013-07-12,53.73777,-2.446095
161138,Shadsworth Leisure Centre,Exempt,nan,nan,nan,2013-05-14,53.735668,-2.452985
161139,Shadsworth Neighbourhood Centre,Exempt,nan,nan,nan,2012-07-16,53.738098,-2.449692
161140,Shadsworth Pharmacy,Exempt,nan,nan,nan,2013-12-09,53.739194,-2.452387
161141,Shah Jalal Fish Bazar,1,10,5,20,2014-09-23,53.7573,-2.472284
161142,Shahi Kebab House,5,5,5,5,2015-01-06,53.75773,-2.472743
161143,Shahi Qila,4,nan,nan,nan,2014-11-07,53.753937,-2.490475
161144,Shakes & Wraps,3,10,10,10,2014-03-01,53.744234,-2.491712
161145,Shandar Sweets,2,15,10,10,2013-05-09,53.7573,-2.472284
161146,Shandar Sweets,Exempt,nan,nan,nan,2014-02-13,53.755279,-2.476523
161147,Shandar Tandoori,4,10,5,5,2014-10-29,53.751299,-2.482726
161148,Sharif And Sons Grocers,4,5,5,10,2014-09-18,53.748679,-2.494948
161149,Sharifs/All Fresh,5,0,0,0,2013-02-18,53.748154,-2.482674
161150,Shearbrow Newsagents,4,5,10,5,2014-06-11,53.761067,-2.487616
161151,Shell Darwen,5,5,5,5,2012-05-25,53.713125,-2.476349
161152,Shelly's,5,5,5,5,2014-07-25,53.695809,-2.468399
161153,Shining Stars Nursery Ltd,5,0,5,5,2013-07-10,53.751839,-2.48487
161154,Shop 2 Go,5,5,5,0,2013-02-13,53.735495,-2.470038
161155,Shorrock Lane Chippy,4,5,0,10,2014-07-15,53.73384,-2.505552
161156,Sidat Ices,4,5,5,10,2013-08-21,53.744261,-2.455322
161157,Sidat Stores,3,5,10,10,2013-10-24,53.743497,-2.471492
161158,Sidco Mini Market,3,5,10,10,2014-06-30,53.743624,-2.468885
161159,Sidco Newsagents,3,10,10,5,2014-11-28,53.703196,-2.475631
161160,Sidra Cash & Carry,1,15,10,20,2013-09-03,53.76251,-2.472949
161161,Simi's,AwaitingInspection,nan,nan,nan,,53.759879,-2.465441
161162,Simply Cakes,Exempt,nan,nan,nan,,53.746593,-2.503749
161163,Sir Charles Napier,3,5,10,10,2013-06-26,53.751681,-2.486127
161164,Sizzlers,5,5,0,0,2013-02-12,53.743171,-2.494398
161165,SK Fruits,Exempt,nan,nan,nan,2014-10-22,53.752362,-2.444946
161166,Slaters Quarters,AwaitingInspection,nan,nan,nan,,53.746398,-2.489841
161167,Smoky Bites,2,10,15,5,2012-08-01,53.753384,-2.487178
161168,Snack Attack,5,5,5,5,2014-02-19,53.745283,-2.483384
161169,Snowy Joes,2,15,5,10,2013-11-29,53.749178,-2.482686
161170,Solkar Halal Butchers,2,15,10,10,2014-09-11,53.74391,-2.469465
161171,Somerfield Stores Ltd,4,10,5,5,2012-08-23,53.713125,-2.476349
161172,Sonali,1,15,15,20,2014-12-10,53.732985,-2.490747
161173,Spar,4,10,5,5,2008-07-04,53.731531,-2.47445
161174,Spar,3,5,10,10,2012-03-09,53.738048,-2.446325
161175,Spar Store (Three Arches Service Station),5,5,0,0,2015-01-22,53.727203,-2.537422
161176,Spar Stores,5,5,5,5,2014-11-12,53.734085,-2.502856
161177,Spar Supermarket,3,10,5,10,2014-09-08,53.762836,-2.479233
161178,Spice Manzil,2,15,15,10,2014-10-09,53.732717,-2.501188
161179,Spice Tandoori,2,10,15,10,2013-12-16,53.703196,-2.475631
161180,Spicy Grill,3,10,10,10,2014-03-08,53.759773,-2.464985
161181,Spindles Diner,5,nan,nan,nan,2014-02-04,53.748154,-2.482674
161182,Splash @ Riverside,Exempt,nan,nan,nan,2014-12-05,53.722485,-2.480031
161183,Springfield Cottage,5,5,5,5,2014-01-07,53.752055,-2.508576
161184,Springfield Nursing/Res. Home,5,nan,nan,nan,2013-10-07,53.752055,-2.508576
161185,Springs Catering,2,15,10,5,2014-05-29,53.734356,-2.4981
161186,St Aidans C Of E School (LCC),5,5,0,0,2013-07-12,53.734454,-2.500541
161187,St Aidan's Nursery,5,0,5,5,2013-06-24,53.734085,-2.502856
161188,St Albans RC School (LCC),5,5,0,0,2013-10-22,53.75226,-2.47385
161189,St Albans Social Centre,5,0,0,0,2014-08-07,53.74881,-2.480453
161190,St Andrews Pre-School,5,5,5,5,2009-08-06,53.727429,-2.504005
161191,St Annes Primary School (LCC),5,5,0,0,2014-11-12,53.747597,-2.486884
161192,St Anthony's Primary School,4,5,0,10,2014-09-08,53.742988,-2.449744
161193,St Barnabas & St Paul School,5,5,5,5,2014-02-14,53.746421,-2.493163
161194,St Barnabas C Of E School (LCC),5,0,0,5,2014-01-20,53.681043,-2.45414
161195,St Barnabas Community Centre,Exempt,nan,nan,nan,2013-12-13,53.747903,-2.49782
161196,St Bedes High School,5,5,5,5,2014-03-25,53.727106,-2.516611
161197,St Cuthberts C of E School,5,5,0,0,2014-01-20,53.70686,-2.483201
161198,St Edward's Community Centre,Exempt,nan,nan,nan,,53.7096,-2.481324
161199,St Edwards R C  School,5,5,5,0,2015-01-23,53.7096,-2.481324
161200,St Francis C Of E School (LCC),5,5,0,0,2014-11-25,53.729294,-2.525959
161201,St Francis Church Hall,Exempt,nan,nan,nan,,53.735506,-2.515365
161202,St Gabriels C Of E School,5,5,0,0,2014-01-17,53.770229,-2.484748
161203,St Gabriels Church Hall,Exempt,nan,nan,nan,2014-08-04,53.774832,-2.477731
161204,St James C Of E School,5,0,0,0,2012-01-17,53.75837,-2.485522
161205,St James C Of E School (LCC),5,0,0,0,2013-09-16,53.723694,-2.465193
161206,St James House,5,nan,nan,nan,2014-10-07,53.701312,-2.463386
161207,St James Primary School (LCC),5,5,0,0,2013-12-16,53.701312,-2.463386
161208,St Josephs Primary School,5,0,5,5,2014-07-23,53.690839,-2.470615
161209,St Lukes & St Philips School,5,0,0,0,2014-10-23,53.739816,-2.495087
161210,St Margarets Court,5,5,0,0,2014-02-21,53.7482,-2.459429
161211,St Marks Conservative Club,5,5,5,5,2014-09-08,53.740436,-2.507981
161212,St Mary & St Joseph RCP School,5,5,5,5,2014-11-06,53.73976,-2.473436
161213,St Mary's Nursery,5,5,0,0,2014-11-07,53.759901,-2.487102
161214,St Mary's Sixth Form College/Caterlink,5,5,5,0,2014-11-27,53.759901,-2.487102
161215,St Matthews C Of E School,5,5,5,5,2014-01-09,53.74601,-2.472506
161216,St Michael with St John School,5,5,0,0,2013-09-17,53.752083,-2.477776
161217,St Pauls C Of E School (LCC),5,5,0,0,2013-10-22,53.696701,-2.43206
161218,St Pauls School,5,5,0,5,2015-01-27,53.756271,-2.534055
161219,St Pauls Working Men Club,4,5,10,0,2013-01-14,53.749118,-2.490935
161220,St Peters C Of E School (Self managed),5,5,5,0,2013-12-20,53.690808,-2.457834
161221,St Peters Parish Social Centre,5,0,5,5,2013-07-23,53.736857,-2.502025
161222,St Peters RC School,5,5,5,5,2014-12-08,53.736844,-2.50718
161223,St Silas C Of E School,5,0,0,0,2013-03-04,53.751921,-2.50404
161224,St Stephens cof E Primary School,5,0,0,5,2014-12-16,53.758965,-2.464794
161225,St Stephens Conservative  Club,5,0,0,0,2012-07-13,53.758965,-2.464794
161226,St Thomas C Of E School,5,0,5,0,2014-01-09,53.747332,-2.462967
161227,St Thomas's Centre - pupil referral unit,5,0,0,0,2013-08-30,53.748279,-2.464555
161228,St Wilfrids C of E Academy,5,5,5,5,2013-02-25,53.742698,-2.493635
161229,St. James's Parish Church,Exempt,nan,nan,nan,2014-09-04,53.758392,-2.486751
161230,St. Pauls Church Room,Exempt,nan,nan,nan,2014-07-01,53.744174,-2.473198
161231,Stansfeld Centre,5,5,5,5,2014-01-14,53.739814,-2.495511
161232,Starbucks,5,5,5,0,2014-07-02,53.730681,-2.452583
161233,Step Inn,5,0,0,0,2013-02-14,53.742342,-2.503577
161234,Stepping Stones,5,0,5,5,2013-12-03,53.69551,-2.435698
161235,Stockleys Sweets Ltd,Exempt,nan,nan,nan,2014-11-24,53.733097,-2.443499
161236,Stop & Rest Hotel,4,5,0,10,2012-08-23,53.735984,-2.473515
161237,Stop N Go,3,10,10,10,2014-02-11,53.734085,-2.502856
161238,Stotts Craft Bakery,5,5,5,5,2013-11-21,53.7096,-2.481324
161239,Strawbury Duck,4,5,10,5,2013-01-11,53.653221,-2.415456
161240,Substation,4,5,5,10,2014-02-27,53.744649,-2.447699
161241,Subway,5,5,0,0,2014-09-17,53.75066,-2.49623
161242,Subway,5,0,0,0,2013-07-09,53.697406,-2.469129
161243,Subway,5,0,0,0,2013-06-24,53.748652,-2.486001
161244,Subway (Beehive),5,5,0,0,2015-01-05,53.730681,-2.452583
161245,Sudell C Of E Primary School (LCC),5,0,0,0,2014-12-05,53.69566,-2.458205
161246,Sudell News,3,10,10,5,2006-05-23,53.69566,-2.458205
161247,Sudell Sandwiches,5,5,5,5,2014-02-19,53.750367,-2.486461
161248,Sugar Rush,3,10,5,10,2014-05-08,53.748154,-2.482674
161249,Sugar Rush,AwaitingInspection,nan,nan,nan,,53.748154,-2.482674
161250,Sukhis,2,15,10,5,2014-06-18,53.703196,-2.475631
161251,Sultan Sweet Centre Ltd,4,10,5,5,2014-10-29,53.75473,-2.478989
161252,Sunnyhurst Centre - pupil referral unit,5,0,0,0,2015-01-23,53.702937,-2.48199
161253,Sunnyhurst Hotel,5,5,5,5,2010-10-04,53.697526,-2.486366
161254,Sunnyhurst Stores,3,10,5,10,2013-03-13,53.700991,-2.478711
161255,Superdrug Stores Plc,Exempt,nan,nan,nan,2013-11-04,53.748564,-2.483468
161256,Superfine Service Station,3,5,10,10,2013-06-18,53.756549,-2.475748
161257,Supplement City,4,10,5,5,2014-05-28,53.745513,-2.482098
161258,Swan Hotel,3,10,5,10,2014-11-28,53.684499,-2.447954
161259,Sweet Palace,3,10,10,10,2014-01-07,53.744965,-2.463881
161260,Sweet Palace,4,5,10,5,2012-03-16,53.751953,-2.502903
161261,Sweet Treats,Exempt,nan,nan,nan,2014-02-13,53.762836,-2.479233
161262,Sweet Treats,AwaitingInspection,nan,nan,nan,,53.748154,-2.482674
161263,SZ Newsagents,AwaitingInspection,nan,nan,nan,,53.760524,-2.463825
161264,T & S Off Licence,4,5,5,10,2014-06-25,53.74286,-2.45978
161265,Taste Cakes N Food Ltd,3,10,10,10,2014-11-04,53.751839,-2.48487
161266,Taste of India,4,10,5,5,2014-11-04,53.745878,-2.482952
161267,Tasty Bits,4,10,5,5,2014-10-28,53.682438,-2.46068
161268,Tasty Flavours,5,5,5,5,2014-02-20,53.681389,-2.462183
161269,Tasty Pizza Bar,3,10,10,10,2014-03-08,53.748652,-2.486001
161270,Tasty Spot,1,10,5,20,2013-09-24,53.746293,-2.482714
161271,Tasty Village,1,5,15,20,2014-09-04,53.691079,-2.466666
161272,Tastys Sandwich & Salad Bar,4,5,0,10,2014-07-02,53.750675,-2.483795
161273,Tauheedul Islam Girls High School & 6th Form College,5,0,0,0,2014-02-05,53.754121,-2.513166
161274,Tayyabah Bakery,Exempt,nan,nan,nan,2014-09-04,53.748572,-2.470108
161275,TCK Deli Ltd,4,10,0,10,2014-07-02,53.748154,-2.482674
161276,Tease your Tastebuds,5,0,5,0,2015-01-12,53.69593,-2.467446
161277,Telegraph News,5,5,5,5,2011-09-28,53.700036,-2.472278
161278,Tesco Cafe,4,10,0,0,2015-01-05,53.7513,-2.459538
161279,Tesco Express,5,5,5,5,2014-01-13,53.742517,-2.498227
161280,Tesco Express,5,0,0,0,2012-03-08,53.770112,-2.478162
161281,Tesco Stores Ltd,5,0,0,0,2010-01-21,53.725256,-2.526409
161282,Tesco Stores Ltd,5,5,0,0,2014-11-12,53.7513,-2.459538
161283,The Barlow (Community Centre),4,5,5,10,2012-03-03,53.645188,-2.393322
161284,The Big Sandwich,5,5,5,5,2014-09-24,53.734085,-2.502856
161285,The Blackburn Times,4,5,5,10,2014-11-25,53.749182,-2.486113
161286,The Blue Nile,4,10,5,5,2014-03-01,53.742517,-2.498227
161287,The Blue Tin Roof Activity Centre,5,5,5,5,2012-10-22,53.735463,-2.495733
161288,The Borough Hotel,4,5,5,10,2012-03-29,53.686122,-2.456148
161289,The Bread Box,4,10,5,5,2013-09-24,53.741637,-2.445711
161290,The Bread Roll Bakery (NW) Ltd,Exempt,nan,nan,nan,2014-06-25,53.698624,-2.465795
161291,The Bridgewater,5,5,5,5,2014-11-11,53.695279,-2.466
161292,The Butlers,2,10,15,10,2013-06-20,53.732642,-2.54313
161293,The Butty Boys,3,10,10,5,2014-07-04,53.73384,-2.505552
161294,The Carvery,5,0,5,0,2013-09-17,53.748154,-2.482674
161295,The Chill Zone Ltd,5,5,5,5,2014-02-13,53.702107,-2.478345
161296,The Chippery,3,10,10,5,2013-10-01,53.747722,-2.484929
161297,The Chocolate House,Exempt,nan,nan,nan,2013-03-06,53.761386,-2.45933
161298,The Cock,5,5,5,5,2014-02-06,53.697904,-2.470558
161299,The Co-operative (West End Garage),5,5,5,0,2015-01-06,53.760697,-2.516007
161300,The Co-operative Pharmacy,Exempt,nan,nan,nan,2014-11-14,53.744965,-2.463881
161301,The Country Larder,3,10,10,5,2013-09-04,53.749058,-2.483473
161302,The Courthouse Restaurant,5,5,5,5,2013-12-20,53.746386,-2.486293
161303,The Crispy Cob,4,10,5,5,2013-12-16,53.72168,-2.474627
161304,The Crown,3,10,10,10,2014-02-13,53.693467,-2.465132
161305,The Curry Stall,2,15,10,10,2013-09-02,53.748154,-2.482674
161306,The Deli Box,4,5,0,10,2014-04-29,53.687047,-2.446845
161307,The Dessert Bar,AwaitingInspection,nan,nan,nan,,53.748154,-2.482674
161308,The District and Union Club,AwaitingInspection,nan,nan,nan,,53.752738,-2.493555
161309,The Eatin' Place & Takeaway,4,5,10,5,2013-07-03,53.75243,-2.448434
161310,The Farthings,3,10,10,10,2013-06-28,53.764973,-2.475207
161311,The Fernhurst,5,5,5,5,2014-02-12,53.725768,-2.488314
161312,The Fig & The Olive,4,10,5,5,2014-02-10,53.761067,-2.487616
161313,The Florence Hotel,5,5,0,5,2014-05-14,53.755391,-2.464072
161314,The Fountains Independent Hospital,5,0,0,0,2014-01-13,53.743666,-2.505094
161315,The Gables,5,5,0,0,2013-02-12,53.707676,-2.481499
161316,The Green Chilli Deli,5,5,5,5,2014-11-19,53.75243,-2.448434
161317,The Griffin,2,15,15,10,2013-03-13,53.742032,-2.500268
161318,The Grill House,3,10,10,5,2014-11-05,53.752598,-2.48136
161319,The Grove,3,10,10,10,2014-05-20,53.747888,-2.481686
161320,The Heights Free School,5,0,0,5,2014-02-12,53.721831,-2.501422
161321,The Jubilee,3,10,5,10,2013-02-20,53.748652,-2.486001
161322,The Jumbles Nursery,5,0,0,0,2014-11-19,53.636615,-2.401031
161323,The Knowles Arms,5,5,0,0,2013-05-20,53.77128,-2.484897
161324,The Lockside Tavern,5,5,5,5,2013-06-13,53.73879,-2.48666
161325,The Lounge,3,10,10,10,2014-03-08,53.749182,-2.486113
161326,The Lunch Box,5,5,5,5,2015-01-12,53.748446,-2.470274
161327,The Manxman Hotel,5,5,5,5,2012-07-13,53.730728,-2.484187
161328,The Meeting Place,5,0,0,0,2014-05-21,53.695454,-2.467229
161329,The Millstone Hotel,5,0,0,0,2013-03-05,53.695433,-2.468092
161330,The Nile Original,4,5,10,5,2015-01-07,53.74948,-2.50116
161331,The Nursery Experience,2,15,5,5,2014-06-30,53.747708,-2.44203
161332,The Observatory,4,5,10,5,2014-10-27,53.735495,-2.470038
161333,The Old Chapel,5,0,0,0,2014-02-07,53.696269,-2.465738
161334,The Old Mill Hill Chippy,5,0,5,5,2014-07-03,53.734085,-2.502856
161335,The Original Sandwich Bar,3,10,10,10,2014-10-06,53.743454,-2.493416
161336,The Proper Coffee Company,5,0,5,5,2012-05-08,53.68832,-2.570346
161337,The Range Superstore,Exempt,nan,nan,nan,2010-01-28,53.755023,-2.452041
161338,The Real Thai Pie Company,5,5,5,5,2014-02-20,53.697152,-2.465248
161339,The Redeemer School,5,0,5,0,2014-12-05,53.722441,-2.493079
161340,The Rock Inn,4,5,5,10,2014-09-18,53.706206,-2.510704
161341,The Roxy Night Club,AwaitingInspection,nan,nan,nan,,53.695809,-2.468398
161342,The Royal Arms,3,nan,nan,nan,2014-12-18,53.689191,-2.508726
161343,The Sandwich Deli,5,5,5,5,2014-09-22,53.697406,-2.469129
161344,The Spinners,5,0,5,5,2012-10-03,53.688428,-2.46438
161345,The Stage Door,4,10,5,5,2014-09-18,53.746818,-2.484024
161346,The Station,4,10,5,5,2014-02-05,53.73234,-2.520071
161347,The Sun Hotel,5,5,5,5,2009-11-03,53.74759,-2.484199
161348,The Tea Shop,5,0,0,0,2013-03-05,53.695809,-2.468399
161349,The Toby Inn,5,5,5,5,2015-01-07,53.657379,-2.389592
161350,The Tower Sandwich Shop,5,5,5,5,2014-12-04,53.699455,-2.47159
161351,The Transit Lounge,2,10,15,10,2013-11-27,53.746458,-2.479516
161352,The Wellington,4,5,5,10,2014-07-01,53.739434,-2.496007
161353,The Willows,5,5,0,0,2013-06-12,53.72747,-2.446183
161354,THOMAS Organisation,4,5,10,5,2014-03-19,53.746707,-2.486904
161355,THOMAS Organisation,5,5,5,5,2014-09-08,53.739082,-2.502855
161356,Thorncliffe,4,10,10,0,2014-06-13,53.686116,-2.467035
161357,Thorougoods,4,5,5,10,2013-06-13,53.724045,-2.462651
161358,Thwaites Empire Theatre,4,10,5,5,2013-05-20,53.734792,-2.494967
161359,Tiffins 2 Go,AwaitingInspection,nan,nan,nan,,53.74391,-2.469465
161360,Timber Hill Cakes & Crafts,Exempt,nan,nan,nan,2013-08-19,53.701147,-2.486832
161361,Time To Eat,AwaitingInspection,nan,nan,nan,,53.7096,-2.481324
161362,TK Maxx,Exempt,nan,nan,nan,2014-11-06,53.742602,-2.482004
161363,Toms News & Booze/Toms Tasties,4,5,5,10,2014-08-08,53.744649,-2.447699
161364,Top Nosh,5,nan,nan,nan,2014-10-13,53.766164,-2.457926
161365,Tottenham Road Garage,5,0,0,0,2014-11-12,53.72011,-2.476095
161366,Travelodge,5,0,0,0,2014-09-09,53.713635,-2.481552
161367,Travis Perkins Trading Co Ltd,Exempt,nan,nan,nan,,,
161368,Trinity Court Flats,Exempt,nan,nan,nan,2014-02-24,53.75389,-2.473049
161369,Trinity Luncheon Club,5,0,0,5,2014-07-16,53.777895,-2.476081
161370,Tripe Stall,5,5,5,0,2014-02-04,53.748154,-2.482674
161371,Trishna Indian Takeaway,1,10,15,20,2014-11-12,53.73879,-2.48666
161372,Troy Street Food Store,4,10,5,5,2012-04-04,53.758635,-2.47559
161373,Truffles,5,nan,nan,nan,2014-09-03,53.767587,-2.486827
161374,Tuck Inn Cafe & Takeaway,4,0,10,10,2014-12-12,53.700036,-2.472278
161375,Tudor House Day Nursery,AwaitingInspection,nan,nan,nan,,53.753384,-2.487178
161376,Tunstill's Bakery,5,5,0,5,2014-12-05,53.711038,-2.48134
161377,Turncroft Nursery School,5,0,0,0,2013-09-06,53.694301,-2.458659
161378,Turners Butchers,4,0,5,10,2013-03-20,53.69613,-2.466873
161379,Turton & Edgworth C Of E School,5,5,0,0,2013-09-05,53.642934,-2.395373
161380,Twinkle Toes Nursery,2,15,0,5,2014-11-03,53.731731,-2.448168
161381,Udat News,3,10,10,10,2010-10-21,53.750292,-2.485125
161382,Ummah Halal Butchers,3,10,10,10,2014-02-21,53.742753,-2.466419
161383,Uncle Jack's,4,10,5,5,2014-07-01,53.721487,-2.477838
161384,Union House Accomodation Services Ltd,5,nan,nan,nan,2014-11-13,53.745243,-2.486811
161385,Upper Crust,4,10,5,5,2013-12-02,53.712536,-2.482145
161386,Usha Express,AwaitingInspection,nan,nan,nan,,53.705364,-2.477488
161387,Varey's,2,0,15,10,2014-09-09,53.748154,-2.482674
161388,Vaughn's Country Cafe,3,10,10,10,2012-12-19,53.689191,-2.508726
161389,Vauxhall Inn,5,5,5,5,2012-10-08,53.741396,-2.50634
161390,Victoria Hotel,4,10,5,5,2014-07-25,53.694977,-2.460408
161391,Victoria Hotel,5,5,5,0,2014-12-18,53.701651,-2.514466
161392,Victorian Kitchen Tearoom,3,10,5,10,2014-09-19,53.632885,-2.408859
161393,Village Chippy,4,10,5,5,2012-03-08,53.741637,-2.445711
161394,Village Pharmacy,Exempt,nan,nan,nan,2014-07-02,53.646807,-2.393156
161395,Village Store & Post Office,4,5,5,10,2012-03-08,53.641072,-2.494972
161396,VIP Retro Bar,4,5,5,10,2014-02-14,53.745878,-2.482952
161397,VIP Snooker,3,10,10,10,2013-08-21,53.745878,-2.482952
161398,VMI Ltd,Exempt,nan,nan,nan,2014-02-19,53.756957,-2.454064
161399,VOICE c/o BwD Community Voluntary Service,4,5,5,10,2014-02-17,53.747375,-2.479542
161400,Vue Cinema,5,5,0,5,2014-09-03,53.744601,-2.478646
161401,Waheed's,AwaitingInspection,nan,nan,nan,,53.751839,-2.48487
161402,Walmsley Express,5,0,5,5,2014-08-29,53.700357,-2.459195
161403,Waves Water Fun Centre,Exempt,nan,nan,nan,2013-02-13,53.74845,-2.487197
161404,Welcome Store,4,5,5,10,2014-10-27,53.728448,-2.472203
161405,Well Bread,3,5,10,10,2014-06-16,53.748154,-2.482674
161406,Wellbeing Farm Ltd,5,5,5,5,2014-05-07,53.65458,-2.385239
161407,Wellington Inn,3,10,10,10,2013-10-07,53.727583,-2.507932
161408,Wellybobs,5,0,5,5,2014-09-10,53.708101,-2.455386
161409,Wensley Fold CE Primary Academy,5,0,0,0,2014-11-05,53.749471,-2.507408
161410,Wensley Fold Childrens Centre,4,0,10,0,2014-04-25,53.748529,-2.504924
161411,Wensley Fold News,5,5,5,5,2014-10-10,53.745885,-2.498979
161412,Wensley Mini Market,AwaitingInspection,nan,nan,nan,,53.745672,-2.500296
161413,Wesley Hall,5,5,5,5,2014-07-08,53.747597,-2.486884
161414,Westbury Gardens U R Church,Exempt,nan,nan,nan,2013-05-30,53.746301,-2.452903
161415,Westend Catholic Youth Centre,Exempt,nan,nan,nan,2012-04-04,53.746679,-2.485099
161416,Westholme School,5,0,5,0,2013-06-26,53.754786,-2.533619
161417,WH Smiths,5,0,0,0,2015-01-22,53.736631,-2.466822
161418,Whalley New Road,5,0,5,5,2014-11-26,53.754958,-2.473637
161419,Whalley Range Pharmacy,Exempt,nan,nan,nan,2013-10-30,53.7538,-2.480009
161420,Wharf/Calypso Restaurant,5,5,0,0,2013-02-25,53.749221,-2.474179
161421,White Bull Inn,4,5,5,10,2015-01-16,53.728423,-2.500667
161422,White Horse,3,10,10,5,2013-08-12,53.647342,-2.391693
161423,White Lion,3,10,5,10,2013-06-24,53.695734,-2.469322
161424,Whitebirk Mini Market,3,5,10,10,2013-11-11,53.751486,-2.450942
161425,Whitecliffe Care Centre,4,10,5,5,2014-10-06,53.753652,-2.491958
161426,Whitehall Hotel,Exempt,nan,nan,nan,2015-01-07,53.681314,-2.465377
161427,Whittaker's Butchers,4,5,5,10,2014-11-20,53.748154,-2.482674
161428,Wignalls,5,5,0,0,2010-03-24,53.739816,-2.495087
161429,Wildflour Bakery Ltd,5,5,0,5,2013-09-26,53.778822,-2.477973
161430,Willow Tree Day Nursery,3,10,10,10,2014-07-08,53.752474,-2.496555
161431,Wine Cellar,3,5,10,10,2014-06-24,53.735337,-2.499961
161432,Witton Inn Public House,5,5,5,5,2014-06-11,53.741591,-2.506812
161433,Witton Park Academy,5,0,0,0,2014-02-05,53.741869,-2.511243
161434,Witton Park Pavilion Cafe,AwaitingInspection,nan,nan,nan,,53.740471,-2.516593
161435,Witton Pharmacy,Exempt,nan,nan,nan,2012-04-03,53.742593,-2.503853
161436,Wm Morrisons PLC,5,5,0,0,2014-09-17,53.748293,-2.479355
161437,Wokstar,2,5,15,10,2014-12-02,53.728418,-2.490906
161438,Woodlands United Reform Church,Exempt,nan,nan,nan,2011-05-19,53.730135,-2.524742
161439,Woods Craft Bakery,4,10,5,5,2014-11-19,53.775249,-2.479222
161440,Woodside House Care Ltd,4,0,0,10,2014-11-12,53.697035,-2.474304
161441,Woody's Rustic Pizza,Exempt,nan,nan,nan,,53.73246,-2.510795
161442,Yaseen Halal Meat,5,5,0,5,2013-03-12,53.748679,-2.494948
161443,Yip's Chippy,5,5,0,5,2014-12-05,53.712536,-2.482145
161444,Your Local Boots,Exempt,nan,nan,nan,2012-11-06,53.728448,-2.472203
161445,Your Local Boots Pharmacy,Exempt,nan,nan,nan,2014-09-04,53.728418,-2.490906
161446,Yummys Ices,5,0,0,0,2014-05-07,53.718488,-1.878844
161447,Yungs Chinese Takeaway,5,5,5,5,2015-01-23,53.692587,-2.460337
161448,Zabcia,3,10,10,10,2014-05-13,53.746792,-2.453863
161449,Zakros Greek Cuisine & Thai Noodles Bar,AwaitingInspection,nan,nan,nan,,53.748154,-2.482674
161450,Zakzaki Kebab House,Exempt,nan,nan,nan,2014-01-06,53.752033,-2.483401
161451,Zand's,3,10,5,10,2014-12-05,53.734085,-2.502856
161452,Zazz Takeaway,AwaitingInspection,nan,nan,nan,,53.764859,-2.507487
161453,Zen Zen Fish & Chips,4,5,5,10,2013-03-14,53.741396,-2.50634
161454,Zest Cafe Lounge,AwaitingInspection,nan,nan,nan,,53.686001,-2.461915
161455,Zy Bar,4,10,5,5,2014-11-25,53.746871,-2.4841
