,businessname,ratingvalue,structural,hygiene,confidenceinmanagement,ratingdate,latitude,longitude
70108,1st Class Pizza,5,5,0,5,2013-05-07,52.986319,-1.183221
70109,200 Degrees Coffee,4,10,10,0,2014-12-15,52.952788,-1.148621
70110,3 S Midland Ltd,Exempt,nan,nan,nan,2013-12-12,52.99939,-1.203165
70111,3CZ,5,5,0,5,2013-11-13,,
70112,4550 Miles From Delhi,5,5,0,0,2013-06-10,52.952489,-1.154476
70113,4am Cafe,5,5,5,0,2014-02-10,52.94493,-1.134771
70114,4get Me Knott,5,5,0,0,2013-05-15,,
70115,5 Star Catering,AwaitingInspection,nan,nan,nan,,52.948933,-1.171632
70116,7 Day Catering Ltd,5,5,0,5,2013-07-29,52.945447,-1.165582
70117,99p Stores,Exempt,nan,nan,nan,2010-09-23,52.950219,-1.147659
70118,A J Convenience,4,0,0,10,2013-03-21,52.981988,-1.198048
70119,A J R Catering,4,5,5,10,2010-05-19,,
70120,A J Taylor,4,0,0,10,2008-11-03,53.001626,-1.196135
70121,A K Stores,4,0,0,10,2008-12-17,52.968882,-1.161587
70122,A Wright Butchers,5,5,5,5,2014-10-02,52.974717,-1.155428
70123,A1 Caterers,3,10,10,10,2013-10-07,52.958289,-1.127404
70124,Abbeyfield Sycamore House,5,0,0,0,2014-06-12,52.986779,-1.141279
70125,Acacia Care,5,0,0,0,2014-04-30,52.974138,-1.153562
70126,Acacia Care Home - HC-One,5,5,0,5,2013-12-19,52.972231,-1.15978
70127,Academy Day Nursery,5,5,5,5,2014-12-15,53.01031,-1.173915
70128,Accessorize,Exempt,nan,nan,nan,2011-10-31,52.955631,-1.147612
70129,Accra Makola Market,4,5,5,10,2014-07-29,52.971353,-1.174375
70130,Acorn Resource Centre,5,0,0,0,2010-01-18,52.964978,-1.171548
70131,AD2,5,5,5,0,2013-01-18,52.954432,-1.140878
70132,Adam's & Lilly's,AwaitingInspection,nan,nan,nan,,52.958289,-1.127404
70133,Adams Fast Food Supplies,5,5,0,5,2013-05-02,52.945822,-1.117817
70134,Adams Restaurant and Brasserie,5,5,0,5,2014-10-14,52.952584,-1.143936
70135,Adam's Spice,2,15,15,10,2014-10-01,52.975723,-1.173219
70136,Admiral Rodney,5,5,0,0,2014-10-31,52.953222,-1.219702
70137,Adnan Sweets,5,5,5,5,2013-01-29,52.969751,-1.167645
70138,Adolescent Unit,5,0,0,0,2009-09-10,52.969287,-1.120616
70139,Advanex Europe Limited,5,0,0,0,2014-01-27,52.961433,-1.227146
70140,Afro Caribbean Community Centre,5,5,5,0,2015-01-05,52.967827,-1.142206
70141,Afro Caribbean Womens Group,4,5,0,10,2013-02-28,52.942712,-1.150039
70142,Agnieszka Potapczuk,Exempt,nan,nan,nan,,52.978431,-1.227007
70143,Ahir Stores,3,5,10,10,2013-05-28,52.954378,-1.122436
70144,Ahmed Dairies,Exempt,nan,nan,nan,2011-03-16,52.957168,-1.186152
70145,Alan Knight Butchers,5,5,5,0,2014-07-07,52.897302,-1.18928
70146,Albany House,5,5,5,0,2014-10-15,52.987168,-1.121312
70147,Albert Ball House,5,0,0,5,2011-02-03,53.00575,-1.167042
70148,Alchemy Cakes,AwaitingInspection,nan,nan,nan,,,
70149,Aldi Stores Ltd,AwaitingInspection,nan,nan,nan,,52.981052,-1.130073
70150,Aldi Stores Ltd,5,0,0,0,2014-08-21,52.957788,-1.145054
70151,Aldi Stores Ltd,AwaitingInspection,nan,nan,nan,,52.979178,-1.169683
70152,Aldi Stores Ltd,5,0,0,0,2012-06-26,52.963494,-1.180525
70153,Aldi Stores Ltd,5,0,5,0,2012-06-22,53.000667,-1.205943
70154,Aldos Cafe units 260/1-267/8,3,10,10,10,2014-02-06,52.955902,-1.146535
70155,ALEA Casino,5,5,5,5,2014-02-20,52.954917,-1.153372
70156,Alexandra Lodge,5,0,0,0,2013-07-22,52.973765,-1.140435
70157,Alfa,5,0,0,5,2014-02-05,52.963071,-1.134677
70158,Ali Food Store,1,15,5,20,2013-12-02,52.952454,-1.126048
70159,Ali Greengrocer,4,10,5,5,2012-06-07,52.958524,-1.166491
70160,Ali Halal Meat,1,15,10,20,2014-07-01,52.968584,-1.169171
70161,Ali's Fruit And Veg,3,10,5,10,2014-08-12,52.960287,-1.175613
70162,All Bar One,5,5,0,5,2014-01-14,52.951599,-1.145771
70163,Alley Cafe,2,15,10,10,2014-11-17,52.954158,-1.152881
70164,Alphabet Cakes,5,5,0,0,2014-05-22,52.962293,-1.144027
70165,Al-Shaam,AwaitingInspection,nan,nan,nan,,52.958524,-1.166491
70166,Amazing Thai Restaurant,5,5,5,5,2013-10-08,52.954919,-1.146168
70167,Amazing Thai Takeaway,1,15,10,20,2014-09-08,52.938046,-1.181972
70168,Ambergate News,5,5,5,5,2006-03-24,52.963922,-1.207807
70169,Ambergate Road Post Office,Exempt,nan,nan,nan,2011-09-29,52.963922,-1.207807
70170,Ambergate Supplies,5,0,0,5,2010-05-26,52.963922,-1.207807
70171,Ambleside Academy,5,0,5,5,2013-05-03,52.977221,-1.204317
70172,American Pizza,5,0,0,5,2011-06-28,52.96218507,-1.16957582
70173,Amico's Pizza,3,10,10,10,2015-01-15,52.902031,-1.172467
70174,Amigo,5,5,0,0,2012-08-21,52.943448,-1.185814
70175,Amigo Pizza,5,5,0,5,2014-11-04,52.947401,-1.182853
70176,Amigo's,4,5,5,10,2014-10-17,52.953713,-1.145879
70177,Amity Wellbeing Centre,4,5,5,10,2010-04-27,52.986779,-1.141279
70178,Ancaster Hall,5,0,5,0,2014-02-07,,
70179,Anchor Housing Association,5,0,0,0,2013-10-02,,
70180,Andalucia Shisha Bar,5,5,5,5,2012-10-26,52.958524,-1.166491
70181,Andover Post Office & Newsagents,Exempt,nan,nan,nan,2010-05-24,52.992584,-1.171437
70182,Andrew Marsden Butchers,4,5,10,5,2014-06-17,52.943117,-1.146355
70183,Andy's Fish Bar,5,5,5,5,2013-07-12,52.963765,-1.230544
70184,Andy's Plaice,5,5,0,0,2013-09-20,52.984947,-1.189026
70185,Andy's Salad Bar,4,10,0,5,2013-07-12,53.00051,-1.197243
70186,Angel Crafts,5,0,0,5,2010-12-15,,
70187,Angelo's Chippery,5,5,0,5,2014-02-14,53.005232,-1.208362
70188,Angels By Day,5,5,0,0,2014-02-28,52.947401,-1.182853
70189,Angels By Day,5,5,0,0,2014-02-21,53.011651,-1.189838
70190,Angie's Tucker,5,5,5,5,2014-02-26,52.978158,-1.135106
70191,Ania Polish Restaurant,5,0,5,5,2013-07-09,52.981409,-1.145884
70192,Ank Marvin Ltd,5,5,5,5,2013-02-28,52.971176,-1.139161
70193,Ann Summers Limited,Exempt,nan,nan,nan,2010-06-02,52.953942,-1.147854
70194,Annie's Burger Shack & Freehouse,5,0,0,0,2014-08-26,52.951978,-1.143412
70195,Annies Cakes,5,0,0,0,2013-01-17,,
70196,Anoki,1,10,5,20,2012-10-09,,
70197,Antalya Restaurant & Takeaway,5,5,5,5,2013-03-19,52.955413,-1.14982
70198,Antenna Business Centre,5,5,0,0,2014-06-20,52.95551,-1.143253
70199,Antonios Ice Cream Vans,5,5,5,5,2008-01-04,,
70200,Apollo Fish Bar,5,5,0,0,2013-10-04,52.996764,-1.192381
70201,Applegate Chemist,Exempt,nan,nan,nan,2006-03-15,52.958524,-1.166491
70202,April Delights,5,5,0,0,2013-06-20,52.998025,-1.176995
70203,Aramark Catering Ltd,5,5,0,0,2012-10-16,52.954583,-1.139476
70204,Arco Pizza,4,5,5,10,2013-10-22,52.948167,-1.173953
70205,Argos,Exempt,nan,nan,nan,2014-09-03,52.955496,-1.146335
70206,Argos,Exempt,nan,nan,nan,2011-07-21,52.950219,-1.147659
70207,Argos,Exempt,nan,nan,nan,2012-06-29,53.001626,-1.196135
70208,Argos Ltd,Exempt,nan,nan,nan,2011-08-25,52.931009,-1.162928
70209,Ark Day Nursery,5,5,0,0,2014-01-10,52.968576,-1.143963
70210,Arkwright Stores,4,0,5,10,2010-05-07,52.942524,-1.143852
70211,Arnold Road Care Home,5,0,0,0,2009-03-04,52.995417,-1.154994
70212,Arnold Road Off Licence,4,10,0,5,2011-08-10,52.988539,-1.17798
70213,Aromatic Ingredients Ltd,Exempt,nan,nan,nan,2013-09-02,52.946733,-1.11829
70214,Arriba,4,10,5,5,2012-07-26,52.953193,-1.152349
70215,Arthur & Elizabeth's Fish Bar,3,10,10,10,2014-12-16,52.971523,-1.20052
70216,Arun's Off Licence,5,5,0,5,2012-07-17,52.954408,-1.153903
70217,Ascot House,3,10,10,10,2014-12-03,52.978991,-1.149625
70218,Asda Stores Ltd,5,0,0,0,2013-04-29,52.966863,-1.16977
70219,Ashanti Mini Market,5,5,5,5,2014-01-28,52.953205,-1.137836
70220,Ashleigh House,5,5,0,0,2014-07-25,52.978765,-1.150791
70221,Ashram Hostel Catering,4,0,0,10,2008-09-25,52.962091,-1.164889
70222,Asian Flavaz,5,5,0,5,2013-06-04,52.981988,-1.198048
70223,Asian Sweet Shop,AwaitingInspection,nan,nan,nan,,52.958524,-1.166491
70224,Asiana,4,5,5,10,2013-05-13,52.962259,-1.146752
70225,Asiana Express,4,0,0,10,2013-05-09,52.953557,-1.142979
70226,Asiana Ltd,Exempt,nan,nan,nan,2014-11-05,53.007734,-1.217035
70227,Asim's Chemist,Exempt,nan,nan,nan,2014-08-20,52.949397,-1.127166
70228,Ask,5,0,0,0,2014-01-02,52.954165,-1.153892
70229,Aspley Fish Bar,0,15,10,30,2014-12-09,52.976991,-1.190307
70230,Aspley Neurodisability Unit,5,0,5,0,2014-12-15,52.963989,-1.200332
70231,Aspley Pentecostal Church,4,5,5,10,2014-08-20,52.971523,-1.20052
70232,Asquith Day Nursery (Nottingham),5,0,0,0,2014-10-16,52.96708,-1.185579
70233,Assemblies Of The First Born,5,0,0,0,2014-07-22,52.962924,-1.172153
70234,Athena Fish Bar,5,5,5,0,2014-08-15,52.979342,-1.170067
70235,Athina,5,5,5,5,2014-03-27,52.994018,-1.139214
70236,Atlas Deli Ltd,3,10,10,10,2014-11-27,52.953801,-1.146978
70237,Atrium,5,5,0,0,2014-02-10,52.954346,-1.188899
70238,Aubergine Cuisine,5,5,0,5,2012-01-26,52.954836,-1.143296
70239,Aubrey's Traditional Creperie,5,0,0,0,2013-12-18,52.954268,-1.153221
70240,Auction Room Cafe,5,0,0,5,2011-09-30,52.943813,-1.135671
70241,Aura,Exempt,nan,nan,nan,2009-04-23,52.969859,-1.184425
70242,Aurora Restaurant,3,10,10,10,2014-03-19,52.951457,-1.142232
70243,Autograph The Food People,AwaitingInspection,nan,nan,nan,,52.932812,-1.166152
70244,B&G,5,5,5,5,2012-01-05,52.95373678,-1.1414355
70245,B&M Bargains,Exempt,nan,nan,nan,2009-12-02,53.00051,-1.197243
70246,B&M Stores,5,0,0,5,2011-02-10,52.945647,-1.133224
70247,Baa Bar,5,0,0,5,2012-05-03,52.953888,-1.142749
70248,Bad Juju Tiki Bar,5,5,5,5,2010-07-21,52.95416,-1.144381
70249,Badyal News,5,5,5,5,2007-09-10,52.977758,-1.164602
70250,Bag O Nails,5,5,5,5,2012-03-07,52.94987,-1.174531
70251,Bagel Nash,5,0,5,5,2013-04-16,52.952609,-1.149949
70252,Baked By Me,5,5,5,0,2014-05-20,,
70253,Bakersfield and Neighbourhood Community Ass,5,5,5,5,2010-03-22,52.955985,-1.118489
70254,Bakes,AwaitingInspection,nan,nan,nan,,52.991432,-1.186819
70255,Bakes & Banquets,5,5,5,5,2011-05-24,,
70256,Bakes English & Caribbean Restaurant & Takeaway,2,0,15,10,2014-04-29,52.991432,-1.186819
70257,Bal News N Booze,5,5,5,5,2012-09-25,52.99302,-1.18381
70258,Balisier Court,5,0,5,5,2012-01-17,,
70259,Balloon Woods Playgroup,5,5,5,5,2007-09-14,52.942098,-1.222524
70260,Balti House Tandoori,1,15,5,20,2015-01-20,52.954836,-1.143296
70261,Bambuu,4,10,5,5,2014-09-04,52.951978,-1.143412
70262,Banjo Catering c/o Leisure Centre,5,5,5,5,2012-11-09,52.989286,-1.160074
70263,Bank Public House,5,5,5,0,2013-11-14,52.95315,-1.151457
70264,Bar,AwaitingInspection,nan,nan,nan,,52.953446,-1.1438
70265,Bar,AwaitingInspection,nan,nan,nan,,52.947164,-1.146543
70266,Bar Schnapps,4,10,0,5,2012-06-25,52.953193,-1.152349
70267,Barburrito,5,0,0,0,2013-06-13,52.954303,-1.149201
70268,Bargain Booze,Exempt,nan,nan,nan,2014-08-28,52.962489,-1.119205
70269,Bargain Booze,AwaitingInspection,nan,nan,nan,,52.982671,-1.14504
70270,Bargain Booze,5,5,5,0,2009-10-30,52.955383,-1.149463
70271,Bargain Booze,4,0,0,10,2007-05-03,52.971523,-1.20052
70272,Bargain Booze,5,5,0,0,2010-07-27,52.959574,-1.168793
70273,Bargain Booze,Exempt,nan,nan,nan,2011-10-12,52.964939,-1.227129
70274,Bargain Booze,AwaitingInspection,nan,nan,nan,,52.898062,-1.180941
70275,Bargain Booze Plus,4,0,5,10,2010-08-18,53.002756,-1.156818
70276,Barry Blake,5,0,5,0,2011-01-21,52.964822,-1.225791
70277,Base 51,5,5,5,5,2009-12-21,52.955742,-1.145541
70278,Baseline Cafe,3,5,10,10,2014-02-06,52.94981,-1.176993
70279,Basford Hall Miners Welfare,5,0,5,5,2012-09-20,52.987118,-1.198996
70280,Basford News,4,0,0,10,2010-06-21,52.984947,-1.189026
70281,Basford Pork Cobs,5,0,0,0,2013-05-31,52.980568,-1.180931
70282,Basford United Football Club,Exempt,nan,nan,nan,2013-10-28,52.985624,-1.189431
70283,Batleys Plc,5,5,5,5,2010-02-01,53.008281,-1.207263
70284,Baxter Storey Ltd,5,5,5,0,2014-03-27,52.959771,-1.210801
70285,Baxter Storey Ltd,5,0,0,0,2013-11-14,52.988364,-1.205051
70286,Baxter Storey Ltd,Exempt,nan,nan,nan,2010-03-04,52.951752,-1.15589
70287,Baxterstorey,5,0,0,0,2013-07-26,52.956529,-1.149961
70288,BBQ Express,5,5,0,5,2013-11-18,52.953464,-1.124122
70289,BBQ Unique,5,0,0,5,2013-08-01,52.981409,-1.145884
70290,Beacon Hotel,5,0,0,5,2007-06-25,52.972935,-1.210099
70291,Beaumont Street Community Centre,4,5,5,10,2010-12-16,,
70292,Becca House,5,5,5,5,2011-08-18,52.984305,-1.149849
70293,Beccy's Global Kitchen,4,5,5,10,2014-02-27,52.953872,-1.140606
70294,Beckhampton Learning Centre,5,0,0,0,2010-09-30,52.997008,-1.155052
70295,Bed & Breakfast,AwaitingInspection,nan,nan,nan,,52.98933,-1.201741
70296,Beech Plaice,3,5,10,10,2014-02-11,52.971899,-1.161067
70297,Beechdale Community Centre,5,0,0,5,2014-01-08,52.963922,-1.207807
70298,Beechdale House Nursing Home,5,5,0,5,2014-03-21,52.966711,-1.205508
70299,Beechdale Manor Care Home,5,5,5,0,2014-01-16,52.972805,-1.217532
70300,Beechdale Pub,5,5,5,5,2013-05-08,52.962927,-1.202867
70301,Bees News,5,5,0,5,2006-02-06,52.97217,-1.201759
70302,Beijing Garden,5,5,5,5,2014-12-09,52.992584,-1.171437
70303,Belgian Waffle,AwaitingInspection,nan,nan,nan,,,
70304,Belinda's Bakery,4,10,0,0,2013-08-14,52.953464,-1.124122
70305,Bell Inn,5,5,5,5,2013-01-10,52.953554,-1.152565
70306,Bella Italia,5,5,0,0,2012-11-27,52.956218,-1.1504
70307,Belle Vue Nursing Home,5,5,0,0,2014-10-17,52.979653,-1.132961
70308,Belly Delicious,5,0,0,0,2014-10-10,52.977758,-1.164602
70309,Belvoir Lodge,5,0,0,0,2012-10-12,52.994604,-1.153133
70310,Bentinck Primary School,5,0,0,0,2013-11-14,52.962393,-1.169543
70311,Berridge Infants School,5,5,0,0,2014-06-30,52.965667,-1.177535
70312,Berridge Junior School,5,5,0,0,2014-06-26,52.965667,-1.177535
70313,Berry Berry Tang Tang Treats,AwaitingInspection,nan,nan,nan,,52.962109,-1.11037
70314,Berry Tasty,3,10,10,5,2013-11-22,52.964939,-1.227129
70315,Best Choice,5,0,0,5,2014-06-04,52.963114,-1.151932
70316,Best Food Takeaway,2,10,15,10,2013-03-11,52.991432,-1.186819
70317,Best One,4,5,5,10,2014-08-19,52.954378,-1.122436
70318,Bestways Newsagent,5,5,5,5,2007-12-31,52.970704,-1.162549
70319,Bestwood & Bulwell Food Bank,Exempt,nan,nan,nan,2014-03-11,53.00533,-1.16866
70320,Bestwood Child Care,5,5,0,0,2014-07-18,52.994831,-1.166269
70321,Bestwood Convenience Store,4,0,0,10,2010-06-21,52.99418,-1.16062
70322,Bestwood Day Centre,5,5,0,5,2011-05-12,53.015792,-1.185393
70323,Bestwood Fisheries,5,5,0,5,2014-07-30,52.99418,-1.16062
70324,Bestwood Fryer,4,10,5,5,2014-02-18,53.002756,-1.156818
70325,Bestwood Off Licence,4,0,0,10,2009-03-18,53.006843,-1.157543
70326,Bestwood Off Licence & Groceries,4,10,5,5,2014-06-24,52.993805,-1.175049
70327,Bestwood Park Community Centre,5,5,5,0,2005-05-23,53.0084981612,-1.15689948003
70328,Bestwood Road Sports And Social,5,5,5,5,2007-12-27,53.006621,-1.189023
70329,Bestwood Stores,5,5,0,5,2013-03-07,52.997984,-1.160755
70330,Bev's Caterers,4,10,0,10,2012-08-29,52.942712,-1.150039
70331,Bexon's Munch Box,4,10,5,5,2013-09-24,52.952276,-1.132511
70332,Bhaji,1,15,15,20,2014-10-30,52.971401,-1.18648
70333,Bhooka.co.uk,5,0,5,5,2011-11-15,,
70334,Biedronka Mini Market,5,5,5,5,2009-07-14,52.964245,-1.169523
70335,Big Eats Bulwell,5,5,5,5,2014-12-15,53.001626,-1.196135
70336,Bilal Food Store,2,15,10,10,2014-07-15,52.964245,-1.169523
70337,Bilborough Community Centre,5,5,5,5,2007-06-21,52.963976,-1.231061
70338,Bilborough Convenience Store,5,5,0,5,2013-05-31,52.96373,-1.221016
70339,Bilborough Pelican FC,5,5,0,5,2012-10-23,52.935801,-1.171897
70340,Bills Restaurants,5,5,5,0,2014-06-26,52.95449,-1.150314
70341,Billy's Fish Bar,5,0,0,5,2013-10-31,52.987489,-1.179534
70342,Biocity Cafe Nottingham,5,5,5,5,2013-05-30,52.951237,-1.136744
70343,Biology Cafe,5,0,0,0,2013-11-18,52.941259,-1.186495
70344,Birchover Park,5,5,5,5,2007-09-08,52.958044,-1.239682
70345,Birchwood Price Tools,Exempt,nan,nan,nan,,53.008278,-1.192181
70346,Birds The Confectioners,5,0,5,0,2014-08-20,53.001626,-1.196135
70347,Birds The Confectioners,5,0,0,0,2014-06-20,52.903291,-1.17784
70348,Birds The Confectioners,5,5,5,5,2013-08-22,52.982671,-1.14504
70349,Birds The Confectioners,5,5,0,0,2013-06-20,52.946421,-1.231298
70350,Birds The Confectioners,5,0,0,5,2013-11-06,52.952788,-1.148621
70351,Birds The Confectioners,5,5,5,5,2013-02-18,52.957181,-1.146942
70352,Bismillah Food Store,5,0,0,5,2013-09-10,52.964121,-1.17892
70353,Bistro Live,5,0,0,5,2012-05-01,52.95271,-1.142713
70354,Black Angel Creations,5,0,0,0,2014-11-27,,
70355,Blacks,Exempt,nan,nan,nan,2011-01-19,52.952701,-1.14898
70356,Blacks,Exempt,nan,nan,nan,2011-05-03,,
70357,Blessed Robert Widmerpool Catholic Voluntary,5,0,5,5,2014-09-19,52.89764,-1.178422
70358,Blue Bell Hill Community Centre Afterschool Club,5,5,5,5,2010-03-23,52.958462,-1.135052
70359,Blue Bell Hill School,5,0,0,0,2014-02-07,52.961572,-1.128886
70360,Blue Marlin Ltd,4,10,0,0,2014-03-21,53.001626,-1.196135
70361,Blue Seven General Store,4,5,0,10,2008-06-06,52.991432,-1.186819
70362,Bluecoat Academy,5,5,0,0,2013-01-23,52.952971,-1.195563
70363,Bluecoat Academy,4,10,0,10,2014-10-14,52.968937,-1.192929
70364,Bobbersmill Community Centre,4,0,0,10,2010-07-15,52.966325,-1.177821
70365,Bobbies Ices,5,0,0,0,2014-05-06,,
70366,Bobby's Off Licence,4,0,0,10,2010-06-22,52.969802,-1.168433
70367,Bob's  Shop,5,5,0,0,2013-12-19,52.984947,-1.189026
70368,Boiler Maker,5,0,5,0,2014-08-27,52.953469,-1.144514
70369,Bombay Delight,1,15,15,20,2013-06-26,52.951445,-1.151803
70370,Bombay Indian Takeaway,1,15,15,20,2015-01-15,52.978583,-1.157944
70371,Bombay Nights,5,5,5,5,2013-11-26,52.970873,-1.197405
70372,Bombay Sweet Centre Takeaway,3,10,10,10,2014-10-06,52.966506,-1.17146
70373,Bonzai Sushi & Noodle Bar,5,5,5,5,2013-12-23,52.95381,-1.144448
70374,Booker Cash & Carry,5,5,0,5,2014-12-09,52.931324,-1.181043
70375,Boost Juice Bar,5,5,5,5,2013-04-29,52.957396,-1.148113
70376,Boots,Exempt,nan,nan,nan,2014-04-24,,
70377,Boots D105 Canteen,5,0,0,5,2013-03-19,52.927147,-1.184112
70378,Boots D80 Cafe,5,5,5,0,2013-03-19,52.927147,-1.184112
70379,Boots D82 Buffet Bars,5,0,5,0,2013-03-19,52.927147,-1.184112
70380,Boots D90 Restaurant,4,10,10,0,2014-11-11,52.927147,-1.184112
70381,Boots D90 Staff Shop,5,0,0,0,2012-08-10,52.929187,-1.174894
70382,Boots D94 Takeaway,5,0,5,5,2013-03-19,52.948287,-1.141402
70383,Boots Pharmacy,Exempt,nan,nan,nan,2011-08-25,52.932818,-1.165705
70384,Boots Staff Canteen,4,5,10,5,2014-10-29,52.955606,-1.146675
70385,Boots The Chemist,Exempt,nan,nan,nan,2012-08-02,52.941259,-1.186495
70386,Boots The Chemist,5,5,5,5,2012-08-02,52.941259,-1.186495
70387,Boots The Chemists,Exempt,nan,nan,nan,2011-07-18,52.953989,-1.151842
70388,Boots The Chemists Ltd,Exempt,nan,nan,nan,2011-05-23,52.981409,-1.145884
70389,Boots The Chemists Ltd,Exempt,nan,nan,nan,2011-07-13,52.949346,-1.148688
70390,Boots The Chemists Ltd,Exempt,nan,nan,nan,2012-05-31,53.00143,-1.197763
70391,Boots The Chemists Ltd,Exempt,nan,nan,nan,2012-05-04,52.903291,-1.17784
70392,Boots The Chemists Ltd,Exempt,nan,nan,nan,2014-09-05,52.955606,-1.146675
70393,Boots Warehouses D82 D105,Exempt,nan,nan,nan,2014-08-28,52.948287,-1.141402
70394,Booze Barn,5,0,0,5,2011-05-23,52.972558,-1.152596
70395,Booze Box Local Convenience,5,0,0,5,2014-05-06,52.996764,-1.192381
70396,Booze Busters,Exempt,nan,nan,nan,2014-07-30,52.94987,-1.174531
70397,Booze Corner,4,5,5,10,2014-05-21,52.960232,-1.104557
70398,Booze Stop,Exempt,nan,nan,nan,2012-05-24,52.95534,-1.179071
70399,Bowery Club,5,5,5,5,2014-10-28,52.952492,-1.146096
70400,Boys And Girls Football Club,AwaitingInspection,nan,nan,nan,,52.902259,-1.176833
70401,Bradbury's Bakery,5,5,5,5,2014-06-06,52.99545,-1.190826
70402,Brass Monkey,5,5,0,0,2012-08-08,52.951244,-1.145153
70403,Breakers,2,15,10,10,2014-11-17,52.950219,-1.147659
70404,Brew Cavern,AwaitingInspection,nan,nan,nan,,52.952788,-1.148621
70405,Brewdog,5,5,5,0,2014-03-04,52.954119,-1.143712
70406,Bridge Sandwich Bar,5,5,5,5,2014-07-28,,
70407,Bridgeway Fish Bar,3,10,10,10,2015-01-08,52.943117,-1.146355
70408,Bridgeway Fresh Fruit and Veg,5,5,5,5,2012-05-03,52.943117,-1.146355
70409,Britannia Hotel,5,5,0,0,2013-06-27,52.951705,-1.154209
70410,Britanya,5,5,5,0,2014-05-19,52.992869,-1.169808
70411,British Home Stores,5,5,5,5,2013-06-17,52.950219,-1.147659
70412,Broadgate Cafe,5,0,0,0,2014-05-22,52.933882,-1.208251
70413,Broadgate Shop,5,0,0,0,2014-05-22,52.933882,-1.208251
70414,Broadway Cinema,5,5,5,5,2014-08-28,52.954119,-1.143712
70415,Brocklewood Primary,5,5,0,5,2014-10-16,52.972762,-1.219201
70416,Brother's Food Store,5,0,0,5,2014-07-22,,
70417,Brown Bettys,3,10,10,10,2013-12-09,52.952769,-1.152253
70418,Browne Jacobson,Exempt,nan,nan,nan,2014-04-22,52.947291,-1.15294
70419,Brownies Cafe,5,5,0,0,2013-07-25,52.983582,-1.144292
70420,Browns Bar & Brasserie,5,5,0,0,2013-07-10,52.951989,-1.156361
70421,Broxtowe Cafe,5,5,5,0,2012-12-17,52.974621,-1.214789
70422,Broxtowe Curry House,5,0,0,0,2013-06-04,52.981988,-1.198048
70423,Broxtowe Fish Bar,4,5,10,5,2015-01-14,52.974621,-1.214789
70424,Bucovina Restaurant,5,5,0,5,2012-10-23,52.958524,-1.166491
70425,Budget Wise,5,5,5,5,2012-05-03,53.001698,-1.197415
70426,Buffets2Go,5,0,0,0,2008-06-19,,
70427,Building Trades Social Club,4,0,0,10,2008-09-25,52.950642,-1.126665
70428,Built Environment Coffee Bar,5,0,0,0,2014-01-31,52.941259,-1.186495
70429,Bulwell Balti House,5,0,0,5,2011-10-13,,
70430,Bulwell Childcare Centre,5,0,5,5,2014-02-13,52.996107,-1.204164
70431,Bulwell Christian Fellowship,5,5,5,5,2014-02-13,53.002527,-1.197787
70432,Bulwell Church Institute,5,0,0,0,2009-11-19,52.999595,-1.197588
70433,Bulwell Forest Golf Club Catering,AwaitingInspection,nan,nan,nan,,53.001734,-1.180352
70434,Bulwell Grill Takeaway,AwaitingInspection,nan,nan,nan,,53.004755,-1.193603
70435,Bulwell News & General Store,4,0,0,10,2010-06-30,53.010806,-1.191061
70436,Bulwell Riverside Cafe,5,5,0,5,2014-03-21,53.010239,-1.188077
70437,Bunk Bar and Grill,AwaitingInspection,nan,nan,nan,,52.952938,-1.143155
70438,Bunkers Hill,5,5,5,5,2012-06-07,52.953529,-1.140405
70439,Burger King,5,5,0,0,2013-11-04,52.955315,-1.148646
70440,Burger King,5,5,5,5,2013-10-10,52.945647,-1.133224
70441,Burlington Villa,5,5,5,5,2011-08-18,52.983925,-1.149439
70442,Burrows & Close,Exempt,nan,nan,nan,2004-04-20,53.002756,-1.156818
70443,Burrows & Close Ltd,Exempt,nan,nan,nan,2006-03-22,52.9983,-1.197418
70444,Burrows and Close,Exempt,nan,nan,nan,2009-12-10,52.956314,-1.166668
70445,Bus Station Cafe,4,5,10,0,2014-01-14,52.999557,-1.197201
70446,Busy Bees,5,5,5,5,2014-10-10,52.989286,-1.160074
70447,Busy Bees At Milford School,5,5,5,0,2014-09-24,52.899437,-1.176946
70448,Busy Bees Day Nursery,5,5,5,0,2014-07-31,52.950494,-1.225957
70449,Busy Bees Nursery,5,0,0,0,2014-01-16,52.941259,-1.186495
70450,Bytes Fish & Kebab,AwaitingInspection,nan,nan,nan,,52.958524,-1.166491
70451,BZR,5,0,0,0,2013-02-01,52.95163,-1.143761
70452,C Morley,5,5,5,5,2010-05-14,53.001626,-1.196135
70453,C Pegg,5,0,0,0,2014-08-20,,
70454,C Pegg,5,0,0,0,2014-08-20,52.965796,-1.170208
70455,C Pegg,5,0,0,0,2014-08-20,52.953976,-1.138729
70456,C Pegg,5,0,0,0,2014-08-20,52.962913,-1.138663
70457,C T Clements,5,5,5,5,2012-11-26,52.979431,-1.208208
70458,"C, M and E Sweets",5,0,0,5,2010-07-07,,
70459,Cafe,4,0,0,10,2009-12-02,52.958044,-1.239682
70460,Cafe,AwaitingInspection,nan,nan,nan,,52.963114,-1.151932
70461,Cafe 101,5,5,5,0,2014-02-06,52.948036,-1.155426
70462,Cafe Art,5,0,0,0,2013-05-01,52.979578,-1.126454
70463,Cafe Aspire,5,5,0,0,2014-02-25,52.954346,-1.188899
70464,Cafe Bonington,4,0,10,0,2014-06-05,52.958785,-1.153698
70465,Cafe Chaucer,5,0,5,0,2013-11-18,52.957598,-1.154972
70466,Cafe Darwin,5,0,0,0,2014-05-12,52.912098,-1.185272
70467,Cafe Goldsmith,5,0,0,0,2013-11-18,52.956173,-1.152975
70468,Cafe Hockley,2,15,10,10,2014-09-24,52.953966,-1.143641
70469,Cafe In The Courtyard,5,5,5,5,2013-07-05,52.947789,-1.210974
70470,Cafe Library,5,0,0,0,2014-02-10,52.954346,-1.188899
70471,Cafe Remedy,4,0,10,0,2014-06-11,52.943448,-1.185814
70472,Cafe Sneinton,3,10,10,10,2012-03-28,52.950488,-1.126385
70473,Cafe Terrazzo,5,5,5,0,2014-02-10,52.954925,-1.197604
70474,Cafe Trent,5,0,0,0,2013-12-04,52.941259,-1.186495
70475,Cafe Victoria,AwaitingInspection,nan,nan,nan,,52.956477,-1.146494
70476,Cafe Zest,5,5,5,0,2015-01-14,52.957908,-1.148029
70477,Caffe Nero,5,5,0,0,2013-11-06,52.952506,-1.150695
70478,Caffe Nero,5,0,0,0,2013-05-23,52.955413,-1.14982
70479,Caffe Nero,5,0,0,5,2014-03-10,52.948281,-1.148129
70480,Caffe Nero,4,10,0,0,2010-05-14,52.952507,-1.147049
70481,Caffe Nero,5,5,0,5,2013-06-19,52.953554,-1.152565
70482,Caffe Nero,5,5,0,0,2013-03-11,52.956224,-1.148851
70483,Cagla,5,5,5,5,2011-11-17,52.960316,-1.150334
70484,Cake Box,Exempt,nan,nan,nan,2008-05-07,52.969875,-1.173807
70485,Cake By Kalistrophy,5,0,0,0,2012-02-01,,
70486,Cake City,5,0,5,5,2014-05-12,52.95582,-1.162837
70487,Cake Fashionista,5,5,5,5,2012-01-12,,
70488,Cakelicious Pops,AwaitingInspection,nan,nan,nan,,,
70489,Cakes By Maine,5,0,0,0,2014-06-05,,
70490,Cakes N Shakes,5,5,0,5,2014-03-14,52.964978,-1.171548
70491,Caleo Cafe,AwaitingInspection,nan,nan,nan,,52.955808,-1.135983
70492,Calypso Outdoor Catering,5,0,0,5,2012-08-18,52.956082,-1.146666
70493,Canalhouse Bar and Restaurant,4,10,5,5,2014-02-04,52.94811,-1.149412
70494,Canning (Chemists) Ltd,Exempt,nan,nan,nan,2011-07-08,52.95315,-1.151457
70495,Canning (Chemists) Ltd,Exempt,nan,nan,nan,2005-09-29,52.955954,-1.166585
70496,Canteen & Bar,5,0,0,0,2013-09-19,52.941285,-1.17459
70497,Canton Chef,2,10,15,10,2014-12-09,52.94268,-1.179995
70498,Cantrell Primary School,5,0,0,0,2014-09-10,53.00105,-1.188084
70499,Cape,4,10,5,5,2014-04-17,52.95351,-1.146493
70500,Capenwray Off-Licence,5,0,0,0,2010-08-13,53.0072,-1.147089
70501,Cappuchaino,5,0,0,5,2014-04-15,52.948281,-1.148129
70502,Capstone Care Provider,5,0,0,0,2011-08-22,52.979059,-1.173334
70503,Captain Cod,4,10,5,5,2014-02-18,52.982914,-1.161583
70504,Card Factory,Exempt,nan,nan,nan,2012-07-10,52.903291,-1.17784
70505,Card Factory,Exempt,nan,nan,nan,2012-07-06,52.950219,-1.147659
70506,Card Factory,Exempt,nan,nan,nan,2012-09-18,53.00051,-1.197243
70507,Card Factory,Exempt,nan,nan,nan,2013-04-24,52.95652,-1.147461
70508,Carers Federation Ltd,4,0,0,10,2011-10-05,53.011992,-1.142445
70509,Carewatch In Nottingham,5,5,0,5,2013-08-22,52.964451,-1.142779
70510,Caribbean De Lite,4,5,5,10,2014-02-06,52.951638,-1.122715
70511,Caribbean Flavours,3,10,5,10,2013-12-19,52.958892,-1.167705
70512,Caribbean Queen,2,15,10,10,2014-08-13,52.98078,-1.147118
70513,Caribbean Twist,3,10,10,10,2014-08-14,52.955563,-1.186748
70514,Carillion PLC,5,0,0,0,2014-12-17,52.989286,-1.160074
70515,Carillion PLC,AwaitingInspection,nan,nan,nan,,52.943448,-1.185814
70516,Carisbrooke Nursing Home,5,5,0,0,2013-10-31,52.974561,-1.147374
70517,Carlton Road Convenience Store,5,5,5,5,2013-08-22,52.956262,-1.131732
70518,Carluccios Caffe,5,5,5,5,2013-07-23,52.95138,-1.1478
70519,Carmelas Kitchen FY51 0YL,5,0,5,5,2014-06-27,,
70520,Carrington Day Nursery,5,0,5,0,2014-10-29,52.972558,-1.152596
70521,Carrington House Residential Home,5,5,5,5,2014-01-17,52.973907,-1.157766
70522,Carrington Off Licence,AwaitingInspection,nan,nan,nan,,52.974717,-1.155428
70523,Carrington Pharmacy,Exempt,nan,nan,nan,2011-05-23,52.972558,-1.152596
70524,Carrington Primary School,5,0,0,0,2013-05-20,52.972937,-1.154167
70525,Carrington Service Station,5,0,0,0,2006-03-15,52.974468,-1.155745
70526,Carringtons,3,10,10,5,2014-12-30,52.94797,-1.147346
70527,Caspian Kebabs,1,20,20,10,2014-12-11,52.956656,-1.162835
70528,Cast,5,5,5,5,2013-11-22,52.953707,-1.157653
70529,Castle Gym,Exempt,nan,nan,nan,2007-02-08,,
70530,Castle Meadow Wines,5,0,0,0,2012-08-20,52.946819,-1.153619
70531,Castle Rock Brewery Mobile Bar,5,5,0,0,2014-07-09,52.945605,-1.148509
70532,Catchems Corner,5,0,5,0,2011-01-05,52.989015,-1.184466
70533,Cater 4 Kids,Exempt,nan,nan,nan,2013-07-12,52.960817,-1.204618
70534,Caterers N2T,4,5,5,10,2012-10-05,,
70535,Catering Academy,5,0,0,0,2013-11-04,52.980008,-1.187093
70536,Cath Kidston,Exempt,nan,nan,nan,2014-04-16,52.952507,-1.147049
70537,Caulton Cakes,5,0,0,0,2011-05-18,,
70538,Cavanagh's,5,0,0,0,2014-11-17,,
70539,Cavendish Cafe,5,5,0,0,2014-02-12,52.938779,-1.201272
70540,Cavendish Hall,5,5,0,0,2014-02-12,52.9362,-1.205382
70541,CC Cake Creations,5,0,0,5,2014-09-18,52.953165,-1.176507
70542,Central Catering,4,0,0,10,2007-10-15,52.941259,-1.186495
70543,Central College Nottingham,5,0,0,5,2011-09-23,52.946275,-1.139239
70544,Central College Nottingham,5,0,0,0,2014-03-18,52.936723,-1.186967
70545,Central College Nottingham,5,5,0,5,2014-04-03,52.950278,-1.152019
70546,Central College Nottingham,5,5,5,0,2014-06-20,52.901467,-1.166441
70547,Central England Co-operative,AwaitingInspection,nan,nan,nan,,52.913394,-1.173782
70548,Central England Co-operative,5,0,0,0,2014-04-22,52.946419,-1.232504
70549,Central Methodist Mission - Wesley's,4,0,5,10,2014-07-15,52.954919,-1.146168
70550,Central Methodist Mission Lunch Club,4,10,5,5,2014-05-27,52.954919,-1.146168
70551,Central News Food And Wine,4,0,0,10,2012-05-10,52.903213,-1.19137
70552,Century Cafe,5,5,5,0,2014-08-26,52.943448,-1.185814
70553,Chahal Convenience Store,5,0,0,5,2010-11-23,52.960786,-1.164616
70554,Chai Roti,AwaitingInspection,nan,nan,nan,,52.946419,-1.232504
70555,Chai Yo Thai Restaurant,4,5,5,10,2011-01-10,52.954945,-1.153565
70556,Chambers,AwaitingInspection,nan,nan,nan,,52.952005,-1.153548
70557,Charity Shop,3,10,10,10,2014-06-09,52.966262,-1.128568
70558,Charlie's Coffee Bar,5,0,0,0,2013-11-27,52.951407,-1.15027
70559,Charlie's Jackets,5,5,5,5,2013-12-04,,
70560,Charray's Cakes,5,0,0,0,2011-08-15,,
70561,Chartwell Compass Group,5,5,0,5,2013-09-12,52.935801,-1.171897
70562,Chartwells,5,5,0,5,2014-04-23,52.966662,-1.234959
70563,Chase Lunch Club,5,5,5,0,2013-03-13,,
70564,Chase Tavern,5,5,5,5,2007-12-19,52.962786,-1.137541
70565,Chasing Dragon,5,5,5,0,2014-06-17,52.964245,-1.169523
70566,Cheers,4,0,0,10,2007-05-11,52.955656,-1.171563
70567,Chennai Spices Ltd,3,10,5,10,2013-11-05,52.971353,-1.174375
70568,Cherry and Rose Cakes,5,0,0,0,2013-12-18,,
70569,Cherry Trees Resource Centre,5,0,0,0,2013-10-04,53.0032,-1.152249
70570,Cherubs Cool Club,5,5,0,0,2013-12-04,52.998158,-1.183221
70571,Cherubs Day Nursery,5,5,0,0,2013-12-04,52.999637,-1.183894
70572,Chewy Tropicana,5,0,5,5,2014-04-25,52.958874,-1.167631
70573,Chez Coors,3,10,10,10,2013-03-06,52.961218,-1.150807
70574,Chicago Pizza,0,20,15,20,2014-11-11,52.976991,-1.190307
70575,Chick Chick,5,5,5,0,2014-02-25,52.954378,-1.122436
70576,Childrens Residential Services,5,0,5,5,2011-09-09,52.992305,-1.151047
70577,Chilli Hut,1,10,5,20,2013-06-18,52.964121,-1.17892
70578,Chilli Pepper,5,5,5,5,2014-09-01,52.952276,-1.132511
70579,Chillis Sherwood,3,10,10,10,2014-01-16,52.981763,-1.146368
70580,China City,4,5,10,5,2014-11-06,52.99545,-1.190826
70581,China Express,5,5,5,5,2013-10-16,52.976158,-1.189384
70582,China Garden,5,5,5,5,2013-03-06,52.985617,-1.204297
70583,China House,1,15,15,20,2014-12-31,52.958524,-1.166491
70584,China Taste,5,5,0,5,2013-10-02,52.962076,-1.151297
70585,Chingford Stores,4,0,0,10,2007-08-09,52.968646,-1.224844
70586,Chip Box,5,0,5,5,2013-11-01,52.947401,-1.182853
70587,Chiquitos,5,5,5,5,2014-01-20,,
70588,Chiquitos Restaurant And Bar,5,5,0,0,2013-06-05,52.955829,-1.150213
70589,Chocolate Utopia,5,5,5,5,2011-08-01,52.95239,-1.152067
70590,Chopstix,5,5,5,5,2013-04-15,52.954293,-1.147877
70591,Christ Church Church Hall,4,10,0,0,2001-03-08,52.983772,-1.19727
70592,Christian Centre,5,5,0,0,2014-02-07,52.956846,-1.157919
70593,Christine's Community Cafe,5,5,5,5,2014-09-15,52.986264,-1.143449
70594,Chucks Wagon,4,10,5,5,2014-01-20,52.950219,-1.147659
70595,Chunky Chicken,5,5,5,5,2014-07-23,52.957766,-1.150771
70596,Chunkys Cob Shop,AwaitingInspection,nan,nan,nan,,53.003452,-1.202911
70597,Churchfield News & Booze,1,10,5,20,2013-04-18,52.96172,-1.180007
70598,Churchfield Nursing Home,5,5,0,0,2014-10-31,52.960198,-1.181019
70599,Chutney Jacks,5,5,5,5,2013-06-26,52.951815,-1.152019
70600,Cinderhill Community Centre,5,5,5,5,2007-12-18,52.983163,-1.208334
70601,Cinderhill Gymnasium,5,5,5,5,2011-10-21,52.983772,-1.19727
70602,Cinderhill Pharmacy,Exempt,nan,nan,nan,2004-08-18,52.981988,-1.198048
70603,Cinderhill Stores,5,5,0,5,2011-06-02,52.991725,-1.198181
70604,Cine World,5,5,0,0,2014-06-02,52.955829,-1.150213
70605,Citi Health Nottingham,4,0,0,10,2011-01-04,53.006128,-1.211923
70606,City Chicken Cafe,5,5,5,5,2013-07-25,52.958206,-1.149437
70607,City Kebab House,4,5,5,10,2014-04-10,52.953932,-1.146366
70608,City Munch,1,15,15,20,2014-08-05,52.956488,-1.163226
70609,City Off Licence,1,5,5,20,2013-05-07,52.952607,-1.124824
70610,City Off Licence,4,10,5,5,2009-08-13,52.958206,-1.149437
70611,City Repair Karaoke Lounge Club,4,10,5,5,2011-10-19,52.957648,-1.144372
70612,CityCare Connect,5,0,5,5,2014-11-28,52.991556,-1.173543
70613,Claremont Primary School,4,10,0,10,2014-06-18,52.9736,-1.15886
70614,Clarence Hotel,5,5,0,5,2010-05-07,52.962202,-1.171795
70615,Clayfield Convenience Store,5,5,0,0,2014-02-14,52.99679,-1.204181
70616,Clementine Bakery,5,0,0,5,2011-09-27,,
70617,Clifton Children's Centre,5,0,0,0,2013-05-10,52.910114,-1.173919
70618,Clifton Cobs,5,0,5,5,2014-07-28,52.910475,-1.171547
70619,Clifton Community Centre,5,0,5,0,2014-09-24,52.910475,-1.171547
70620,Clifton Convenience Store,5,0,0,0,2014-05-28,52.910475,-1.171547
70621,Clifton Fish Bar,3,10,10,10,2014-10-28,52.897302,-1.18928
70622,Clifton Fish Bar Home Catering,5,0,0,0,2011-09-29,,
70623,Clifton Food Court,4,10,5,5,2014-10-29,52.910208,-1.179686
70624,Clifton Manor Residential Home,5,5,5,5,2015-01-19,52.910848,-1.191838
70625,Clifton News,5,0,0,0,2014-07-14,52.910208,-1.179686
70626,Clifton News And Wines,4,0,0,10,2012-12-01,52.904871,-1.192024
70627,Clifton Village Cricket Club,4,0,0,10,2009-04-21,52.953865,-1.16656
70628,Clinton Cards,Exempt,nan,nan,nan,2011-08-19,,
70629,Clinton Cards Plc,Exempt,nan,nan,nan,2011-10-31,52.956282,-1.148135
70630,Clive Palethorpe,5,5,0,5,2012-07-11,52.95094,-1.149074
70631,Clockhouse Pre-school Centre,5,5,5,5,2014-02-10,52.957088,-1.147777
70632,Coach & Horses (Nottingham) Ltd,5,0,0,0,2013-11-19,52.954956,-1.148846
70633,Coast To Coast,AwaitingInspection,nan,nan,nan,,52.957088,-1.147777
70634,Coates Cafe,5,0,0,0,2013-11-18,52.941259,-1.186495
70635,Coco Lounge,5,5,5,5,2012-08-22,52.954455,-1.145432
70636,Coco Tang,5,0,0,5,2012-07-31,52.951752,-1.146974
70637,Cocoa Chenni,4,0,0,10,2014-10-03,,
70638,Coffee City (6 units),5,0,0,0,2014-01-03,52.989286,-1.160074
70639,Coffee City (Main Entrance),5,5,0,0,2014-03-17,52.943448,-1.185814
70640,Coffee Mug,4,5,5,10,2014-11-24,52.950219,-1.147659
70641,Coffee n Cream,5,5,0,0,2013-10-08,53.00143,-1.197763
70642,Collins Cash and Carry,Exempt,nan,nan,nan,2013-12-30,52.966786,-1.184676
70643,Colonel Burnaby,3,10,10,5,2014-08-12,52.961066,-1.171251
70644,Colwick Hall Hotel,3,10,10,10,2014-08-27,52.945329,-1.106085
70645,Colwick Marina Boat Club,5,5,5,5,2006-07-25,52.950865,-1.115378
70646,Commodore Hotel,4,10,0,10,2015-01-13,52.978919,-1.192133
70647,Community Cafe,5,5,5,5,2013-09-06,52.958882,-1.124995
70648,Compass Catering,5,0,0,5,2012-11-21,52.95324,-1.155191
70649,Compass Catering,5,5,0,5,2013-11-25,52.933473,-1.162926
70650,Compass Contract Services UK Ltd,AwaitingInspection,nan,nan,nan,,52.94465,-1.163484
70651,Compass Group Uk,5,0,0,0,2013-06-26,52.951394,-1.15478
70652,Compass Group UK,5,0,0,0,2013-08-07,52.952649,-1.139291
70653,Compass Group UK & Ireland Ltd,5,0,0,0,2014-12-17,52.932812,-1.166152
70654,Compass Group Uk Ltd,4,5,10,5,2014-08-21,52.954624,-1.152648
70655,Conifers Rest Home,5,5,5,5,2013-05-09,52.962041,-1.110862
70656,Connexion Club,5,0,0,0,2010-04-26,52.5836791992,-2.11817002296
70657,Continental Food Store,4,10,0,10,2014-07-16,52.940213,-1.147484
70658,Continental Food Store,4,5,5,10,2010-06-16,52.950642,-1.126665
70659,Continental Groceries,1,10,0,20,2014-02-06,52.955768,-1.169506
70660,Continental Meat Products,5,5,0,0,2014-02-13,52.968785,-1.173381
70661,Convenience Shop,5,5,5,5,2007-04-16,52.957331,-1.194128
70662,Cookie Club Delux,4,5,0,10,2012-06-14,52.953193,-1.152349
70663,Cookie Shake Ltd,3,10,10,10,2013-07-25,52.955315,-1.148646
70664,Coolbox Frozen Yogurt,5,0,0,0,2014-05-21,52.945776,-1.120125
70665,Co-Op,5,0,0,0,2014-08-19,52.953776,-1.122538
70666,Co-Op,5,0,0,5,2013-09-20,52.986719,-1.156817
70667,Co-op,5,5,5,5,2012-10-17,52.95014,-1.229506
70668,Co-Op,4,10,5,5,2013-05-30,52.979431,-1.208208
70669,Co-op,5,0,0,0,2014-08-20,52.925399,-1.157652
70670,Co-Op,5,0,0,0,2013-06-14,52.974123,-1.217032
70671,Co-Op Carrington,5,5,5,5,2010-05-05,52.972558,-1.152596
70672,Co-Op Late Shop,5,0,5,5,2006-03-09,52.971523,-1.20052
70673,Co-Op Pricefighter,5,0,0,0,2014-06-19,52.943117,-1.146355
70674,Co-Op Pricefighter,5,0,0,0,2014-01-02,53.002756,-1.156818
70675,Co-Op Sherwood,5,0,0,0,2013-07-25,52.982671,-1.14504
70676,Co-Op Supermarket,5,5,5,0,2009-10-30,52.964939,-1.227129
70677,Co-Op Superstore & Coffee Shop,5,5,5,5,2014-06-20,52.955519,-1.228636
70678,Co-Op Welcome,5,0,0,0,2013-10-18,52.955656,-1.171563
70679,Co-Op Welcome Store,5,0,0,5,2009-04-06,52.991766,-1.166343
70680,Cooper Parry LLP,5,0,0,5,2009-11-23,52.951989,-1.156361
70681,Co-Operative Community Action,5,0,0,5,2011-01-14,52.960841,-1.16606
70682,Co-operative Pharmacy,Exempt,nan,nan,nan,2014-04-29,52.962786,-1.137541
70683,Coopers Arms,4,0,0,10,2010-01-14,53.005959,-1.206784
70684,Corner Shop,5,0,5,5,2012-08-30,52.969799,-1.159142
70685,Cornerstone Church,5,0,0,0,2014-01-08,52.94718,-1.166501
70686,Coronato Mobiles,5,0,5,5,2012-01-17,,
70687,Cosmo,AwaitingInspection,nan,nan,nan,,,
70688,Costa,5,0,0,0,2014-10-22,52.958429,-1.148004
70689,Costa @ Waterstones,5,5,0,0,2013-06-18,52.952507,-1.147049
70690,Costa Coffee,5,0,0,0,2013-05-17,52.952644,-1.151035
70691,Costa Coffee,5,5,5,0,2013-05-29,52.95094,-1.149074
70692,Costa Coffee,5,5,5,0,2013-07-19,52.945447,-1.165582
70693,Costa Coffee,5,0,0,0,2012-07-17,52.948067,-1.144561
70694,Costa Coffee,5,5,5,0,2014-10-14,52.941259,-1.186495
70695,Costa Coffee,5,0,0,0,2014-01-06,52.943448,-1.185814
70696,Costa Coffee,5,5,5,0,2014-12-01,52.935801,-1.171897
70697,Costa Ltd,5,0,0,5,2014-08-07,52.947164,-1.146543
70698,Cotswold Hotel,5,5,5,5,2012-10-15,52.971944,-1.15228
70699,Cottage Grill,5,0,0,0,2012-09-27,,
70700,Country Kitchen,5,0,5,0,2014-01-27,,
70701,Couture Cafe Bar Contemporary,3,10,10,10,2014-11-18,52.951599,-1.145771
70702,Covenant Community Food Services,AwaitingInspection,nan,nan,nan,,52.997469,-1.196897
70703,Coventry Road Post Office,Exempt,nan,nan,nan,2012-05-03,52.99804,-1.197632
70704,Cox Pharmacy,Exempt,nan,nan,nan,2014-09-23,52.960232,-1.104557
70705,Crabtree Farm Community Centre,5,0,5,5,2010-05-13,52.996107,-1.204164
70706,Crabtree Farm Primary School,5,0,0,0,2014-07-18,52.996107,-1.204164
70707,Craft Beer & Real Ale Shop,AwaitingInspection,nan,nan,nan,,52.980735,-1.147118
70708,Crafty Crow,5,5,0,0,2014-02-27,52.951323,-1.15368
70709,Creative Flavours,5,5,5,0,2013-04-24,52.975003,-1.167976
70710,Cripps Hall,5,5,5,0,2014-01-29,52.941259,-1.186495
70711,Crispy Fish Bar,5,0,0,5,2013-08-08,52.981988,-1.198048
70712,Crocus Cafe,3,10,5,10,2014-10-23,52.948933,-1.171632
70713,Crocus Fields,5,5,0,0,2007-11-01,52.944094,-1.145949
70714,Crofters Mill,5,5,0,5,2013-06-24,52.954455,-1.145432
70715,Cross Keys,5,5,5,5,2013-07-09,52.951957,-1.146717
70716,Crossroads Best Companions Luncheon Club,5,0,5,5,2014-04-15,52.994831,-1.166269
70717,Crossroads Lunch Club,5,5,5,5,2012-11-01,52.986264,-1.143449
70718,Crowne Plaza Hotel,4,10,5,5,2014-06-06,52.955682,-1.153461
70719,Crumbs and Buttercream,5,5,5,5,2013-09-05,,
70720,Crunch Munch,3,10,10,10,2014-11-25,52.95527,-1.149897
70721,Crunch Munch,3,10,10,10,2014-03-24,52.948281,-1.148129
70722,Crusader P H,4,10,5,5,2013-10-24,52.905299,-1.194067
70723,Cucamara,5,5,0,5,2011-10-11,52.954336,-1.152535
70724,Cuddles Day Nursery,5,5,5,5,2014-02-17,52.974724,-1.150111
70725,Cue Quest Ltd,Exempt,nan,nan,nan,2007-01-19,52.964347,-1.175089
70726,Cultivating Futures,5,0,0,5,2014-07-30,52.941417,-1.144856
70727,Curry Lounge,5,5,5,5,2014-04-11,52.955017,-1.14106
70728,Curry Mahal,3,10,10,10,2013-11-06,52.971523,-1.20052
70729,Curry Man,5,5,5,5,2013-03-21,,
70730,Curry Nites,4,10,10,0,2014-09-04,52.984947,-1.189026
70731,Currys Ltd,Exempt,nan,nan,nan,2011-04-20,52.945447,-1.165582
70732,Cutters Convenience Store,Exempt,nan,nan,nan,,,
70733,D & D's Coffee Shop,5,5,5,5,2013-07-08,52.984947,-1.189026
70734,D & F Parkes Butchers,5,5,0,0,2014-06-04,52.960232,-1.104557
70735,D B S Ventures,4,0,0,10,2007-05-11,52.968987,-1.163714
70736,D Bilakhia,Exempt,nan,nan,nan,2004-08-18,52.972274,-1.207922
70737,D I Foods,5,0,0,5,2010-03-24,53.001734,-1.180352
70738,D Parmar,Exempt,nan,nan,nan,2014-08-27,52.968065,-1.142841
70739,D2 Fast Food,5,5,5,5,2013-02-25,52.955768,-1.169506
70740,Dads Halal Butcher - FMP 2,5,5,5,5,2011-02-15,52.955902,-1.146535
70741,Dairy Box,4,5,0,10,2012-09-03,52.950277,-1.192026
70742,Dairy Crest Distribution,Exempt,nan,nan,nan,2010-06-14,52.94237,-1.13381
70743,Dale Hotel,5,5,5,5,2014-06-24,52.953776,-1.122538
70744,Daleside Cafe Snack Bar,5,0,5,5,2013-06-07,52.94627,-1.124937
70745,Dalyan,1,10,15,20,2014-06-17,52.961218,-1.150807
70746,Dalziel Ltd T/A D F Dickens Ltd,Exempt,nan,nan,nan,2013-10-30,52.944788,-1.120324
70747,Dancing Dragon,2,15,10,10,2014-01-06,52.955575,-1.161219
70748,Danielle Gotheridge,5,5,5,5,2011-10-13,52.953557,-1.142979
70749,Das Kino,5,5,5,5,2014-10-28,52.952492,-1.146096
70750,Dave's Dogs,5,0,0,5,2014-04-29,,
70751,David Hughes,5,5,5,5,2014-09-02,52.963765,-1.230544
70752,David Lloyd Leisure Centre,5,5,5,0,2013-05-30,52.96708,-1.185579
70753,Day Lewis Pharmacy,Exempt,nan,nan,nan,2012-05-24,52.898062,-1.180941
70754,Daybrook Shop and Drive Petrol Station,5,0,0,0,2011-05-20,52.994018,-1.139214
70755,Debbie Bryan,AwaitingInspection,nan,nan,nan,,52.95311,-1.144536
70756,Debsh,5,0,0,0,2011-04-05,52.955599,-1.159596
70757,Dees Flavour,5,5,0,0,2014-05-23,,
70758,Deli-Cious Chocolate,5,5,5,5,2013-05-13,,
70759,Delicious Pizza,1,15,10,20,2014-10-09,52.969859,-1.184425
70760,Delikatesy - 308/309,5,0,0,5,2014-01-24,52.955902,-1.146535
70761,Delilah Fine Foods,5,5,5,5,2014-09-18,,
70762,Delish Cake Pops,5,0,0,5,2013-01-23,,
70763,Delivered Catering,5,0,0,0,2014-01-29,52.941259,-1.186495
70764,Denman Mini Market,5,5,5,5,2013-07-19,52.95792,-1.176506
70765,Depot Climbing Centre,5,0,0,0,2014-01-21,52.956335,-1.143058
70766,Derby Hall,3,5,10,10,2013-10-11,52.941601,-1.2025
70767,Derbyshire Haven,4,5,5,10,2012-12-20,52.956206,-1.207397
70768,Desi Down Town,2,15,10,10,2013-12-10,52.953874,-1.1408
70769,Desi Express,1,15,15,20,2014-08-05,52.966506,-1.17146
70770,Devi Express,5,0,0,0,2013-08-15,52.954317,-1.167703
70771,Devine Cakes Caffe Ltd,5,5,5,5,2014-03-28,52.95413,-1.151512
70772,Devine Nibbles,5,5,5,5,2013-08-22,52.954378,-1.122436
70773,Devonshire Manor,5,5,5,5,2011-07-20,52.978268,-1.154137
70774,Deyi Oriental Food Shop,5,5,0,5,2010-05-26,52.95534,-1.179071
70775,Dezigne,4,0,0,10,2014-05-08,52.953888,-1.142749
70776,Diamond City,1,5,10,20,2014-09-04,53.005232,-1.208362
70777,Different Gravy,5,0,0,0,2013-08-13,,
70778,Dine Arkwright,5,5,5,5,2013-07-24,52.956372,-1.152019
70779,Dine Contract Catering Limited,5,0,5,5,2014-02-06,,
70780,Dine Eliot and Cafe Eliot,3,10,10,5,2014-05-20,,
70781,Dinner Jackets,5,0,5,5,2013-12-09,,
70782,Dino,5,5,0,5,2013-04-25,52.953332,-1.144219
70783,Dino's Dial a Pizza,2,15,10,5,2014-11-11,52.981988,-1.198048
70784,Ditsch,5,0,0,0,2014-05-08,52.953487,-1.148339
70785,Divine Coffee House,5,0,5,0,2014-06-19,52.950761,-1.14427
70786,Dixy Chicken,1,15,10,20,2013-12-02,52.959324,-1.167667
70787,Dixy Chicken,1,15,5,20,2014-12-15,52.953464,-1.124122
70788,Djanogly City Academy Nottingham,5,0,0,5,2012-09-18,52.974261,-1.162063
70789,Djanogly City Academy Nottingham,5,0,0,0,2013-11-21,52.94981,-1.176993
70790,Djanogly Northgate Academy,5,0,0,5,2013-02-26,52.975303,-1.171023
70791,Dockers Ices,5,0,5,0,2014-07-10,,
70792,Doctor's Orders,5,0,0,0,2014-07-08,52.972558,-1.152596
70793,Dolce,4,5,5,10,2015-01-16,52.95416,-1.144381
70794,Dominos Pizzas,4,10,0,5,2013-06-21,53.001698,-1.197415
70795,Dominos Pizzas,5,5,5,0,2015-01-07,52.956135,-1.182227
70796,Doubletree By Hilton Nottingham Gateway Hotel,5,5,0,5,2012-11-01,52.985917,-1.200836
70797,Dovecote Primary School,5,5,0,0,2013-06-17,52.910599,-1.173865
70798,Dowlings,5,5,5,5,2013-10-30,52.980086,-1.146848
70799,Dragon Palace,2,15,10,10,2014-10-08,52.979633,-1.152755
70800,Druckers Vienna Patisserie,5,5,5,5,2013-12-10,52.957181,-1.146942
70801,D's Pop-Up Kitchen,5,5,0,0,2013-08-21,52.953978,-1.149044
70802,DTP (Europe) Ltd,Exempt,nan,nan,nan,2011-12-22,52.978417,-1.184427
70803,Duke Of Cambridge,4,5,5,10,2010-04-22,52.956562,-1.133393
70804,Duke of Cambridge,5,0,0,5,2013-04-17,52.978158,-1.135106
70805,Dunelm Mill,Exempt,nan,nan,nan,2008-05-29,,
70806,Dunkirk Inn,5,5,5,5,2012-03-23,52.938046,-1.181972
70807,Dunkirk Post Office,Exempt,nan,nan,nan,2014-08-13,52.939527,-1.182927
70808,Dunkirk School,5,0,0,0,2013-06-14,52.939271,-1.181086
70809,Dunkirk Sports and Social,4,5,5,10,2010-07-06,52.93494,-1.170946
70810,Dusk Till Dawn,5,5,5,5,2014-04-28,52.935176,-1.176447
70811,E Loizzo,4,0,10,10,2014-03-31,,
70812,East Midlands Conference Centre,5,5,5,5,2013-12-09,52.941259,-1.186495
70813,Eastcroft Staff Canteen NCCW,5,5,0,0,2014-09-05,52.946275,-1.139239
70814,Eat On,4,5,10,5,2013-05-07,52.959574,-1.168793
70815,Eat Out,5,5,5,5,2013-03-07,52.98078,-1.147118
70816,Eatwell Coffee Shop Maternity Ground Floor,AwaitingInspection,nan,nan,nan,,52.989286,-1.160074
70817,Eatwell Coffee Shop North Corridor Junction N14,AwaitingInspection,nan,nan,nan,,52.989286,-1.160074
70818,Eatwell Coffee Shop Radiotherapy Coffee City,AwaitingInspection,nan,nan,nan,,52.989286,-1.160074
70819,Eatwell Coffee Shop South Corridor Junction S1,AwaitingInspection,nan,nan,nan,,52.989286,-1.160074
70820,Eatwell Coffee Shop South Corridor Junction S7,AwaitingInspection,nan,nan,nan,,52.989286,-1.160074
70821,Eatwell Coffee Shop Trustr HQ City Campus,AwaitingInspection,nan,nan,nan,,52.989286,-1.160074
70822,Eatwell Coffee Shop West Corridor Junction W2a,AwaitingInspection,nan,nan,nan,,52.989286,-1.160074
70823,Eatwell Restaurant,5,5,0,0,2015-01-09,52.943448,-1.185814
70824,EBA Catering,AwaitingInspection,nan,nan,nan,,,
70825,Edale Rise Nursery And Primary School,5,0,0,0,2014-01-13,52.955331,-1.122491
70826,Eden Homes Pathway to Progress,5,0,0,0,2009-08-12,52.991376,-1.214605
70827,Eden Softplay,5,5,5,5,2014-03-19,52.941836,-1.141976
70828,Edenhurst,5,5,0,5,2013-09-17,52.972369,-1.138869
70829,Edin's Deli Cafe,1,20,10,20,2014-11-04,52.954119,-1.143712
70830,Edin's Natural Kitchen,3,10,10,10,2014-06-11,52.95381,-1.144448
70831,Edna G Olds Academy,5,5,0,0,2014-11-12,52.948928,-1.173626
70832,Educare,5,5,0,0,2014-10-30,52.971069,-1.158194
70833,Educare Day Nursery,5,5,5,0,2014-07-14,52.971055,-1.156243
70834,Edwards Lane Community Centre,5,5,5,5,2011-09-15,52.995278,-1.150587
70835,Efes Kebabs,3,5,10,10,2013-12-03,52.980935,-1.175503
70836,Eleven,5,5,5,5,2010-03-09,52.953888,-1.142749
70837,Elior UK Ltd,AwaitingInspection,nan,nan,nan,,52.989286,-1.160074
70838,Elior UK Ltd,5,5,5,0,2014-12-16,53.002223,-1.178301
70839,Elizabethan Oven,5,0,5,0,2012-10-05,52.954869,-1.146462
70840,Elki,5,0,0,0,2014-06-26,,
70841,Ellieberry's,AwaitingInspection,nan,nan,nan,,52.961309,-1.121224
70842,Elpasso Grill,4,5,5,10,2013-09-10,52.94987,-1.174531
70843,Emmanuel House Day Centre,4,10,0,10,2014-10-01,52.953888,-1.142749
70844,Empanadas,5,0,5,5,2011-10-11,,
70845,Encounters,4,10,5,5,2014-03-25,52.959171,-1.149835
70846,Ernst & Young LLP,5,0,0,0,2010-05-27,,
70847,Escabeche,AwaitingInspection,nan,nan,nan,,52.951957,-1.146717
70848,Espresso Bar,5,0,0,0,2014-06-18,52.955963,-1.147606
70849,Eurest Catering,5,5,0,0,2014-08-19,52.966863,-1.16977
70850,Eurest Catering,5,0,5,0,2013-08-13,52.956788,-1.149265
70851,Eurest Catering,5,0,0,0,2014-08-28,52.956247,-1.157157
70852,Eurest Catering,5,5,5,5,2013-11-25,52.933476,-1.164696
70853,Eurest Catering,5,0,0,0,2013-06-05,52.945647,-1.133224
70854,Eurest Compass Group,5,5,5,5,2013-06-12,52.948549,-1.146665
70855,Eurest Services,5,0,5,0,2013-07-24,52.94664,-1.125182
70856,Eurest Services,5,5,5,0,2013-03-21,52.943959,-1.132186
70857,Euro Food Store,5,0,0,5,2012-08-02,52.96326,-1.168857
70858,Evergreen Pharmacy,Exempt,nan,nan,nan,2012-06-29,52.996764,-1.192381
70859,Eve's Cafe,5,0,5,0,2014-02-27,52.952805,-1.144661
70860,Evie's Bakehaus,AwaitingInspection,nan,nan,nan,,,
70861,Eviva Taverna,1,10,10,20,2013-09-24,52.952568,-1.141674
70862,Excel Vending Services Ltd,5,5,5,0,2008-06-05,52.958436,-1.227959
70863,Express Boots,5,5,0,5,2012-04-04,52.957982,-1.154548
70864,Express by Holiday Inn,5,5,0,0,2013-11-19,52.953999,-1.154477
70865,Express Mobile,5,0,0,5,2012-08-29,52.956372,-1.152019
70866,Express Waverley,5,0,0,5,2012-04-04,52.96019,-1.159135
70867,Fabchocolats,5,5,5,5,2014-04-29,52.955498,-1.149148
70868,Fade & The Hard To Find Cafe,3,10,10,10,2014-10-24,52.962076,-1.151297
70869,Fair Havens,5,0,0,0,2011-02-22,52.976827,-1.167822
70870,Fairfield House,5,5,5,5,2009-06-15,52.969204,-1.1589
70871,Fairham Hotel,AwaitingInspection,nan,nan,nan,,52.901355,-1.168346
70872,Fairview,4,5,10,5,2014-08-14,52.952543,-1.169881
70873,Fairway View,5,0,0,0,2013-10-10,53.010239,-1.188077
70874,Faizad Homemade Foods,5,5,5,5,2013-09-09,,
70875,Fanoose,1,15,15,20,2014-02-06,52.948167,-1.173953
70876,Farm Foods (Aberdeen) Ltd,5,5,0,5,2012-05-04,52.903291,-1.17784
70877,Farmfoods (Aberdeen) Ltd,5,0,0,0,2010-09-20,53.00143,-1.197763
70878,Farnborough School,5,0,5,5,2013-01-17,52.909391,-1.166899
70879,Fast Break,1,10,15,20,2014-09-01,52.971679,-1.160475
70880,Fat Cat Cafe Bar,5,5,0,0,2013-07-31,52.953999,-1.154477
70881,Fearless Fight Wear,Exempt,nan,nan,nan,2011-09-28,52.953932,-1.146366
70882,Federation House Social Club,5,0,0,0,2010-06-22,52.973438,-1.156361
70883,Federici Bros,5,0,0,0,2014-09-05,52.955902,-1.146535
70884,Federici Bros Mobiles,5,5,0,0,2014-03-27,52.981944,-1.179788
70885,Fellows Morton & Clayton,5,5,5,5,2013-03-27,52.94811,-1.149412
70886,Ferda's Catering,AwaitingInspection,nan,nan,nan,,,
70887,Fernwood Infants School,5,0,0,0,2013-10-07,52.951658,-1.227916
70888,Fernwood Junior School,5,0,5,0,2014-03-27,52.951541,-1.228007
70889,Ferry Inn,5,5,5,0,2013-06-06,52.933854,-1.157175
70890,Field House,5,5,0,0,2010-09-17,52.96828,-1.160452
70891,Fig Tree Nursery and Primary,4,5,0,10,2014-09-09,52.963143,-1.16743
70892,Filthy's Nottingham,5,0,0,0,2014-04-10,52.951536,-1.145773
70893,Firbeck Primary,5,5,0,0,2013-07-03,52.952477,-1.240732
70894,First Catering,5,5,5,0,2013-05-13,52.903856,-1.176431
70895,First Catering,5,5,5,5,2014-08-07,,
70896,First Stop 4,5,5,5,5,2011-09-20,52.949265,-1.147499
70897,Fish and Chip Van,5,5,0,0,2014-08-07,,
70898,Fitspace,Exempt,nan,nan,nan,2011-08-31,52.94811,-1.149412
70899,Five Guys Burger Restaurant,AwaitingInspection,nan,nan,nan,,52.953904,-1.149983
70900,Five Hill Food and Wine,5,5,5,0,2010-11-19,52.972558,-1.152596
70901,Five Star Curry King Chapatti,0,20,15,20,2014-02-27,52.968124,-1.172828
70902,Five Star Fish Bar,5,0,0,0,2014-11-11,52.979431,-1.208208
70903,Five Star Snack Bar,5,0,0,5,2014-08-14,52.979431,-1.208208
70904,Fiveways,5,5,5,0,2012-11-22,52.990589,-1.149859
70905,Flaming Dragon,1,15,10,20,2014-08-18,52.955829,-1.150213
70906,Flavour Of Hockley,5,0,5,5,2014-09-30,52.953557,-1.142979
70907,Flints Stores,3,10,5,10,2013-05-09,52.969328,-1.131113
70908,Flirtz,4,5,0,10,2012-06-11,52.95239,-1.152067
70909,Florence Boot Hall,5,5,0,0,2014-02-11,,
70910,Flumptious,5,0,0,5,2013-09-12,,
70911,Fontanella Cafe B Floor,AwaitingInspection,nan,nan,nan,,52.943448,-1.185814
70912,Food 4 Life,5,5,5,5,2010-06-29,52.968157,-1.176282
70913,Food Factory,3,10,5,10,2013-06-26,52.954919,-1.146168
70914,Foodexpress.co,4,10,5,5,2014-04-09,52.960316,-1.150334
70915,Foodservice,5,0,5,5,2014-04-23,,
70916,Forest Fields Off Licence,5,5,5,5,2006-08-23,52.970823,-1.161519
70917,Forest Fields Primary School,5,0,5,0,2013-10-08,52.970721,-1.167507
70918,Forest Fields Social Club,5,5,5,5,2006-03-09,52.971723,-1.162931
70919,Forest Internet Cafe,5,0,0,0,2014-08-20,52.968584,-1.169171
70920,Forest Lodge Residential Home,5,0,5,0,2014-12-04,52.963554,-1.160692
70921,Forest Pharmacy,Exempt,nan,nan,nan,2012-07-18,52.99418,-1.16062
70922,Forest Tavern,5,5,5,5,2006-08-24,52.964134,-1.152567
70923,Foresters Inn Ltd,3,10,5,10,2014-08-21,52.957699,-1.14516
70924,Forget Me Not Nursery,5,5,0,5,2015-01-05,52.960612,-1.10973
70925,Forget Me Notts Cakes,AwaitingInspection,nan,nan,nan,,,
70926,Formans Bar,4,0,0,10,2008-11-10,52.955413,-1.14982
70927,Formula One Fitness & Health S,Exempt,nan,nan,nan,2011-08-09,52.95351,-1.146493
70928,Fortune Boy,3,10,10,10,2014-10-30,52.948167,-1.173953
70929,Fox & Crown and Alcazar Brewery,5,0,5,0,2010-06-30,52.980436,-1.178744
70930,Fox Grove Court,5,0,0,0,2014-02-18,52.98212,-1.176568
70931,Foxton Gardens,5,0,0,0,2006-12-14,52.966799,-1.206489
70932,Foxy's,5,0,0,5,2011-08-25,52.954624,-1.152648
70933,Frame work,4,0,0,10,2011-02-02,52.962592,-1.165847
70934,Framesmiths Arms,4,10,5,5,2012-11-29,53.003583,-1.195726
70935,Framework Housing,5,5,5,5,2014-05-30,52.963143,-1.16743
70936,Framework Housing Association,4,0,10,10,2008-11-07,52.963143,-1.16743
70937,Francique Caribbean Cuisine,5,0,0,0,2014-08-01,,
70938,Frankie And Bennys,5,5,5,0,2013-12-30,52.954956,-1.148846
70939,Frankie And Bennys,5,0,5,0,2014-01-07,52.936395,-1.175963
70940,Free Seasons Karaoke Bar,1,15,10,20,2014-10-30,52.955724,-1.14313
70941,French Living,3,10,10,10,2014-03-12,52.954729,-1.149714
70942,French Living Cafe Creperie,4,5,10,0,2013-05-09,52.954729,-1.149714
70943,Fresh 2 You Bakery,5,5,0,0,2014-08-06,52.898062,-1.180941
70944,Fresh Farm Eggs,5,5,5,5,2007-09-10,52.943813,-1.135671
70945,Fresh Market,AwaitingInspection,nan,nan,nan,,52.964245,-1.169523
70946,Fresh N Fruity,5,0,0,5,2011-08-31,52.943813,-1.135671
70947,Fresh Oriental Supermarket,5,5,0,0,2013-05-10,52.952644,-1.151035
70948,Fresh Things Ltd,5,5,5,0,2012-10-24,52.945399,-1.131235
70949,Fresh Things Ltd,5,5,5,5,2014-06-19,52.944957,-1.1298
70950,Freshe,2,15,15,10,2014-11-12,52.964978,-1.171548
70951,Freshly Made,5,5,0,0,2014-09-23,,
70952,Fried Chicken Hut,AwaitingInspection,nan,nan,nan,,52.970704,-1.162549
70953,Frog And Onion,5,0,0,5,2011-05-24,52.970385,-1.17079
70954,Frothy Coffee Cafe - 94,5,5,5,0,2013-03-04,,
70955,Fryers Food Store,5,5,0,0,2012-04-25,52.897424,-1.188728
70956,Fuel,5,0,0,5,2010-06-30,52.95190133,-1.14372195
70957,Fulton's Foods,5,0,0,0,2010-03-08,53.001997,-1.196515
70958,G & R News,5,5,0,5,2007-09-20,52.982649,-1.158326
70959,G Kemp & Son Butchers,5,0,0,5,2014-01-21,52.961501,-1.19807
70960,G S Mahal,5,5,5,5,2005-06-29,52.955323,-1.24159
70961,G4S,4,0,5,10,2013-04-30,52.960664,-1.153736
70962,Gail's Kitchen,5,0,5,5,2014-05-16,52.904448,-1.177491
70963,Gala Coral Group Ltd,5,0,0,0,2013-04-23,52.957045,-1.142985
70964,Gala Coral Group Ltd,5,5,5,5,2014-08-20,52.997727,-1.178014
70965,Galleries Of Justice,4,0,0,10,2012-05-24,52.950761,-1.14427
70966,Gallery Cafe,5,5,5,5,2015-01-16,52.941259,-1.186495
70967,Game,Exempt,nan,nan,nan,2013-04-24,52.958429,-1.148004
70968,GameCity,Exempt,nan,nan,nan,,52.953371,-1.14465
70969,Garths Gymnasium,Exempt,nan,nan,nan,2012-05-23,52.97921,-1.157619
70970,Gatecrasher,4,10,0,0,2012-07-31,52.95449,-1.150314
70971,GB Cafe,5,5,0,0,2014-09-30,52.953976,-1.138729
70972,GB Off Licence,5,5,5,5,2014-04-23,52.975723,-1.173219
70973,Gb's Off-Licence,4,5,10,5,2014-05-29,52.938046,-1.181972
70974,GCH Gourmet Foods,5,5,0,0,2014-11-03,,
70975,General Nutrition Centres,5,5,5,5,2011-10-18,52.957181,-1.146942
70976,Genting Casinos Uk Ltd,5,5,5,5,2009-09-16,52.955829,-1.150213
70977,George Fish Bar,5,5,0,5,2013-05-22,52.969802,-1.168433
70978,George Street Convenience Store,4,10,0,5,2012-05-15,52.954785,-1.144994
70979,Georges Fish Bar,5,0,5,0,2015-01-02,52.961501,-1.19807
70980,George's Tradition,5,5,0,0,2015-01-12,52.95449,-1.150314
70981,Georgio's Plaice,5,5,0,5,2013-07-30,52.954378,-1.122436
70982,Get N Go,3,10,10,10,2012-12-20,52.953205,-1.137836
70983,Get Real (at Hotel Deux),5,0,0,5,2010-05-18,52.971055,-1.156243
70984,Gill News,4,10,0,5,2012-05-01,52.953469,-1.144514
70985,Gingers,4,0,10,0,2014-08-20,52.976158,-1.189384
70986,Gingham Kitchen,3,10,10,10,2015-01-06,52.954538,-1.145654
70987,Ginza Japanese Restaurant,5,5,5,5,2013-05-15,52.98272,-1.145679
70988,Gladehill Primary & Junior Sch,5,5,0,0,2013-10-09,52.998605,-1.151997
70989,Gladstone Liberal Club,3,10,10,10,2012-10-30,52.965733,-1.142277
70990,Glapton Primary Breakfast Club,5,0,0,0,2014-09-10,52.906454,-1.18285
70991,Glapton Primary School,5,5,0,0,2013-06-24,52.906454,-1.18285
70992,Glee Club,5,0,0,5,2011-04-19,52.94811,-1.149412
70993,Glenbrook Primary School,5,0,0,5,2014-09-22,52.966287,-1.216102
70994,Glenstone Court,5,0,0,5,2010-11-19,52.967957,-1.172072
70995,Gluten Free Food Nottingham,5,5,5,5,2012-11-15,,
70996,GMC News,5,5,5,5,2010-05-20,52.99545,-1.190826
70997,Go Hard,AwaitingInspection,nan,nan,nan,,52.976787,-1.165887
70998,Go Local Extra,4,5,0,10,2014-05-30,52.958718,-1.24101
70999,Godfather Pizza,5,5,0,5,2013-03-12,52.974717,-1.155428
71000,Golden Chicken & Pizza,1,10,15,20,2014-01-02,52.960551,-1.17604
71001,Golden Dragon,5,5,5,5,2013-06-05,52.955235,-1.193973
71002,Golden Dragon,4,10,5,5,2014-11-24,53.00051,-1.197243
71003,Golden Dragon,4,10,10,0,2014-10-30,52.968025,-1.125049
71004,Golden Fish Bar,5,5,5,5,2014-07-08,52.975851,-1.211863
71005,Golden Grill,5,5,5,5,2014-04-24,52.98272,-1.145679
71006,Golden Ocean,5,5,0,5,2014-09-17,52.958289,-1.127404
71007,Golden Phoenix,3,10,10,10,2013-02-12,52.985804,-1.159591
71008,Golden Rooster,2,15,10,10,2015-01-14,52.971523,-1.20052
71009,Golla Convenience Store,1,5,10,20,2014-01-10,52.991432,-1.186819
71010,Good Fellows Mini Market,5,5,5,5,2013-12-10,52.955391,-1.135604
71011,Good Food 4 You 2 Go,AwaitingInspection,nan,nan,nan,,,
71012,Goodys Chicken,5,0,0,5,2014-11-03,52.975851,-1.211863
71013,Gorilla Events Ltd,AwaitingInspection,nan,nan,nan,,52.943186,-1.133452
71014,Gourmet Burger Bar,AwaitingInspection,nan,nan,nan,,52.971383,-1.18517
71015,Gourmet Burger Kitchen,5,0,0,0,2010-07-14,52.955604,-1.148833
71016,Gourmet Chef,4,5,5,10,2014-04-15,52.961309,-1.121224
71017,Gourmet Coffee Bar and Kitchen,1,0,10,20,2014-05-28,52.947164,-1.146543
71018,Gourmet Grill,5,5,5,5,2014-03-21,52.931902,-1.173578
71019,Gourmet Spice & Grill,5,0,0,0,2011-06-23,53.005337,-1.168496
71020,Govinda's Nottingham,5,0,0,0,2014-05-12,52.953932,-1.146366
71021,Grace Church,AwaitingInspection,nan,nan,nan,,52.948296,-1.152786
71022,Graceful Kitchen Supper Club,5,5,5,5,2013-08-21,,
71023,Granby Kitchen,5,5,5,5,2014-09-04,52.947854,-1.146188
71024,Grange News,1,5,10,20,2014-08-20,52.946419,-1.232504
71025,Grangewood Pre-School,5,0,0,5,2013-07-18,52.946834,-1.232705
71026,Grassington News,5,5,5,5,2010-05-12,52.96264,-1.188401
71027,Green Academy Trust,5,5,5,5,2014-10-03,52.957741,-1.180559
71028,Green Academy Trust,AwaitingInspection,nan,nan,nan,,52.986404,-1.179838
71029,Green Emporium Ltd,AwaitingInspection,nan,nan,nan,,52.979943,-1.148296
71030,Green Lane Youth & Community C,4,5,5,10,2010-08-03,52.902259,-1.176833
71031,Greenfields @ Bilborough Childrens Centre,5,5,0,5,2014-03-14,52.966287,-1.216102
71032,Greenfields Centre Ltd,5,0,0,0,2014-09-10,52.970732,-1.168996
71033,Greenfields Community School,5,5,5,0,2014-11-04,52.941438,-1.142861
71034,Greenfields Nursery,5,0,5,5,2014-01-17,52.941417,-1.144856
71035,Green's Windmill,Exempt,nan,nan,nan,2014-06-13,52.952715,-1.130984
71036,Greenshoots,AwaitingInspection,nan,nan,nan,,52.953332,-1.144219
71037,Greenway Centre,5,5,5,5,2012-06-20,52.949323,-1.123313
71038,Greenwood Coffee Bar,4,0,0,10,2008-10-02,52.973231,-1.124005
71039,Greenwood Lodge,5,5,5,5,2007-03-14,52.969204,-1.1589
71040,Greenwood Meadows Football Clu,5,5,5,5,2010-11-12,52.935801,-1.171897
71041,Greggs,5,0,0,0,2013-06-27,52.976067,-1.189267
71042,Greggs,5,0,0,0,2013-07-19,52.954109,-1.147285
71043,Greggs,5,5,0,0,2013-05-08,52.964939,-1.227129
71044,Greggs,5,0,0,0,2013-07-19,52.966506,-1.17146
71045,Greggs,5,0,0,0,2013-07-11,53.00051,-1.197243
71046,Greggs,5,0,0,0,2014-09-24,52.94797,-1.147346
71047,Greggs,5,5,5,5,2013-12-23,52.954956,-1.148846
71048,Greggs,5,5,0,0,2013-09-13,52.979431,-1.208208
71049,Greggs,5,0,0,0,2013-10-24,52.903291,-1.17784
71050,Greggs,5,5,5,5,2014-05-29,52.95094,-1.149074
71051,Greggs,5,5,0,0,2014-12-29,52.95315,-1.151457
71052,Greggs,5,0,5,0,2014-01-16,52.957396,-1.148113
71053,Greggs,5,5,5,0,2014-06-09,52.950219,-1.147659
71054,Greggs,5,0,0,0,2013-01-23,52.945647,-1.133224
71055,Gregory Court,5,5,0,5,2010-12-02,52.968634,-1.169781
71056,Gregory House II,5,0,5,0,2013-07-22,52.974723,-1.151183
71057,Greyfriars Social Club,5,5,5,5,2009-01-08,52.962594,-1.128463
71058,Grill Town,AwaitingInspection,nan,nan,nan,,52.954378,-1.122436
71059,Grosvenor,5,0,0,0,2013-05-15,52.970348,-1.154053
71060,Grosvenor Casinos (GC) Ltd,5,5,0,0,2013-07-31,52.953183,-1.15476
71061,Grub Hub Sandwich Bar Ltd,5,0,0,0,2015-01-20,52.955784,-1.152789
71062,GT News,5,5,5,5,2011-08-17,52.954158,-1.152881
71063,Gully's News,5,5,5,5,2013-05-15,52.953269,-1.136704
71064,Gurdwara Baba Budha Ji Temple,AwaitingInspection,nan,nan,nan,,52.978606,-1.158643
71065,Gurkha Kitchen,3,10,10,10,2013-08-27,52.957368,-1.233769
71066,Gurkha One,AwaitingInspection,nan,nan,nan,,52.971944,-1.15228
71067,Guru Nanak Satsang Gurdwara,1,5,0,20,2014-02-05,52.960841,-1.16606
71068,H M Prison Bistro,5,0,0,0,2013-09-10,52.983916,-1.155814
71069,H M S Sherwood,5,5,5,0,2005-06-29,52.963529,-1.193506
71070,Habesha,5,5,5,5,2013-12-04,52.957236,-1.164819
71071,Hadden Park High School,5,5,5,5,2012-10-30,52.966513,-1.212137
71072,Hafiz,5,0,0,0,2011-03-03,52.970462,-1.174168
71073,Haji's Spice,5,0,0,0,2014-04-15,52.955656,-1.171563
71074,Halal World Centre Ltd,5,5,0,0,2013-04-30,52.966863,-1.16977
71075,Halima's Cakes,5,5,5,0,2014-06-06,,
71076,Hall Park Care Home,AwaitingInspection,nan,nan,nan,,53.00952,-1.199132
71077,Hall View News,5,5,5,5,2012-10-10,52.953697,-1.214052
71078,Hallward Library,5,0,0,0,2012-04-12,52.941259,-1.186495
71079,Hamilton Court Housing,5,0,0,0,2013-06-06,52.911701,-1.172059
71080,Han Dynasty Restaurant,1,10,10,20,2014-11-25,52.962505,-1.151006
71081,Han Sofrasi,5,5,5,0,2012-11-05,52.957236,-1.164819
71082,Hand In Hand Caterers,AwaitingInspection,nan,nan,nan,,,
71083,Handmade Burger Co,AwaitingInspection,nan,nan,nan,,52.957088,-1.147777
71084,Happy Eater,5,5,5,5,2014-12-09,52.975339,-1.163204
71085,Happy Hours,AwaitingInspection,nan,nan,nan,,52.955859,-1.174923
71086,Happy House Chinese Take-Away,5,5,0,5,2013-02-01,52.963594,-1.17549
71087,Happy Plates Catering,AwaitingInspection,nan,nan,nan,,,
71088,Haris News,4,0,0,10,2014-08-18,52.956224,-1.148851
71089,Hartley Roll,4,0,10,5,2013-04-17,52.960551,-1.17604
71090,Hartley's Coffee & Sandwich Bar,5,0,0,0,2014-06-03,52.95381,-1.144448
71091,Hartley's Convenience Store,4,5,0,10,2014-05-30,52.961066,-1.171251
71092,Harts Hotel,5,5,5,0,2014-08-05,52.951506,-1.156639
71093,Harts Restaurant,4,0,0,10,2014-10-02,52.951506,-1.156639
71094,Harun Halal Meat,4,10,5,5,2013-06-19,52.965796,-1.170208
71095,Harvester,5,0,5,0,2013-09-16,52.955604,-1.148833
71096,Harvester,5,0,0,0,2015-01-16,52.945447,-1.165582
71097,Harvey Hadden Restaurant,5,5,5,5,2010-10-20,52.965748,-1.218866
71098,Haven Lodge,4,0,0,10,2009-05-14,52.972175,-1.156966
71099,Hawthorn Lodge Residential Home,5,5,0,0,2014-06-03,52.998422,-1.159137
71100,Haydn Cafe,5,5,5,5,2014-08-27,52.979633,-1.152755
71101,Haydn Foods,5,0,5,5,2012-11-15,52.979633,-1.152755
71102,Haydn Primary School,5,0,5,0,2013-06-07,52.980225,-1.148752
71103,Hayleyjade Creations,5,0,0,0,2012-11-20,,
71104,Headstocks,4,0,5,10,2014-07-11,52.987941,-1.195674
71105,Health & Diet Centres Ltd,5,0,0,0,2003-11-26,52.957181,-1.146942
71106,Heathfield Primary School,5,0,0,0,2012-07-16,52.98189,-1.174561
71107,Heavenly Cakes,AwaitingInspection,nan,nan,nan,,,
71108,Hemlock Stone,AwaitingInspection,nan,nan,nan,,52.947752,-1.230084
71109,Hempshill Hall Primary School,5,0,0,0,2013-07-10,52.994197,-1.215805
71110,Henry Whipple School,5,5,0,5,2013-12-04,52.996422,-1.171424
71111,Heron Foods,4,10,0,5,2014-06-19,52.903291,-1.17784
71112,Heron Foods,AwaitingInspection,nan,nan,nan,,53.010438,-1.174121
71113,Heron Foods,5,5,5,0,2011-10-13,52.964939,-1.227129
71114,Heron Foods,5,0,0,0,2012-05-31,53.00051,-1.197243
71115,Heron Foods,5,5,0,0,2012-06-27,52.950219,-1.147659
71116,Heron Foods,AwaitingInspection,nan,nan,nan,,52.965185,-1.131196
71117,Heronridge Homes Limited,5,0,0,5,2010-03-29,52.998705,-1.184343
71118,HFC,3,10,10,10,2014-02-04,52.958206,-1.149437
71119,Hidden Spot Lounge,1,10,5,20,2014-03-06,52.957417,-1.168879
71120,Highbank Primary School,5,0,5,0,2013-10-17,52.896302,-1.183829
71121,Highbury Balti House,5,5,5,5,2014-09-04,52.991432,-1.186819
71122,Highbury Vale Community Centre,5,5,5,0,2008-08-01,52.995005,-1.1848
71123,Highfields Nursing Home,5,0,0,0,2014-01-02,52.99918,-1.193349
71124,Higoi Restaurant,5,0,0,5,2012-09-18,,
71125,Hills Kitchen,4,5,0,10,2014-05-14,52.960983,-1.225666
71126,Hilltop Filling Station,3,10,10,10,2013-10-25,52.981993,-1.127239
71127,Hilltop Stores,5,5,5,5,2013-12-05,52.964382,-1.125941
71128,Hilton Hotel,5,0,5,0,2013-01-16,52.956433,-1.147939
71129,Hindu Temple and Community Centre,3,10,10,10,2013-09-20,52.958289,-1.127404
71130,Hing Sun,5,5,0,0,2011-04-07,52.95534,-1.179071
71131,HMV UK Ltd,Exempt,nan,nan,nan,2011-05-03,52.957181,-1.146942
71132,Ho Lok,1,15,20,10,2014-11-11,52.970462,-1.174168
71133,Hockley Chambers,AwaitingInspection,nan,nan,nan,,52.953371,-1.14465
71134,Hockley Grill,5,5,5,5,2013-12-11,52.953966,-1.143641
71135,Hockley Preserves,5,0,0,0,2014-07-03,,
71136,Hogarth LEAD Academy Trust,AwaitingInspection,nan,nan,nan,,52.965077,-1.12024
71137,Holgate Stores,5,5,5,5,2010-09-30,52.939283,-1.146922
71138,Holiday Inn Nottingham,5,5,0,0,2014-01-13,52.945447,-1.165582
71139,Holland & Barrett,5,0,0,5,2012-07-05,52.954811,-1.14736
71140,Holland & Barrett,5,0,0,0,2012-07-09,52.950219,-1.147659
71141,Holland And Barrett,5,0,0,0,2011-08-18,52.98272,-1.145679
71142,Holland And Barrett,4,0,10,5,2011-10-31,52.957396,-1.148113
71143,Hollies Day Nursery,5,5,0,5,2013-10-23,52.978531,-1.14317
71144,Holly Cakes,5,0,0,5,2011-10-27,,
71145,Hollygirt School Catering,5,0,5,5,2010-07-08,52.964772,-1.15117
71146,Home Caterer,5,0,0,5,2014-05-13,,
71147,Home Town Cuisine,3,5,10,10,2014-05-14,52.954591,-1.142974
71148,Homemade (Hockley),3,10,10,10,2015-01-07,52.953518,-1.146344
71149,Homemade (Pavilion),5,0,0,5,2014-06-16,52.966105,-1.152886
71150,Homemade (Sherwood),5,5,0,0,2013-09-17,52.982671,-1.14504
71151,Homesense,Exempt,nan,nan,nan,2010-09-22,52.945447,-1.165582
71152,Hooters,4,5,0,10,2014-04-14,52.946425,-1.144058
71153,Hopewells Coffee Lounge,5,0,0,0,2014-08-21,52.958858,-1.146328
71154,Hopkinsons Gallery,5,0,0,5,2012-07-17,52.947854,-1.146188
71155,Hopwells Ltd,Exempt,nan,nan,nan,2006-10-31,52.961625,-1.223466
71156,Horse And Groom,5,5,5,5,2013-12-05,52.975723,-1.173219
71157,Horseshoe Inn,5,0,0,0,2011-02-04,53.00004,-1.195613
71158,HOSCA,4,5,5,10,2013-09-18,52.979943,-1.148296
71159,Host Contract Management,AwaitingInspection,nan,nan,nan,,52.929187,-1.174894
71160,Host Contract Management Ltd,5,5,0,0,2013-11-27,52.929187,-1.174894
71161,Hot And Spicy,5,5,5,5,2013-04-15,52.959938,-1.168131
71162,Hot Pink Potato,5,0,0,5,2013-02-21,,
71163,Hotdog,AwaitingInspection,nan,nan,nan,,,
71164,Hotel Chocolat Stores Ltd,5,0,0,5,2011-08-31,52.951857,-1.149175
71165,Hucknall Road Post Office,Exempt,nan,nan,nan,2012-05-22,52.985804,-1.159591
71166,Hudson Ltd,Exempt,nan,nan,nan,2009-03-16,52.997984,-1.160755
71167,Hugh Stewart Hall,5,5,0,0,2013-11-06,52.941259,-1.186495
71168,Hughendon Lodge,5,0,0,5,2010-02-26,52.977113,-1.133533
71169,Humaira Ghaffar,AwaitingInspection,nan,nan,nan,,,
71170,Hungry Moments,3,10,10,10,2014-01-10,52.95534,-1.179071
71171,Hungry Pumpkin Deli Ltd,5,5,5,5,2015-01-07,52.950761,-1.14427
71172,Huntingdon Academy,5,5,0,0,2014-11-25,52.961507,-1.144713
71173,Huw's Nursing Home,5,5,5,0,2014-04-03,52.949498,-1.167632
71174,Hyson Green Children's Centre,5,0,0,0,2013-11-19,52.964978,-1.171548
71175,Hyson Green Community Centre,5,0,0,0,2009-12-14,52.96606,-1.168073
71176,Hyson Green Post Office,5,5,5,5,2012-05-03,52.964978,-1.171548
71177,Hyson Green Supermarket,4,0,0,10,2009-08-05,52.968971,-1.173006
71178,Hyson Green Youth Club,5,5,0,5,2011-01-14,52.965998,-1.169563
71179,I C Discount,5,5,5,5,2011-07-22,52.963071,-1.134677
71180,Iberico World Tapas,4,10,5,5,2014-02-19,52.96667099,-1.14999997616
71181,Ibis Hotel,5,5,5,5,2013-11-13,52.952806,-1.146045
71182,ICCA,5,5,5,5,2014-10-01,52.975976,-1.156758
71183,Ice Cream Mobile X434BAA,5,0,0,5,2014-06-24,,
71184,Ice Cream Van,1,0,0,20,2013-04-11,,
71185,"Ice Cream Van M762RCH, DK07ST2, DK02RXA",5,5,0,5,2012-08-22,,
71186,Ice Off Licence,4,0,0,10,2014-08-20,52.968584,-1.169171
71187,Iced Fire,5,5,5,0,2013-09-02,52.968341,-1.166481
71188,Iceland Frozen Food,5,0,0,0,2013-07-30,52.983772,-1.19727
71189,Iceland Frozen Foods,5,0,0,0,2010-10-18,53.001997,-1.196515
71190,Iceland Frozen Foods,5,0,0,0,2014-07-31,52.903291,-1.17784
71191,Idmanyurdu FC Social Club,4,0,5,10,2009-11-18,52.962393,-1.169543
71192,il Tricolore,5,0,5,5,2013-06-07,52.95988,-1.10449
71193,Ilkeston Road Post Office,Exempt,nan,nan,nan,2012-05-18,52.955656,-1.171563
71194,Illusions,5,0,0,0,2011-09-15,,
71195,Indoor Bowls Centre,5,5,0,0,2013-01-30,52.96571,-1.203695
71196,Innovation House,5,5,5,5,2010-08-20,52.94627,-1.124937
71197,Innovations Ltd On Board Catering,5,5,5,0,2007-09-14,52.947164,-1.146543
71198,Interserve Facilities Management Ltd,5,0,0,0,2014-05-23,52.971623,-1.140105
71199,Iona School,5,5,0,0,2013-11-04,52.955985,-1.118489
71200,ISSE Multicultural Centre,AwaitingInspection,nan,nan,nan,,52.96527,-1.172079
71201,Istanbul Izgara,1,10,15,20,2014-10-08,52.960316,-1.150334
71202,Istanbul Mini Market,5,5,5,5,2011-04-27,52.958206,-1.149437
71203,Item Seven,5,5,5,0,2013-03-26,52.941259,-1.186495
71204,J & S News,5,5,5,5,2011-10-21,52.972209,-1.18505
71205,J A Haywood,4,0,0,10,2013-01-03,52.897302,-1.18928
71206,J and S Convenience Store,5,5,5,5,2012-07-27,52.966262,-1.128568
71207,J Coxon,5,0,0,5,2012-06-18,52.95346,-1.147475
71208,J C's Snacks,AwaitingInspection,nan,nan,nan,,52.974092,-1.17261
71209,J D Fruits,5,0,0,0,2011-10-31,52.955902,-1.146535
71210,J Hogg 1980 Ltd Family Butcher,5,5,5,5,2013-09-05,52.936363,-1.212268
71211,J K Foods (UK),5,0,5,5,2014-03-24,52.931902,-1.173578
71212,J Kerry & Sons Ltd,5,5,5,0,2014-06-03,52.955902,-1.146535
71213,J Knowles,5,5,5,5,2012-04-17,52.956477,-1.146494
71214,J Pegg,5,5,5,5,2003-09-19,52.943813,-1.135671
71215,J T Beedham & Sons Ltd,5,5,5,5,2013-11-26,52.981409,-1.145884
71216,J W Laurie's,4,5,5,10,2010-06-16,52.982671,-1.14504
71217,Jacks Snacks,5,5,0,5,2014-07-30,52.986972,-1.184088
71218,Jacky And Paul,5,0,0,0,2014-04-10,,
71219,Jade Garden,1,15,15,20,2014-10-02,52.946419,-1.232504
71220,Jade House,5,5,5,5,2014-11-11,52.99418,-1.16062
71221,Jahmahl House,5,5,5,5,2011-09-26,52.978027,-1.150642
71222,Jalisco,4,10,0,10,2013-08-06,52.961218,-1.150807
71223,Jam Jar Cafes,5,5,5,5,2013-07-02,52.947164,-1.146543
71224,Jam Jars Cafe,5,5,5,5,2014-11-25,52.936518,-1.179353
71225,Jamaican Ways Ltd,4,5,5,10,2014-11-06,52.960287,-1.175613
71226,Jamcafe Ltd,4,5,5,10,2014-02-07,52.954591,-1.142974
71227,Jamdung Roots Ltd,AwaitingInspection,nan,nan,nan,,,
71228,James and Co,4,5,0,10,2014-05-08,52.962786,-1.137541
71229,Jamia Al Hudaa School and Nursery,5,5,5,5,2014-02-12,52.968039,-1.15045
71230,Jamie's Italian,5,5,0,0,2014-10-23,52.956788,-1.149265
71231,Jared's,4,10,0,10,2014-11-07,52.953446,-1.1438
71232,Jasmine Inn,4,5,5,10,2014-04-25,52.972558,-1.152596
71233,Jaspal News,5,0,0,5,2009-12-08,52.978382,-1.170369
71234,Jasup Superstore,5,0,0,5,2012-05-01,52.940918,-1.145535
71235,Jay Delicious Homebake Products,5,5,5,5,2006-04-21,,
71236,Jays Newsagents & General Grocers,3,10,10,10,2014-01-06,52.902031,-1.172467
71237,Jays Off Licence,AwaitingInspection,nan,nan,nan,,,
71238,Jayson's Pharmacy,Exempt,nan,nan,nan,2012-10-17,52.95014,-1.229506
71239,JB Meat Direct Ltd,1,10,15,20,2014-10-14,52.962781,-1.177441
71240,Jem Leisure,5,5,5,0,2013-10-22,53.00051,-1.197243
71241,JEM Leisure Ltd,Exempt,nan,nan,nan,2013-05-13,52.953978,-1.149044
71242,Jerk Shack,AwaitingInspection,nan,nan,nan,,,
71243,Jerk Station,5,0,0,0,2014-05-15,,
71244,Jewel Bar & Restaurant,4,0,10,10,2015-01-20,52.940859,-1.139808
71245,Jewson Ltd,Exempt,nan,nan,nan,,52.984621,-1.184698
71246,Jigsaw Out Of School Club,5,5,5,5,2012-11-23,52.965748,-1.218866
71247,Jim's Smokehouse,4,10,0,5,2014-11-04,52.953557,-1.142979
71248,Jockey Club Catering,5,5,0,0,2013-11-28,52.949971,-1.111273
71249,Johal Dairy,3,10,10,10,2014-12-04,52.956812,-1.134489
71250,John Birch Sports Centre,4,0,10,5,2001-02-09,52.980284,-1.184109
71251,John Lewis Plc,5,0,0,0,2014-06-18,52.955963,-1.147606
71252,Johnno's Mini Market,4,5,5,10,2013-11-01,52.952276,-1.132511
71253,Johnsons Bakery,5,5,0,0,2013-05-28,52.950007,-1.123328
71254,Jo's Grows,5,0,0,5,2014-02-28,,
71255,Jo's Pancake House,4,0,5,10,2014-10-21,52.955656,-1.171563
71256,Jubilee Primary,5,5,0,0,2013-06-07,52.970027,-1.217523
71257,Juice Bar,5,0,0,0,2014-01-28,52.941259,-1.186495
71258,Juice Bros,5,0,0,5,2008-06-25,,
71259,Juke Box Cafe,4,10,5,5,2013-10-23,52.960949,-1.172504
71260,Julia's Kitchen,4,5,5,10,2008-09-26,,
71261,Jumbo Jacket Potatoes,3,10,10,10,2014-10-28,52.963976,-1.231061
71262,Junk Yard Bottle Shop & Pour House,5,0,5,5,2014-10-21,52.952538,-1.146348
71263,Jurys Inn Nottingham,4,10,5,5,2014-02-06,52.948516,-1.140742
71264,Just Potatoes,5,5,5,5,2013-04-22,52.98078,-1.147118
71265,K & M Lunchables,AwaitingInspection,nan,nan,nan,,,
71266,K M LA Ville D'Abidjan & Congo Marche African & Caribbean Food Store,3,10,5,10,2014-05-09,52.970462,-1.174168
71267,Kabul Express,1,15,0,20,2014-05-06,52.96414,-1.169897
71268,Kamal Food Store,3,10,10,10,2013-10-16,52.971523,-1.20052
71269,Kandola News,4,10,5,5,2014-01-27,52.962489,-1.119205
71270,Kani Minimarket,5,5,5,5,2013-06-26,52.951343,-1.124195
71271,Karczma Pod Zbojem Polish Restaurant,5,5,5,0,2014-04-02,52.968124,-1.172828
71272,Karim News,5,0,0,0,2010-07-26,52.997543,-1.190504
71273,Kashmir Halal Meat,4,10,5,5,2013-09-18,52.955656,-1.171563
71274,Katherine House,5,5,5,0,2013-08-16,52.973438,-1.156361
71275,Kathmandu Delight,4,10,5,5,2014-05-20,52.967523,-1.185913
71276,Katie's Cakes,AwaitingInspection,nan,nan,nan,,,
71277,Kat's Kitchen,4,10,5,5,2014-10-28,52.981327,-1.176225
71278,Kaya Food Centre,5,0,0,5,2014-05-08,52.957236,-1.164819
71279,Kayal Restaurant,5,5,5,0,2013-03-22,52.954119,-1.143712
71280,Kean's Head,4,10,0,10,2015-01-16,52.951291,-1.144096
71281,Kebab House,3,10,10,10,2014-07-31,52.900816,-1.178734
71282,Kebab Snacks,AwaitingInspection,nan,nan,nan,,52.955413,-1.14982
71283,Kebabish,1,15,0,20,2014-10-14,52.959574,-1.168793
71284,Kelly's Cafe,3,10,10,10,2014-10-23,52.941453,-1.180614
71285,Kentucky Fried Chicken,5,5,0,0,2014-05-22,52.956224,-1.148851
71286,Kentucky Fried Chicken,5,5,0,0,2013-04-11,52.94664,-1.125182
71287,Kentucky Fried Chicken,5,0,0,0,2013-02-06,53.011651,-1.189838
71288,Kentucky Fried Chicken,5,0,5,5,2013-07-10,52.964121,-1.17892
71289,Keoghs Bar,4,10,5,5,2012-12-12,52.957606,-1.148467
71290,Kerry's Fruit & Veg,5,0,0,0,2012-05-25,52.958785,-1.153698
71291,Kerry's Fruit & Veg,5,0,0,0,2012-05-25,52.899315,-1.271421
71292,Kerry's Fruit & Veg,5,0,0,0,2012-05-25,52.902972,-1.179793
71293,Kerry's Fruit & Veg,5,0,0,0,2012-05-25,52.912098,-1.185272
71294,Keverne Close Warden Aided Com,5,0,0,0,2011-03-30,,
71295,Keyline Builders Supplies,Exempt,nan,nan,nan,,52.94498,-1.127969
71296,Keystore Express,4,5,5,10,2014-06-10,52.961524,-1.118763
71297,Khan Halal Meat and Poultry,4,10,5,5,2013-10-16,52.963094,-1.169426
71298,Khan Stores,5,0,0,5,2010-06-24,52.963524,-1.167928
71299,Khans Halal Meat Centre,5,5,0,5,2010-11-30,52.969751,-1.167645
71300,Khaya Caterers,5,5,0,0,2014-09-04,,
71301,Kiddy Winks Pre-School,5,5,5,5,2014-06-13,52.955985,-1.118489
71302,Kim's Kitchen,4,5,10,5,2014-09-17,52.958718,-1.24101
71303,Kims News,2,15,15,10,2013-05-10,52.956994,-1.129812
71304,King Chicken,4,10,5,5,2014-08-07,,
71305,King William IV,1,15,10,20,2013-11-01,52.932043,-1.129291
71306,Kingfisher Court,5,0,5,5,2014-06-11,52.915878,-1.174166
71307,Kingsbury House,5,0,0,0,2014-08-18,52.981241,-1.144993
71308,Kingsthorpe View Care Home - HC-One,5,5,0,0,2014-01-06,52.971433,-1.125159
71309,Kingswood Luncheon Club,5,0,5,5,2011-12-06,52.958659,-1.211223
71310,Kiosk,5,5,5,5,2013-07-12,52.981736,-1.145014
71311,Kirkuk,4,10,5,5,2014-09-02,52.96326,-1.168857
71312,Kismet Kebabs,5,0,0,5,2012-03-08,52.954408,-1.153903
71313,Klever Kids,5,5,5,5,2014-09-25,52.972274,-1.207922
71314,Knights Pharmacy,Exempt,nan,nan,nan,2010-03-11,53.010438,-1.174121
71315,Kool Kids,5,5,5,5,2013-08-05,52.958882,-1.124995
71316,Krakus Food Store,5,5,5,5,2013-03-27,52.963094,-1.169426
71317,Kris' Kitchen,5,0,5,0,2014-12-03,,
71318,KS Convenience Ltd,1,5,10,20,2013-10-01,52.964807,-1.128687
71319,Kubus Mini Market,4,0,0,10,2010-02-04,52.963094,-1.169426
71320,Kubus Shop,1,5,10,20,2012-11-05,52.980735,-1.147118
71321,Kudos Ltd,5,0,0,0,2013-09-18,,
71322,Kuehne & Nagel Ltd,5,0,0,0,2012-08-10,52.937622,-1.168767
71323,Kupcake Kisses,5,0,0,5,2014-05-01,,
71324,Kurdistan Restaurant,5,5,5,5,2013-02-27,52.962393,-1.169543
71325,KV Minimarket,5,0,0,5,2011-01-04,53.008969,-1.163269
71326,Kwik Save Food Store,AwaitingInspection,nan,nan,nan,,52.981988,-1.198048
71327,L and M Stores,4,5,0,10,2009-10-12,52.969751,-1.167645
71328,L T Catering,4,5,5,10,2008-03-11,,
71329,L.A.T. ?,AwaitingInspection,nan,nan,nan,,,
71330,La Boulangerie,5,5,5,5,2013-08-15,52.973959,-1.154996
71331,La Cappana,5,5,5,5,2013-10-22,52.981409,-1.145884
71332,LA Diner,4,5,5,10,2014-01-16,52.936363,-1.212268
71333,La Salute,5,5,5,5,2014-03-04,52.954624,-1.152648
71334,La Strada,2,15,5,10,2014-04-08,52.963094,-1.169426
71335,La Tasca,4,10,5,0,2012-12-13,52.951599,-1.145771
71336,Lace Market Fish Bar,4,10,5,5,2014-10-22,52.953446,-1.1438
71337,Laksh Food & Wine,3,10,5,10,2014-08-21,52.958289,-1.127404
71338,Laksh Trent Stores,4,10,0,5,2012-05-08,52.938761,-1.153167
71339,Land Registry Stall Shop,Exempt,nan,nan,nan,2007-09-17,,
71340,Langdale Court,4,5,10,5,2014-08-29,52.963245,-1.153984
71341,Langdale House,5,0,0,5,2009-10-07,52.962629,-1.167276
71342,Langtry's,5,5,5,5,2013-02-20,52.955265,-1.150582
71343,Langtry's Mobile/Stall,AwaitingInspection,nan,nan,nan,,52.955265,-1.150582
71344,Lark Hill Retirement Village,4,0,10,10,2014-11-10,52.898298,-1.192993
71345,Larkhill Village Shop,5,0,5,5,2012-04-12,52.898298,-1.192993
71346,Las Iguanas,5,5,5,0,2013-07-09,52.953999,-1.154477
71347,Laura Chambers Lodge Home - El,5,5,0,0,2014-08-12,52.905328,-1.172151
71348,Law School Coffee Bar,5,5,0,0,2014-01-28,52.941259,-1.186495
71349,Laziz,4,10,5,5,2014-06-24,52.967284,-1.17213
71350,Lazy Daisy's Vintage Tea Party,AwaitingInspection,nan,nan,nan,,,
71351,Le Bistrot Pierre,5,5,5,5,2013-03-20,52.956224,-1.148851
71352,Le Chien Et Moi,Exempt,nan,nan,nan,2010-04-01,52.955428,-1.158334
71353,Le Mistral,3,10,10,5,2014-08-18,52.981763,-1.146368
71354,Le Mistral,5,5,5,5,2014-02-03,52.952137,-1.150524
71355,Le Petit Four,5,5,5,5,2013-02-14,52.955383,-1.149463
71356,Le Petit Four,3,10,10,10,2014-06-09,52.951756,-1.150144
71357,Leaf & Bean,5,0,5,5,2014-04-29,52.948167,-1.173953
71358,Learning Works For Children,5,0,5,5,2014-02-04,,
71359,Learning Works For Children Limited,AwaitingInspection,nan,nan,nan,,52.95643,-1.13268
71360,Lech Nottingham,5,5,5,5,2014-10-24,53.002979,-1.195409
71361,Lee Rosy's Tea,2,10,15,10,2014-06-17,52.95416,-1.144381
71362,Leengate Newsmarket,1,0,15,20,2014-07-30,52.944385,-1.180915
71363,Leihal's Off Licence,4,10,0,10,2014-03-31,52.984853,-1.170066
71364,Lemon Tree Chinese Takeaway,3,10,10,10,2013-01-15,52.956608,-1.16364
71365,Lenton And Wortley Hall,4,10,0,0,2014-01-31,52.941259,-1.186495
71366,Lenton Booze,4,0,0,10,2012-12-27,52.948167,-1.173953
71367,Lenton Liberal Club,5,5,0,5,2012-10-29,52.947703,-1.173173
71368,Lenton Pound Plus,Exempt,nan,nan,nan,2012-02-10,,
71369,Leon's Fish Bar,5,5,0,0,2013-08-05,53.004763,-1.193364
71370,Leslie Road General Store,4,0,0,10,2011-08-23,52.969443,-1.163482
71371,Lets Eat,4,10,5,5,2014-07-30,52.956888,-1.146233
71372,Levina House,5,0,0,0,2011-08-10,52.93701,-1.139661
71373,Liberty News,5,5,5,5,2007-09-04,52.962054,-1.172423
71374,Lidl UK,5,5,0,0,2011-05-26,52.972558,-1.152596
71375,Lidl UK,5,0,5,5,2014-07-25,52.956135,-1.182227
71376,LIFE,5,5,0,0,2014-12-04,52.998754,-1.196814
71377,Lifestyle Express,5,5,5,5,2013-12-17,52.950513,-1.126221
71378,Lifestyle Express,5,5,0,5,2012-07-24,52.954408,-1.153903
71379,Lifestyle Express,5,5,0,0,2014-06-03,53.002352,-1.199757
71380,Lillimay Creations,5,0,0,5,2012-08-21,,
71381,Lily Day Care Childrens Centre,5,5,0,5,2014-09-15,52.955331,-1.122491
71382,Lime Lodge,4,5,5,10,2009-12-11,52.983772,-1.19727
71383,Limes Cafe and Sandwich Bar,3,5,10,10,2014-10-24,52.956262,-1.131732
71384,Lincoln Court,5,0,0,0,2012-10-12,,
71385,Lincoln Hall,5,5,0,0,2014-02-21,52.941972,-1.198833
71386,Lincolnshire Poacher,5,5,0,0,2013-03-13,52.962076,-1.151297
71387,Lindas Lamour Bakery,5,5,5,5,2012-10-02,,
71388,Lindum house,5,5,5,5,2006-08-11,52.960794,-1.161966
71389,Linwood House,5,5,5,0,2008-06-19,52.963475,-1.166083
71390,Lion Inn,4,10,5,5,2013-11-07,52.972134,-1.174122
71391,Lion Revived,5,5,5,5,2012-05-03,53.002703,-1.197247
71392,Little Bits Of Loveliness,5,0,5,0,2014-09-30,,
71393,Little Stars 2 Day Nursery,AwaitingInspection,nan,nan,nan,,52.977114,-1.204497
71394,Little Star's Cupcakes,5,5,5,5,2011-08-12,,
71395,Little Stars Day Nursery,AwaitingInspection,nan,nan,nan,,52.974123,-1.217032
71396,Lloyds No1,5,5,0,0,2013-08-29,52.95381,-1.144448
71397,Lloyds Pharmacy,Exempt,nan,nan,nan,2012-10-17,52.955547,-1.220493
71398,Lloyds Pharmacy,Exempt,nan,nan,nan,2009-04-30,52.961501,-1.19807
71399,Lloyds Pharmacy,Exempt,nan,nan,nan,2014-07-25,52.960287,-1.175613
71400,Local 4U,4,10,0,5,2012-10-30,,
71401,Local Saver Store,4,0,5,10,2007-05-16,52.979431,-1.208208
71402,Loch Fyne Restaurant,5,5,0,0,2013-11-11,52.954729,-1.149714
71403,Locksley Catering,4,0,5,10,2013-03-09,,
71404,Locksley Catering,4,0,10,5,2013-12-03,,
71405,Lola's Little Luxuries,5,5,5,5,2013-11-13,,
71406,Londis,4,5,0,10,2013-09-18,52.961218,-1.150807
71407,Londis,5,5,0,0,2012-11-02,52.955115,-1.158429
71408,Londis,5,5,5,5,2013-03-27,52.996764,-1.192381
71409,Londis,5,0,0,5,2012-05-25,52.971899,-1.161067
71410,London Road Service,4,5,0,10,2014-12-30,52.949544,-1.141228
71411,Long Island,5,0,5,5,2014-05-23,52.954666,-1.150921
71412,Long Meadow Day Centre,5,5,0,5,2014-01-14,52.943924,-1.141086
71413,Lord Roberts,2,15,5,5,2013-11-21,52.954626,-1.144179
71414,Lou's Cupcakes,AwaitingInspection,nan,nan,nan,,,
71415,Lou's Mini Market,3,10,10,10,2013-08-05,52.961737,-1.129389
71416,Love To Eat,5,0,0,0,2014-01-08,52.947975,-1.151781
71417,Love Toast,5,5,5,5,2014-02-25,52.954816,-1.167083
71418,Lovell House,5,5,0,0,2013-11-21,52.962104,-1.161569
71419,Loz Dogs and Smiles,AwaitingInspection,nan,nan,nan,,,
71420,Lozi's Catering Ltd,5,5,5,5,2014-05-02,53.000242,-1.196705
71421,Lucky Star,2,10,15,10,2013-09-02,52.975851,-1.211863
71422,Luigi's Fast Food,AwaitingInspection,nan,nan,nan,,52.936363,-1.212268
71423,Lunch Break,AwaitingInspection,nan,nan,nan,,52.936829,-1.164646
71424,Luncheon Club,5,5,5,5,2007-11-22,,
71425,Lynnes Filling Inn,5,5,5,5,2014-03-04,52.972935,-1.210099
71426,M & D Caterers,5,0,0,0,2014-09-25,,
71427,M & F Minimarket,4,0,0,10,2014-08-28,52.956994,-1.129812
71428,M & H Discounts,5,5,5,5,2005-06-08,52.979431,-1.208208
71429,M & S Fishbar,5,5,0,0,2014-02-26,52.979155,-1.171664
71430,M J News & Dolls Houses,5,0,5,5,2011-08-19,52.972558,-1.152596
71431,Mace,5,0,0,0,2014-08-12,52.910579,-1.172289
71432,Macs Minimarket,5,0,0,5,2010-08-26,52.965796,-1.170208
71433,Madni Sweet Mart,3,10,10,10,2014-03-07,52.969875,-1.173807
71434,Madrassa-e-Islamia,5,5,5,5,2004-03-09,52.950642,-1.126665
71435,Magdala Lawn Tennis Club Ltd,4,10,5,5,2011-08-17,,
71436,Magick Bean,5,5,5,5,2012-02-10,52.979943,-1.148296
71437,Magpie Bakery,5,0,0,0,2013-01-08,,
71438,Maharaj Sweets & Takeaway,5,0,0,5,2014-09-30,52.955768,-1.169506
71439,Maid Marion Foodstores,5,5,5,5,2011-10-17,52.950735,-1.120888
71440,Maid Marion Stores,4,5,5,10,2014-10-03,52.898062,-1.180941
71441,Mail Workshop Ltd,Exempt,nan,nan,nan,2007-11-01,52.944788,-1.120324
71442,Majestic Wine Warehouse,5,5,5,0,2014-06-03,52.947596,-1.160525
71443,Majid Khan,3,5,10,10,2013-06-10,,
71444,Major Oak,5,5,5,5,2013-06-11,52.953518,-1.146344
71445,Maka Halal Meat Centre,AwaitingInspection,nan,nan,nan,,52.957236,-1.164819
71446,Makro Cafe,5,0,0,0,2014-12-09,52.933356,-1.178505
71447,Malt Cross Ltd,5,5,5,5,2013-06-04,52.953193,-1.152349
71448,Malthurst,5,5,0,0,2012-11-09,52.949313,-1.230979
71449,Malthurst Nuthall Rd F/Stn,5,5,0,5,2011-10-21,52.976158,-1.189384
71450,Man Li Chinese Supermarket,4,0,5,10,2013-11-04,52.958317,-1.144865
71451,Mandarin,1,15,10,20,2015-01-06,52.953536,-1.141342
71452,Manor Pharmacy,Exempt,nan,nan,nan,2011-09-09,52.943117,-1.146355
71453,Man's Gourmet,5,0,5,0,2015-01-08,52.941259,-1.186495
71454,Man's Restaurant,4,5,10,5,2015-01-07,52.953999,-1.154477
71455,Mansfield House,5,5,0,5,2010-08-26,,
71456,Mansfield Road Baptist Church,5,0,0,0,2008-06-03,52.973589,-1.162389
71457,Mapperley Fryer,1,5,15,20,2015-01-20,52.978158,-1.135106
71458,Mappleton House,5,0,0,0,2011-07-22,52.965853,-1.15158
71459,Marc and Daina's,4,5,10,5,2014-08-06,52.98272,-1.145679
71460,March Hare,5,5,5,5,2014-01-15,52.957797,-1.127801
71461,Mario's,AwaitingInspection,nan,nan,nan,,52.95534,-1.179071
71462,Market Bar,AwaitingInspection,nan,nan,nan,,52.953557,-1.142979
71463,Marks & Spencer,5,5,0,0,2013-06-21,52.95094,-1.149074
71464,Marks & Spencer Plc,5,0,0,0,2013-06-21,52.951807,-1.148357
71465,Marquis of Lorne,5,5,5,5,2012-10-02,52.954299,-1.180743
71466,Marrakesh,3,10,10,10,2014-08-19,52.954345,-1.153874
71467,Martins,Exempt,nan,nan,nan,2012-05-31,53.00143,-1.197763
71468,Martin's Fruit and Vegetables,5,0,0,0,2014-08-20,52.899315,-1.271421
71469,Martin's Fruit and Vegetables,4,0,0,10,2014-08-20,52.965796,-1.170208
71470,Maryland Chicken,1,10,15,20,2014-06-02,52.964978,-1.171548
71471,Maryland Chicken,3,10,5,10,2013-08-29,52.954919,-1.146168
71472,Mary's Kitchen,5,5,0,0,2014-07-14,52.953205,-1.137836
71473,Masala,5,0,5,5,2013-09-18,52.982671,-1.14504
71474,Masonic Club,5,5,0,0,2013-11-19,52.956498,-1.153282
71475,Massarellas Coffee Shop,5,5,0,0,2013-03-11,52.958429,-1.148004
71476,Master Curry Chef,AwaitingInspection,nan,nan,nan,,52.949776,-1.126294
71477,Mauritian Street Food,5,0,5,0,2012-10-30,,
71478,Max's Pizza,AwaitingInspection,nan,nan,nan,,52.962202,-1.171795
71479,May Sum Nottingham Ltd,5,5,0,5,2013-01-31,52.954917,-1.153372
71480,Mayfair Chinese Restaurant,5,5,5,5,2015-01-22,52.960316,-1.150334
71481,McColls,5,5,0,5,2012-01-26,53.010438,-1.174121
71482,McColls,5,5,5,5,2014-10-27,52.903291,-1.17784
71483,Mcdonalds,5,0,0,0,2013-04-23,52.978913,-1.174276
71484,Mcdonalds,5,0,0,0,2013-06-24,53.007047,-1.192144
71485,McDonalds Restaurants,5,5,0,0,2012-12-17,52.954293,-1.147877
71486,McDonalds Restaurants,4,5,10,0,2014-02-24,52.952701,-1.14898
71487,McDonalds Restaurants,5,5,0,0,2014-03-17,52.953554,-1.152565
71488,Mcdonalds Restaurants Ltd,5,5,0,0,2015-01-06,52.945447,-1.165582
71489,Me 'n' U,5,5,5,5,2014-12-18,52.981409,-1.145884
71490,Meadows Youth & Community Centre,4,10,0,10,2014-07-16,52.937843,-1.142918
71491,Meals At Home,4,10,5,5,2014-09-17,52.94023,-1.176723
71492,Med Continental Food Centre,1,10,15,20,2014-01-02,52.962076,-1.151297
71493,Medi-Mex,5,5,5,5,2012-08-08,,
71494,Medi-Mex,AwaitingInspection,nan,nan,nan,,52.953165,-1.176507
71495,Medina Chemist,Exempt,nan,nan,nan,2010-01-28,52.96414,-1.169897
71496,Medina Food Store Ltd,5,5,0,5,2010-11-02,52.96414,-1.169897
71497,"Meet At The Corner FMP20, 8b, 9b",5,5,5,5,2013-11-19,52.955902,-1.146535
71498,Mega Munch,2,15,10,10,2014-03-05,52.954158,-1.152881
71499,Megabites,4,5,5,10,2014-02-26,52.977221,-1.204317
71500,Mei Shan,0,20,15,20,2014-09-09,52.956656,-1.162835
71501,Mel Milap Ladies Group Lunch Club,5,0,0,0,2013-09-16,52.955442,-1.17694
71502,Melbourne House Nursing Home,5,5,5,5,2014-01-17,52.971908,-1.204251
71503,Melbury Infants School,5,5,0,0,2013-07-05,52.970842,-1.23222
71504,Mellers Primary School,5,0,0,0,2013-05-10,52.959769,-1.173509
71505,Mellors Catering Services Ltd,5,5,0,0,2014-03-11,52.988932,-1.180118
71506,Mellors Lodge Hostel,4,5,5,10,2010-03-03,,
71507,Mem Saab Restaurant,5,5,5,5,2014-11-25,52.953183,-1.15476
71508,Meme's Cafe,4,5,0,10,2014-04-02,52.962786,-1.137541
71509,Mencap,5,5,0,5,2013-09-25,52.954345,-1.153874
71510,Mencap Homes,5,5,5,5,2007-02-27,52.980385,-1.19501
71511,Mencap Homes Foundation,5,5,0,0,2010-08-05,53.005352,-1.145128
71512,Mercure Hotel,5,0,5,5,2013-06-05,52.95381,-1.144448
71513,Merril Clews,5,5,0,5,2010-04-27,,
71514,MFA Bowl Ltd,5,5,0,0,2014-03-20,52.953536,-1.141342
71515,Miami Express,5,0,5,5,2013-08-12,52.963922,-1.207807
71516,Middleton Blvd Post Office,Exempt,nan,nan,nan,2012-11-08,52.954198,-1.193546
71517,Middleton Primary School,5,5,0,0,2013-06-06,52.95348,-1.195048
71518,Middleton's,AwaitingInspection,nan,nan,nan,,52.955519,-1.228636
71519,Midland News,5,5,0,5,2006-03-24,52.977412,-1.190076
71520,Midway Stores,5,0,0,5,2012-06-28,52.987964,-1.184501
71521,Mighty Bites,0,15,20,30,2014-10-02,52.946597,-1.16928
71522,Milano Pizza Flames Grill,5,0,0,0,2011-04-20,52.955656,-1.171563
71523,Milford Academy,AwaitingInspection,nan,nan,nan,,52.899437,-1.176946
71524,Mill Cafe,5,5,5,5,2013-09-20,52.968109,-1.183639
71525,Millies Cafe,5,5,0,0,2013-12-10,52.975125,-1.175122
71526,Millie's Cookies,5,5,0,0,2011-10-20,,
71527,Minako Osborne Catering,AwaitingInspection,nan,nan,nan,,,
71528,Mingles Bar & Cafe Home Catering,5,0,0,5,2011-06-27,,
71529,Mingles Bar And Cafe,4,10,5,0,2011-06-10,52.963594,-1.17549
71530,Miss Korea Restaurant Nottingham,5,5,5,5,2014-10-10,52.954158,-1.152881
71531,Miss Rose Food Store,4,0,0,10,2014-02-05,52.963071,-1.134677
71532,Mister Pizza,5,5,5,5,2013-03-20,52.955235,-1.193973
71533,Mistry's Pharmacy & Opticians,Exempt,nan,nan,nan,2012-07-03,53.002223,-1.178301
71534,Mitchell's Food Store,5,0,0,0,2013-11-14,52.959574,-1.168793
71535,Mitchell's The Bowl,3,5,10,10,2014-07-31,52.955656,-1.171563
71536,Mitie Catering Services Ltd,5,5,0,0,2013-01-23,52.98039,-1.157968
71537,MKG Food Products Limited,Exempt,nan,nan,nan,2010-07-13,52.96126,-1.218515
71538,MKG Food Products Limited,Exempt,nan,nan,nan,,,
71539,Mmmm That Tastes Yummy,5,0,0,5,2013-02-25,,
71540,Mogal E Azam Tandoori Restaurant,5,0,0,0,2013-08-21,52.955785,-1.152789
71541,Mogal Express,2,10,15,5,2014-03-14,52.955849,-1.174745
71542,Mohammed Jehangir,5,5,5,5,2014-02-24,,
71543,Moments Cakes,AwaitingInspection,nan,nan,nan,,,
71544,Monopolowy,4,0,10,10,2014-12-11,52.968971,-1.173006
71545,Monopolzodiak,4,0,0,10,2013-08-15,52.958289,-1.127404
71546,Monti Sabini Ltd,Exempt,nan,nan,nan,2011-09-09,52.933294,-1.168211
71547,Mooch and The Den,5,5,5,0,2013-01-14,52.941259,-1.186495
71548,Moon & Stars,5,5,0,0,2010-08-03,52.999557,-1.197201
71549,Moo's Mini Morsels,AwaitingInspection,nan,nan,nan,,,
71550,Morrison Supermarkets PLC,AwaitingInspection,nan,nan,nan,,52.948027,-1.174566
71551,Morrisons,AwaitingInspection,nan,nan,nan,,52.953904,-1.149983
71552,Morrisons,5,5,0,0,2014-04-14,52.971523,-1.20052
71553,Morrisons,5,5,0,0,2013-07-12,53.010428,-1.189771
71554,Morrisons,5,5,5,5,2013-06-27,52.903019,-1.180149
71555,Morrisons,5,0,0,0,2014-09-05,52.947164,-1.146543
71556,Morrisons,AwaitingInspection,nan,nan,nan,,52.962781,-1.177441
71557,Moulin Rouge Restaurant,5,5,5,5,2013-03-27,52.955604,-1.148833
71558,Mount Vernon Terrace,3,10,10,5,2014-01-29,52.962104,-1.161569
71559,Mountford House School,5,5,0,0,2012-10-09,52.972558,-1.152596
71560,Mousetrap Soft Play Ltd,5,0,0,5,2013-03-27,53.002979,-1.195409
71561,Mozza's Munch,AwaitingInspection,nan,nan,nan,,,
71562,Mr Chans,5,5,5,5,2013-04-04,52.976538,-1.228992
71563,Mr Chips,5,5,0,5,2013-07-05,52.969443,-1.163482
71564,Mr Cool's Caribbean Bakery,4,5,0,10,2012-11-09,52.959574,-1.168793
71565,Mr J Patel,5,5,5,5,2013-06-03,52.968109,-1.183639
71566,Mr Mans,2,15,10,10,2014-10-22,52.953618,-1.212952
71567,Mr N Parekh,5,5,5,5,2012-05-09,52.96043258,-1.17581438
71568,Mr Pitchforks Pickles,5,0,0,5,2014-06-05,52.953165,-1.176507
71569,Mr Singh T/A Glasshouse Chemis,Exempt,nan,nan,nan,2014-09-03,52.956888,-1.146233
71570,Mr Suri,Exempt,nan,nan,nan,2007-03-14,52.971678,-1.160401
71571,Mr Tea's Two,5,0,0,0,2014-08-06,,
71572,Mr T's,5,0,0,5,2013-05-10,,
71573,Mr T's Cuisine,3,10,10,10,2013-12-16,52.962054,-1.172423
71574,Mr T's Pizzas,5,5,0,0,2013-12-03,52.984947,-1.189026
71575,Mr Wang Takeaway,1,10,10,20,2013-11-19,52.956262,-1.131732
71576,Mr Yummy,5,0,0,5,2014-02-18,,
71577,Mr Yummy - DN02 HLC,5,0,0,0,2013-04-25,,
71578,Mr Yummy - T43 NUA,5,0,0,0,2013-04-25,,
71579,Mr Yummy - VN07 TGY,5,0,0,0,2013-04-25,,
71580,Mr Yummy Ice Cream Van x 2,5,5,5,5,2013-09-19,,
71581,Mr Yummy Y771 MAB,5,0,0,5,2014-06-24,,
71582,Mrs Bakers,3,10,10,10,2014-02-28,52.961501,-1.19807
71583,Mrs Chambers,5,0,0,5,2014-07-03,,
71584,Mrs S K Soni,4,10,5,5,2007-08-31,52.970823,-1.161519
71585,MSR Newsgroup,5,0,0,5,2010-02-05,52.955035,-1.153548
71586,MSR Newsgroup,5,5,5,5,2011-07-22,52.952644,-1.151035
71587,MSR Newsgroup,5,5,5,5,2010-05-10,52.94797,-1.147346
71588,MSR Newsgroup,5,0,0,5,2011-08-24,52.953554,-1.152565
71589,MSR Newsgroup,4,0,0,10,2008-09-02,52.95138,-1.1478
71590,MSR Newsgroup,5,5,5,5,2011-07-18,52.954956,-1.148846
71591,MSR Newsgroup,5,5,5,5,2011-10-31,52.95652,-1.147461
71592,Muffin Break,5,5,5,5,2014-06-17,52.949346,-1.148688
71593,Muffin Break unit 60,4,10,5,5,2013-08-27,52.957181,-1.146942
71594,Mumbai Spice,5,5,0,5,2014-04-17,52.980741,-1.129424
71595,Munch Munch,5,0,0,0,2014-01-06,52.964245,-1.169523
71596,Munchies,1,15,15,20,2014-04-28,52.972558,-1.152596
71597,Murat Food Centre,5,5,0,0,2014-08-27,52.953976,-1.138729
71598,Murco Petrol Station No. 212,4,5,0,10,2009-05-13,52.962398,-1.201701
71599,Murco Service Station,5,0,0,5,2012-06-27,52.984621,-1.184698
71600,Murphy & Son Ltd,Exempt,nan,nan,nan,2013-09-09,52.981368,-1.182182
71601,Mushtaqs Sweets & Food,3,10,5,10,2013-12-02,52.953464,-1.124122
71602,MWB Business Exchange,5,0,0,5,2011-07-26,52.952609,-1.149949
71603,My Kind Of Cooking,4,5,5,10,2006-01-06,,
71604,My Peacemills Ltd,3,10,10,10,2015-01-08,52.983419,-1.157924
71605,My Start 2 Day Nursery,AwaitingInspection,nan,nan,nan,,52.984554,-1.206744
71606,My Start Day Nursery,AwaitingInspection,nan,nan,nan,,52.977147,-1.201399
71607,Nada Budaya,5,0,5,5,2013-11-12,52.954119,-1.143712
71608,Nads,1,15,15,20,2014-11-25,52.974717,-1.155428
71609,Nafees Spice,3,10,10,10,2014-09-24,52.969751,-1.167645
71610,Nagoyaka,5,5,5,5,2014-02-06,52.962505,-1.151006
71611,Nags Head,1,5,0,20,2014-08-26,52.968109,-1.183639
71612,Nahal Off Licence,5,5,5,5,2014-09-16,52.95534,-1.179071
71613,Nahals Off-Licence,5,0,0,5,2010-01-08,52.962202,-1.171795
71614,Nando's,5,5,5,0,2014-08-12,52.953554,-1.152565
71615,Nando's Chickenland Ltd,5,0,0,0,2013-06-06,52.936395,-1.175963
71616,Nando's Chickenland Ltd,5,0,0,0,2013-06-03,52.9555015564,-1.1507999897
71617,Naresh Food and Wine,4,5,5,10,2013-05-20,52.959326,-1.142687
71618,Naseeb Sweets and Takeaway,5,5,0,0,2013-12-18,52.955656,-1.171563
71619,Natural Food Company,5,5,0,5,2013-07-23,52.958206,-1.149437
71620,Natural Food Company Ltd,5,5,0,0,2013-06-24,52.946421,-1.231298
71621,Naughty But Nice,1,15,10,20,2014-02-04,52.972558,-1.152596
71622,Naughty But Nice Too,2,15,10,10,2014-08-12,52.963151,-1.160938
71623,Navarra,4,0,0,10,2014-01-17,52.95988,-1.10449
71624,Naveed's Kebab House,4,10,5,5,2014-02-06,52.951343,-1.124195
71625,Navigation,5,5,0,5,2012-01-05,52.947975,-1.151781
71626,Navigation Burger Bar,5,5,5,0,2014-06-12,52.947975,-1.151781
71627,Nergiz Bakery,5,5,0,0,2011-05-04,52.96326,-1.168857
71628,Nethergate School,5,5,5,0,2013-06-13,52.904195,-1.168277
71629,New Carrington Inn,5,0,0,5,2014-08-13,52.972558,-1.152596
71630,New Church of God,3,10,5,10,2013-06-11,52.958289,-1.127404
71631,New College Nottingham,5,5,5,5,2014-01-07,52.952844,-1.143871
71632,New College Nottingham,4,10,5,5,2014-01-15,52.956046,-1.14037
71633,New College Nottingham,5,5,0,0,2013-11-19,52.957502,-1.156582
71634,New College Nottingham Refectory,5,0,0,0,2014-01-06,52.985186,-1.19638
71635,New Culture,5,5,0,5,2011-02-09,52.960736,-1.174235
71636,New Foresters,5,5,5,5,2013-10-02,52.957536,-1.14625
71637,New Garden,1,10,15,20,2014-11-17,52.978583,-1.157944
71638,New Happy Eater,5,5,5,5,2013-05-07,52.984947,-1.189026
71639,New Highbury Fish & Chips,4,10,0,10,2008-02-12,52.99545,-1.190826
71640,New Kafe Kredens,4,0,0,10,2010-05-13,52.964245,-1.169523
71641,New King Wah,5,0,0,5,2013-02-07,52.981988,-1.198048
71642,New Laguna Indian Restaurant,4,5,10,5,2014-01-09,52.952489,-1.154476
71643,New Look,Exempt,nan,nan,nan,2011-01-24,52.95094,-1.149074
71644,New Look,Exempt,nan,nan,nan,2011-01-24,52.953932,-1.146366
71645,New Summer Palace,5,5,5,5,2013-03-13,52.959364,-1.112302
71646,New Testament Church,5,5,5,5,2013-06-11,52.958289,-1.127404
71647,New Theatre,5,5,5,0,2014-09-26,52.941259,-1.186495
71648,New Yeung Chow,1,15,10,20,2014-02-06,52.91483,-1.174795
71649,Newark Hall,5,0,0,0,2011-12-13,52.954346,-1.188899
71650,Newcastle Arms,5,0,0,5,2010-02-18,52.97656,-1.18899
71651,Newmarket Hotel,5,5,5,5,2014-01-09,52.955131,-1.144377
71652,News Express,5,0,5,5,2012-07-17,52.952324,-1.152798
71653,Newscard,3,10,10,10,2013-03-07,52.978158,-1.135106
71654,Newsplace,4,0,5,10,2010-06-24,52.964121,-1.17892
71655,Newstead Abbey,5,5,5,5,2010-05-10,53.004712,-1.189923
71656,Next Retail Ltd,Exempt,nan,nan,nan,2011-08-18,52.932818,-1.165705
71657,NG1,4,5,0,10,2010-05-28,52.954432,-1.140878
71658,Nibbles,2,15,10,10,2013-09-04,52.982671,-1.14504
71659,Nice and Spicy,1,10,10,20,2014-11-04,52.978158,-1.135106
71660,Nice Baps,4,0,5,10,2006-06-07,,
71661,Nicks News,5,5,0,5,2011-08-18,52.994018,-1.139214
71662,Nico's Food For Thought,5,0,5,0,2014-02-11,52.947798,-1.152172
71663,Nightingale Hall,5,0,0,0,2014-02-12,52.941259,-1.186495
71664,Nikos Desserts,AwaitingInspection,nan,nan,nan,,,
71665,Nirvana,AwaitingInspection,nan,nan,nan,,52.953164,-1.145815
71666,Nisa,AwaitingInspection,nan,nan,nan,,52.956707,-1.144703
71667,Nisa Local,5,5,5,5,2013-04-22,52.98272,-1.145679
71668,Nisa Local,4,5,5,10,2014-01-31,52.959792,-1.113127
71669,Nisa Local,5,0,0,5,2013-06-07,52.990049,-1.171456
71670,Nisha News,4,10,5,5,2014-08-05,52.960287,-1.175613
71671,No 1 Cob Shop,5,0,5,0,2013-07-15,53.007047,-1.192144
71672,No.9 Kitchen,3,5,10,10,2013-09-02,52.955563,-1.186748
71673,No1 Family Store,3,10,10,10,2013-06-26,52.981988,-1.198048
71674,Nobel-Delicious,5,5,5,5,2013-03-11,52.900551,-1.191271
71675,Noor Jahan,5,5,5,5,2013-10-08,52.958206,-1.149437
71676,Nooze n Booze,2,15,0,10,2014-08-26,52.943117,-1.146355
71677,NORSACA,5,0,0,0,2014-07-10,52.980671,-1.228561
71678,NORSACA,3,5,10,10,2013-08-07,52.971879,-1.157032
71679,NORSACA,5,0,0,5,2013-01-02,52.984305,-1.149849
71680,North Gate Cafe,AwaitingInspection,nan,nan,nan,,52.975664,-1.168559
71681,Northern Fish Bar,4,10,5,5,2013-10-15,52.991432,-1.186819
71682,Northgate Fish Bar,5,5,0,5,2013-08-15,52.975664,-1.168559
71683,Northgate Stores,4,5,5,10,2014-11-11,52.975664,-1.168559
71684,Nott. Constab. Catering Servic,5,5,5,5,2005-04-01,52.99705,-1.152116
71685,Nott. Proprietary Bowling Gree,5,0,0,5,2012-08-01,52.963798,-1.155819
71686,Nottingham & Nottinghamshire Refugee Forum,1,15,15,20,2014-11-20,52.967827,-1.142206
71687,Nottingham Academy,5,5,0,0,2013-11-19,52.952829,-1.119654
71688,Nottingham Academy,5,0,0,0,2013-11-18,52.975825,-1.133231
71689,Nottingham Academy,5,0,0,5,2013-03-04,52.956678,-1.114962
71690,Nottingham And Notts Society For The Deaf,5,0,0,5,2013-09-16,52.961873,-1.164521
71691,Nottingham and Notts. Refugee Forum,4,5,5,10,2013-02-18,52.962784,-1.149824
71692,Nottingham Arts Theatre,5,5,0,5,2012-07-11,52.954099,-1.144606
71693,Nottingham Audi,Exempt,nan,nan,nan,2014-08-15,52.931285,-1.171403
71694,Nottingham Belfry Hotel,5,5,5,5,2013-01-31,52.98147,-1.238139
71695,Nottingham Bridge Club,5,5,5,5,2011-09-12,52.976638,-1.14991
71696,Nottingham Castle Cafe,5,5,5,0,2013-01-15,52.95069,-1.153112
71697,Nottingham City Council Loxley House,3,5,10,10,2014-12-29,52.948067,-1.144561
