,addressline1,addressline2,addressline3,addressline4,businessname,businesstype,businesstypeid,confidenceinmanagement,extractdate,fhrsid,hygiene,itemcount,latitude,localauthoritybusinessid,localauthoritycode,localauthorityemailaddress,localauthorityname,localauthoritywebsite,longitude,postcode,ratingdate,ratingkey,ratingvalue,returncode,schemetype,structural
70108,,470 Vernon Road,,Nottingham,1st Class Pizza,Takeaway/sandwich shop,7844,5,,218441,0,,52.98631900000000,64296,899,food.enforcement@nottinghamcity.gov.uk,Nottingham City,http://www.nottinghamcity.gov.uk/foodsafety,-1.18322100000000,NG6 0AT,2013-05-07,fhrs_5_en-GB,5,,FHRS,5
70109,,16 Flying Horse Walk,,Nottingham,200 Degrees Coffee,Restaurant/Cafe/Canteen,1,0,,718506,10,,52.95278800000000,68170,899,food.enforcement@nottinghamcity.gov.uk,Nottingham City,http://www.nottinghamcity.gov.uk/foodsafety,-1.14862100000000,NG1 2HN,2014-12-15,fhrs_4_en-GB,4,,FHRS,10
70110,3s Midland (Notts) Limited,Greasley Street,,Nottingham,3 S Midland Ltd,Distributors/Transporters,7,,,218271,,,52.99939000000000,36067,899,food.enforcement@nottinghamcity.gov.uk,Nottingham City,http://www.nottinghamcity.gov.uk/foodsafety,-1.20316500000000,NG6 8NG,2013-12-12,fhrs_exempt_en-GB,Exempt,,FHRS,
70111,,,,,3CZ,Other catering premises,7841,5,,595714,0,,,66511,899,food.enforcement@nottinghamcity.gov.uk,Nottingham City,http://www.nottinghamcity.gov.uk/foodsafety,,,2013-11-13,fhrs_5_en-GB,5,,FHRS,5
70112,,41 Mount Street,,City Centre,4550 Miles From Delhi,Restaurant/Cafe/Canteen,1,0,,216383,0,,52.95248900000000,63911,899,food.enforcement@nottinghamcity.gov.uk,Nottingham City,http://www.nottinghamcity.gov.uk/foodsafety,-1.15447600000000,NG1 6HE,2013-06-10,fhrs_5_en-GB,5,,FHRS,5
70113,"Thelmas Cafe, Nottingham Fruit And Vegetable Market",Clarke Road,,Nottingham,4am Cafe,Restaurant/Cafe/Canteen,1,0,,216646,5,,52.94493000000000,52089,899,food.enforcement@nottinghamcity.gov.uk,Nottingham City,http://www.nottinghamcity.gov.uk/foodsafety,-1.13477100000000,NG2 3JJ,2014-02-10,fhrs_5_en-GB,5,,FHRS,5
70114,,,,,4get Me Knott,Other catering premises,7841,0,,548784,0,,,66304,899,food.enforcement@nottinghamcity.gov.uk,Nottingham City,http://www.nottinghamcity.gov.uk/foodsafety,,,2013-05-15,fhrs_5_en-GB,5,,FHRS,5
70115,,10 Church Square,,Nottingham,5 Star Catering,Other catering premises,7841,,,713208,,,52.94893300000000,68094,899,food.enforcement@nottinghamcity.gov.uk,Nottingham City,http://www.nottinghamcity.gov.uk/foodsafety,-1.17163200000000,NG7 1SL,,fhrs_awaitinginspection_en-GB,AwaitingInspection,,FHRS,
70116,J Sainsburys,Castle Bridge Road,,Nottingham,7 Day Catering Ltd,Restaurant/Cafe/Canteen,1,5,,217601,0,,52.94544700000000,61401,899,food.enforcement@nottinghamcity.gov.uk,Nottingham City,http://www.nottinghamcity.gov.uk/foodsafety,-1.16558200000000,NG7 1GX,2013-07-29,fhrs_5_en-GB,5,,FHRS,5
70117,,113 Broad Marsh Centre,,Nottingham,99p Stores,Retailers - other,4613,,,216628,,,52.95021900000000,63173,899,food.enforcement@nottinghamcity.gov.uk,Nottingham City,http://www.nottinghamcity.gov.uk/foodsafety,-1.14765900000000,NG1 7LN,2010-09-23,fhrs_exempt_en-GB,Exempt,,FHRS,
70118,,28 Broxtowe Lane,,Nottingham,A J Convenience,Retailers - other,4613,10,,539612,0,,52.98198800000000,65604,899,food.enforcement@nottinghamcity.gov.uk,Nottingham City,http://www.nottinghamcity.gov.uk/foodsafety,-1.19804800000000,NG8 5NP,2013-03-21,fhrs_4_en-GB,4,,FHRS,0
70119,,,,,A J R Catering,Other catering premises,7841,10,,218858,5,,,36062,899,food.enforcement@nottinghamcity.gov.uk,Nottingham City,http://www.nottinghamcity.gov.uk/foodsafety,,,2010-05-19,fhrs_4_en-GB,4,,FHRS,5
70120,Bulwell Market,Main Street,,Nottingham,A J Taylor,Retailers - other,4613,10,,218907,0,,53.00162600000000,19600,899,food.enforcement@nottinghamcity.gov.uk,Nottingham City,http://www.nottinghamcity.gov.uk/foodsafety,-1.19613500000000,NG6 8EW,2008-11-03,fhrs_4_en-GB,4,,FHRS,0
70121,Shop,56-58 Wiverton Road,,Nottingham,A K Stores,Retailers - other,4613,10,,218623,0,,52.96888200000000,61183,899,food.enforcement@nottinghamcity.gov.uk,Nottingham City,http://www.nottinghamcity.gov.uk/foodsafety,-1.16158700000000,NG7 6NT,2008-12-17,fhrs_4_en-GB,4,,FHRS,0
70122,,136 Hucknall Road,,Nottingham,A Wright Butchers,Retailers - other,4613,5,,217365,5,,52.97471700000000,33451,899,food.enforcement@nottinghamcity.gov.uk,Nottingham City,http://www.nottinghamcity.gov.uk/foodsafety,-1.15542800000000,NG5 1AD,2014-10-02,fhrs_5_en-GB,5,,FHRS,5
70123,,185 Carlton Road,,Nottingham,A1 Caterers,Takeaway/sandwich shop,7844,10,,218834,10,,52.95828900000000,45795,899,food.enforcement@nottinghamcity.gov.uk,Nottingham City,http://www.nottinghamcity.gov.uk/foodsafety,-1.12740400000000,NG3 2FX,2013-10-07,fhrs_3_en-GB,3,,FHRS,10
70124,Sycamore House,700 Mansfield Road,,Nottingham,Abbeyfield Sycamore House,Hospitals/Childcare/Caring Premises,5,0,,216804,0,,52.98677900000000,35779,899,food.enforcement@nottinghamcity.gov.uk,Nottingham City,http://www.nottinghamcity.gov.uk/foodsafety,-1.14127900000000,NG5 3FW,2014-06-12,fhrs_5_en-GB,5,,FHRS,0
70125,Acorn House,1 Oak Street,,Nottingham,Acacia Care,Hospitals/Childcare/Caring Premises,5,0,,624073,0,,52.97413800000000,66948,899,food.enforcement@nottinghamcity.gov.uk,Nottingham City,http://www.nottinghamcity.gov.uk/foodsafety,-1.15356200000000,NG5 2AT,2014-04-30,fhrs_5_en-GB,5,,FHRS,0
70126,Claremont Lodge,12 Sherwood Rise,,Nottingham,Acacia Care Home - HC-One,Hospitals/Childcare/Caring Premises,5,5,,217288,0,,52.97223100000000,64789,899,food.enforcement@nottinghamcity.gov.uk,Nottingham City,http://www.nottinghamcity.gov.uk/foodsafety,-1.15978000000000,NG7 6JE,2013-12-19,fhrs_5_en-GB,5,,FHRS,5
70127,Academy Day Nursery,Bestwood Park Drive West,,Nottingham,Academy Day Nursery,Hospitals/Childcare/Caring Premises,5,5,,216678,5,,53.01031000000000,48436,899,food.enforcement@nottinghamcity.gov.uk,Nottingham City,http://www.nottinghamcity.gov.uk/foodsafety,-1.17391500000000,NG5 5EJ,2014-12-15,fhrs_5_en-GB,5,,FHRS,5
70128,187 Victoria Centre,Victoria Centre,,Nottingham,Accessorize,Retailers - other,4613,,,216555,,,52.95563100000000,47428,899,food.enforcement@nottinghamcity.gov.uk,Nottingham City,http://www.nottinghamcity.gov.uk/foodsafety,-1.14761200000000,NG1 3QH,2011-10-31,fhrs_exempt_en-GB,Exempt,,FHRS,
70129,,390-392 Radford Road,,Nottingham,Accra Makola Market,Retailers - other,4613,10,,689625,5,,52.97135300000000,67815,899,food.enforcement@nottinghamcity.gov.uk,Nottingham City,http://www.nottinghamcity.gov.uk/foodsafety,-1.17437500000000,NG7 5GR,2014-07-29,fhrs_4_en-GB,4,,FHRS,5
70130,Mary Potter Centre,Gregory Boulevard,,Nottingham,Acorn Resource Centre,Hospitals/Childcare/Caring Premises,5,0,,218038,0,,52.96497800000000,33386,899,food.enforcement@nottinghamcity.gov.uk,Nottingham City,http://www.nottinghamcity.gov.uk/foodsafety,-1.17154800000000,NG7 5JD,2010-01-18,fhrs_5_en-GB,5,,FHRS,0
70131,@d2,74 Lower Parliament Street,,Nottingham,AD2,Pub/bar/nightclub,7843,0,,217737,5,,52.95443200000000,57570,899,food.enforcement@nottinghamcity.gov.uk,Nottingham City,http://www.nottinghamcity.gov.uk/foodsafety,-1.14087800000000,NG1 1EH,2013-01-18,fhrs_5_en-GB,5,,FHRS,5
70132,,195 Carlton Road,,Nottingham,Adam's & Lilly's,Takeaway/sandwich shop,7844,,,682262,,,52.95828900000000,67616,899,food.enforcement@nottinghamcity.gov.uk,Nottingham City,http://www.nottinghamcity.gov.uk/foodsafety,-1.12740400000000,NG3 2FX,,fhrs_awaitinginspection_en-GB,AwaitingInspection,,FHRS,
70133,,16 Little Tennis Street,,Nottingham,Adams Fast Food Supplies,Retailers - other,4613,5,,216452,0,,52.94582200000000,62939,899,food.enforcement@nottinghamcity.gov.uk,Nottingham City,http://www.nottinghamcity.gov.uk/foodsafety,-1.11781700000000,NG2 4EN,2013-05-02,fhrs_5_en-GB,5,,FHRS,5
70134,Adams Building,Stoney Street,,Nottingham,Adams Restaurant and Brasserie,Restaurant/Cafe/Canteen,1,5,,218288,0,,52.95258400000000,47592,899,food.enforcement@nottinghamcity.gov.uk,Nottingham City,http://www.nottinghamcity.gov.uk/foodsafety,-1.14393600000000,NG1 1PJ,2014-10-14,fhrs_5_en-GB,5,,FHRS,5
70135,,546 Radford Road,,Nottingham,Adam's Spice,Retailers - other,4613,10,,703761,15,,52.97572300000000,67951,899,food.enforcement@nottinghamcity.gov.uk,Nottingham City,http://www.nottinghamcity.gov.uk/foodsafety,-1.17321900000000,NG7 7EA,2014-10-01,fhrs_2_en-GB,2,,FHRS,15
70136,Admiral Rodney Public House,Wollaton Road,,Nottingham,Admiral Rodney,Pub/bar/nightclub,7843,0,,217250,0,,52.95322200000000,33391,899,food.enforcement@nottinghamcity.gov.uk,Nottingham City,http://www.nottinghamcity.gov.uk/foodsafety,-1.21970200000000,NG8 2AF,2014-10-31,fhrs_5_en-GB,5,,FHRS,5
70137,,165 Berridge Road Central,,Nottingham,Adnan Sweets,Takeaway/sandwich shop,7844,5,,508541,5,,52.96975100000000,65681,899,food.enforcement@nottinghamcity.gov.uk,Nottingham City,http://www.nottinghamcity.gov.uk/foodsafety,-1.16764500000000,NG7 6HR,2013-01-29,fhrs_5_en-GB,5,,FHRS,5
70138,Thorneywood Child & Adolescent,Porchester Road,,Nottingham,Adolescent Unit,Hospitals/Childcare/Caring Premises,5,0,,217594,0,,52.96928700000000,45579,899,food.enforcement@nottinghamcity.gov.uk,Nottingham City,http://www.nottinghamcity.gov.uk/foodsafety,-1.12061600000000,NG3 6LF,2009-09-10,fhrs_5_en-GB,5,,FHRS,0
70139,,Glaisdale Drive East,,Nottingham,Advanex Europe Limited,Restaurant/Cafe/Canteen,1,0,,218655,0,,52.96143300000000,34733,899,food.enforcement@nottinghamcity.gov.uk,Nottingham City,http://www.nottinghamcity.gov.uk/foodsafety,-1.22714600000000,NG8 4JY,2014-01-27,fhrs_5_en-GB,5,,FHRS,0
70140,Sycamore Complex,31 Hungerhill Road,,Nottingham,Afro Caribbean Community Centre,Hospitals/Childcare/Caring Premises,5,0,,217988,5,,52.96782700000000,33392,899,food.enforcement@nottinghamcity.gov.uk,Nottingham City,http://www.nottinghamcity.gov.uk/foodsafety,-1.14220600000000,NG3 4NB,2015-01-05,fhrs_5_en-GB,5,,FHRS,5
70141,Queens Walk Community Centre,Queens Walk,,Nottingham,Afro Caribbean Womens Group,Restaurant/Cafe/Canteen,1,10,,216716,0,,52.94271200000000,51944,899,food.enforcement@nottinghamcity.gov.uk,Nottingham City,http://www.nottinghamcity.gov.uk/foodsafety,-1.15003900000000,NG2 2DF,2013-02-28,fhrs_4_en-GB,4,,FHRS,5
70142,"Unit 13, Broxtowe Park Business Centre",Calverton Drive,,Nottingham,Agnieszka Potapczuk,Distributors/Transporters,7,,,713233,,,52.97843100000000,68152,899,food.enforcement@nottinghamcity.gov.uk,Nottingham City,http://www.nottinghamcity.gov.uk/foodsafety,-1.22700700000000,NG8 6QP,,fhrs_exempt_en-GB,Exempt,,FHRS,
70143,,173 Sneinton Dale,,Nottingham,Ahir Stores,Retailers - other,4613,10,,218529,10,,52.95437800000000,49045,899,food.enforcement@nottinghamcity.gov.uk,Nottingham City,http://www.nottinghamcity.gov.uk/foodsafety,-1.12243600000000,NG2 4HU,2013-05-28,fhrs_3_en-GB,3,,FHRS,5
70144,Canterbury Mills,Canterbury Road,,Nottingham,Ahmed Dairies,Distributors/Transporters,7,,,216895,,,52.95716800000000,54526,899,food.enforcement@nottinghamcity.gov.uk,Nottingham City,http://www.nottinghamcity.gov.uk/foodsafety,-1.18615200000000,NG8 1PQ,2011-03-16,fhrs_exempt_en-GB,Exempt,,FHRS,
70145,,630 Farnborough Road,,Nottingham,Alan Knight Butchers,Retailers - other,4613,0,,216684,5,,52.89730200000000,33399,899,food.enforcement@nottinghamcity.gov.uk,Nottingham City,http://www.nottinghamcity.gov.uk/foodsafety,-1.18928000000000,NG11 9GU,2014-07-07,fhrs_5_en-GB,5,,FHRS,5
70146,Albany House,Pym Street,,Nottingham,Albany House,Hospitals/Childcare/Caring Premises,5,0,,217002,5,,52.98716800000000,64184,899,food.enforcement@nottinghamcity.gov.uk,Nottingham City,http://www.nottinghamcity.gov.uk/foodsafety,-1.12131200000000,NG3 2FL,2014-10-15,fhrs_5_en-GB,5,,FHRS,5
70147,Albert Ball House,Albert Ball Close,,Nottingham,Albert Ball House,Hospitals/Childcare/Caring Premises,5,5,,218709,0,,53.00575000000000,35965,899,food.enforcement@nottinghamcity.gov.uk,Nottingham City,http://www.nottinghamcity.gov.uk/foodsafety,-1.16704200000000,NG5 9NS,2011-02-03,fhrs_5_en-GB,5,,FHRS,0
70148,,,,,Alchemy Cakes,Other catering premises,7841,,,713214,,,,68104,899,food.enforcement@nottinghamcity.gov.uk,Nottingham City,http://www.nottinghamcity.gov.uk/foodsafety,,,,fhrs_awaitinginspection_en-GB,AwaitingInspection,,FHRS,
70149,,565 Woodborough Road,,Nottingham,Aldi Stores Ltd,Retailers - supermarkets/hypermarkets,7840,,,656882,,,52.98105200000000,67393,899,food.enforcement@nottinghamcity.gov.uk,Nottingham City,http://www.nottinghamcity.gov.uk/foodsafety,-1.13007300000000,NG3 5GG,,fhrs_awaitinginspection_en-GB,AwaitingInspection,,FHRS,
70150,,157 Huntingdon Street,,Nottingham,Aldi Stores Ltd,Retailers - supermarkets/hypermarkets,7840,0,,217304,0,,52.95778800000000,51767,899,food.enforcement@nottinghamcity.gov.uk,Nottingham City,http://www.nottinghamcity.gov.uk/foodsafety,-1.14505400000000,NG1 3NL,2014-08-21,fhrs_5_en-GB,5,,FHRS,0
70151,,Lortas Road,,Nottingham,Aldi Stores Ltd,Retailers - supermarkets/hypermarkets,7840,,,664835,,,52.97917800000000,67531,899,food.enforcement@nottinghamcity.gov.uk,Nottingham City,http://www.nottinghamcity.gov.uk/foodsafety,-1.16968300000000,NG5 1EL,,fhrs_awaitinginspection_en-GB,AwaitingInspection,,FHRS,
70152,Aldi,Radford Boulevard,,Nottingham,Aldi Stores Ltd,Retailers - supermarkets/hypermarkets,7840,0,,218163,0,,52.96349400000000,16406,899,food.enforcement@nottinghamcity.gov.uk,Nottingham City,http://www.nottinghamcity.gov.uk/foodsafety,-1.18052500000000,NG7 5QS,2012-06-26,fhrs_5_en-GB,5,,FHRS,0
70153,Aldi,Sellers Wood Drive,,Nottingham,Aldi Stores Ltd,Retailers - supermarkets/hypermarkets,7840,0,,218696,5,,53.00066700000000,15920,899,food.enforcement@nottinghamcity.gov.uk,Nottingham City,http://www.nottinghamcity.gov.uk/foodsafety,-1.20594300000000,NG6 8GN,2012-06-22,fhrs_5_en-GB,5,,FHRS,0
70154,"Victoria Market, Victoria Cent",Victoria Centre,,Nottingham,Aldos Cafe units 260/1-267/8,Retailers - other,4613,10,,216803,10,,52.95590200000000,7241,899,food.enforcement@nottinghamcity.gov.uk,Nottingham City,http://www.nottinghamcity.gov.uk/foodsafety,-1.14653500000000,NG1 3QB,2014-02-06,fhrs_3_en-GB,3,,FHRS,10
70155,The Axis,108 Upper Parliament Street,,Nottingham,ALEA Casino,Other catering premises,7841,5,,217394,5,,52.95491700000000,53130,899,food.enforcement@nottinghamcity.gov.uk,Nottingham City,http://www.nottinghamcity.gov.uk/foodsafety,-1.15337200000000,NG1 6LF,2014-02-20,fhrs_5_en-GB,5,,FHRS,5
70156,Alexandra Lodge,Lucknow Drive,,Nottingham,Alexandra Lodge,Hospitals/Childcare/Caring Premises,5,0,,216505,0,,52.97376500000000,30776,899,food.enforcement@nottinghamcity.gov.uk,Nottingham City,http://www.nottinghamcity.gov.uk/foodsafety,-1.14043500000000,NG3 5EU,2013-07-22,fhrs_5_en-GB,5,,FHRS,0
70157,,261 St Anns Well Road,,Nottingham,Alfa,Retailers - other,4613,5,,595690,0,,52.96307100000000,66446,899,food.enforcement@nottinghamcity.gov.uk,Nottingham City,http://www.nottinghamcity.gov.uk/foodsafety,-1.13467700000000,NG3 3HR,2014-02-05,fhrs_5_en-GB,5,,FHRS,0
70158,,91 Sneinton Dale,,Nottingham,Ali Food Store,Retailers - other,4613,20,,216799,5,,52.95245400000000,48818,899,food.enforcement@nottinghamcity.gov.uk,Nottingham City,http://www.nottinghamcity.gov.uk/foodsafety,-1.12604800000000,NG2 4LQ,2013-12-02,fhrs_1_en-GB,1,,FHRS,15
70159,,158 Alfreton Road,,Nottingham,Ali Greengrocer,Retailers - other,4613,5,,216847,5,,52.95852400000000,50519,899,food.enforcement@nottinghamcity.gov.uk,Nottingham City,http://www.nottinghamcity.gov.uk/foodsafety,-1.16649100000000,NG7 3NS,2012-06-07,fhrs_4_en-GB,4,,FHRS,10
70160,,134 Noel Street,,Nottingham,Ali Halal Meat,Retailers - other,4613,20,,682292,10,,52.96858400000000,67701,899,food.enforcement@nottinghamcity.gov.uk,Nottingham City,http://www.nottinghamcity.gov.uk/foodsafety,-1.16917100000000,NG7 6AU,2014-07-01,fhrs_1_en-GB,1,,FHRS,15
70161,,99A-101A Hartley Road,,Nottingham,Ali's Fruit And Veg,Retailers - other,4613,10,,217760,5,,52.96028700000000,36016,899,food.enforcement@nottinghamcity.gov.uk,Nottingham City,http://www.nottinghamcity.gov.uk/foodsafety,-1.17561300000000,NG7 3AQ,2014-08-12,fhrs_3_en-GB,3,,FHRS,10
70162,,3 Weekday Cross,,Nottingham,All Bar One,Pub/bar/nightclub,7843,5,,217841,0,,52.95159900000000,63292,899,food.enforcement@nottinghamcity.gov.uk,Nottingham City,http://www.nottinghamcity.gov.uk/foodsafety,-1.14577100000000,NG1 2GB,2014-01-14,fhrs_5_en-GB,5,,FHRS,5
70163,Cafe Rear Of Ground Floor,1a Cannon Court,,Nottingham,Alley Cafe,Restaurant/Cafe/Canteen,1,10,,216881,10,,52.95415800000000,63436,899,food.enforcement@nottinghamcity.gov.uk,Nottingham City,http://www.nottinghamcity.gov.uk/foodsafety,-1.15288100000000,NG1 6JE,2014-11-17,fhrs_2_en-GB,2,,FHRS,15
70164,"Unit A1, Ashforth Business Centre",Ashforth Street,,Nottingham,Alphabet Cakes,Other catering premises,7841,0,,643496,0,,52.96229300000000,67142,899,food.enforcement@nottinghamcity.gov.uk,Nottingham City,http://www.nottinghamcity.gov.uk/foodsafety,-1.14402700000000,NG3 4BG,2014-05-22,fhrs_5_en-GB,5,,FHRS,5
70165,,142 Alfreton Road,,Nottingham,Al-Shaam,Takeaway/sandwich shop,7844,,,713230,,,52.95852400000000,68138,899,food.enforcement@nottinghamcity.gov.uk,Nottingham City,http://www.nottinghamcity.gov.uk/foodsafety,-1.16649100000000,NG7 3NS,,fhrs_awaitinginspection_en-GB,AwaitingInspection,,FHRS,
70166,,32 Lower Parliament Street,,Nottingham,Amazing Thai Restaurant,Restaurant/Cafe/Canteen,1,5,,293439,5,,52.95491900000000,65010,899,food.enforcement@nottinghamcity.gov.uk,Nottingham City,http://www.nottinghamcity.gov.uk/foodsafety,-1.14616800000000,NG1 3DA,2013-10-08,fhrs_5_en-GB,5,,FHRS,5
70167,Shop,67 Montpelier Road,,Nottingham,Amazing Thai Takeaway,Takeaway/sandwich shop,7844,20,,218106,10,,52.93804600000000,55242,899,food.enforcement@nottinghamcity.gov.uk,Nottingham City,http://www.nottinghamcity.gov.uk/foodsafety,-1.18197200000000,NG7 2JY,2014-09-08,fhrs_1_en-GB,1,,FHRS,15
70168,,19 Ambergate Road,,Nottingham,Ambergate News,Retailers - other,4613,5,,217925,5,,52.96392200000000,51663,899,food.enforcement@nottinghamcity.gov.uk,Nottingham City,http://www.nottinghamcity.gov.uk/foodsafety,-1.20780700000000,NG8 3GD,2006-03-24,fhrs_5_en-GB,5,,FHRS,5
70169,,11 Ambergate Road,,Nottingham,Ambergate Road Post Office,Retailers - other,4613,,,216785,,,52.96392200000000,6555,899,food.enforcement@nottinghamcity.gov.uk,Nottingham City,http://www.nottinghamcity.gov.uk/foodsafety,-1.20780700000000,NG8 3GD,2011-09-29,fhrs_exempt_en-GB,Exempt,,FHRS,
70170,,15 Ambergate Road,,Nottingham,Ambergate Supplies,Retailers - other,4613,5,,218806,0,,52.96392200000000,47787,899,food.enforcement@nottinghamcity.gov.uk,Nottingham City,http://www.nottinghamcity.gov.uk/foodsafety,-1.20780700000000,NG8 3GD,2010-05-26,fhrs_5_en-GB,5,,FHRS,0
70171,Ambleside Infants And Nursery,Minver Crescent,,Nottingham,Ambleside Academy,School/college/university,7845,5,,218897,5,,52.97722100000000,33417,899,food.enforcement@nottinghamcity.gov.uk,Nottingham City,http://www.nottinghamcity.gov.uk/foodsafety,-1.20431700000000,NG8 5PN,2013-05-03,fhrs_5_en-GB,5,,FHRS,0
70172,,1-3 Bentinck Road,,Nottingham,American Pizza,Takeaway/sandwich shop,7844,5,,217581,0,,52.96218507000000,63903,899,food.enforcement@nottinghamcity.gov.uk,Nottingham City,http://www.nottinghamcity.gov.uk/foodsafety,-1.16957582000000,,2011-06-28,fhrs_5_en-GB,5,,FHRS,0
70173,,1 Rochester Walk,,Nottingham,Amico's Pizza,Takeaway/sandwich shop,7844,10,,731190,10,,52.90203100000000,68485,899,food.enforcement@nottinghamcity.gov.uk,Nottingham City,http://www.nottinghamcity.gov.uk/foodsafety,-1.17246700000000,NG11 8LP,2015-01-15,fhrs_3_en-GB,3,,FHRS,10
70174,Queens Medical Centre,Derby Road,,Nottingham,Amigo,Restaurant/Cafe/Canteen,1,0,,217020,0,,52.94344800000000,61451,899,food.enforcement@nottinghamcity.gov.uk,Nottingham City,http://www.nottinghamcity.gov.uk/foodsafety,-1.18581400000000,NG7 2UH,2012-08-21,fhrs_5_en-GB,5,,FHRS,5
70175,Unit 5,357 Derby Road,,Nottingham,Amigo Pizza,Takeaway/sandwich shop,7844,5,,217451,0,,52.94740100000000,60587,899,food.enforcement@nottinghamcity.gov.uk,Nottingham City,http://www.nottinghamcity.gov.uk/foodsafety,-1.18285300000000,NG7 2DZ,2014-11-04,fhrs_5_en-GB,5,,FHRS,5
70176,,29 Pelham Street,,Nottingham,Amigo's,Takeaway/sandwich shop,7844,10,,631687,5,,52.95371300000000,67026,899,food.enforcement@nottinghamcity.gov.uk,Nottingham City,http://www.nottinghamcity.gov.uk/foodsafety,-1.14587900000000,NG1 2ED,2014-10-17,fhrs_4_en-GB,4,,FHRS,5
70177,,702 Mansfield Road,,Nottingham,Amity Wellbeing Centre,Hospitals/Childcare/Caring Premises,5,10,,218437,5,,52.98677900000000,62507,899,food.enforcement@nottinghamcity.gov.uk,Nottingham City,http://www.nottinghamcity.gov.uk/foodsafety,-1.14127900000000,NG5 3FW,2010-04-27,fhrs_4_en-GB,4,,FHRS,5
70178,"Ancaster Hall, University Of Nottingham",University Boulevard,,Nottingham,Ancaster Hall,School/college/university,7845,0,,218524,5,,,33427,899,food.enforcement@nottinghamcity.gov.uk,Nottingham City,http://www.nottinghamcity.gov.uk/foodsafety,,,2014-02-07,fhrs_5_en-GB,5,,FHRS,0
70179,Anchor Court,Blyton Walk,,Nottingham,Anchor Housing Association,Hospitals/Childcare/Caring Premises,5,0,,217036,0,,,33420,899,food.enforcement@nottinghamcity.gov.uk,Nottingham City,http://www.nottinghamcity.gov.uk/foodsafety,,,2013-10-02,fhrs_5_en-GB,5,,FHRS,0
70180,,152a Alfreton Road,,Nottingham,Andalucia Shisha Bar,Restaurant/Cafe/Canteen,1,5,,482372,5,,52.95852400000000,65676,899,food.enforcement@nottinghamcity.gov.uk,Nottingham City,http://www.nottinghamcity.gov.uk/foodsafety,-1.16649100000000,NG7 3NS,2012-10-26,fhrs_5_en-GB,5,,FHRS,5
70181,,2 Andover Road,,Nottingham,Andover Post Office & Newsagents,Retailers - other,4613,,,217609,,,52.99258400000000,62264,899,food.enforcement@nottinghamcity.gov.uk,Nottingham City,http://www.nottinghamcity.gov.uk/foodsafety,-1.17143700000000,NG5 5FF,2010-05-24,fhrs_exempt_en-GB,Exempt,,FHRS,
70182,,11 Bridgeway Centre,,Nottingham,Andrew Marsden Butchers,Retailers - other,4613,5,,218645,10,,52.94311700000000,34551,899,food.enforcement@nottinghamcity.gov.uk,Nottingham City,http://www.nottinghamcity.gov.uk/foodsafety,-1.14635500000000,NG2 2JD,2014-06-17,fhrs_4_en-GB,4,,FHRS,5
70183,,89 Bracebridge Drive,,Nottingham,Andy's Fish Bar,Takeaway/sandwich shop,7844,5,,216770,5,,52.96376500000000,55781,899,food.enforcement@nottinghamcity.gov.uk,Nottingham City,http://www.nottinghamcity.gov.uk/foodsafety,-1.23054400000000,NG8 4PL,2013-07-12,fhrs_5_en-GB,5,,FHRS,5
70184,,16 Bagnall Road,,Nottingham,Andy's Plaice,Takeaway/sandwich shop,7844,0,,218159,0,,52.98494700000000,64607,899,food.enforcement@nottinghamcity.gov.uk,Nottingham City,http://www.nottinghamcity.gov.uk/foodsafety,-1.18902600000000,NG6 0JX,2013-09-20,fhrs_5_en-GB,5,,FHRS,5
70185,,63a Main Street,,Nottingham,Andy's Salad Bar,Takeaway/sandwich shop,7844,5,,218162,0,,53.00051000000000,51066,899,food.enforcement@nottinghamcity.gov.uk,Nottingham City,http://www.nottinghamcity.gov.uk/foodsafety,-1.19724300000000,NG6 8QD,2013-07-12,fhrs_4_en-GB,4,,FHRS,10
70186,,,,,Angel Crafts,Other catering premises,7841,5,,217890,0,,,63476,899,food.enforcement@nottinghamcity.gov.uk,Nottingham City,http://www.nottinghamcity.gov.uk/foodsafety,,,2010-12-15,fhrs_5_en-GB,5,,FHRS,0
70187,Unit 1,Limekiln Court,,Nottingham,Angelo's Chippery,Takeaway/sandwich shop,7844,5,,643501,0,,53.00523200000000,67156,899,food.enforcement@nottinghamcity.gov.uk,Nottingham City,http://www.nottinghamcity.gov.uk/foodsafety,-1.20836200000000,NG6 8GE,2014-02-14,fhrs_5_en-GB,5,,FHRS,5
70188,Hillside House Rear Of 359 To 365,Derby Road,,Nottingham,Angels By Day,Hospitals/Childcare/Caring Premises,5,0,,218215,0,,52.94740100000000,35874,899,food.enforcement@nottinghamcity.gov.uk,Nottingham City,http://www.nottinghamcity.gov.uk/foodsafety,-1.18285300000000,NG7 2DZ,2014-02-28,fhrs_5_en-GB,5,,FHRS,5
70189,Springfield House,Hucknall Lane,,Nottingham,Angels By Day,Hospitals/Childcare/Caring Premises,5,0,,217982,0,,53.01165100000000,45937,899,food.enforcement@nottinghamcity.gov.uk,Nottingham City,http://www.nottinghamcity.gov.uk/foodsafety,-1.18983800000000,NG6 8AJ,2014-02-21,fhrs_5_en-GB,5,,FHRS,5
70190,,556 Woodborough Road,,Nottingham,Angie's Tucker,Restaurant/Cafe/Canteen,1,5,,595723,5,,52.97815800000000,66589,899,food.enforcement@nottinghamcity.gov.uk,Nottingham City,http://www.nottinghamcity.gov.uk/foodsafety,-1.13510600000000,NG3 5FH,2014-02-26,fhrs_5_en-GB,5,,FHRS,5
70191,,558 Mansfield Road,,Nottingham,Ania Polish Restaurant,Restaurant/Cafe/Canteen,1,5,,216650,5,,52.98140900000000,52620,899,food.enforcement@nottinghamcity.gov.uk,Nottingham City,http://www.nottinghamcity.gov.uk/foodsafety,-1.14588400000000,NG5 2FS,2013-07-09,fhrs_5_en-GB,5,,FHRS,0
70192,,12 The Crescent,,Nottingham,Ank Marvin Ltd,Other catering premises,7841,5,,216339,5,,52.97117600000000,63865,899,food.enforcement@nottinghamcity.gov.uk,Nottingham City,http://www.nottinghamcity.gov.uk/foodsafety,-1.13916100000000,NG3 4JB,2013-02-28,fhrs_5_en-GB,5,,FHRS,5
70193,,4 Long Row,,Nottingham,Ann Summers Limited,Retailers - other,4613,,,217187,,,52.95394200000000,44413,899,food.enforcement@nottinghamcity.gov.uk,Nottingham City,http://www.nottinghamcity.gov.uk/foodsafety,-1.14785400000000,NG1 2DB,2010-06-02,fhrs_exempt_en-GB,Exempt,,FHRS,
70194,,5 Broadway,,Nottingham,Annie's Burger Shack & Freehouse,Restaurant/Cafe/Canteen,1,0,,609961,0,,52.95197800000000,66787,899,food.enforcement@nottinghamcity.gov.uk,Nottingham City,http://www.nottinghamcity.gov.uk/foodsafety,-1.14341200000000,NG1 1PR,2014-08-26,fhrs_5_en-GB,5,,FHRS,0
70195,,,,,Annies Cakes,Other catering premises,7841,0,,508540,0,,,65548,899,food.enforcement@nottinghamcity.gov.uk,Nottingham City,http://www.nottinghamcity.gov.uk/foodsafety,,,2013-01-17,fhrs_5_en-GB,5,,FHRS,0
70196,Gothic House,Barker Gate,,Nottingham,Anoki,Restaurant/Cafe/Canteen,1,20,,217539,5,,,55752,899,food.enforcement@nottinghamcity.gov.uk,Nottingham City,http://www.nottinghamcity.gov.uk/foodsafety,,,2012-10-09,fhrs_1_en-GB,1,,FHRS,10
70197,Antalia,31-33 Forman Street,,Nottingham,Antalya Restaurant & Takeaway,Restaurant/Cafe/Canteen,1,5,,216889,5,,52.95541300000000,5726,899,food.enforcement@nottinghamcity.gov.uk,Nottingham City,http://www.nottinghamcity.gov.uk/foodsafety,-1.14982000000000,NG1 4AA,2013-03-19,fhrs_5_en-GB,5,,FHRS,5
70198,,Beck Street,,Nottingham,Antenna Business Centre,Pub/bar/nightclub,7843,0,,217360,0,,52.95551000000000,61335,899,food.enforcement@nottinghamcity.gov.uk,Nottingham City,http://www.nottinghamcity.gov.uk/foodsafety,-1.14325300000000,NG1 1EQ,2014-06-20,fhrs_5_en-GB,5,,FHRS,5
70199,,,,,Antonios Ice Cream Vans,Mobile caterer,7846,5,,216907,5,,,35840,899,food.enforcement@nottinghamcity.gov.uk,Nottingham City,http://www.nottinghamcity.gov.uk/foodsafety,,,2008-01-04,fhrs_5_en-GB,5,,FHRS,5
70200,,264 Highbury Road,,Nottingham,Apollo Fish Bar,Takeaway/sandwich shop,7844,0,,217264,0,,52.99676400000000,47752,899,food.enforcement@nottinghamcity.gov.uk,Nottingham City,http://www.nottinghamcity.gov.uk/foodsafety,-1.19238100000000,NG6 9FE,2013-10-04,fhrs_5_en-GB,5,,FHRS,5
70201,First Floor And Second Floor,132 Alfreton Road,,Nottingham,Applegate Chemist,Retailers - other,4613,,,216681,,,52.95852400000000,30309,899,food.enforcement@nottinghamcity.gov.uk,Nottingham City,http://www.nottinghamcity.gov.uk/foodsafety,-1.16649100000000,NG7 3NS,2006-03-15,fhrs_exempt_en-GB,Exempt,,FHRS,
70202,11 The Glade Business Centre,Forum Road,,Nottingham,April Delights,Manufacturers/packers,7839,0,,559448,0,,52.99802500000000,66016,899,food.enforcement@nottinghamcity.gov.uk,Nottingham City,http://www.nottinghamcity.gov.uk/foodsafety,-1.17699500000000,NG5 9RW,2013-06-20,fhrs_5_en-GB,5,,FHRS,5
70203,Sneinton House,2 Boston Street,,Nottingham,Aramark Catering Ltd,Restaurant/Cafe/Canteen,1,0,,216470,0,,52.95458300000000,48871,899,food.enforcement@nottinghamcity.gov.uk,Nottingham City,http://www.nottinghamcity.gov.uk/foodsafety,-1.13947600000000,NG1 1ED,2012-10-16,fhrs_5_en-GB,5,,FHRS,5
70204,Shop,10 Lenton Boulevard,,Nottingham,Arco Pizza,Takeaway/sandwich shop,7844,10,,217640,5,,52.94816700000000,49930,899,food.enforcement@nottinghamcity.gov.uk,Nottingham City,http://www.nottinghamcity.gov.uk/foodsafety,-1.17395300000000,NG7 2ES,2013-10-22,fhrs_4_en-GB,4,,FHRS,5
70205,,37-41 Lower Parliament Street,,Nottingham,Argos,Retailers - other,4613,,,218547,,,52.95549600000000,7130,899,food.enforcement@nottinghamcity.gov.uk,Nottingham City,http://www.nottinghamcity.gov.uk/foodsafety,-1.14633500000000,NG1 3DB,2014-09-03,fhrs_exempt_en-GB,Exempt,,FHRS,
70206,,5-6 Lister Gate Square Broad Marsh,,Nottingham,Argos,Other catering premises,7841,,,218821,,,52.95021900000000,5088,899,food.enforcement@nottinghamcity.gov.uk,Nottingham City,http://www.nottinghamcity.gov.uk/foodsafety,-1.14765900000000,NG1 7LB,2011-07-21,fhrs_exempt_en-GB,Exempt,,FHRS,
70207,Argos,Holborn Place,,Nottingham,Argos,Retailers - other,4613,,,429699,,,53.00162600000000,65308,899,food.enforcement@nottinghamcity.gov.uk,Nottingham City,http://www.nottinghamcity.gov.uk/foodsafety,-1.19613500000000,NG6 8FB,2012-06-29,fhrs_exempt_en-GB,Exempt,,FHRS,
70208,Riverside Retail Park,Electric Avenue,,Nottingham,Argos Ltd,Retailers - other,4613,,,218428,,,52.93100900000000,46562,899,food.enforcement@nottinghamcity.gov.uk,Nottingham City,http://www.nottinghamcity.gov.uk/foodsafety,-1.16292800000000,NG2 1RS,2011-08-25,fhrs_exempt_en-GB,Exempt,,FHRS,
70209,,1 Vickers Street,,Nottingham,Ark Day Nursery,Hospitals/Childcare/Caring Premises,5,0,,217106,0,,52.96857600000000,35019,899,food.enforcement@nottinghamcity.gov.uk,Nottingham City,http://www.nottinghamcity.gov.uk/foodsafety,-1.14396300000000,NG3 4LD,2014-01-10,fhrs_5_en-GB,5,,FHRS,5
70210,,59 Arkwright Walk,,Nottingham,Arkwright Stores,Retailers - other,4613,10,,218627,5,,52.94252400000000,62556,899,food.enforcement@nottinghamcity.gov.uk,Nottingham City,http://www.nottinghamcity.gov.uk/foodsafety,-1.14385200000000,NG2 2HW,2010-05-07,fhrs_4_en-GB,4,,FHRS,0
70211,,514 Arnold Road,,Nottingham,Arnold Road Care Home,Hospitals/Childcare/Caring Premises,5,0,,218189,0,,52.99541700000000,53307,899,food.enforcement@nottinghamcity.gov.uk,Nottingham City,http://www.nottinghamcity.gov.uk/foodsafety,-1.15499400000000,NG5 5HN,2009-03-04,fhrs_5_en-GB,5,,FHRS,0
70212,,75 Arnold Road,,Nottingham,Arnold Road Off Licence,Retailers - other,4613,5,,218017,0,,52.98853900000000,63872,899,food.enforcement@nottinghamcity.gov.uk,Nottingham City,http://www.nottinghamcity.gov.uk/foodsafety,-1.17798000000000,NG6 0ED,2011-08-10,fhrs_4_en-GB,4,,FHRS,10
70213,,20 Little Tennis Street,,Nottingham,Aromatic Ingredients Ltd,Distributors/Transporters,7,,,591210,,,52.94673300000000,66610,899,food.enforcement@nottinghamcity.gov.uk,Nottingham City,http://www.nottinghamcity.gov.uk/foodsafety,-1.11829000000000,NG2 4EL,2013-09-02,fhrs_exempt_en-GB,Exempt,,FHRS,
70214,,26-28 St James's Street,,Nottingham,Arriba,Pub/bar/nightclub,7843,5,,217208,5,,52.95319300000000,44245,899,food.enforcement@nottinghamcity.gov.uk,Nottingham City,http://www.nottinghamcity.gov.uk/foodsafety,-1.15234900000000,NG1 6FG,2012-07-26,fhrs_4_en-GB,4,,FHRS,10
70215,,383-385 Aspley Lane,,Nottingham,Arthur & Elizabeth's Fish Bar,Takeaway/sandwich shop,7844,10,,218813,10,,52.97152300000000,47409,899,food.enforcement@nottinghamcity.gov.uk,Nottingham City,http://www.nottinghamcity.gov.uk/foodsafety,-1.20052000000000,NG8 5RR,2014-12-16,fhrs_3_en-GB,3,,FHRS,10
70216,,105 Upper Parliament Street,,Nottingham,Arun's Off Licence,Retailers - other,4613,5,,429705,0,,52.95440800000000,65377,899,food.enforcement@nottinghamcity.gov.uk,Nottingham City,http://www.nottinghamcity.gov.uk/foodsafety,-1.15390300000000,NG1 6LA,2012-07-17,fhrs_5_en-GB,5,,FHRS,5
70217,Ascot House,34-40 Percival Road,,Nottingham,Ascot House,Hospitals/Childcare/Caring Premises,5,10,,216471,10,,52.97899100000000,33924,899,food.enforcement@nottinghamcity.gov.uk,Nottingham City,http://www.nottinghamcity.gov.uk/foodsafety,-1.14962500000000,NG5 2EY,2014-12-03,fhrs_3_en-GB,3,,FHRS,10
70218,Asda Stores Ltd,Radford Road,,Nottingham,Asda Stores Ltd,Retailers - supermarkets/hypermarkets,7840,0,,218844,0,,52.96686300000000,1292,899,food.enforcement@nottinghamcity.gov.uk,Nottingham City,http://www.nottinghamcity.gov.uk/foodsafety,-1.16977000000000,NG7 5FP,2013-04-29,fhrs_5_en-GB,5,,FHRS,0
70219,,18 Southwell Road,,Nottingham,Ashanti Mini Market,Restaurant/Cafe/Canteen,1,5,,217638,5,,52.95320500000000,62250,899,food.enforcement@nottinghamcity.gov.uk,Nottingham City,http://www.nottinghamcity.gov.uk/foodsafety,-1.13783600000000,NG1 1DL,2014-01-28,fhrs_5_en-GB,5,,FHRS,5
70220,Ashleigh House,18-20 Devon Drive,,Nottingham,Ashleigh House,Hospitals/Childcare/Caring Premises,5,0,,217466,0,,52.97876500000000,30615,899,food.enforcement@nottinghamcity.gov.uk,Nottingham City,http://www.nottinghamcity.gov.uk/foodsafety,-1.15079100000000,NG5 2EN,2014-07-25,fhrs_5_en-GB,5,,FHRS,5
70221,,18 Waterloo Road,,Nottingham,Ashram Hostel Catering,Other catering premises,7841,10,,218699,0,,52.96209100000000,47798,899,food.enforcement@nottinghamcity.gov.uk,Nottingham City,http://www.nottinghamcity.gov.uk/foodsafety,-1.16488900000000,NG7 4AU,2008-09-25,fhrs_4_en-GB,4,,FHRS,0
70222,,16 Broxtowe Lane,,Nottingham,Asian Flavaz,Takeaway/sandwich shop,7844,5,,559443,0,,52.98198800000000,65284,899,food.enforcement@nottinghamcity.gov.uk,Nottingham City,http://www.nottinghamcity.gov.uk/foodsafety,-1.19804800000000,NG8 5NP,2013-06-04,fhrs_5_en-GB,5,,FHRS,5
70223,,160 Alfreton Road,,Nottingham,Asian Sweet Shop,Retailers - other,4613,,,696283,,,52.95852400000000,67855,899,food.enforcement@nottinghamcity.gov.uk,Nottingham City,http://www.nottinghamcity.gov.uk/foodsafety,-1.16649100000000,NG7 3NS,,fhrs_awaitinginspection_en-GB,AwaitingInspection,,FHRS,
70224,,108 Woodborough Road,,Nottingham,Asiana,Retailers - supermarkets/hypermarkets,7840,10,,216469,5,,52.96225900000000,47000,899,food.enforcement@nottinghamcity.gov.uk,Nottingham City,http://www.nottinghamcity.gov.uk/foodsafety,-1.14675200000000,NG3 1AR,2013-05-13,fhrs_4_en-GB,4,,FHRS,5
70225,,54-56 Goose Gate,,Nottingham,Asiana Express,Retailers - supermarkets/hypermarkets,7840,10,,548772,0,,52.95355700000000,66125,899,food.enforcement@nottinghamcity.gov.uk,Nottingham City,http://www.nottinghamcity.gov.uk/foodsafety,-1.14297900000000,NG1 1FF,2013-05-09,fhrs_4_en-GB,4,,FHRS,0
70226,,Dabell Avenue,,Nottingham,Asiana Ltd,Distributors/Transporters,7,,,216743,,,53.00773400000000,48742,899,food.enforcement@nottinghamcity.gov.uk,Nottingham City,http://www.nottinghamcity.gov.uk/foodsafety,-1.21703500000000,NG6 8WA,2014-11-05,fhrs_exempt_en-GB,Exempt,,FHRS,
70227,,14-16 Colwick Road,,Nottingham,Asim's Chemist,Retailers - other,4613,,,217570,,,52.94939700000000,61200,899,food.enforcement@nottinghamcity.gov.uk,Nottingham City,http://www.nottinghamcity.gov.uk/foodsafety,-1.12716600000000,NG2 4BU,2014-08-20,fhrs_exempt_en-GB,Exempt,,FHRS,
70228,Chapel Quarter,Chapel Bar,,Nottingham,Ask,Pub/bar/nightclub,7843,0,,216953,0,,52.95416500000000,52059,899,food.enforcement@nottinghamcity.gov.uk,Nottingham City,http://www.nottinghamcity.gov.uk/foodsafety,-1.15389200000000,,2014-01-02,fhrs_5_en-GB,5,,FHRS,0
70229,,399 Nuthall Road,,Nottingham,Aspley Fish Bar,Takeaway/sandwich shop,7844,30,,682275,10,,52.97699100000000,67649,899,food.enforcement@nottinghamcity.gov.uk,Nottingham City,http://www.nottinghamcity.gov.uk/foodsafety,-1.19030700000000,NG8 5DB,2014-12-09,fhrs_0_en-GB,0,,FHRS,15
70230,Aspley Lodge Nursing Home,Robins Wood Road,,Nottingham,Aspley Neurodisability Unit,Hospitals/Childcare/Caring Premises,5,0,,217168,5,,52.96398900000000,50236,899,food.enforcement@nottinghamcity.gov.uk,Nottingham City,http://www.nottinghamcity.gov.uk/foodsafety,-1.20033200000000,NG8 3LD,2014-12-15,fhrs_5_en-GB,5,,FHRS,0
70231,Assembly Of God Pentecostal Ch,369 Aspley Lane,,Nottingham,Aspley Pentecostal Church,Other catering premises,7841,10,,216700,5,,52.97152300000000,61367,899,food.enforcement@nottinghamcity.gov.uk,Nottingham City,http://www.nottinghamcity.gov.uk/foodsafety,-1.20052000000000,NG8 5RR,2014-08-20,fhrs_4_en-GB,4,,FHRS,5
70232,David Lloyd Tennis And Fitness Club,Aspley Lane,,Nottingham,Asquith Day Nursery (Nottingham),Hospitals/Childcare/Caring Premises,5,0,,216406,0,,52.96708000000000,45310,899,food.enforcement@nottinghamcity.gov.uk,Nottingham City,http://www.nottinghamcity.gov.uk/foodsafety,-1.18557900000000,NG8 5AR,2014-10-16,fhrs_5_en-GB,5,,FHRS,0
70233,,28 Palin Street,,Nottingham,Assemblies Of The First Born,Other catering premises,7841,0,,446976,0,,52.96292400000000,65456,899,food.enforcement@nottinghamcity.gov.uk,Nottingham City,http://www.nottinghamcity.gov.uk/foodsafety,-1.17215300000000,NG7 5AD,2014-07-22,fhrs_5_en-GB,5,,FHRS,0
70234,unit 1,292 Nottingham Road,,Nottingham,Athena Fish Bar,Takeaway/sandwich shop,7844,0,,643512,5,,52.97934200000000,67186,899,food.enforcement@nottinghamcity.gov.uk,Nottingham City,http://www.nottinghamcity.gov.uk/foodsafety,-1.17006700000000,NG7 7DG,2014-08-15,fhrs_5_en-GB,5,,FHRS,5
70235,,827-829 Mansfield Road,,Nottingham,Athina,Takeaway/sandwich shop,7844,5,,217298,5,,52.99401800000000,50340,899,food.enforcement@nottinghamcity.gov.uk,Nottingham City,http://www.nottinghamcity.gov.uk/foodsafety,-1.13921400000000,NG5 3GF,2014-03-27,fhrs_5_en-GB,5,,FHRS,5
70236,,9 Pelham Street,,Nottingham,Atlas Deli Ltd,Retailers - other,4613,10,,217133,10,,52.95380100000000,61793,899,food.enforcement@nottinghamcity.gov.uk,Nottingham City,http://www.nottinghamcity.gov.uk/foodsafety,-1.14697800000000,NG1 2EH,2014-11-27,fhrs_3_en-GB,3,,FHRS,10
70237,Jubilee Campus University Of N,Wollaton Road,,Nottingham,Atrium,Other catering premises,7841,0,,218494,0,,52.95434600000000,36117,899,food.enforcement@nottinghamcity.gov.uk,Nottingham City,http://www.nottinghamcity.gov.uk/foodsafety,-1.18889900000000,NG8 1BB,2014-02-10,fhrs_5_en-GB,5,,FHRS,5
70238,Restaurant,23-25 Heathcoat Street,,Nottingham,Aubergine Cuisine,Restaurant/Cafe/Canteen,1,5,,217032,0,,52.95483600000000,64839,899,food.enforcement@nottinghamcity.gov.uk,Nottingham City,http://www.nottinghamcity.gov.uk/foodsafety,-1.14329600000000,NG1 3AG,2012-01-26,fhrs_5_en-GB,5,,FHRS,5
70239,,14-16 West End Arcade,,Nottingham,Aubrey's Traditional Creperie,Restaurant/Cafe/Canteen,1,0,,217778,0,,52.95426800000000,61560,899,food.enforcement@nottinghamcity.gov.uk,Nottingham City,http://www.nottinghamcity.gov.uk/foodsafety,-1.15322100000000,NG1 6JP,2013-12-18,fhrs_5_en-GB,5,,FHRS,0
70240,Arthur Johnson & Sons  Cattle,Meadow Lane,,Nottingham,Auction Room Cafe,Restaurant/Cafe/Canteen,1,5,,217104,0,,52.94381300000000,47828,899,food.enforcement@nottinghamcity.gov.uk,Nottingham City,http://www.nottinghamcity.gov.uk/foodsafety,-1.13567100000000,NG2 3GY,2011-09-30,fhrs_5_en-GB,5,,FHRS,0
70241,,28 Nuthall Road,,Nottingham,Aura,Retailers - other,4613,,,216579,,,52.96985900000000,52221,899,food.enforcement@nottinghamcity.gov.uk,Nottingham City,http://www.nottinghamcity.gov.uk/foodsafety,-1.18442500000000,NG8 5BG,2009-04-23,fhrs_exempt_en-GB,Exempt,,FHRS,
70242,,47 Stoney Street,,Nottingham,Aurora Restaurant,Restaurant/Cafe/Canteen,1,10,,429683,10,,52.95145700000000,65022,899,food.enforcement@nottinghamcity.gov.uk,Nottingham City,http://www.nottinghamcity.gov.uk/foodsafety,-1.14223200000000,NG1 1LX,2014-03-19,fhrs_3_en-GB,3,,FHRS,10
70243,Riverside Retail Park,Electric Avenue,,Nottingham,Autograph The Food People,Restaurant/Cafe/Canteen,1,,,689603,,,52.93281200000000,67760,899,food.enforcement@nottinghamcity.gov.uk,Nottingham City,http://www.nottinghamcity.gov.uk/foodsafety,-1.16615200000000,NG2 1RU,,fhrs_awaitinginspection_en-GB,AwaitingInspection,,FHRS,
70244,,60 Goose Gate,,Nottingham,B&G,Retailers - other,4613,5,,216827,5,,52.95373678000000,64684,899,food.enforcement@nottinghamcity.gov.uk,Nottingham City,http://www.nottinghamcity.gov.uk/foodsafety,-1.14143550000000,,2012-01-05,fhrs_5_en-GB,5,,FHRS,5
70245,,69 Main Street,,Nottingham,B&M Bargains,Retailers - other,4613,,,217880,,,53.00051000000000,60659,899,food.enforcement@nottinghamcity.gov.uk,Nottingham City,http://www.nottinghamcity.gov.uk/foodsafety,-1.19724300000000,NG6 8QD,2009-12-02,fhrs_exempt_en-GB,Exempt,,FHRS,
70246,"Unit 4, Lady Bay Retail Park",Meadow Lane,,Nottingham,B&M Stores,Retailers - other,4613,5,,217727,0,,52.94564700000000,63545,899,food.enforcement@nottinghamcity.gov.uk,Nottingham City,http://www.nottinghamcity.gov.uk/foodsafety,-1.13322400000000,NG2 3GZ,2011-02-10,fhrs_5_en-GB,5,,FHRS,0
70247,,17-19 Goose Gate,,Nottingham,Baa Bar,Pub/bar/nightclub,7843,5,,217484,0,,52.95388800000000,63093,899,food.enforcement@nottinghamcity.gov.uk,Nottingham City,http://www.nottinghamcity.gov.uk/foodsafety,-1.14274900000000,NG1 1FE,2012-05-03,fhrs_5_en-GB,5,,FHRS,0
70248,First Floor And Second Floor,9a Broad Street,,Nottingham,Bad Juju Tiki Bar,Pub/bar/nightclub,7843,5,,217390,5,,52.95416000000000,62569,899,food.enforcement@nottinghamcity.gov.uk,Nottingham City,http://www.nottinghamcity.gov.uk/foodsafety,-1.14438100000000,NG1 3AJ,2010-07-21,fhrs_5_en-GB,5,,FHRS,5
70249,,369 Haydn Road,,Nottingham,Badyal News,Retailers - other,4613,5,,216443,5,,52.97775800000000,46046,899,food.enforcement@nottinghamcity.gov.uk,Nottingham City,http://www.nottinghamcity.gov.uk/foodsafety,-1.16460200000000,NG5 1DZ,2007-09-10,fhrs_5_en-GB,5,,FHRS,5
70250,,60 Lenton Boulevard,,Nottingham,Bag O Nails,Pub/bar/nightclub,7843,5,,218262,5,,52.94987000000000,64710,899,food.enforcement@nottinghamcity.gov.uk,Nottingham City,http://www.nottinghamcity.gov.uk/foodsafety,-1.17453100000000,NG7 2EN,2012-03-07,fhrs_5_en-GB,5,,FHRS,5
70251,,5 Wheeler Gate,,Nottingham,Bagel Nash,Restaurant/Cafe/Canteen,1,5,,539623,5,,52.95260900000000,66073,899,food.enforcement@nottinghamcity.gov.uk,Nottingham City,http://www.nottinghamcity.gov.uk/foodsafety,-1.14994900000000,NG1 2NA,2013-04-16,fhrs_5_en-GB,5,,FHRS,0
70252,,,,,Baked By Me,Other catering premises,7841,0,,595771,5,,,66707,899,food.enforcement@nottinghamcity.gov.uk,Nottingham City,http://www.nottinghamcity.gov.uk/foodsafety,,,2014-05-20,fhrs_5_en-GB,5,,FHRS,5
70253,Community Centre,312 Sneinton Dale,,Nottingham,Bakersfield and Neighbourhood Community Ass,Hospitals/Childcare/Caring Premises,5,5,,216925,5,,52.95598500000000,50609,899,food.enforcement@nottinghamcity.gov.uk,Nottingham City,http://www.nottinghamcity.gov.uk/foodsafety,-1.11848900000000,NG3 7DN,2010-03-22,fhrs_5_en-GB,5,,FHRS,5
70254,,21 Highbury Road,,Nottingham,Bakes,Takeaway/sandwich shop,7844,,,664844,,,52.99143200000000,67546,899,food.enforcement@nottinghamcity.gov.uk,Nottingham City,http://www.nottinghamcity.gov.uk/foodsafety,-1.18681900000000,NG6 9DD,,fhrs_awaitinginspection_en-GB,AwaitingInspection,,FHRS,
70255,,,,,Bakes & Banquets,Other catering premises,7841,5,,216887,5,,,63570,899,food.enforcement@nottinghamcity.gov.uk,Nottingham City,http://www.nottinghamcity.gov.uk/foodsafety,,,2011-05-24,fhrs_5_en-GB,5,,FHRS,5
70256,,21 Highbury Road,,Nottingham,Bakes English & Caribbean Restaurant & Takeaway,Takeaway/sandwich shop,7844,10,,609946,15,,52.99143200000000,66763,899,food.enforcement@nottinghamcity.gov.uk,Nottingham City,http://www.nottinghamcity.gov.uk/foodsafety,-1.18681900000000,NG6 9DD,2014-04-29,fhrs_2_en-GB,2,,FHRS,0
70257,,32 Tollerton Green,,Nottingham,Bal News N Booze,Retailers - other,4613,5,,218232,5,,52.99302000000000,47795,899,food.enforcement@nottinghamcity.gov.uk,Nottingham City,http://www.nottinghamcity.gov.uk/foodsafety,-1.18381000000000,NG6 9EX,2012-09-25,fhrs_5_en-GB,5,,FHRS,5
70258,Balisier Court,Marple Square,,Nottingham,Balisier Court,Hospitals/Childcare/Caring Premises,5,5,,218600,5,,,64635,899,food.enforcement@nottinghamcity.gov.uk,Nottingham City,http://www.nottinghamcity.gov.uk/foodsafety,,,2012-01-17,fhrs_5_en-GB,5,,FHRS,0
70259,Balloon Wood,Wollaton Vale,,Nottingham,Balloon Woods Playgroup,Hospitals/Childcare/Caring Premises,5,5,,216479,5,,52.94209800000000,35214,899,food.enforcement@nottinghamcity.gov.uk,Nottingham City,http://www.nottinghamcity.gov.uk/foodsafety,-1.22252400000000,,2007-09-14,fhrs_5_en-GB,5,,FHRS,5
70260,,35-37 Heathcoat Street,,Nottingham,Balti House Tandoori,Restaurant/Cafe/Canteen,1,20,,217190,5,,52.95483600000000,33479,899,food.enforcement@nottinghamcity.gov.uk,Nottingham City,http://www.nottinghamcity.gov.uk/foodsafety,-1.14329600000000,NG1 3AG,2015-01-20,fhrs_1_en-GB,1,,FHRS,15
70261,,3 Broadway,,Nottingham,Bambuu,Pub/bar/nightclub,7843,5,,656888,5,,52.95197800000000,67457,899,food.enforcement@nottinghamcity.gov.uk,Nottingham City,http://www.nottinghamcity.gov.uk/foodsafety,-1.14341200000000,NG1 1PR,2014-09-04,fhrs_4_en-GB,4,,FHRS,10
70262,Nottingham University Hospitals Nhs Trust City Hospital Site,Hucknall Road,,Nottingham,Banjo Catering c/o Leisure Centre,Other catering premises,7841,5,,482375,5,,52.98928600000000,65730,899,food.enforcement@nottinghamcity.gov.uk,Nottingham City,http://www.nottinghamcity.gov.uk/foodsafety,-1.16007400000000,NG5 1PB,2012-11-09,fhrs_5_en-GB,5,,FHRS,5
70263,,8-9 Beastmarket Hill,,Nottingham,Bank Public House,Pub/bar/nightclub,7843,0,,218823,5,,52.95315000000000,43192,899,food.enforcement@nottinghamcity.gov.uk,Nottingham City,http://www.nottinghamcity.gov.uk/foodsafety,-1.15145700000000,NG1 6FB,2013-11-14,fhrs_5_en-GB,5,,FHRS,5
70264,,1 Stoney Street,,Nottingham,Bar,Pub/bar/nightclub,7843,,,624078,,,52.95344600000000,66971,899,food.enforcement@nottinghamcity.gov.uk,Nottingham City,http://www.nottinghamcity.gov.uk/foodsafety,-1.14380000000000,NG1 1LG,,fhrs_awaitinginspection_en-GB,AwaitingInspection,,FHRS,
70265,"Nottingham Railway Station, The Old Bandroom",Carrington Street,,Nottingham,Bar,Pub/bar/nightclub,7843,,,703757,,,52.94716400000000,67935,899,food.enforcement@nottinghamcity.gov.uk,Nottingham City,http://www.nottinghamcity.gov.uk/foodsafety,-1.14654300000000,NG2 3AQ,,fhrs_awaitinginspection_en-GB,AwaitingInspection,,FHRS,
70266,Nightclub,26-28 St James's Street,,Nottingham,Bar Schnapps,Pub/bar/nightclub,7843,5,,407289,0,,52.95319300000000,65281,899,food.enforcement@nottinghamcity.gov.uk,Nottingham City,http://www.nottinghamcity.gov.uk/foodsafety,-1.15234900000000,NG1 6FG,2012-06-25,fhrs_4_en-GB,4,,FHRS,10
70267,,22 King Street,,Nottingham,Barburrito,Restaurant/Cafe/Canteen,1,0,,559453,0,,52.95430300000000,66230,899,food.enforcement@nottinghamcity.gov.uk,Nottingham City,http://www.nottinghamcity.gov.uk/foodsafety,-1.14920100000000,NG1 2AS,2013-06-13,fhrs_5_en-GB,5,,FHRS,0
70268,,570 Carlton Road,,Nottingham,Bargain Booze,Retailers - other,4613,,,216364,,,52.96248900000000,35168,899,food.enforcement@nottinghamcity.gov.uk,Nottingham City,http://www.nottinghamcity.gov.uk/foodsafety,-1.11920500000000,NG3 7AB,2014-08-28,fhrs_exempt_en-GB,Exempt,,FHRS,
70269,,664 Mansfield Road,,Nottingham,Bargain Booze,Retailers - other,4613,,,718514,,,52.98267100000000,68206,899,food.enforcement@nottinghamcity.gov.uk,Nottingham City,http://www.nottinghamcity.gov.uk/foodsafety,-1.14504000000000,NG5 2GA,,fhrs_awaitinginspection_en-GB,AwaitingInspection,,FHRS,
70270,,7 Kings Walk,,Nottingham,Bargain Booze,Retailers - other,4613,0,,216750,5,,52.95538300000000,53947,899,food.enforcement@nottinghamcity.gov.uk,Nottingham City,http://www.nottinghamcity.gov.uk/foodsafety,-1.14946300000000,NG1 2AE,2009-10-30,fhrs_5_en-GB,5,,FHRS,5
70271,,393 Aspley Lane,,Nottingham,Bargain Booze,Retailers - other,4613,10,,217159,0,,52.97152300000000,51703,899,food.enforcement@nottinghamcity.gov.uk,Nottingham City,http://www.nottinghamcity.gov.uk/foodsafety,-1.20052000000000,NG8 5RR,2007-05-03,fhrs_4_en-GB,4,,FHRS,0
70272,,197 Alfreton Road,,Nottingham,Bargain Booze,Retailers - other,4613,0,,218367,0,,52.95957400000000,35299,899,food.enforcement@nottinghamcity.gov.uk,Nottingham City,http://www.nottinghamcity.gov.uk/foodsafety,-1.16879300000000,NG7 3NW,2010-07-27,fhrs_5_en-GB,5,,FHRS,5
70273,,69 Bracebridge Drive,,Nottingham,Bargain Booze,Retailers - other,4613,,,217870,,,52.96493900000000,47485,899,food.enforcement@nottinghamcity.gov.uk,Nottingham City,http://www.nottinghamcity.gov.uk/foodsafety,-1.22712900000000,NG8 4PH,2011-10-12,fhrs_exempt_en-GB,Exempt,,FHRS,
70274,unit 2,344 Southchurch Drive,,Nottingham,Bargain Booze,Retailers - other,4613,,,707719,,,52.89806200000000,68015,899,food.enforcement@nottinghamcity.gov.uk,Nottingham City,http://www.nottinghamcity.gov.uk/foodsafety,-1.18094100000000,NG11 9FE,,fhrs_awaitinginspection_en-GB,AwaitingInspection,,FHRS,
70275,,224 Beckhampton Road,,Nottingham,Bargain Booze Plus,Retailers - other,4613,10,,217805,5,,53.00275600000000,62470,899,food.enforcement@nottinghamcity.gov.uk,Nottingham City,http://www.nottinghamcity.gov.uk/foodsafety,-1.15681800000000,NG5 5PA,2010-08-18,fhrs_4_en-GB,4,,FHRS,0
70276,,11 Orion Close,,Nottingham,Barry Blake,Retailers - other,4613,0,,218238,5,,52.96482200000000,63247,899,food.enforcement@nottinghamcity.gov.uk,Nottingham City,http://www.nottinghamcity.gov.uk/foodsafety,-1.22579100000000,NG8 4EL,2011-01-21,fhrs_5_en-GB,5,,FHRS,0
70277,,51 Glasshouse Street,,Nottingham,Base 51,Restaurant/Cafe/Canteen,1,5,,217506,5,,52.95574200000000,45698,899,food.enforcement@nottinghamcity.gov.uk,Nottingham City,http://www.nottinghamcity.gov.uk/foodsafety,-1.14554100000000,NG1 3LP,2009-12-21,fhrs_5_en-GB,5,,FHRS,5
70278,Tennis Centre,University Boulevard,,Nottingham,Baseline Cafe,Restaurant/Cafe/Canteen,1,10,,218939,10,,52.94981000000000,31423,899,food.enforcement@nottinghamcity.gov.uk,Nottingham City,http://www.nottinghamcity.gov.uk/foodsafety,-1.17699300000000,NG7 2GH,2014-02-06,fhrs_3_en-GB,3,,FHRS,5
70279,Basford Hall Miners Welfare So,55 Goldcrest Road,,Nottingham,Basford Hall Miners Welfare,Pub/bar/nightclub,7843,5,,217551,5,,52.98711800000000,35577,899,food.enforcement@nottinghamcity.gov.uk,Nottingham City,http://www.nottinghamcity.gov.uk/foodsafety,-1.19899600000000,NG6 8PT,2012-09-20,fhrs_5_en-GB,5,,FHRS,0
70280,,6 Bagnall Road,,Nottingham,Basford News,Retailers - other,4613,10,,216852,0,,52.98494700000000,7383,899,food.enforcement@nottinghamcity.gov.uk,Nottingham City,http://www.nottinghamcity.gov.uk/foodsafety,-1.18902600000000,NG6 0JX,2010-06-21,fhrs_4_en-GB,4,,FHRS,0
70281,,14 Alpine Street,,Nottingham,Basford Pork Cobs,Restaurant/Cafe/Canteen,1,0,,216846,0,,52.98056800000000,51403,899,food.enforcement@nottinghamcity.gov.uk,Nottingham City,http://www.nottinghamcity.gov.uk/foodsafety,-1.18093100000000,NG6 0HS,2013-05-31,fhrs_5_en-GB,5,,FHRS,0
70282,Basford United Football Club,Greenwich Avenue,,Nottingham,Basford United Football Club,Other catering premises,7841,,,595604,,,52.98562400000000,65806,899,food.enforcement@nottinghamcity.gov.uk,Nottingham City,http://www.nottinghamcity.gov.uk/foodsafety,-1.18943100000000,NG6 0LE,2013-10-28,fhrs_exempt_en-GB,Exempt,,FHRS,
70283,Cash And Carry Warehouse,Firth Way,,Nottingham,Batleys Plc,Distributors/Transporters,7,5,,217950,5,,53.00828100000000,27458,899,food.enforcement@nottinghamcity.gov.uk,Nottingham City,http://www.nottinghamcity.gov.uk/foodsafety,-1.20726300000000,NG6 8XF,2010-02-01,fhrs_5_en-GB,5,,FHRS,5
70284,,100 Woodyard Lane,,Nottingham,Baxter Storey Ltd,Restaurant/Cafe/Canteen,1,0,,218147,5,,52.95977100000000,54750,899,food.enforcement@nottinghamcity.gov.uk,Nottingham City,http://www.nottinghamcity.gov.uk/foodsafety,-1.21080100000000,NG8 1GB,2014-03-27,fhrs_5_en-GB,5,,FHRS,5
70285,Phoenix Centre,Colliers Way,,Nottingham,Baxter Storey Ltd,Restaurant/Cafe/Canteen,1,0,,218382,0,,52.98836400000000,61202,899,food.enforcement@nottinghamcity.gov.uk,Nottingham City,http://www.nottinghamcity.gov.uk/foodsafety,-1.20505100000000,NG8 6AL,2013-11-14,fhrs_5_en-GB,5,,FHRS,0
70286,"Third To Tenth Floors, Newland",49 Mount Street,,City Centre,Baxter Storey Ltd,Retailers - other,4613,,,218496,,,52.95175200000000,61406,899,food.enforcement@nottinghamcity.gov.uk,Nottingham City,http://www.nottinghamcity.gov.uk/foodsafety,-1.15589000000000,NG1 6GN,2010-03-04,fhrs_exempt_en-GB,Exempt,,FHRS,
70287,Trinity House,2 Burton Street,,Nottingham,Baxterstorey,Restaurant/Cafe/Canteen,1,0,,571538,0,,52.95652900000000,65643,899,food.enforcement@nottinghamcity.gov.uk,Nottingham City,http://www.nottinghamcity.gov.uk/foodsafety,-1.14996100000000,NG1 4BX,2013-07-26,fhrs_5_en-GB,5,,FHRS,0
70288,,127 Sneinton Dale,,Nottingham,BBQ Express,Takeaway/sandwich shop,7844,5,,218093,0,,52.95346400000000,62484,899,food.enforcement@nottinghamcity.gov.uk,Nottingham City,http://www.nottinghamcity.gov.uk/foodsafety,-1.12412200000000,NG2 4LW,2013-11-18,fhrs_5_en-GB,5,,FHRS,5
70289,,556 Mansfield Road,,Nottingham,BBQ Unique,Mobile caterer,7846,5,,218398,0,,52.98140900000000,64629,899,food.enforcement@nottinghamcity.gov.uk,Nottingham City,http://www.nottinghamcity.gov.uk/foodsafety,-1.14588400000000,NG5 2FS,2013-08-01,fhrs_5_en-GB,5,,FHRS,0
70290,Beacon Hotel,Aspley Lane,,Nottingham,Beacon Hotel,Pub/bar/nightclub,7843,5,,216740,0,,52.97293500000000,52605,899,food.enforcement@nottinghamcity.gov.uk,Nottingham City,http://www.nottinghamcity.gov.uk/foodsafety,-1.21009900000000,NG8 5RX,2007-06-25,fhrs_5_en-GB,5,,FHRS,0
70291,Street Record,Beaumont Street,,Nottingham,Beaumont Street Community Centre,Other catering premises,7841,10,,218481,5,,,61116,899,food.enforcement@nottinghamcity.gov.uk,Nottingham City,http://www.nottinghamcity.gov.uk/foodsafety,,,2010-12-16,fhrs_4_en-GB,4,,FHRS,5
70292,,36 Burlington Road,,Nottingham,Becca House,Hospitals/Childcare/Caring Premises,5,5,,217085,5,,52.98430500000000,53312,899,food.enforcement@nottinghamcity.gov.uk,Nottingham City,http://www.nottinghamcity.gov.uk/foodsafety,-1.14984900000000,NG5 2GS,2011-08-18,fhrs_5_en-GB,5,,FHRS,5
70293,Aeda Arts Academy,3-9 Hockley,,Nottingham,Beccy's Global Kitchen,Takeaway/sandwich shop,7844,10,,617282,5,,52.95387200000000,66811,899,food.enforcement@nottinghamcity.gov.uk,Nottingham City,http://www.nottinghamcity.gov.uk/foodsafety,-1.14060600000000,NG1 1FH,2014-02-27,fhrs_4_en-GB,4,,FHRS,5
70294,Beckhampton Learning Centre,Edwards Lane,,Nottingham,Beckhampton Learning Centre,Hospitals/Childcare/Caring Premises,5,0,,217192,0,,52.99700800000000,51996,899,food.enforcement@nottinghamcity.gov.uk,Nottingham City,http://www.nottinghamcity.gov.uk/foodsafety,-1.15505200000000,NG5 5SL,2010-09-30,fhrs_5_en-GB,5,,FHRS,0
70295,,3-5 The Cliff,,Nottingham,Bed & Breakfast,Hotel/bed & breakfast/guest house,7842,,,731172,,,52.98933000000000,68434,899,food.enforcement@nottinghamcity.gov.uk,Nottingham City,http://www.nottinghamcity.gov.uk/foodsafety,-1.20174100000000,NG6 8SA,,fhrs_awaitinginspection_en-GB,AwaitingInspection,,FHRS,
70296,,34 Beech Avenue,,Nottingham,Beech Plaice,Takeaway/sandwich shop,7844,10,,595715,10,,52.97189900000000,66513,899,food.enforcement@nottinghamcity.gov.uk,Nottingham City,http://www.nottinghamcity.gov.uk/foodsafety,-1.16106700000000,NG7 7LL,2014-02-11,fhrs_3_en-GB,3,,FHRS,5
70297,Beechdale Community Centre,Ambergate Road,,Nottingham,Beechdale Community Centre,Other catering premises,7841,5,,218693,0,,52.96392200000000,33491,899,food.enforcement@nottinghamcity.gov.uk,Nottingham City,http://www.nottinghamcity.gov.uk/foodsafety,-1.20780700000000,NG8 3GD,2014-01-08,fhrs_5_en-GB,5,,FHRS,0
70298,Beechdale House Nursing Home,Beechdale Road,,Nottingham,Beechdale House Nursing Home,Hospitals/Childcare/Caring Premises,5,5,,217765,0,,52.96671100000000,55782,899,food.enforcement@nottinghamcity.gov.uk,Nottingham City,http://www.nottinghamcity.gov.uk/foodsafety,-1.20550800000000,NG8 3EZ,2014-03-21,fhrs_5_en-GB,5,,FHRS,5
70299,Beechdale Manor Care Home,40 Beechdale Road,,Nottingham,Beechdale Manor Care Home,Hospitals/Childcare/Caring Premises,5,0,,217956,5,,52.97280500000000,63926,899,food.enforcement@nottinghamcity.gov.uk,Nottingham City,http://www.nottinghamcity.gov.uk/foodsafety,-1.21753200000000,NG8 3AJ,2014-01-16,fhrs_5_en-GB,5,,FHRS,5
70300,Beechdale Hotel,438 Beechdale Road,,Nottingham,Beechdale Pub,Pub/bar/nightclub,7843,5,,216757,5,,52.96292700000000,52612,899,food.enforcement@nottinghamcity.gov.uk,Nottingham City,http://www.nottinghamcity.gov.uk/foodsafety,-1.20286700000000,NG8 3FE,2013-05-08,fhrs_5_en-GB,5,,FHRS,5
70301,,370 Aspley Lane,,Nottingham,Bees News,Retailers - other,4613,5,,216398,0,,52.97217000000000,7381,899,food.enforcement@nottinghamcity.gov.uk,Nottingham City,http://www.nottinghamcity.gov.uk/foodsafety,-1.20175900000000,NG8 5RS,2006-02-06,fhrs_5_en-GB,5,,FHRS,5
70302,,4 Andover Road,,Nottingham,Beijing Garden,Takeaway/sandwich shop,7844,5,,664857,5,,52.99258400000000,67578,899,food.enforcement@nottinghamcity.gov.uk,Nottingham City,http://www.nottinghamcity.gov.uk/foodsafety,-1.17143700000000,NG5 5FF,2014-12-09,fhrs_5_en-GB,5,,FHRS,5
70303,,,,,Belgian Waffle,Other catering premises,7841,,,682264,,,,67628,899,food.enforcement@nottinghamcity.gov.uk,Nottingham City,http://www.nottinghamcity.gov.uk/foodsafety,,,,fhrs_awaitinginspection_en-GB,AwaitingInspection,,FHRS,
70304,,149 Sneinton Dale,,Nottingham,Belinda's Bakery,Retailers - other,4613,0,,591208,0,,52.95346400000000,66373,899,food.enforcement@nottinghamcity.gov.uk,Nottingham City,http://www.nottinghamcity.gov.uk/foodsafety,-1.12412200000000,NG2 4LW,2013-08-14,fhrs_4_en-GB,4,,FHRS,10
70305,Bell Inn,18 Angel Row,,Nottingham,Bell Inn,Pub/bar/nightclub,7843,5,,217607,5,,52.95355400000000,52616,899,food.enforcement@nottinghamcity.gov.uk,Nottingham City,http://www.nottinghamcity.gov.uk/foodsafety,-1.15256500000000,NG1 6HL,2013-01-10,fhrs_5_en-GB,5,,FHRS,5
70306,The Cornerhouse Complex,Burton Street,,Nottingham,Bella Italia,Restaurant/Cafe/Canteen,1,0,,216526,0,,52.95621800000000,47493,899,food.enforcement@nottinghamcity.gov.uk,Nottingham City,http://www.nottinghamcity.gov.uk/foodsafety,-1.15040000000000,,2012-11-27,fhrs_5_en-GB,5,,FHRS,5
70307,Belle Vue Lodge,680 Woodborough Road,,Nottingham,Belle Vue Nursing Home,Hospitals/Childcare/Caring Premises,5,0,,216498,0,,52.97965300000000,64304,899,food.enforcement@nottinghamcity.gov.uk,Nottingham City,http://www.nottinghamcity.gov.uk/foodsafety,-1.13296100000000,NG3 5FS,2014-10-17,fhrs_5_en-GB,5,,FHRS,5
70308,,339 Haydn Road,,Nottingham,Belly Delicious,Restaurant/Cafe/Canteen,1,0,,217894,0,,52.97775800000000,63177,899,food.enforcement@nottinghamcity.gov.uk,Nottingham City,http://www.nottinghamcity.gov.uk/foodsafety,-1.16460200000000,NG5 1DZ,2014-10-10,fhrs_5_en-GB,5,,FHRS,0
70309,,243 Edwards Lane,,Nottingham,Belvoir Lodge,Hospitals/Childcare/Caring Premises,5,0,,464453,0,,52.99460400000000,65342,899,food.enforcement@nottinghamcity.gov.uk,Nottingham City,http://www.nottinghamcity.gov.uk/foodsafety,-1.15313300000000,NG5 6EQ,2012-10-12,fhrs_5_en-GB,5,,FHRS,0
70310,Bentinck Primary School,Bentinck Road,,Nottingham,Bentinck Primary School,School/college/university,7845,0,,218464,0,,52.96239300000000,3742,899,food.enforcement@nottinghamcity.gov.uk,Nottingham City,http://www.nottinghamcity.gov.uk/foodsafety,-1.16954300000000,NG7 4AA,2013-11-14,fhrs_5_en-GB,5,,FHRS,0
70311,Berridge Infants School,Craven Road,,Nottingham,Berridge Infants School,School/college/university,7845,0,,218056,0,,52.96566700000000,33505,899,food.enforcement@nottinghamcity.gov.uk,Nottingham City,http://www.nottinghamcity.gov.uk/foodsafety,-1.17753500000000,NG7 5LE,2014-06-30,fhrs_5_en-GB,5,,FHRS,5
70312,Berridge Junior School,Berridge Road West,,Nottingham,Berridge Junior School,School/college/university,7845,0,,216449,0,,52.96566700000000,33864,899,food.enforcement@nottinghamcity.gov.uk,Nottingham City,http://www.nottinghamcity.gov.uk/foodsafety,-1.17753500000000,NG7 5LE,2014-06-26,fhrs_5_en-GB,5,,FHRS,5
70313,,52 Bakerdale Road,,Nottingham,Berry Berry Tang Tang Treats,Retailers - other,4613,,,664863,,,52.96210900000000,67597,899,food.enforcement@nottinghamcity.gov.uk,Nottingham City,http://www.nottinghamcity.gov.uk/foodsafety,-1.11037000000000,NG3 7GH,,fhrs_awaitinginspection_en-GB,AwaitingInspection,,FHRS,
70314,,67 Bracebridge Drive,,Nottingham,Berry Tasty,Restaurant/Cafe/Canteen,1,5,,217220,10,,52.96493900000000,63284,899,food.enforcement@nottinghamcity.gov.uk,Nottingham City,http://www.nottinghamcity.gov.uk/foodsafety,-1.22712900000000,NG8 4PH,2013-11-22,fhrs_3_en-GB,3,,FHRS,10
70315,,193-195 Mansfield Road,,Nottingham,Best Choice,Retailers - other,4613,5,,216736,0,,52.96311400000000,53585,899,food.enforcement@nottinghamcity.gov.uk,Nottingham City,http://www.nottinghamcity.gov.uk/foodsafety,-1.15193200000000,NG1 3FS,2014-06-04,fhrs_5_en-GB,5,,FHRS,0
70316,,25 Highbury Road,,Nottingham,Best Food Takeaway,Takeaway/sandwich shop,7844,10,,218666,15,,52.99143200000000,63552,899,food.enforcement@nottinghamcity.gov.uk,Nottingham City,http://www.nottinghamcity.gov.uk/foodsafety,-1.18681900000000,NG6 9DD,2013-03-11,fhrs_2_en-GB,2,,FHRS,10
70317,,197 Sneinton Dale,,Nottingham,Best One,Retailers - other,4613,10,,696287,5,,52.95437800000000,67865,899,food.enforcement@nottinghamcity.gov.uk,Nottingham City,http://www.nottinghamcity.gov.uk/foodsafety,-1.12243600000000,NG2 4HU,2014-08-19,fhrs_4_en-GB,4,,FHRS,5
70318,,59 Birrell Road,,Nottingham,Bestways Newsagent,Retailers - other,4613,5,,217955,5,,52.97070400000000,24061,899,food.enforcement@nottinghamcity.gov.uk,Nottingham City,http://www.nottinghamcity.gov.uk/foodsafety,-1.16254900000000,NG7 6LU,2007-12-31,fhrs_5_en-GB,5,,FHRS,5
70319,Church Of St Philip,Knights Close,,Nottingham,Bestwood & Bulwell Food Bank,Retailers - other,4613,,,595662,,,53.00533000000000,66341,899,food.enforcement@nottinghamcity.gov.uk,Nottingham City,http://www.nottinghamcity.gov.uk/foodsafety,-1.16866000000000,NG5 9AJ,2014-03-11,fhrs_exempt_en-GB,Exempt,,FHRS,
70320,The Community Centre,Gainsford Crescent,,Nottingham,Bestwood Child Care,Hospitals/Childcare/Caring Premises,5,0,,217030,0,,52.99483100000000,50011,899,food.enforcement@nottinghamcity.gov.uk,Nottingham City,http://www.nottinghamcity.gov.uk/foodsafety,-1.16626900000000,NG5 5HT,2014-07-18,fhrs_5_en-GB,5,,FHRS,5
70321,,133 Arnold Road,,Nottingham,Bestwood Convenience Store,Retailers - other,4613,10,,216723,0,,52.99418000000000,62545,899,food.enforcement@nottinghamcity.gov.uk,Nottingham City,http://www.nottinghamcity.gov.uk/foodsafety,-1.16062000000000,NG5 5HR,2010-06-21,fhrs_4_en-GB,4,,FHRS,0
70322,Bestwood Centre,Bestwood Road,,Nottingham,Bestwood Day Centre,Hospitals/Childcare/Caring Premises,5,5,,216340,0,,53.01579200000000,33507,899,food.enforcement@nottinghamcity.gov.uk,Nottingham City,http://www.nottinghamcity.gov.uk/foodsafety,-1.18539300000000,NG6 8SS,2011-05-12,fhrs_5_en-GB,5,,FHRS,5
70323,,129 Arnold Road,,Nottingham,Bestwood Fisheries,Takeaway/sandwich shop,7844,5,,218450,0,,52.99418000000000,50053,899,food.enforcement@nottinghamcity.gov.uk,Nottingham City,http://www.nottinghamcity.gov.uk/foodsafety,-1.16062000000000,NG5 5HR,2014-07-30,fhrs_5_en-GB,5,,FHRS,5
70324,,230 Beckhampton Road,,Nottingham,Bestwood Fryer,Takeaway/sandwich shop,7844,5,,216965,5,,53.00275600000000,51118,899,food.enforcement@nottinghamcity.gov.uk,Nottingham City,http://www.nottinghamcity.gov.uk/foodsafety,-1.15681800000000,NG5 5PA,2014-02-18,fhrs_4_en-GB,4,,FHRS,10
70325,,455 Beckhampton Road,,Nottingham,Bestwood Off Licence,Retailers - other,4613,10,,217684,0,,53.00684300000000,35034,899,food.enforcement@nottinghamcity.gov.uk,Nottingham City,http://www.nottinghamcity.gov.uk/foodsafety,-1.15754300000000,NG5 5PT,2009-03-18,fhrs_4_en-GB,4,,FHRS,0
70326,,147-149 Andover Road,,Nottingham,Bestwood Off Licence & Groceries,Retailers - other,4613,5,,682284,5,,52.99380500000000,67672,899,food.enforcement@nottinghamcity.gov.uk,Nottingham City,http://www.nottinghamcity.gov.uk/foodsafety,-1.17504900000000,NG5 5FD,2014-06-24,fhrs_4_en-GB,4,,FHRS,10
70327,Bestwood Park Community Centre,Beckhampton Road,,Nottingham,Bestwood Park Community Centre,Other catering premises,7841,0,,216416,5,,53.00849816118622,33506,899,food.enforcement@nottinghamcity.gov.uk,Nottingham City,http://www.nottinghamcity.gov.uk/foodsafety,-1.15689948002609,,2005-05-23,fhrs_5_en-GB,5,,FHRS,5
70328,Bestwood Road Sports & Social,40 Bestwood Road,,Nottingham,Bestwood Road Sports And Social,Pub/bar/nightclub,7843,5,,216640,5,,53.00662100000000,34275,899,food.enforcement@nottinghamcity.gov.uk,Nottingham City,http://www.nottinghamcity.gov.uk/foodsafety,-1.18902300000000,NG6 8UA,2007-12-27,fhrs_5_en-GB,5,,FHRS,5
70329,,75 Beckhampton Road,,Nottingham,Bestwood Stores,Other catering premises,7841,5,,217098,0,,52.99798400000000,34059,899,food.enforcement@nottinghamcity.gov.uk,Nottingham City,http://www.nottinghamcity.gov.uk/foodsafety,-1.16075500000000,NG5 5LD,2013-03-07,fhrs_5_en-GB,5,,FHRS,5
70330,Queens Walk Community Centre,Queens Walk,,Nottingham,Bev's Caterers,Restaurant/Cafe/Canteen,1,10,,216966,0,,52.94271200000000,53394,899,food.enforcement@nottinghamcity.gov.uk,Nottingham City,http://www.nottinghamcity.gov.uk/foodsafety,-1.15003900000000,NG2 2DF,2012-08-29,fhrs_4_en-GB,4,,FHRS,10
70331,,105 Sneinton Road,,Nottingham,Bexon's Munch Box,Takeaway/sandwich shop,7844,5,,217243,5,,52.95227600000000,54812,899,food.enforcement@nottinghamcity.gov.uk,Nottingham City,http://www.nottinghamcity.gov.uk/foodsafety,-1.13251100000000,NG2 4QL,2013-09-24,fhrs_4_en-GB,4,,FHRS,10
70332,,664a Western Boulevard,,Nottingham,Bhaji,Takeaway/sandwich shop,7844,20,,508564,15,,52.97140100000000,66014,899,food.enforcement@nottinghamcity.gov.uk,Nottingham City,http://www.nottinghamcity.gov.uk/foodsafety,-1.18648000000000,NG8 5GN,2014-10-30,fhrs_1_en-GB,1,,FHRS,15
70333,,,,,Bhooka.co.uk,Other catering premises,7841,5,,217993,5,,,64489,899,food.enforcement@nottinghamcity.gov.uk,Nottingham City,http://www.nottinghamcity.gov.uk/foodsafety,,,2011-11-15,fhrs_5_en-GB,5,,FHRS,0
70334,,74 Radford Road,,Nottingham,Biedronka Mini Market,Retailers - other,4613,5,,218542,5,,52.96424500000000,55076,899,food.enforcement@nottinghamcity.gov.uk,Nottingham City,http://www.nottinghamcity.gov.uk/foodsafety,-1.16952300000000,NG7 5FT,2009-07-14,fhrs_5_en-GB,5,,FHRS,5
70335,,4 Holborn Place,,Nottingham,Big Eats Bulwell,Takeaway/sandwich shop,7844,5,,494034,5,,53.00162600000000,65873,899,food.enforcement@nottinghamcity.gov.uk,Nottingham City,http://www.nottinghamcity.gov.uk/foodsafety,-1.19613500000000,NG6 8FB,2014-12-15,fhrs_5_en-GB,5,,FHRS,5
70336,,48-50 Radford Road,,Nottingham,Bilal Food Store,Retailers - other,4613,10,,689605,10,,52.96424500000000,67765,899,food.enforcement@nottinghamcity.gov.uk,Nottingham City,http://www.nottinghamcity.gov.uk/foodsafety,-1.16952300000000,NG7 5FT,2014-07-15,fhrs_2_en-GB,2,,FHRS,15
70337,Bilborough Library,Bracebridge Drive,,Nottingham,Bilborough Community Centre,Other catering premises,7841,5,,218647,5,,52.96397600000000,51604,899,food.enforcement@nottinghamcity.gov.uk,Nottingham City,http://www.nottinghamcity.gov.uk/foodsafety,-1.23106100000000,NG8 4PN,2007-06-21,fhrs_5_en-GB,5,,FHRS,5
70338,,18 Graylands Road,,Nottingham,Bilborough Convenience Store,Retailers - other,4613,5,,217664,0,,52.96373000000000,63900,899,food.enforcement@nottinghamcity.gov.uk,Nottingham City,http://www.nottinghamcity.gov.uk/foodsafety,-1.22101600000000,NG8 4FJ,2013-05-31,fhrs_5_en-GB,5,,FHRS,5
70339,Brian Wakefield Sports Ground,Lenton Lane,,Nottingham,Bilborough Pelican FC,Other catering premises,7841,5,,464475,0,,52.93580100000000,65640,899,food.enforcement@nottinghamcity.gov.uk,Nottingham City,http://www.nottinghamcity.gov.uk/foodsafety,-1.17189700000000,NG7 2NR,2012-10-23,fhrs_5_en-GB,5,,FHRS,5
70340,,15 Queen Street,,Nottingham,Bills Restaurants,Restaurant/Cafe/Canteen,1,0,,631690,5,,52.95449000000000,67040,899,food.enforcement@nottinghamcity.gov.uk,Nottingham City,http://www.nottinghamcity.gov.uk/foodsafety,-1.15031400000000,NG1 2BL,2014-06-26,fhrs_5_en-GB,5,,FHRS,5
70341,,45 Arnold Road,,Nottingham,Billy's Fish Bar,Takeaway/sandwich shop,7844,5,,609956,0,,52.98748900000000,66781,899,food.enforcement@nottinghamcity.gov.uk,Nottingham City,http://www.nottinghamcity.gov.uk/foodsafety,-1.17953400000000,NG6 0DN,2013-10-31,fhrs_5_en-GB,5,,FHRS,0
70342,,Pennyfoot Street,,Nottingham,Biocity Cafe Nottingham,Restaurant/Cafe/Canteen,1,5,,559462,5,,52.95123700000000,66405,899,food.enforcement@nottinghamcity.gov.uk,Nottingham City,http://www.nottinghamcity.gov.uk/foodsafety,-1.13674400000000,NG1 1GF,2013-05-30,fhrs_5_en-GB,5,,FHRS,5
70343,University Of Nottingham,University Boulevard,,Nottingham,Biology Cafe,School/college/university,7845,0,,216819,0,,52.94125900000000,35673,899,food.enforcement@nottinghamcity.gov.uk,Nottingham City,http://www.nottinghamcity.gov.uk/foodsafety,-1.18649500000000,NG7 2RD,2013-11-18,fhrs_5_en-GB,5,,FHRS,0
70344,Birchover Recreation Ground,Birchover Road,,Nottingham,Birchover Park,Retailers - other,4613,5,,218738,5,,52.95804400000000,22829,899,food.enforcement@nottinghamcity.gov.uk,Nottingham City,http://www.nottinghamcity.gov.uk/foodsafety,-1.23968200000000,NG8 4BW,2007-09-08,fhrs_5_en-GB,5,,FHRS,5
70345,Springfield Retail Park,Hucknall Lane,,Nottingham,Birchwood Price Tools,Retailers - other,4613,,,703751,,,53.00827800000000,67917,899,food.enforcement@nottinghamcity.gov.uk,Nottingham City,http://www.nottinghamcity.gov.uk/foodsafety,-1.19218100000000,NG6 8AP,,fhrs_exempt_en-GB,Exempt,,FHRS,
70346,,60 Main Street,,Nottingham,Birds The Confectioners,Retailers - other,4613,0,,218866,5,,53.00162600000000,33525,899,food.enforcement@nottinghamcity.gov.uk,Nottingham City,http://www.nottinghamcity.gov.uk/foodsafety,-1.19613500000000,NG6 8EW,2014-08-20,fhrs_5_en-GB,5,,FHRS,0
70347,,210 Southchurch Drive,,Nottingham,Birds The Confectioners,Retailers - other,4613,0,,216635,0,,52.90329100000000,18007,899,food.enforcement@nottinghamcity.gov.uk,Nottingham City,http://www.nottinghamcity.gov.uk/foodsafety,-1.17784000000000,NG11 8AA,2014-06-20,fhrs_5_en-GB,5,,FHRS,0
70348,,630 Mansfield Road,,Nottingham,Birds The Confectioners,Retailers - other,4613,5,,217585,5,,52.98267100000000,33526,899,food.enforcement@nottinghamcity.gov.uk,Nottingham City,http://www.nottinghamcity.gov.uk/foodsafety,-1.14504000000000,NG5 2GA,2013-08-22,fhrs_5_en-GB,5,,FHRS,5
70349,,159 Bramcote Lane,,Nottingham,Birds The Confectioners,Retailers - other,4613,0,,216570,0,,52.94642100000000,8277,899,food.enforcement@nottinghamcity.gov.uk,Nottingham City,http://www.nottinghamcity.gov.uk/foodsafety,-1.23129800000000,NG8 2QJ,2013-06-20,fhrs_5_en-GB,5,,FHRS,5
70350,14 Flying Horse Walk,Poultry,,Nottingham,Birds The Confectioners,Retailers - other,4613,5,,216359,0,,52.95278800000000,33529,899,food.enforcement@nottinghamcity.gov.uk,Nottingham City,http://www.nottinghamcity.gov.uk/foodsafety,-1.14862100000000,NG1 2HN,2013-11-06,fhrs_5_en-GB,5,,FHRS,0
70351,214 Victoria Centre,Milton Street,,Nottingham,Birds The Confectioners,Retailers - other,4613,5,,217681,5,,52.95718100000000,7061,899,food.enforcement@nottinghamcity.gov.uk,Nottingham City,http://www.nottinghamcity.gov.uk/foodsafety,-1.14694200000000,NG1 3QL,2013-02-18,fhrs_5_en-GB,5,,FHRS,5
70352,,503 Alfreton Road,,Nottingham,Bismillah Food Store,Retailers - other,4613,5,,576453,0,,52.96412100000000,66560,899,food.enforcement@nottinghamcity.gov.uk,Nottingham City,http://www.nottinghamcity.gov.uk/foodsafety,-1.17892000000000,NG7 5NH,2013-09-10,fhrs_5_en-GB,5,,FHRS,0
70353,,2 Barker Gate,,Nottingham,Bistro Live,Restaurant/Cafe/Canteen,1,5,,218220,0,,52.95271000000000,46144,899,food.enforcement@nottinghamcity.gov.uk,Nottingham City,http://www.nottinghamcity.gov.uk/foodsafety,-1.14271300000000,NG1 1JS,2012-05-01,fhrs_5_en-GB,5,,FHRS,0
70354,,,,,Black Angel Creations,Other catering premises,7841,0,,682301,0,,,67725,899,food.enforcement@nottinghamcity.gov.uk,Nottingham City,http://www.nottinghamcity.gov.uk/foodsafety,,,2014-11-27,fhrs_5_en-GB,5,,FHRS,0
70355,,12 Exchange Walk,,Nottingham,Blacks,Retailers - other,4613,,,218110,,,52.95270100000000,11839,899,food.enforcement@nottinghamcity.gov.uk,Nottingham City,http://www.nottinghamcity.gov.uk/foodsafety,-1.14898000000000,NG1 2NX,2011-01-19,fhrs_exempt_en-GB,Exempt,,FHRS,
70356,"Unit 89, Victoria Centre",Victoria Centre Upper Mall Nor,,Nottingham,Blacks,Retailers - other,4613,,,218902,,,,63579,899,food.enforcement@nottinghamcity.gov.uk,Nottingham City,http://www.nottinghamcity.gov.uk/foodsafety,,,2011-05-03,fhrs_exempt_en-GB,Exempt,,FHRS,
70357,Blessed Robert Widmerpool Catholic Voluntary Academy,Listowel Crescent,,Nottingham,Blessed Robert Widmerpool Catholic Voluntary,School/college/university,7845,5,,682263,5,,52.89764000000000,67618,899,food.enforcement@nottinghamcity.gov.uk,Nottingham City,http://www.nottinghamcity.gov.uk/foodsafety,-1.17842200000000,NG11 9BH,2014-09-19,fhrs_5_en-GB,5,,FHRS,0
70358,Blue Bell Hill Community Centr,Dennett Close,,Nottingham,Blue Bell Hill Community Centre Afterschool Club,Hospitals/Childcare/Caring Premises,5,5,,217109,5,,52.95846200000000,33539,899,food.enforcement@nottinghamcity.gov.uk,Nottingham City,http://www.nottinghamcity.gov.uk/foodsafety,-1.13505200000000,NG3 2GL,2010-03-23,fhrs_5_en-GB,5,,FHRS,5
70359,Blue Bell Hill Junior And Infa,Gordon Road,,Nottingham,Blue Bell Hill School,Hospitals/Childcare/Caring Premises,5,0,,218906,0,,52.96157200000000,33541,899,food.enforcement@nottinghamcity.gov.uk,Nottingham City,http://www.nottinghamcity.gov.uk/foodsafety,-1.12888600000000,NG3 2LE,2014-02-07,fhrs_5_en-GB,5,,FHRS,0
70360,,54 Main Street,,Nottingham,Blue Marlin Ltd,Takeaway/sandwich shop,7844,0,,218276,0,,53.00162600000000,33543,899,food.enforcement@nottinghamcity.gov.uk,Nottingham City,http://www.nottinghamcity.gov.uk/foodsafety,-1.19613500000000,NG6 8EW,2014-03-21,fhrs_4_en-GB,4,,FHRS,10
70361,,33 Highbury Road,,Nottingham,Blue Seven General Store,Retailers - other,4613,10,,216801,0,,52.99143200000000,52909,899,food.enforcement@nottinghamcity.gov.uk,Nottingham City,http://www.nottinghamcity.gov.uk/foodsafety,-1.18681900000000,NG6 9DD,2008-06-06,fhrs_4_en-GB,4,,FHRS,5
70362,Nottingham Bluecoat School And Technology College,Sutton Passeys Crescent,,Nottingham,Bluecoat Academy,School/college/university,7845,0,,508559,0,,52.95297100000000,65959,899,food.enforcement@nottinghamcity.gov.uk,Nottingham City,http://www.nottinghamcity.gov.uk/foodsafety,-1.19556300000000,NG8 1EA,2013-01-23,fhrs_5_en-GB,5,,FHRS,5
70363,Nottingham Bluecoat School And Technology College,Aspley Lane,,Nottingham,Bluecoat Academy,School/college/university,7845,10,,464471,0,,52.96893700000000,65623,899,food.enforcement@nottinghamcity.gov.uk,Nottingham City,http://www.nottinghamcity.gov.uk/foodsafety,-1.19292900000000,NG8 5GY,2014-10-14,fhrs_4_en-GB,4,,FHRS,10
70364,,512-514 Berridge Road West,,Nottingham,Bobbersmill Community Centre,Other catering premises,7841,10,,216840,0,,52.96632500000000,44913,899,food.enforcement@nottinghamcity.gov.uk,Nottingham City,http://www.nottinghamcity.gov.uk/foodsafety,-1.17782100000000,NG7 5JU,2010-07-15,fhrs_4_en-GB,4,,FHRS,0
70365,,,,,Bobbies Ices,Mobile caterer,7846,0,,595744,0,,,66657,899,food.enforcement@nottinghamcity.gov.uk,Nottingham City,http://www.nottinghamcity.gov.uk/foodsafety,,,2014-05-06,fhrs_5_en-GB,5,,FHRS,0
70366,,210-214 Berridge Road Central,,Nottingham,Bobby's Off Licence,Retailers - other,4613,10,,218422,0,,52.96980200000000,11095,899,food.enforcement@nottinghamcity.gov.uk,Nottingham City,http://www.nottinghamcity.gov.uk/foodsafety,-1.16843300000000,NG7 6GY,2010-06-22,fhrs_4_en-GB,4,,FHRS,0
70367,,14 Bagnall Road,,Nottingham,Bob's  Shop,Retailers - other,4613,0,,218292,0,,52.98494700000000,45893,899,food.enforcement@nottinghamcity.gov.uk,Nottingham City,http://www.nottinghamcity.gov.uk/foodsafety,-1.18902600000000,NG6 0JX,2013-12-19,fhrs_5_en-GB,5,,FHRS,5
70368,,36 Carlton Street,,Nottingham,Boiler Maker,Pub/bar/nightclub,7843,0,,595626,5,,52.95346900000000,66184,899,food.enforcement@nottinghamcity.gov.uk,Nottingham City,http://www.nottinghamcity.gov.uk/foodsafety,-1.14451400000000,NG1 1NN,2014-08-27,fhrs_5_en-GB,5,,FHRS,0
70369,,77 Maid Marian Way,,Nottingham,Bombay Delight,Restaurant/Cafe/Canteen,1,20,,218779,15,,52.95144500000000,63607,899,food.enforcement@nottinghamcity.gov.uk,Nottingham City,http://www.nottinghamcity.gov.uk/foodsafety,-1.15180300000000,NG1 6AJ,2013-06-26,fhrs_1_en-GB,1,,FHRS,15
70370,,165 Hucknall Road,,Nottingham,Bombay Indian Takeaway,Takeaway/sandwich shop,7844,20,,731189,15,,52.97858300000000,68479,899,food.enforcement@nottinghamcity.gov.uk,Nottingham City,http://www.nottinghamcity.gov.uk/foodsafety,-1.15794400000000,NG5 1FD,2015-01-15,fhrs_1_en-GB,1,,FHRS,15
70371,Restaurant/Take-Away,352-356 Aspley Lane,,Nottingham,Bombay Nights,Takeaway/sandwich shop,7844,5,,217789,5,,52.97087300000000,53131,899,food.enforcement@nottinghamcity.gov.uk,Nottingham City,http://www.nottinghamcity.gov.uk/foodsafety,-1.19740500000000,NG8 5GB,2013-11-26,fhrs_5_en-GB,5,,FHRS,5
70372,,133 Radford Road,,Nottingham,Bombay Sweet Centre Takeaway,Takeaway/sandwich shop,7844,10,,218599,10,,52.96650600000000,35832,899,food.enforcement@nottinghamcity.gov.uk,Nottingham City,http://www.nottinghamcity.gov.uk/foodsafety,-1.17146000000000,NG7 5DU,2014-10-06,fhrs_3_en-GB,3,,FHRS,10
70373,,11-13 Carlton Street,,Nottingham,Bonzai Sushi & Noodle Bar,Restaurant/Cafe/Canteen,1,5,,217376,5,,52.95381000000000,61199,899,food.enforcement@nottinghamcity.gov.uk,Nottingham City,http://www.nottinghamcity.gov.uk/foodsafety,-1.14444800000000,NG1 1NL,2013-12-23,fhrs_5_en-GB,5,,FHRS,5
70374,Booker Cash And Carry,The Midway,,Nottingham,Booker Cash & Carry,Distributors/Transporters,7,5,,217148,0,,52.93132400000000,34495,899,food.enforcement@nottinghamcity.gov.uk,Nottingham City,http://www.nottinghamcity.gov.uk/foodsafety,-1.18104300000000,NG7 2TS,2014-12-09,fhrs_5_en-GB,5,,FHRS,5
70375,134 Victoria Centre,,,Nottingham,Boost Juice Bar,Retailers - other,4613,5,,216434,5,,52.95739600000000,54215,899,food.enforcement@nottinghamcity.gov.uk,Nottingham City,http://www.nottinghamcity.gov.uk/foodsafety,-1.14811300000000,NG1 3QE,2013-04-29,fhrs_5_en-GB,5,,FHRS,5
70376,The Mary Potter Centre,Gregory Boulevard,,Nottingham,Boots,Retailers - other,4613,,,595743,,,,66646,899,food.enforcement@nottinghamcity.gov.uk,Nottingham City,http://www.nottinghamcity.gov.uk/foodsafety,,,2014-04-24,fhrs_exempt_en-GB,Exempt,,FHRS,
70377,Alliance Boots,Thane Road,,Nottingham,Boots D105 Canteen,Restaurant/Cafe/Canteen,1,5,,216675,0,,52.92714700000000,48807,899,food.enforcement@nottinghamcity.gov.uk,Nottingham City,http://www.nottinghamcity.gov.uk/foodsafety,-1.18411200000000,NG90 1BS,2013-03-19,fhrs_5_en-GB,5,,FHRS,0
70378,Alliance Boots,Thane Road,,Nottingham,Boots D80 Cafe,Restaurant/Cafe/Canteen,1,0,,217886,5,,52.92714700000000,46499,899,food.enforcement@nottinghamcity.gov.uk,Nottingham City,http://www.nottinghamcity.gov.uk/foodsafety,-1.18411200000000,NG90 1BS,2013-03-19,fhrs_5_en-GB,5,,FHRS,5
70379,Alliance Boots,Thane Road,,Nottingham,Boots D82 Buffet Bars,Restaurant/Cafe/Canteen,1,0,,217232,5,,52.92714700000000,46161,899,food.enforcement@nottinghamcity.gov.uk,Nottingham City,http://www.nottinghamcity.gov.uk/foodsafety,-1.18411200000000,NG90 1BS,2013-03-19,fhrs_5_en-GB,5,,FHRS,0
70380,Alliance Boots,Thane Road,,Nottingham,Boots D90 Restaurant,Retailers - other,4613,0,,216943,10,,52.92714700000000,46166,899,food.enforcement@nottinghamcity.gov.uk,Nottingham City,http://www.nottinghamcity.gov.uk/foodsafety,-1.18411200000000,NG90 1BS,2014-11-11,fhrs_4_en-GB,4,,FHRS,10
70381,Boots Co Plc,Thane Road,,Nottingham,Boots D90 Staff Shop,Retailers - other,4613,0,,218843,0,,52.92918700000000,52086,899,food.enforcement@nottinghamcity.gov.uk,Nottingham City,http://www.nottinghamcity.gov.uk/foodsafety,-1.17489400000000,NG7 2TG,2012-08-10,fhrs_5_en-GB,5,,FHRS,0
70382,The Boots Co Plc,Thane Road,,Nottingham,Boots D94 Takeaway,Takeaway/sandwich shop,7844,5,,539626,5,,52.94828700000000,66157,899,food.enforcement@nottinghamcity.gov.uk,Nottingham City,http://www.nottinghamcity.gov.uk/foodsafety,-1.14140200000000,NG2 3AA,2013-03-19,fhrs_5_en-GB,5,,FHRS,0
70383,Riverside Retail Park,Queens Drive,,Nottingham,Boots Pharmacy,Retailers - other,4613,,,217136,,,52.93281800000000,46981,899,food.enforcement@nottinghamcity.gov.uk,Nottingham City,http://www.nottinghamcity.gov.uk/foodsafety,-1.16570500000000,NG2 1RU,2011-08-25,fhrs_exempt_en-GB,Exempt,,FHRS,
70384,,11-19 Lower Parliament Street,,Nottingham,Boots Staff Canteen,Restaurant/Cafe/Canteen,1,5,,216877,10,,52.95560600000000,45200,899,food.enforcement@nottinghamcity.gov.uk,Nottingham City,http://www.nottinghamcity.gov.uk/foodsafety,-1.14667500000000,NG1 3QS,2014-10-29,fhrs_4_en-GB,4,,FHRS,5
70385,"Cripps Health Centre, Universi",University Boulevard,,Nottingham,Boots The Chemist,Retailers - other,4613,,,218817,,,52.94125900000000,50959,899,food.enforcement@nottinghamcity.gov.uk,Nottingham City,http://www.nottinghamcity.gov.uk/foodsafety,-1.18649500000000,NG7 2RD,2012-08-02,fhrs_exempt_en-GB,Exempt,,FHRS,
70386,"Portland Building, University",University Boulevard,,Nottingham,Boots The Chemist,Retailers - other,4613,5,,216888,5,,52.94125900000000,47441,899,food.enforcement@nottinghamcity.gov.uk,Nottingham City,http://www.nottinghamcity.gov.uk/foodsafety,-1.18649500000000,NG7 2RD,2012-08-02,fhrs_5_en-GB,5,,FHRS,5
70387,,56-57 Long Row,,Nottingham,Boots The Chemists,Retailers - other,4613,,,217124,,,52.95398900000000,35899,899,food.enforcement@nottinghamcity.gov.uk,Nottingham City,http://www.nottinghamcity.gov.uk/foodsafety,-1.15184200000000,NG1 6JB,2011-07-18,fhrs_exempt_en-GB,Exempt,,FHRS,
70388,,594 Mansfield Road,,Nottingham,Boots The Chemists Ltd,Retailers - other,4613,,,218218,,,52.98140900000000,12389,899,food.enforcement@nottinghamcity.gov.uk,Nottingham City,http://www.nottinghamcity.gov.uk/foodsafety,-1.14588400000000,NG5 2FS,2011-05-23,fhrs_exempt_en-GB,Exempt,,FHRS,
70389,,2 Broad Marsh Centre,,Nottingham,Boots The Chemists Ltd,Retailers - other,4613,,,217308,,,52.94934600000000,2602,899,food.enforcement@nottinghamcity.gov.uk,Nottingham City,http://www.nottinghamcity.gov.uk/foodsafety,-1.14868800000000,NG1 7EQ,2011-07-13,fhrs_exempt_en-GB,Exempt,,FHRS,
70390,,1-3 Commercial Road,,Nottingham,Boots The Chemists Ltd,Retailers - other,4613,,,218400,,,53.00143000000000,8979,899,food.enforcement@nottinghamcity.gov.uk,Nottingham City,http://www.nottinghamcity.gov.uk/foodsafety,-1.19776300000000,NG6 8HD,2012-05-31,fhrs_exempt_en-GB,Exempt,,FHRS,
70391,,222-224 Southchurch Drive,,Nottingham,Boots The Chemists Ltd,Retailers - other,4613,,,216813,,,52.90329100000000,9601,899,food.enforcement@nottinghamcity.gov.uk,Nottingham City,http://www.nottinghamcity.gov.uk/foodsafety,-1.17784000000000,NG11 8AA,2012-05-04,fhrs_exempt_en-GB,Exempt,,FHRS,
70392,,11-19 Lower Parliament Street,,Nottingham,Boots The Chemists Ltd,Retailers - other,4613,,,218753,,,52.95560600000000,7094,899,food.enforcement@nottinghamcity.gov.uk,Nottingham City,http://www.nottinghamcity.gov.uk/foodsafety,-1.14667500000000,NG1 3QS,2014-09-05,fhrs_exempt_en-GB,Exempt,,FHRS,
70393,The Boots Co Plc,Thane Road,,Nottingham,Boots Warehouses D82 D105,Distributors/Transporters,7,,,218175,,,52.94828700000000,62626,899,food.enforcement@nottinghamcity.gov.uk,Nottingham City,http://www.nottinghamcity.gov.uk/foodsafety,-1.14140200000000,NG2 3AA,2014-08-28,fhrs_exempt_en-GB,Exempt,,FHRS,
70394,,353 Mansfield Road,,Nottingham,Booze Barn,Retailers - other,4613,5,,217481,0,,52.97255800000000,64008,899,food.enforcement@nottinghamcity.gov.uk,Nottingham City,http://www.nottinghamcity.gov.uk/foodsafety,-1.15259600000000,NG5 2DA,2011-05-23,fhrs_5_en-GB,5,,FHRS,0
70395,,230 Highbury Road,,Nottingham,Booze Box Local Convenience,Retailers - other,4613,5,,595700,0,,52.99676400000000,66475,899,food.enforcement@nottinghamcity.gov.uk,Nottingham City,http://www.nottinghamcity.gov.uk/foodsafety,-1.19238100000000,NG6 9FE,2014-05-06,fhrs_5_en-GB,5,,FHRS,0
70396,,66 Lenton Boulevard,,Nottingham,Booze Busters,Retailers - other,4613,,,689623,,,52.94987000000000,67811,899,food.enforcement@nottinghamcity.gov.uk,Nottingham City,http://www.nottinghamcity.gov.uk/foodsafety,-1.17453100000000,NG7 2EN,2014-07-30,fhrs_exempt_en-GB,Exempt,,FHRS,
70397,,81-83 Oakdale Road,,Nottingham,Booze Corner,Retailers - other,4613,10,,595610,5,,52.96023200000000,65969,899,food.enforcement@nottinghamcity.gov.uk,Nottingham City,http://www.nottinghamcity.gov.uk/foodsafety,-1.10455700000000,NG3 7EJ,2014-05-21,fhrs_4_en-GB,4,,FHRS,5
70398,,253 Ilkeston Road,,Nottingham,Booze Stop,Retailers - other,4613,,,217537,,,52.95534000000000,62334,899,food.enforcement@nottinghamcity.gov.uk,Nottingham City,http://www.nottinghamcity.gov.uk/foodsafety,-1.17907100000000,NG7 3FX,2012-05-24,fhrs_exempt_en-GB,Exempt,,FHRS,
70399,,22 Fletcher Gate,,Nottingham,Bowery Club,Pub/bar/nightclub,7843,5,,703774,5,,52.95249200000000,67992,899,food.enforcement@nottinghamcity.gov.uk,Nottingham City,http://www.nottinghamcity.gov.uk/foodsafety,-1.14609600000000,NG1 2FZ,2014-10-28,fhrs_5_en-GB,5,,FHRS,5
70400,,245 Green Lane,,Nottingham,Boys And Girls Football Club,Pub/bar/nightclub,7843,,,696275,,,52.90225900000000,33253,899,food.enforcement@nottinghamcity.gov.uk,Nottingham City,http://www.nottinghamcity.gov.uk/foodsafety,-1.17683300000000,NG11 9AY,,fhrs_awaitinginspection_en-GB,AwaitingInspection,,FHRS,
70401,,194 Highbury Road,,Nottingham,Bradbury's Bakery,Retailers - other,4613,5,,656879,5,,52.99545000000000,67385,899,food.enforcement@nottinghamcity.gov.uk,Nottingham City,http://www.nottinghamcity.gov.uk/foodsafety,-1.19082600000000,NG6 9FF,2014-06-06,fhrs_5_en-GB,5,,FHRS,5
70402,,11 High Pavement,,Nottingham,Brass Monkey,Pub/bar/nightclub,7843,0,,218081,0,,52.95124400000000,52284,899,food.enforcement@nottinghamcity.gov.uk,Nottingham City,http://www.nottinghamcity.gov.uk/foodsafety,-1.14515300000000,NG1 1HF,2012-08-08,fhrs_5_en-GB,5,,FHRS,5
70403,,27a Tanners Walk Broad Marsh Centr,,Nottingham,Breakers,Restaurant/Cafe/Canteen,1,10,,218188,10,,52.95021900000000,61105,899,food.enforcement@nottinghamcity.gov.uk,Nottingham City,http://www.nottinghamcity.gov.uk/foodsafety,-1.14765900000000,NG1 7LG,2014-11-17,fhrs_2_en-GB,2,,FHRS,15
70404,,9 Flying Horse Walk,,Nottingham,Brew Cavern,Retailers - other,4613,,,703746,,,52.95278800000000,67910,899,food.enforcement@nottinghamcity.gov.uk,Nottingham City,http://www.nottinghamcity.gov.uk/foodsafety,-1.14862100000000,NG1 2HN,,fhrs_awaitinginspection_en-GB,AwaitingInspection,,FHRS,
70405,,20-22 Broad Street,,Nottingham,Brewdog,Pub/bar/nightclub,7843,0,,429684,5,,52.95411900000000,65030,899,food.enforcement@nottinghamcity.gov.uk,Nottingham City,http://www.nottinghamcity.gov.uk/foodsafety,-1.14371200000000,NG1 3AL,2014-03-04,fhrs_5_en-GB,5,,FHRS,5
70406,River Trent Between Toll Bridge And Suspension Bridge,Victoria Embankment,,Nottingham,Bridge Sandwich Bar,Takeaway/sandwich shop,7844,5,,217057,5,,,35422,899,food.enforcement@nottinghamcity.gov.uk,Nottingham City,http://www.nottinghamcity.gov.uk/foodsafety,,,2014-07-28,fhrs_5_en-GB,5,,FHRS,5
70407,,3 Bridgeway Centre,,Nottingham,Bridgeway Fish Bar,Takeaway/sandwich shop,7844,10,,217004,10,,52.94311700000000,64323,899,food.enforcement@nottinghamcity.gov.uk,Nottingham City,http://www.nottinghamcity.gov.uk/foodsafety,-1.14635500000000,NG2 2JD,2015-01-08,fhrs_3_en-GB,3,,FHRS,10
70408,,15 Bridgeway Centre,,Nottingham,Bridgeway Fresh Fruit and Veg,Retailers - other,4613,5,,216940,5,,52.94311700000000,52102,899,food.enforcement@nottinghamcity.gov.uk,Nottingham City,http://www.nottinghamcity.gov.uk/foodsafety,-1.14635500000000,NG2 2JD,2012-05-03,fhrs_5_en-GB,5,,FHRS,5
70409,Holiday Inn Hotel,St James's Street,,Nottingham,Britannia Hotel,Hotel/bed & breakfast/guest house,7842,0,,216436,0,,52.95170500000000,52400,899,food.enforcement@nottinghamcity.gov.uk,Nottingham City,http://www.nottinghamcity.gov.uk/foodsafety,-1.15420900000000,NG1 6BN,2013-06-27,fhrs_5_en-GB,5,,FHRS,5
70410,,3 Gainsford Crescent,,Nottingham,Britanya,Takeaway/sandwich shop,7844,0,,664837,5,,52.99286900000000,67533,899,food.enforcement@nottinghamcity.gov.uk,Nottingham City,http://www.nottinghamcity.gov.uk/foodsafety,-1.16980800000000,NG5 5FH,2014-05-19,fhrs_5_en-GB,5,,FHRS,5
70411,,3 Lister Gate Square Broad Marsh,,Nottingham,British Home Stores,Other catering premises,7841,5,,218301,5,,52.95021900000000,5084,899,food.enforcement@nottinghamcity.gov.uk,Nottingham City,http://www.nottinghamcity.gov.uk/foodsafety,-1.14765900000000,NG1 7LB,2013-06-17,fhrs_5_en-GB,5,,FHRS,5
70412,Acorns,Turnpike Lane,,Nottingham,Broadgate Cafe,Restaurant/Cafe/Canteen,1,0,,656633,0,,52.93388200000000,67328,899,food.enforcement@nottinghamcity.gov.uk,Nottingham City,http://www.nottinghamcity.gov.uk/foodsafety,-1.20825100000000,NG9 2RX,2014-05-22,fhrs_5_en-GB,5,,FHRS,0
70413,Broadgate Flats,Turnpike Lane,,Nottingham,Broadgate Shop,Retailers - other,4613,0,,664843,0,,52.93388200000000,67545,899,food.enforcement@nottinghamcity.gov.uk,Nottingham City,http://www.nottinghamcity.gov.uk/foodsafety,-1.20825100000000,NG9 2RX,2014-05-22,fhrs_5_en-GB,5,,FHRS,0
70414,,14 Broad Street,,Nottingham,Broadway Cinema,Other catering premises,7841,5,,216911,5,,52.95411900000000,30930,899,food.enforcement@nottinghamcity.gov.uk,Nottingham City,http://www.nottinghamcity.gov.uk/foodsafety,-1.14371200000000,NG1 3AL,2014-08-28,fhrs_5_en-GB,5,,FHRS,5
70415,Brocklewood Junior & Infant Sc,Fircroft Avenue,,Nottingham,Brocklewood Primary,School/college/university,7845,5,,218641,0,,52.97276200000000,33583,899,food.enforcement@nottinghamcity.gov.uk,Nottingham City,http://www.nottinghamcity.gov.uk/foodsafety,-1.21920100000000,NG8 3AL,2014-10-16,fhrs_5_en-GB,5,,FHRS,5
70416,,11 Colwick Road,,Nottingham,Brother's Food Store,Retailers - other,4613,5,,682281,0,,,67662,899,food.enforcement@nottinghamcity.gov.uk,Nottingham City,http://www.nottinghamcity.gov.uk/foodsafety,,,2014-07-22,fhrs_5_en-GB,5,,FHRS,0
70417,,17b St James's Street,,Nottingham,Brown Bettys,Takeaway/sandwich shop,7844,10,,217559,10,,52.95276900000000,33589,899,food.enforcement@nottinghamcity.gov.uk,Nottingham City,http://www.nottinghamcity.gov.uk/foodsafety,-1.15225300000000,NG1 6FH,2013-12-09,fhrs_3_en-GB,3,,FHRS,10
70418,Mowbray House,Castle Meadow Road,,Nottingham,Browne Jacobson,Other catering premises,7841,,,595752,,,52.94729100000000,66673,899,food.enforcement@nottinghamcity.gov.uk,Nottingham City,http://www.nottinghamcity.gov.uk/foodsafety,-1.15294000000000,NG2 1BJ,2014-04-22,fhrs_exempt_en-GB,Exempt,,FHRS,
70419,,676 Mansfield Road,,Nottingham,Brownies Cafe,Restaurant/Cafe/Canteen,1,0,,216463,0,,52.98358200000000,64692,899,food.enforcement@nottinghamcity.gov.uk,Nottingham City,http://www.nottinghamcity.gov.uk/foodsafety,-1.14429200000000,NG5 2GE,2013-07-25,fhrs_5_en-GB,5,,FHRS,5
70420,,20 Park Row,,Nottingham,Browns Bar & Brasserie,Restaurant/Cafe/Canteen,1,0,,293411,0,,52.95198900000000,63832,899,food.enforcement@nottinghamcity.gov.uk,Nottingham City,http://www.nottinghamcity.gov.uk/foodsafety,-1.15636100000000,NG1 6GR,2013-07-10,fhrs_5_en-GB,5,,FHRS,5
70421,,416 Broxtowe Lane,,Nottingham,Broxtowe Cafe,Restaurant/Cafe/Canteen,1,0,,216600,5,,52.97462100000000,53159,899,food.enforcement@nottinghamcity.gov.uk,Nottingham City,http://www.nottinghamcity.gov.uk/foodsafety,-1.21478900000000,NG8 5ND,2012-12-17,fhrs_5_en-GB,5,,FHRS,5
70422,,12 Broxtowe Lane,,Nottingham,Broxtowe Curry House,Takeaway/sandwich shop,7844,0,,559447,0,,52.98198800000000,65986,899,food.enforcement@nottinghamcity.gov.uk,Nottingham City,http://www.nottinghamcity.gov.uk/foodsafety,-1.19804800000000,NG8 5NP,2013-06-04,fhrs_5_en-GB,5,,FHRS,0
70423,,410 Broxtowe Lane,,Nottingham,Broxtowe Fish Bar,Takeaway/sandwich shop,7844,5,,218953,10,,52.97462100000000,64209,899,food.enforcement@nottinghamcity.gov.uk,Nottingham City,http://www.nottinghamcity.gov.uk/foodsafety,-1.21478900000000,NG8 5ND,2015-01-14,fhrs_4_en-GB,4,,FHRS,5
70424,,164 Alfreton Road,,Nottingham,Bucovina Restaurant,Restaurant/Cafe/Canteen,1,5,,464452,0,,52.95852400000000,65341,899,food.enforcement@nottinghamcity.gov.uk,Nottingham City,http://www.nottinghamcity.gov.uk/foodsafety,-1.16649100000000,NG7 3NS,2012-10-23,fhrs_5_en-GB,5,,FHRS,5
70425,,24 Commercial Road,,Nottingham,Budget Wise,Retailers - other,4613,5,,218739,5,,53.00169800000000,42448,899,food.enforcement@nottinghamcity.gov.uk,Nottingham City,http://www.nottinghamcity.gov.uk/foodsafety,-1.19741500000000,NG6 8HA,2012-05-03,fhrs_5_en-GB,5,,FHRS,5
70426,,,,,Buffets2Go,Other catering premises,7841,0,,216585,0,,,51823,899,food.enforcement@nottinghamcity.gov.uk,Nottingham City,http://www.nottinghamcity.gov.uk/foodsafety,,,2008-06-19,fhrs_5_en-GB,5,,FHRS,0
70427,,50 Thurgarton Street,,Nottingham,Building Trades Social Club,Pub/bar/nightclub,7843,10,,218703,0,,52.95064200000000,33592,899,food.enforcement@nottinghamcity.gov.uk,Nottingham City,http://www.nottinghamcity.gov.uk/foodsafety,-1.12666500000000,NG2 4AG,2008-09-25,fhrs_4_en-GB,4,,FHRS,0
70428,University Of Nottingham,University Boulevard,,Nottingham,Built Environment Coffee Bar,Restaurant/Cafe/Canteen,1,0,,217650,0,,52.94125900000000,35015,899,food.enforcement@nottinghamcity.gov.uk,Nottingham City,http://www.nottinghamcity.gov.uk/foodsafety,-1.18649500000000,NG7 2RD,2014-01-31,fhrs_5_en-GB,5,,FHRS,0
70429,Shell For 152 And Flat Over,Main Street,,Nottingham,Bulwell Balti House,Takeaway/sandwich shop,7844,5,,217936,0,,,35385,899,food.enforcement@nottinghamcity.gov.uk,Nottingham City,http://www.nottinghamcity.gov.uk/foodsafety,,,2011-10-13,fhrs_5_en-GB,5,,FHRS,0
70430,Play Centre,Steadfold Close,,Nottingham,Bulwell Childcare Centre,Hospitals/Childcare/Caring Premises,5,5,,217415,5,,52.99610700000000,50499,899,food.enforcement@nottinghamcity.gov.uk,Nottingham City,http://www.nottinghamcity.gov.uk/foodsafety,-1.20416400000000,NG6 8AX,2014-02-13,fhrs_5_en-GB,5,,FHRS,0
70431,Bulwell Pentecostal Church,Strelley Street,,Nottingham,Bulwell Christian Fellowship,Other catering premises,7841,5,,216568,5,,53.00252700000000,35466,899,food.enforcement@nottinghamcity.gov.uk,Nottingham City,http://www.nottinghamcity.gov.uk/foodsafety,-1.19778700000000,NG6 8FR,2014-02-13,fhrs_5_en-GB,5,,FHRS,5
70432,Bulwell Church Institute,Vere Street,,Nottingham,Bulwell Church Institute,Other catering premises,7841,0,,216766,0,,52.99959500000000,61282,899,food.enforcement@nottinghamcity.gov.uk,Nottingham City,http://www.nottinghamcity.gov.uk/foodsafety,-1.19758800000000,NG6 8YL,2009-11-19,fhrs_5_en-GB,5,,FHRS,0
70433,Bulwell Forest Golf Club,Hucknall Road,,Nottingham,Bulwell Forest Golf Club Catering,Other catering premises,7841,,,731191,,,53.00173400000000,68487,899,food.enforcement@nottinghamcity.gov.uk,Nottingham City,http://www.nottinghamcity.gov.uk/foodsafety,-1.18035200000000,NG6 9LQ,,fhrs_awaitinginspection_en-GB,AwaitingInspection,,FHRS,
70434,,198a Main Street,,Nottingham,Bulwell Grill Takeaway,Takeaway/sandwich shop,7844,,,703758,,,53.00475500000000,67936,899,food.enforcement@nottinghamcity.gov.uk,Nottingham City,http://www.nottinghamcity.gov.uk/foodsafety,-1.19360300000000,NG6 8EH,,fhrs_awaitinginspection_en-GB,AwaitingInspection,,FHRS,
70435,,217 Hucknall Lane,,Nottingham,Bulwell News & General Store,Retailers - other,4613,10,,218256,0,,53.01080600000000,7416,899,food.enforcement@nottinghamcity.gov.uk,Nottingham City,http://www.nottinghamcity.gov.uk/foodsafety,-1.19106100000000,NG6 8AH,2010-06-30,fhrs_4_en-GB,4,,FHRS,0
70436,Bulwell Riverside,Main Street,,Nottingham,Bulwell Riverside Cafe,Restaurant/Cafe/Canteen,1,5,,293430,0,,53.01023900000000,64866,899,food.enforcement@nottinghamcity.gov.uk,Nottingham City,http://www.nottinghamcity.gov.uk/foodsafety,-1.18807700000000,NG6 8QJ,2014-03-21,fhrs_5_en-GB,5,,FHRS,5
70437,Ground Floor,19 Stoney Street,,Nottingham,Bunk Bar and Grill,Pub/bar/nightclub,7843,,,731206,,,52.95293800000000,68522,899,food.enforcement@nottinghamcity.gov.uk,Nottingham City,http://www.nottinghamcity.gov.uk/foodsafety,-1.14315500000000,NG1 1LP,,fhrs_awaitinginspection_en-GB,AwaitingInspection,,FHRS,
70438,,36-38 Hockley,,Nottingham,Bunkers Hill,Pub/bar/nightclub,7843,5,,216768,5,,52.95352900000000,49522,899,food.enforcement@nottinghamcity.gov.uk,Nottingham City,http://www.nottinghamcity.gov.uk/foodsafety,-1.14040500000000,NG1 1FP,2012-06-07,fhrs_5_en-GB,5,,FHRS,5
70439,,8-10 Upper Parliament Street,,Nottingham,Burger King,Restaurant/Cafe/Canteen,1,0,,218082,0,,52.95531500000000,53975,899,food.enforcement@nottinghamcity.gov.uk,Nottingham City,http://www.nottinghamcity.gov.uk/foodsafety,-1.14864600000000,NG1 2AD,2013-11-04,fhrs_5_en-GB,5,,FHRS,5
70440,Lady Bay Retail Park,Meadow Lane,,Nottingham,Burger King,Takeaway/sandwich shop,7844,5,,217195,5,,52.94564700000000,64473,899,food.enforcement@nottinghamcity.gov.uk,Nottingham City,http://www.nottinghamcity.gov.uk/foodsafety,-1.13322400000000,NG2 3GZ,2013-10-10,fhrs_5_en-GB,5,,FHRS,5
70441,,15 Burlington Road,,Nottingham,Burlington Villa,Hospitals/Childcare/Caring Premises,5,5,,217624,5,,52.98392500000000,52561,899,food.enforcement@nottinghamcity.gov.uk,Nottingham City,http://www.nottinghamcity.gov.uk/foodsafety,-1.14943900000000,NG5 2GR,2011-08-18,fhrs_5_en-GB,5,,FHRS,5
70442,,234 Beckhampton Road,,Nottingham,Burrows & Close,Retailers - other,4613,,,217175,,,53.00275600000000,33601,899,food.enforcement@nottinghamcity.gov.uk,Nottingham City,http://www.nottinghamcity.gov.uk/foodsafety,-1.15681800000000,NG5 5PA,2004-04-20,fhrs_exempt_en-GB,Exempt,,FHRS,
70443,,1-7 Main Street,,Nottingham,Burrows & Close Ltd,Retailers - other,4613,,,217728,,,52.99830000000000,9022,899,food.enforcement@nottinghamcity.gov.uk,Nottingham City,http://www.nottinghamcity.gov.uk/foodsafety,-1.19741800000000,NG6 8QH,2006-03-22,fhrs_exempt_en-GB,Exempt,,FHRS,
70444,,72 Ilkeston Road,,Nottingham,Burrows and Close,Retailers - other,4613,,,217896,,,52.95631400000000,60647,899,food.enforcement@nottinghamcity.gov.uk,Nottingham City,http://www.nottinghamcity.gov.uk/foodsafety,-1.16666800000000,NG7 3GQ,2009-12-10,fhrs_exempt_en-GB,Exempt,,FHRS,
70445,Bulwell Bus Station,Main Street,,Nottingham,Bus Station Cafe,Restaurant/Cafe/Canteen,1,0,,581260,10,,52.99955700000000,66578,899,food.enforcement@nottinghamcity.gov.uk,Nottingham City,http://www.nottinghamcity.gov.uk/foodsafety,-1.19720100000000,NG6 8QF,2014-01-14,fhrs_4_en-GB,4,,FHRS,5
70446,Nottingham University Hospital,Hucknall Road,,Nottingham,Busy Bees,Hospitals/Childcare/Caring Premises,5,5,,217750,5,,52.98928600000000,64305,899,food.enforcement@nottinghamcity.gov.uk,Nottingham City,http://www.nottinghamcity.gov.uk/foodsafety,-1.16007400000000,NG5 1PB,2014-10-10,fhrs_5_en-GB,5,,FHRS,5
70447,The Milford Academy,Dungannon Road,,Nottingham,Busy Bees At Milford School,Hospitals/Childcare/Caring Premises,5,0,,218409,5,,52.89943700000000,49101,899,food.enforcement@nottinghamcity.gov.uk,Nottingham City,http://www.nottinghamcity.gov.uk/foodsafety,-1.17694600000000,NG11 9BT,2014-09-24,fhrs_5_en-GB,5,,FHRS,5
70448,Leapfrog Day Nursery,Bramcote Lane,,Nottingham,Busy Bees Day Nursery,Hospitals/Childcare/Caring Premises,5,0,,218449,5,,52.95049400000000,55348,899,food.enforcement@nottinghamcity.gov.uk,Nottingham City,http://www.nottinghamcity.gov.uk/foodsafety,-1.22595700000000,NG8 2NG,2014-07-31,fhrs_5_en-GB,5,,FHRS,5
70449,"Sports Hall Sports Complex, Un",University Boulevard,,Nottingham,Busy Bees Nursery,Hospitals/Childcare/Caring Premises,5,0,,216431,0,,52.94125900000000,62698,899,food.enforcement@nottinghamcity.gov.uk,Nottingham City,http://www.nottinghamcity.gov.uk/foodsafety,-1.18649500000000,NG7 2RD,2014-01-16,fhrs_5_en-GB,5,,FHRS,0
70450,,100 Alfreton Road,,Nottingham,Bytes Fish & Kebab,Takeaway/sandwich shop,7844,,,703756,,,52.95852400000000,67924,899,food.enforcement@nottinghamcity.gov.uk,Nottingham City,http://www.nottinghamcity.gov.uk/foodsafety,-1.16649100000000,NG7 3NS,,fhrs_awaitinginspection_en-GB,AwaitingInspection,,FHRS,
70451,,41-45 St Marys Gate,,Nottingham,BZR,Pub/bar/nightclub,7843,0,,522063,0,,52.95163000000000,65599,899,food.enforcement@nottinghamcity.gov.uk,Nottingham City,http://www.nottinghamcity.gov.uk/foodsafety,-1.14376100000000,NG1 1PU,2013-02-01,fhrs_5_en-GB,5,,FHRS,0
70452,Market Place,Main Street,,Nottingham,C Morley,Retailers - other,4613,5,,218181,5,,53.00162600000000,47777,899,food.enforcement@nottinghamcity.gov.uk,Nottingham City,http://www.nottinghamcity.gov.uk/foodsafety,-1.19613500000000,NG6 8EW,2010-05-14,fhrs_5_en-GB,5,,FHRS,5
